{"status":true,"message":"","result":[{"server_id":9,"name":"Uncletopia | Atlanta | 1 | All Maps","name_short":"atl-1","host":"atl-1.us.uncletopia.com","port":27015,"enabled":true,"region":"us-east","cc":"us","latitude":33.753746,"longitude":-84.38633,"reserved":0,"last_update":"0001-01-01T00:00:00Z","name_a2s":"Uncletopia | Atlanta | 1 | All Maps","protocol":17,"map":"pl_pier","folder":"tf","game":"Team Fortress","app_id":440,"player_count":24,"max_players":24,"Bots":0,"server_type":"Dedicated","server_os":"Linux","password":true,"vac":true,"version":"7961495","steam_id":85568392924469982,"keywords":["nocrits","nodmgspread","payload","uncletopia"],"game_id":440,"stv_port":27016,"stv_name":"Uncletopia | Atlanta | 1 | All Maps | STV","players":[{"user_id":509,"name":"Heathcliff","steam_id":76561198044288534,"connected_time":16156000000000,"state":"active","ping":71},{"user_id":727,"name":"aversa","steam_id":76561198840460101,"connected_time":436000000000,"state":"active","ping":62},{"user_id":687,"name":"ATL 1 | Save your wifi","steam_id":76561198286147372,"connected_time":2117000000000,"state":"active","ping":60},{"user_id":731,"name":"KYLE KYLESON","steam_id":76561198021920887,"connected_time":213000000000,"state":"active","ping":60},{"user_id":688,"name":"mitya.t","steam_id":76561197975079473,"connected_time":2109000000000,"state":"active","ping":113},{"user_id":683,"name":"FEBLUCAXZ","steam_id":76561198355845884,"connected_time":2433000000000,"state":"active","ping":102},{"user_id":689,"name":"Eiss","steam_id":76561198343183806,"connected_time":2098000000000,"state":"active","ping":81},{"user_id":732,"name":"üçíbutaüçí","steam_id":76561198135538212,"connected_time":201000000000,"state":"active","ping":75},{"user_id":624,"name":"ATL1 | cola","steam_id":76561198374390458,"connected_time":6347000000000,"state":"active","ping":64},{"user_id":722,"name":"Fuegisimo","steam_id":76561198033678698,"connected_time":647000000000,"state":"active","ping":74},{"user_id":729,"name":"Kapreesi","steam_id":76561198163361200,"connected_time":303000000000,"state":"active","ping":76},{"user_id":714,"name":"lker","steam_id":76561197976975075,"connected_time":1310000000000,"state":"active","ping":44},{"user_id":668,"name":"punchy","steam_id":76561198200000641,"connected_time":2917000000000,"state":"active","ping":61},{"user_id":725,"name":"Shmoopy","steam_id":76561198030459152,"connected_time":455000000000,"state":"active","ping":60},{"user_id":733,"name":"otwtomarsoffdabars(spacecore)","steam_id":76561199085974120,"connected_time":183000000000,"state":"active","ping":71},{"user_id":642,"name":"substance","steam_id":76561198050103868,"connected_time":5102000000000,"state":"active","ping":105},{"user_id":735,"name":"twinblock","steam_id":76561198157414556,"connected_time":171000000000,"state":"active","ping":68},{"user_id":719,"name":"lu","steam_id":76561198080731872,"connected_time":829000000000,"state":"active","ping":74},{"user_id":736,"name":"bread n butter babyyyyyyyyyy","steam_id":76561198110661425,"connected_time":165000000000,"state":"active","ping":64},{"user_id":717,"name":"melancholy","steam_id":76561198024301465,"connected_time":1197000000000,"state":"active","ping":47},{"user_id":737,"name":"DarkenedPolarity","steam_id":76561199073099596,"connected_time":91000000000,"state":"active","ping":62},{"user_id":738,"name":"Gainsdalf the Egg White","steam_id":76561198018213050,"connected_time":61000000000,"state":"active","ping":48},{"user_id":638,"name":"lalman","steam_id":76561198196605887,"connected_time":5329000000000,"state":"active","ping":64},{"user_id":716,"name":"Architect","steam_id":76561198015242016,"connected_time":1288000000000,"state":"active","ping":61}]},{"server_id":104,"name":"Uncletopia | Atlanta | 2 | All Maps","name_short":"atl-2","host":"atl-1.us.uncletopia.com","port":27025,"enabled":true,"region":"us-east","cc":"us","latitude":33.753746,"longitude":-84.38633,"reserved":0,"last_update":"0001-01-01T00:00:00Z","name_a2s":"Uncletopia | Atlanta | 2 | All Maps","protocol":17,"map":"pl_pier","folder":"tf","game":"Team Fortress","app_id":440,"player_count":24,"max_players":24,"Bots":0,"server_type":"Dedicated","server_os":"Linux","password":true,"vac":true,"version":"7961495","steam_id":85568392924469983,"keywords":["nocrits","nodmgspread","payload","uncletopia"],"game_id":440,"stv_port":27026,"stv_name":"Uncletopia | Atlanta | 2 | All Maps | STV","players":[{"user_id":432,"name":"TheComrade","steam_id":76561198885877773,"connected_time":1427000000000,"state":"active","ping":76},{"user_id":431,"name":"dave :3","steam_id":76561198135961731,"connected_time":1501000000000,"state":"active","ping":54},{"user_id":402,"name":"Gnaash","steam_id":76561198940657194,"connected_time":3559000000000,"state":"active","ping":69},{"user_id":433,"name":"punk cock","steam_id":76561198418182764,"connected_time":1406000000000,"state":"active","ping":69},{"user_id":419,"name":"ThtGyVrThr","steam_id":76561198805852870,"connected_time":2523000000000,"state":"active","ping":84},{"user_id":455,"name":"BL√òRG","steam_id":76561198036126673,"connected_time":273000000000,"state":"active","ping":92},{"user_id":458,"name":"`o2","steam_id":76561197992030936,"connected_time":35000000000,"state":"active","ping":63},{"user_id":437,"name":"cass","steam_id":76561198074502046,"connected_time":1205000000000,"state":"active","ping":99},{"user_id":453,"name":"antifreeze drinker","steam_id":76561198069407799,"connected_time":631000000000,"state":"active","ping":47},{"user_id":424,"name":"UnkownGamerLOL","steam_id":76561198225902368,"connected_time":2236000000000,"state":"active","ping":91},{"user_id":451,"name":"Azazellotl","steam_id":76561198824814392,"connected_time":909000000000,"state":"active","ping":69},{"user_id":439,"name":"cuentaupnu","steam_id":76561199497366487,"connected_time":1188000000000,"state":"active","ping":126},{"user_id":441,"name":"Sicko Mode (Chris Pratt Cover)","steam_id":76561198315786174,"connected_time":1174000000000,"state":"active","ping":87},{"user_id":415,"name":"Piggypot","steam_id":76561199106826976,"connected_time":3205000000000,"state":"active","ping":74},{"user_id":449,"name":"feed lips","steam_id":76561197971152439,"connected_time":1026000000000,"state":"active","ping":76},{"user_id":459,"name":"MayKay","steam_id":76561199016092265,"connected_time":16000000000,"state":"spawning","ping":80},{"user_id":411,"name":"blond","steam_id":76561199058492923,"connected_time":3403000000000,"state":"active","ping":73},{"user_id":388,"name":"bath","steam_id":76561197969993352,"connected_time":5019000000000,"state":"active","ping":74},{"user_id":398,"name":"NovaSc6ut","steam_id":76561198277163301,"connected_time":3728000000000,"state":"active","ping":89},{"user_id":444,"name":"rank 1 diaper lover","steam_id":76561198151359924,"connected_time":1132000000000,"state":"active","ping":114},{"user_id":457,"name":"mike penis","steam_id":76561198159339442,"connected_time":199000000000,"state":"active","ping":93},{"user_id":445,"name":"Thug shaker","steam_id":76561198840484105,"connected_time":1120000000000,"state":"active","ping":57},{"user_id":460,"name":"Lars Ulrich (real)","steam_id":76561198099296029,"connected_time":16000000000,"state":"spawning","ping":60},{"user_id":448,"name":"millerbv14","steam_id":76561198453908595,"connected_time":1108000000000,"state":"active","ping":99}]},{"server_id":400,"name":"Uncletopia | Atlanta | 3 | Stopwatch","name_short":"atl-3","host":"atl-1.us.uncletopia.com","port":27035,"enabled":true,"region":"us-east","cc":"us","latitude":33.753746,"longitude":-84.38633,"reserved":0,"last_update":"0001-01-01T00:00:00Z","name_a2s":"Uncletopia | Atlanta | 3 | Stopwatch","protocol":17,"map":"workshop/koth_product_final.ugc454272353","folder":"tf","game":"Team Fortress","app_id":440,"player_count":8,"max_players":24,"Bots":0,"server_type":"Dedicated","server_os":"Linux","password":true,"vac":true,"version":"7961495","steam_id":85568392924515187,"keywords":["cp","nocrits","nodmgspread","uncletopia"],"game_id":440,"stv_port":27036,"stv_name":"Uncletopia | Atlanta | 3 | Stopwatch | STV","players":[{"user_id":256,"name":"CreateADebate","steam_id":76561198115760035,"connected_time":488000000000,"state":"active","ping":42},{"user_id":247,"name":"HAT-WEARING‚Ñ¢ Maggot Gamer Cat","steam_id":76561197973992705,"connected_time":974000000000,"state":"active","ping":104},{"user_id":223,"name":"Andallfor","steam_id":76561198350143349,"connected_time":2226000000000,"state":"active","ping":69},{"user_id":250,"name":"[PINGU‚Ñ¢] Tiny Tuna","steam_id":76561198193611579,"connected_time":884000000000,"state":"active","ping":57},{"user_id":209,"name":"Private.TwinkleToes","steam_id":76561198276974275,"connected_time":2723000000000,"state":"active","ping":70},{"user_id":215,"name":"Salt","steam_id":76561198418001135,"connected_time":2389000000000,"state":"active","ping":60},{"user_id":254,"name":"CORGI.EXE","steam_id":76561198077093432,"connected_time":764000000000,"state":"active","ping":65},{"user_id":244,"name":"Morbus","steam_id":76561198101461171,"connected_time":1440000000000,"state":"active","ping":81}]},{"server_id":401,"name":"Uncletopia | Atlanta | 4 | Community","name_short":"atl-4","host":"atl-1.us.uncletopia.com","port":27045,"enabled":true,"region":"us-east","cc":"us","latitude":33.753746,"longitude":-84.38633,"reserved":0,"last_update":"0001-01-01T00:00:00Z","name_a2s":"Uncletopia | Atlanta | 4 | Community","protocol":17,"map":"workshop/pl_boundary_final1.ugc456799153","folder":"tf","game":"Team Fortress","app_id":440,"player_count":0,"max_players":24,"Bots":0,"server_type":"Dedicated","server_os":"Linux","password":true,"vac":true,"version":"7961495","steam_id":85568392924515188,"keywords":["nocrits","nodmgspread","payload","uncletopia"],"game_id":440,"stv_port":27046,"stv_name":"Uncletopia | Atlanta | 4 | Community | STV","players":null},{"server_id":2,"name":"Uncletopia | Chicago | 1 | All Maps","name_short":"chi-1","host":"chi-1.us.uncletopia.com","port":27015,"enabled":true,"region":"us-central","cc":"us","latitude":41.881832,"longitude":-87.62318,"reserved":0,"last_update":"0001-01-01T00:00:00Z","name_a2s":"Uncletopia | Chicago | 1 | All Maps","protocol":17,"map":"pl_frontier_final","folder":"tf","game":"Team Fortress","app_id":440,"player_count":24,"max_players":24,"Bots":0,"server_type":"Dedicated","server_os":"Linux","password":true,"vac":true,"version":"7961495","steam_id":85568392924469984,"keywords":["nocrits","nodmgspread","payload","uncletopia"],"game_id":440,"stv_port":27016,"stv_name":"Uncletopia | Chicago | 1 | All Maps | STV","players":[{"user_id":670,"name":"Mr. Tickle","steam_id":76561198126684647,"connected_time":2782000000000,"state":"active","ping":60},{"user_id":671,"name":"WALKING GOPRO","steam_id":76561198186928885,"connected_time":2732000000000,"state":"active","ping":69},{"user_id":686,"name":"debin","steam_id":76561198070711217,"connected_time":1319000000000,"state":"active","ping":52},{"user_id":672,"name":"Aldinach","steam_id":76561198079912615,"connected_time":2645000000000,"state":"active","ping":45},{"user_id":687,"name":"Colossal Falafel","steam_id":76561198108086245,"connected_time":1283000000000,"state":"active","ping":56},{"user_id":688,"name":"Drewey","steam_id":76561198369218784,"connected_time":1272000000000,"state":"active","ping":53},{"user_id":661,"name":"Kantamoe","steam_id":76561198046661611,"connected_time":3182000000000,"state":"active","ping":89},{"user_id":689,"name":"Equinox","steam_id":76561198274279754,"connected_time":1268000000000,"state":"active","ping":60},{"user_id":690,"name":"Vladimir Puddin","steam_id":76561198139674520,"connected_time":1245000000000,"state":"active","ping":58},{"user_id":674,"name":"KysonJack","steam_id":76561198024092248,"connected_time":2621000000000,"state":"active","ping":96},{"user_id":697,"name":"Skelly Bones","steam_id":76561198060728416,"connected_time":606000000000,"state":"active","ping":82},{"user_id":677,"name":"SirEverything","steam_id":76561199152393848,"connected_time":2478000000000,"state":"active","ping":85},{"user_id":678,"name":"kite","steam_id":76561198346516392,"connected_time":2394000000000,"state":"active","ping":67},{"user_id":656,"name":"Plunderphonic","steam_id":76561198062565784,"connected_time":3288000000000,"state":"active","ping":65},{"user_id":691,"name":"NOLSEY","steam_id":76561198108959504,"connected_time":1213000000000,"state":"active","ping":46},{"user_id":679,"name":"nicolas the mercenary","steam_id":76561199077641644,"connected_time":2357000000000,"state":"active","ping":75},{"user_id":692,"name":"Dr. Eduardo","steam_id":76561198865808161,"connected_time":1176000000000,"state":"active","ping":84},{"user_id":685,"name":"Kaypo","steam_id":76561198262420097,"connected_time":1834000000000,"state":"active","ping":51},{"user_id":693,"name":"ùëëùëúùëôùëù‚Ñéùëñùëõ.","steam_id":76561198294013916,"connected_time":1142000000000,"state":"active","ping":61},{"user_id":694,"name":"juanjoesc","steam_id":76561198186368430,"connected_time":1093000000000,"state":"active","ping":120},{"user_id":696,"name":"Homo Ejectus","steam_id":76561197968701952,"connected_time":712000000000,"state":"active","ping":79},{"user_id":682,"name":"Gram Tokers Count Doinkula","steam_id":76561198112811565,"connected_time":2337000000000,"state":"active","ping":79},{"user_id":593,"name":"Ace Chromatica","steam_id":76561198042211131,"connected_time":7007000000000,"state":"active","ping":84},{"user_id":595,"name":"Dokkibai","steam_id":76561198355935693,"connected_time":6779000000000,"state":"active","ping":56}]},{"server_id":106,"name":"Uncletopia | Chicago | 2 | All Maps","name_short":"chi-2","host":"chi-1.us.uncletopia.com","port":27025,"enabled":true,"region":"us-central","cc":"us","latitude":41.881832,"longitude":-87.62318,"reserved":0,"last_update":"0001-01-01T00:00:00Z","name_a2s":"Uncletopia | Chicago | 2 | All Maps","protocol":17,"map":"pl_borneo","folder":"tf","game":"Team Fortress","app_id":440,"player_count":24,"max_players":24,"Bots":0,"server_type":"Dedicated","server_os":"Linux","password":true,"vac":true,"version":"7961495","steam_id":85568392924469985,"keywords":["nocrits","nodmgspread","payload","uncletopia"],"game_id":440,"stv_port":27026,"stv_name":"Uncletopia | Chicago | 2 | All Maps | STV","players":[{"user_id":428,"name":"itsPanzerPanda","steam_id":76561199441946346,"connected_time":8334000000000,"state":"active","ping":56},{"user_id":477,"name":"Murkons","steam_id":76561198050611961,"connected_time":2413000000000,"state":"active","ping":99},{"user_id":404,"name":"Dr Oshawott","steam_id":76561198042021629,"connected_time":10254000000000,"state":"active","ping":66},{"user_id":406,"name":"DiamondEpsilon","steam_id":76561198203883311,"connected_time":10089000000000,"state":"active","ping":83},{"user_id":488,"name":"Crab","steam_id":76561198067628664,"connected_time":315000000000,"state":"active","ping":103},{"user_id":456,"name":"Luxembird","steam_id":76561198079992107,"connected_time":4782000000000,"state":"active","ping":87},{"user_id":475,"name":"KASHI","steam_id":76561198045285049,"connected_time":2452000000000,"state":"active","ping":75},{"user_id":486,"name":"Ta5K","steam_id":76561198939558155,"connected_time":874000000000,"state":"active","ping":45},{"user_id":474,"name":"The Home Depot","steam_id":76561198143374800,"connected_time":3334000000000,"state":"active","ping":105},{"user_id":439,"name":"Tobo","steam_id":76561198085846393,"connected_time":6666000000000,"state":"active","ping":75},{"user_id":482,"name":"frank","steam_id":76561198137777483,"connected_time":2038000000000,"state":"active","ping":67},{"user_id":437,"name":"Howard Hamlin","steam_id":76561198881039861,"connected_time":7724000000000,"state":"active","ping":46},{"user_id":476,"name":"gladbound","steam_id":76561198071047016,"connected_time":2448000000000,"state":"active","ping":45},{"user_id":487,"name":"Rudy","steam_id":76561198013456828,"connected_time":854000000000,"state":"active","ping":63},{"user_id":483,"name":"BiggFoot","steam_id":76561197998605599,"connected_time":1970000000000,"state":"active","ping":87},{"user_id":463,"name":"SiltyStar85","steam_id":76561198309175923,"connected_time":4345000000000,"state":"active","ping":75},{"user_id":484,"name":"Deep Curly","steam_id":76561197981290558,"connected_time":1090000000000,"state":"active","ping":70},{"user_id":465,"name":"RusticCarp42989","steam_id":76561198361151865,"connected_time":4249000000000,"state":"active","ping":124},{"user_id":459,"name":"ChocolatteMousse","steam_id":76561198136313455,"connected_time":4541000000000,"state":"active","ping":72},{"user_id":464,"name":"Amoxicilina","steam_id":76561198168486429,"connected_time":4343000000000,"state":"active","ping":117},{"user_id":448,"name":"agentdaffy007","steam_id":76561198000283251,"connected_time":5617000000000,"state":"active","ping":74},{"user_id":446,"name":"Gabiduo","steam_id":76561198036965261,"connected_time":5858000000000,"state":"active","ping":58},{"user_id":339,"name":"loser","steam_id":76561198259380127,"connected_time":14228000000000,"state":"active","ping":57},{"user_id":473,"name":"The Scrungle","steam_id":76561198133853178,"connected_time":3734000000000,"state":"active","ping":105}]},{"server_id":402,"name":"Uncletopia | Chicago | 3 | All Maps","name_short":"chi-3","host":"chi-1.us.uncletopia.com","port":27035,"enabled":true,"region":"us-central","cc":"us","latitude":41.881832,"longitude":-87.62318,"reserved":0,"last_update":"0001-01-01T00:00:00Z","name_a2s":"Uncletopia | Chicago | 3 | All Maps","protocol":17,"map":"pl_pier","folder":"tf","game":"Team Fortress","app_id":440,"player_count":18,"max_players":24,"Bots":0,"server_type":"Dedicated","server_os":"Linux","password":true,"vac":true,"version":"7961495","steam_id":85568392924515191,"keywords":["nocrits","nodmgspread","payload","uncletopia"],"game_id":440,"stv_port":27036,"stv_name":"Uncletopia | Chicago | 3 | All Maps | STV","players":[{"user_id":511,"name":"RocketRabbit","steam_id":76561198803062131,"connected_time":39000000000,"state":"active","ping":92},{"user_id":508,"name":"Seskova","steam_id":76561198090207032,"connected_time":302000000000,"state":"active","ping":111},{"user_id":488,"name":"cZar","steam_id":76561199013179443,"connected_time":1694000000000,"state":"active","ping":44},{"user_id":509,"name":"clavin","steam_id":76561198069380992,"connected_time":257000000000,"state":"active","ping":76},{"user_id":487,"name":"Shoeshocker","steam_id":76561198174302467,"connected_time":1788000000000,"state":"active","ping":120},{"user_id":486,"name":"Zero","steam_id":76561198033384990,"connected_time":2167000000000,"state":"active","ping":58},{"user_id":494,"name":"Captain Malarkey","steam_id":76561198869924281,"connected_time":709000000000,"state":"active","ping":75},{"user_id":498,"name":"stormfoam","steam_id":76561198936871387,"connected_time":610000000000,"state":"active","ping":67},{"user_id":499,"name":"yerm","steam_id":76561198129982911,"connected_time":603000000000,"state":"active","ping":64},{"user_id":446,"name":"Adolf The Toast Jesus‚Ñ¢","steam_id":76561198024553767,"connected_time":5038000000000,"state":"active","ping":64},{"user_id":500,"name":"Sporp","steam_id":76561197987957133,"connected_time":577000000000,"state":"active","ping":82},{"user_id":501,"name":"Serris","steam_id":76561198184900670,"connected_time":566000000000,"state":"active","ping":47},{"user_id":467,"name":"dilfbot","steam_id":76561198099988165,"connected_time":3693000000000,"state":"active","ping":73},{"user_id":482,"name":"Dwake","steam_id":76561198121943676,"connected_time":2630000000000,"state":"active","ping":105},{"user_id":503,"name":"leonardo doujinshi","steam_id":76561198025810326,"connected_time":523000000000,"state":"active","ping":67},{"user_id":504,"name":"KevilPo","steam_id":76561199244507267,"connected_time":523000000000,"state":"active","ping":61},{"user_id":481,"name":"BurR","steam_id":76561198055431367,"connected_time":2642000000000,"state":"active","ping":46},{"user_id":507,"name":"oh the misery","steam_id":76561199094689560,"connected_time":406000000000,"state":"active","ping":94}]},{"server_id":403,"name":"Uncletopia | Chicago | 4 | All Maps","name_short":"chi-4","host":"chi-1.us.uncletopia.com","port":27045,"enabled":true,"region":"us-central","cc":"us","latitude":41.881832,"longitude":-87.62318,"reserved":0,"last_update":"0001-01-01T00:00:00Z","name_a2s":"Uncletopia | Chicago | 4 | All Maps","protocol":17,"map":"koth_highpass","folder":"tf","game":"Team Fortress","app_id":440,"player_count":24,"max_players":24,"Bots":0,"server_type":"Dedicated","server_os":"Linux","password":true,"vac":true,"version":"7961495","steam_id":85568392924515193,"keywords":["cp","nocrits","nodmgspread","uncletopia"],"game_id":440,"stv_port":27046,"stv_name":"Uncletopia | Chicago | 4 | All Maps | STV","players":[{"user_id":917,"name":"Emissary","steam_id":76561198125972367,"connected_time":3381000000000,"state":"active","ping":63},{"user_id":966,"name":"Goredude","steam_id":76561198041048764,"connected_time":263000000000,"state":"active","ping":60},{"user_id":951,"name":"gps","steam_id":76561198067492304,"connected_time":1928000000000,"state":"active","ping":81},{"user_id":945,"name":"nerf me","steam_id":76561198310495200,"connected_time":2046000000000,"state":"active","ping":47},{"user_id":916,"name":"GreenHam","steam_id":76561198094319270,"connected_time":3385000000000,"state":"active","ping":65},{"user_id":955,"name":"AWGER (don't uber)","steam_id":76561198284683624,"connected_time":1438000000000,"state":"active","ping":78},{"user_id":957,"name":"Rafl","steam_id":76561198055222756,"connected_time":756000000000,"state":"active","ping":62},{"user_id":919,"name":"ncc_42","steam_id":76561198066377700,"connected_time":3356000000000,"state":"active","ping":59},{"user_id":963,"name":"Ekohtwo","steam_id":76561198067994868,"connected_time":330000000000,"state":"active","ping":63},{"user_id":843,"name":"Remix.SMG","steam_id":76561198052895933,"connected_time":8247000000000,"state":"active","ping":76},{"user_id":959,"name":"d5","steam_id":76561199339997328,"connected_time":426000000000,"state":"active","ping":71},{"user_id":914,"name":"Fred Durst's #1 Fan","steam_id":76561198282395338,"connected_time":3501000000000,"state":"active","ping":83},{"user_id":929,"name":"Chairman Meow","steam_id":76561198107795169,"connected_time":3188000000000,"state":"active","ping":72},{"user_id":937,"name":"olex","steam_id":76561197992305850,"connected_time":2856000000000,"state":"active","ping":68},{"user_id":958,"name":"Wallem","steam_id":76561198052361822,"connected_time":752000000000,"state":"active","ping":70},{"user_id":967,"name":"amberenix","steam_id":76561198805110908,"connected_time":249000000000,"state":"active","ping":80},{"user_id":965,"name":":3","steam_id":76561199074875663,"connected_time":299000000000,"state":"active","ping":75},{"user_id":952,"name":"Mister Rattlebones","steam_id":76561198065560157,"connected_time":1916000000000,"state":"active","ping":77},{"user_id":954,"name":"Protato","steam_id":76561198061182563,"connected_time":1876000000000,"state":"active","ping":75},{"user_id":888,"name":"VisciousPotato","steam_id":76561198992859414,"connected_time":6084000000000,"state":"active","ping":53},{"user_id":962,"name":"totoro","steam_id":76561198210420871,"connected_time":335000000000,"state":"active","ping":45},{"user_id":800,"name":"HalfDead","steam_id":76561198049700226,"connected_time":8920000000000,"state":"active","ping":84},{"user_id":961,"name":"Yarman53","steam_id":76561198099889202,"connected_time":362000000000,"state":"active","ping":37},{"user_id":939,"name":"‚ô°Ame‚ô°","steam_id":76561198071217748,"connected_time":2448000000000,"state":"active","ping":45}]},{"server_id":36,"name":"Uncletopia | Chicago | 5 | All Maps","name_short":"chi-5","host":"chi-2.us.uncletopia.com","port":27015,"enabled":true,"region":"us-central","cc":"us","latitude":41.881832,"longitude":-87.62318,"reserved":0,"last_update":"0001-01-01T00:00:00Z","name_a2s":"Uncletopia | Chicago | 5 | All Maps","protocol":17,"map":"koth_cascade","folder":"tf","game":"Team Fortress","app_id":440,"player_count":0,"max_players":24,"Bots":0,"server_type":"Dedicated","server_os":"Linux","password":true,"vac":true,"version":"7961495","steam_id":85568392924866362,"keywords":["cp","nocrits","nodmgspread","uncletopia"],"game_id":440,"stv_port":27016,"stv_name":"Uncletopia | Chicago | 5 | All Maps | STV","players":null},{"server_id":37,"name":"Uncletopia | Chicago | 6 | All Maps","name_short":"chi-6","host":"chi-2.us.uncletopia.com","port":27025,"enabled":true,"region":"us-central","cc":"us","latitude":41.881832,"longitude":-87.62318,"reserved":0,"last_update":"0001-01-01T00:00:00Z","name_a2s":"Uncletopia | Chicago | 6 | All Maps","protocol":17,"map":"pl_swiftwater_final1","folder":"tf","game":"Team Fortress","app_id":440,"player_count":24,"max_players":24,"Bots":0,"server_type":"Dedicated","server_os":"Linux","password":true,"vac":true,"version":"7961495","steam_id":85568392924866363,"keywords":["nocrits","nodmgspread","payload","uncletopia"],"game_id":440,"stv_port":27026,"stv_name":"Uncletopia | Chicago | 6 | All Maps | STV","players":[{"user_id":292,"name":"Demongirlballs","steam_id":76561198035768829,"connected_time":9907000000000,"state":"active","ping":68},{"user_id":430,"name":"(1)Person","steam_id":76561198073885832,"connected_time":515000000000,"state":"active","ping":115},{"user_id":418,"name":"Jesse Bear","steam_id":76561198217075305,"connected_time":1132000000000,"state":"active","ping":83},{"user_id":435,"name":"King","steam_id":76561198123927752,"connected_time":370000000000,"state":"active","ping":53},{"user_id":419,"name":"my gender is computer","steam_id":76561199003614175,"connected_time":1109000000000,"state":"active","ping":124},{"user_id":436,"name":"Aglovail","steam_id":76561198276988844,"connected_time":293000000000,"state":"active","ping":99},{"user_id":396,"name":"Fred Ott","steam_id":76561198099088693,"connected_time":2397000000000,"state":"active","ping":72},{"user_id":428,"name":"HALO 3","steam_id":76561198020825795,"connected_time":548000000000,"state":"active","ping":71},{"user_id":411,"name":"fish (2:3)","steam_id":76561198134331073,"connected_time":1891000000000,"state":"active","ping":108},{"user_id":426,"name":"Pieguy","steam_id":76561198301604417,"connected_time":713000000000,"state":"active","ping":83},{"user_id":421,"name":"Fiendish Frog","steam_id":76561198029478821,"connected_time":1101000000000,"state":"active","ping":73},{"user_id":295,"name":"Galaxxy Bun","steam_id":76561198275513037,"connected_time":9888000000000,"state":"active","ping":72},{"user_id":429,"name":"TheGhostThatWas","steam_id":76561198055836483,"connected_time":526000000000,"state":"active","ping":63},{"user_id":431,"name":"bad spy player","steam_id":76561198873699671,"connected_time":513000000000,"state":"active","ping":105},{"user_id":427,"name":"BFro","steam_id":76561198102758681,"connected_time":658000000000,"state":"active","ping":53},{"user_id":432,"name":"ethanf","steam_id":76561198103930234,"connected_time":508000000000,"state":"active","ping":58},{"user_id":433,"name":"Skudge Sister","steam_id":76561198041766766,"connected_time":480000000000,"state":"active","ping":83},{"user_id":425,"name":"The One True Luke","steam_id":76561198180891187,"connected_time":807000000000,"state":"active","ping":72},{"user_id":401,"name":"Person","steam_id":76561198093244204,"connected_time":2247000000000,"state":"active","ping":78},{"user_id":415,"name":"‰Ω†ÂΩìÊàëÂÇªÂïä·ïï(‚ó†⁄º‚ó†)·ïó","steam_id":76561198155185583,"connected_time":1497000000000,"state":"active","ping":64},{"user_id":366,"name":"Cranial Brain Trauma","steam_id":76561198055876398,"connected_time":5086000000000,"state":"active","ping":60},{"user_id":408,"name":"gaza","steam_id":76561199056091914,"connected_time":1976000000000,"state":"active","ping":85},{"user_id":434,"name":"Tea Enthusiast","steam_id":76561198185583925,"connected_time":480000000000,"state":"active","ping":60},{"user_id":437,"name":"Zont","steam_id":76561197985526581,"connected_time":175000000000,"state":"active","ping":81}]},{"server_id":38,"name":"Uncletopia | Chicago | 7 | Stopwatch","name_short":"chi-7","host":"chi-2.us.uncletopia.com","port":27035,"enabled":true,"region":"us-central","cc":"us","latitude":41.881832,"longitude":-87.62318,"reserved":0,"last_update":"0001-01-01T00:00:00Z","name_a2s":"Uncletopia | Chicago | 7 | Stopwatch","protocol":17,"map":"workshop/koth_ashville_final.ugc2130459942","folder":"tf","game":"Team Fortress","app_id":440,"player_count":0,"max_players":24,"Bots":0,"server_type":"Dedicated","server_os":"Linux","password":true,"vac":true,"version":"7961495","steam_id":85568392924866364,"keywords":["cp","nocrits","nodmgspread","uncletopia"],"game_id":440,"stv_port":27036,"stv_name":"Uncletopia | Chicago | 7 | Stopwatch | STV","players":null},{"server_id":39,"name":"Uncletopia | Chicago | 8 | Community","name_short":"chi-8","host":"chi-2.us.uncletopia.com","port":27045,"enabled":true,"region":"us-central","cc":"us","latitude":41.881832,"longitude":-87.62318,"reserved":0,"last_update":"0001-01-01T00:00:00Z","name_a2s":"Uncletopia | Chicago | 8 | Community","protocol":17,"map":"workshop/koth_ashville_final.ugc2130459942","folder":"tf","game":"Team Fortress","app_id":440,"player_count":0,"max_players":24,"Bots":0,"server_type":"Dedicated","server_os":"Linux","password":true,"vac":true,"version":"7961495","steam_id":85568392924866365,"keywords":["cp","nocrits","nodmgspread","uncletopia"],"game_id":440,"stv_port":27046,"stv_name":"Uncletopia | Chicago | 8 | Community | STV","players":null},{"server_id":8,"name":"Uncletopia | Dallas | 1 | All Maps","name_short":"dal-1","host":"dal-1.us.uncletopia.com","port":27015,"enabled":true,"region":"us-central","cc":"us","latitude":32.779167,"longitude":-96.80889,"reserved":0,"last_update":"0001-01-01T00:00:00Z","name_a2s":"Uncletopia | Dallas | 1 | All Maps","protocol":17,"map":"pl_snowycoast","folder":"tf","game":"Team Fortress","app_id":440,"player_count":25,"max_players":24,"Bots":0,"server_type":"Dedicated","server_os":"Linux","password":true,"vac":true,"version":"7961495","steam_id":85568392924469986,"keywords":["nocrits","nodmgspread","payload","uncletopia"],"game_id":440,"stv_port":27016,"stv_name":"Uncletopia | Dallas | 1 | All Maps | STV","players":[{"user_id":486,"name":"THRONGLER","steam_id":76561198198563466,"connected_time":8543000000000,"state":"active","ping":40},{"user_id":557,"name":"sunglasses","steam_id":76561198173747227,"connected_time":1306000000000,"state":"active","ping":88},{"user_id":544,"name":"GlizzLord","steam_id":76561198321010427,"connected_time":2878000000000,"state":"active","ping":70},{"user_id":561,"name":"warren","steam_id":76561198136331136,"connected_time":1077000000000,"state":"active","ping":76},{"user_id":427,"name":"The CEO of cement","steam_id":76561199107177460,"connected_time":12947000000000,"state":"active","ping":89},{"user_id":568,"name":"Snoogs","steam_id":76561198444880931,"connected_time":83000000000,"state":"active","ping":96},{"user_id":558,"name":"(TPT) Ghost","steam_id":76561198123262873,"connected_time":1287000000000,"state":"active","ping":88},{"user_id":530,"name":"Natsuki the Scunt","steam_id":76561199175922684,"connected_time":4252000000000,"state":"active","ping":98},{"user_id":553,"name":"Green-Guy Geno","steam_id":76561198024512428,"connected_time":1918000000000,"state":"active","ping":64},{"user_id":570,"name":"Junfez","steam_id":76561198340001889,"connected_time":38000000000,"state":"spawning","ping":100},{"user_id":540,"name":"Sex","steam_id":76561198818620540,"connected_time":2974000000000,"state":"active","ping":58},{"user_id":560,"name":"crankshaft","steam_id":76561197992798282,"connected_time":1152000000000,"state":"active","ping":75},{"user_id":489,"name":"Kookies","steam_id":76561198085117729,"connected_time":8060000000000,"state":"active","ping":73},{"user_id":547,"name":"HanakoToast","steam_id":76561198045233131,"connected_time":2827000000000,"state":"active","ping":80},{"user_id":549,"name":"xxballfondlerxx","steam_id":76561197991546630,"connected_time":2630000000000,"state":"active","ping":71},{"user_id":564,"name":"krebex","steam_id":76561198004660630,"connected_time":522000000000,"state":"active","ping":55},{"user_id":569,"name":"GigaChad","steam_id":76561198059785363,"connected_time":74000000000,"state":"active","ping":57},{"user_id":555,"name":"techdeck","steam_id":76561199022751661,"connected_time":1319000000000,"state":"active","ping":48},{"user_id":567,"name":"dillon/dylan","steam_id":76561198118054166,"connected_time":134000000000,"state":"active","ping":86},{"user_id":563,"name":"Brigadier Brownie","steam_id":76561198040852898,"connected_time":886000000000,"state":"active","ping":85},{"user_id":543,"name":"dailyspesh","steam_id":76561197988072369,"connected_time":2933000000000,"state":"active","ping":87},{"user_id":556,"name":"Imrgrim","steam_id":76561198135866481,"connected_time":1319000000000,"state":"active","ping":74},{"user_id":571,"name":"SanitysEdge","steam_id":76561198130732813,"connected_time":8000000000,"state":"spawning","ping":81},{"user_id":534,"name":"Lain","steam_id":76561198029303534,"connected_time":3735000000000,"state":"active","ping":61},{"user_id":572,"name":"BIG LION","steam_id":76561198091880358,"connected_time":5000000000,"state":"spawning","ping":66}]},{"server_id":108,"name":"Uncletopia | Dallas | 2 | All Maps","name_short":"dal-2","host":"dal-1.us.uncletopia.com","port":27025,"enabled":true,"region":"us-central","cc":"us","latitude":32.779167,"longitude":-96.80889,"reserved":0,"last_update":"0001-01-01T00:00:00Z","name_a2s":"Uncletopia | Dallas | 2 | All Maps","protocol":17,"map":"cp_mountainlab","folder":"tf","game":"Team Fortress","app_id":440,"player_count":24,"max_players":24,"Bots":0,"server_type":"Dedicated","server_os":"Linux","password":true,"vac":true,"version":"7961495","steam_id":85568392924469988,"keywords":["cp","nocrits","nodmgspread","uncletopia"],"game_id":440,"stv_port":27026,"stv_name":"Uncletopia | Dallas | 2 | All Maps | STV","players":[{"user_id":394,"name":"ALDEN","steam_id":76561198055387153,"connected_time":41000000000,"state":"active","ping":85},{"user_id":232,"name":"Rob","steam_id":76561199187786660,"connected_time":6346000000000,"state":"active","ping":55},{"user_id":391,"name":"Wikked","steam_id":76561198196149207,"connected_time":231000000000,"state":"active","ping":126},{"user_id":381,"name":"Nibelsnarf (She/They)","steam_id":76561198137642054,"connected_time":955000000000,"state":"active","ping":57},{"user_id":389,"name":"Phoysh","steam_id":76561198137111021,"connected_time":265000000000,"state":"active","ping":108},{"user_id":386,"name":"souljaboytellem.com","steam_id":76561198095824426,"connected_time":395000000000,"state":"active","ping":71},{"user_id":355,"name":"p0w","steam_id":76561198295254796,"connected_time":2597000000000,"state":"active","ping":85},{"user_id":333,"name":"Shmovin","steam_id":76561198165355021,"connected_time":3880000000000,"state":"active","ping":61},{"user_id":371,"name":"Goob-A-Bue","steam_id":76561198050535135,"connected_time":1887000000000,"state":"active","ping":85},{"user_id":354,"name":"ElitePoopotter","steam_id":76561199201963028,"connected_time":2606000000000,"state":"active","ping":57},{"user_id":348,"name":"Cinnifox","steam_id":76561198068773971,"connected_time":2978000000000,"state":"active","ping":80},{"user_id":359,"name":"Samrizo el Chorizo","steam_id":76561198009838162,"connected_time":2386000000000,"state":"active","ping":88},{"user_id":379,"name":"goooot","steam_id":76561198155591052,"connected_time":1261000000000,"state":"active","ping":59},{"user_id":378,"name":"Mundra","steam_id":76561198353777352,"connected_time":1341000000000,"state":"active","ping":78},{"user_id":384,"name":"participant","steam_id":76561198820716379,"connected_time":671000000000,"state":"active","ping":49},{"user_id":362,"name":"Publo","steam_id":76561198161777140,"connected_time":2227000000000,"state":"active","ping":48},{"user_id":377,"name":"StudioMania (#SAVETF2)","steam_id":76561198211315795,"connected_time":1589000000000,"state":"active","ping":77},{"user_id":375,"name":"Lead Licker","steam_id":76561198162668339,"connected_time":1723000000000,"state":"active","ping":84},{"user_id":390,"name":"frog_pond_park","steam_id":76561198309010627,"connected_time":264000000000,"state":"active","ping":102},{"user_id":374,"name":"Lae","steam_id":76561198185527278,"connected_time":1765000000000,"state":"active","ping":85},{"user_id":388,"name":"Lil' Baby","steam_id":76561197999391252,"connected_time":330000000000,"state":"active","ping":101},{"user_id":367,"name":"Spinch","steam_id":76561198296224166,"connected_time":2138000000000,"state":"active","ping":82},{"user_id":392,"name":"Excalibrine","steam_id":76561198129312118,"connected_time":227000000000,"state":"active","ping":105},{"user_id":393,"name":"Engineer2650","steam_id":76561198121410799,"connected_time":207000000000,"state":"active","ping":61}]},{"server_id":404,"name":"Uncletopia | Dallas | 3 | All Maps","name_short":"dal-3","host":"dal-1.us.uncletopia.com","port":27035,"enabled":true,"region":"us-central","cc":"us","latitude":32.779167,"longitude":-96.80889,"reserved":0,"last_update":"0001-01-01T00:00:00Z","name_a2s":"Uncletopia | Dallas | 3 | All Maps","protocol":17,"map":"koth_viaduct","folder":"tf","game":"Team Fortress","app_id":440,"player_count":7,"max_players":24,"Bots":0,"server_type":"Dedicated","server_os":"Linux","password":true,"vac":true,"version":"7961495","steam_id":85568392924515219,"keywords":["cp","nocrits","nodmgspread","uncletopia"],"game_id":440,"stv_port":27036,"stv_name":"Uncletopia | Dallas | 3 | All Maps | STV","players":[{"user_id":272,"name":"ExplosiveGamer21","steam_id":76561198132370955,"connected_time":1693000000000,"state":"active","ping":87},{"user_id":274,"name":"Gul'dan","steam_id":76561198240466940,"connected_time":1412000000000,"state":"active","ping":177},{"user_id":280,"name":"KiloeJet","steam_id":76561199084636926,"connected_time":431000000000,"state":"active","ping":149},{"user_id":281,"name":"Crack Addict","steam_id":76561198166681494,"connected_time":221000000000,"state":"active","ping":37},{"user_id":282,"name":"Thequirka","steam_id":76561198968058652,"connected_time":53000000000,"state":"active","ping":98},{"user_id":199,"name":"2002 Toyota Corolla VE","steam_id":76561198149172070,"connected_time":6765000000000,"state":"active","ping":43},{"user_id":203,"name":"Bussyknight TF2","steam_id":76561198028729177,"connected_time":6627000000000,"state":"active","ping":82}]},{"server_id":405,"name":"Uncletopia | Dallas | 4 | Community","name_short":"dal-4","host":"dal-1.us.uncletopia.com","port":27045,"enabled":true,"region":"us-central","cc":"us","latitude":32.779167,"longitude":-96.80889,"reserved":0,"last_update":"0001-01-01T00:00:00Z","name_a2s":"Uncletopia | Dallas | 4 | Community","protocol":17,"map":"workshop/koth_synthetic_rc6a.ugc1549817316","folder":"tf","game":"Team Fortress","app_id":440,"player_count":0,"max_players":24,"Bots":0,"server_type":"Dedicated","server_os":"Linux","password":true,"vac":true,"version":"7961495","steam_id":85568392924515220,"keywords":["cp","nocrits","nodmgspread","uncletopia"],"game_id":440,"stv_port":27046,"stv_name":"Uncletopia | Dallas | 4 | Community | STV","players":null},{"server_id":5,"name":"Uncletopia | Frankfurt | 1 | All Maps","name_short":"frk-1","host":"frk-1.de.uncletopia.com","port":27015,"enabled":true,"region":"eu","cc":"de","latitude":50.110924,"longitude":8.682127,"reserved":0,"last_update":"0001-01-01T00:00:00Z","name_a2s":"Uncletopia | Frankfurt | 1 | All Maps","protocol":17,"map":"koth_highpass","folder":"tf","game":"Team Fortress","app_id":440,"player_count":0,"max_players":24,"Bots":0,"server_type":"Dedicated","server_os":"Linux","password":true,"vac":true,"version":"7961495","steam_id":85568392924469989,"keywords":["cp","nocrits","nodmgspread","uncletopia"],"game_id":440,"stv_port":27016,"stv_name":"Uncletopia | Frankfurt | 1 | All Maps | STV","players":null},{"server_id":110,"name":"Uncletopia | Frankfurt | 2 | All Maps","name_short":"frk-2","host":"frk-1.de.uncletopia.com","port":27025,"enabled":true,"region":"eu","cc":"de","latitude":50.110924,"longitude":8.682127,"reserved":0,"last_update":"0001-01-01T00:00:00Z","name_a2s":"Uncletopia | Frankfurt | 2 | All Maps","protocol":17,"map":"cp_dustbowl","folder":"tf","game":"Team Fortress","app_id":440,"player_count":0,"max_players":24,"Bots":0,"server_type":"Dedicated","server_os":"Linux","password":true,"vac":true,"version":"7961495","steam_id":85568392924469990,"keywords":["cp","nocrits","nodmgspread","uncletopia"],"game_id":440,"stv_port":27026,"stv_name":"Uncletopia | Frankfurt | 2 | All Maps | STV","players":null},{"server_id":308,"name":"Uncletopia | Frankfurt | 3 | All Maps","name_short":"frk-3","host":"frk-1.de.uncletopia.com","port":27035,"enabled":true,"region":"eu","cc":"de","latitude":50.110924,"longitude":8.682127,"reserved":0,"last_update":"0001-01-01T00:00:00Z","name_a2s":"Uncletopia | Frankfurt | 3 | All Maps","protocol":17,"map":"pl_barnblitz","folder":"tf","game":"Team Fortress","app_id":440,"player_count":0,"max_players":24,"Bots":0,"server_type":"Dedicated","server_os":"Linux","password":true,"vac":true,"version":"7961495","steam_id":85568392924504274,"keywords":["nocrits","nodmgspread","payload","uncletopia"],"game_id":440,"stv_port":27036,"stv_name":"Uncletopia | Frankfurt | 3 | All Maps | STV","players":null},{"server_id":309,"name":"Uncletopia | Frankfurt | 4 | All Maps","name_short":"frk-4","host":"frk-1.de.uncletopia.com","port":27045,"enabled":true,"region":"eu","cc":"de","latitude":50.110924,"longitude":8.682127,"reserved":0,"last_update":"0001-01-01T00:00:00Z","name_a2s":"Uncletopia | Frankfurt | 4 | All Maps","protocol":17,"map":"koth_highpass","folder":"tf","game":"Team Fortress","app_id":440,"player_count":0,"max_players":24,"Bots":0,"server_type":"Dedicated","server_os":"Linux","password":true,"vac":true,"version":"7961495","steam_id":85568392924504275,"keywords":["cp","nocrits","nodmgspread","uncletopia"],"game_id":440,"stv_port":27046,"stv_name":"Uncletopia | Frankfurt | 4 | All Maps | STV","players":null},{"server_id":310,"name":"Uncletopia | Frankfurt | 5 | All Maps","name_short":"frk-5","host":"frk-1.de.uncletopia.com","port":27055,"enabled":true,"region":"eu","cc":"de","latitude":50.110924,"longitude":8.682127,"reserved":0,"last_update":"0001-01-01T00:00:00Z","name_a2s":"Uncletopia | Frankfurt | 5 | All Maps","protocol":17,"map":"pl_badwater","folder":"tf","game":"Team Fortress","app_id":440,"player_count":0,"max_players":24,"Bots":0,"server_type":"Dedicated","server_os":"Linux","password":true,"vac":true,"version":"7961495","steam_id":85568392924504277,"keywords":["nocrits","nodmgspread","payload","uncletopia"],"game_id":440,"stv_port":27056,"stv_name":"Uncletopia | Frankfurt | 5 | All Maps | STV","players":null},{"server_id":311,"name":"Uncletopia | Frankfurt | 6 | All Maps","name_short":"frk-6","host":"frk-1.de.uncletopia.com","port":27065,"enabled":true,"region":"eu","cc":"de","latitude":50.110924,"longitude":8.682127,"reserved":0,"last_update":"0001-01-01T00:00:00Z","name_a2s":"Uncletopia | Frankfurt | 6 | All Maps","protocol":17,"map":"cp_altitude","folder":"tf","game":"Team Fortress","app_id":440,"player_count":0,"max_players":24,"Bots":0,"server_type":"Dedicated","server_os":"Linux","password":true,"vac":true,"version":"7961495","steam_id":85568392924504278,"keywords":["cp","nocrits","nodmgspread","uncletopia"],"game_id":440,"stv_port":27066,"stv_name":"Uncletopia | Frankfurt | 6 | All Maps | STV","players":null},{"server_id":23,"name":"Uncletopia | Frankfurt | 7 | Stopwatch","name_short":"frk-7","host":"frk-1.de.uncletopia.com","port":27075,"enabled":true,"region":"eu","cc":"de","latitude":50.110924,"longitude":8.682127,"reserved":0,"last_update":"0001-01-01T00:00:00Z","name_a2s":"Uncletopia | Frankfurt | 7 | Stopwatch","protocol":17,"map":"pl_frontier_final","folder":"tf","game":"Team Fortress","app_id":440,"player_count":0,"max_players":24,"Bots":0,"server_type":"Dedicated","server_os":"Linux","password":true,"vac":true,"version":"7961495","steam_id":85568392924742827,"keywords":["nocrits","nodmgspread","payload","uncletopia"],"game_id":440,"stv_port":27076,"stv_name":"Uncletopia | Frankfurt | 7 | Stopwatch | STV","players":null},{"server_id":24,"name":"Uncletopia | Frankfurt | 8 | Community","name_short":"frk-8","host":"frk-1.de.uncletopia.com","port":27085,"enabled":true,"region":"eu","cc":"de","latitude":50.110924,"longitude":8.682127,"reserved":0,"last_update":"0001-01-01T00:00:00Z","name_a2s":"Uncletopia | Frankfurt | 8 | Community","protocol":17,"map":"cp_mountainlab","folder":"tf","game":"Team Fortress","app_id":440,"player_count":0,"max_players":24,"Bots":0,"server_type":"Dedicated","server_os":"Linux","password":true,"vac":true,"version":"7961495","steam_id":85568392924742828,"keywords":["cp","nocrits","nodmgspread","uncletopia"],"game_id":440,"stv_port":27086,"stv_name":"Uncletopia | Frankfurt | 8 | Community | STV","players":null},{"server_id":202,"name":"Uncletopia | Hong Kong | 1 | All Maps","name_short":"hgk-1","host":"hgk-1.hk.uncletopia.com","port":27015,"enabled":true,"region":"asia","cc":"hk","latitude":22.302711,"longitude":114.177216,"reserved":0,"last_update":"0001-01-01T00:00:00Z","name_a2s":"Uncletopia | Hong Kong | 1 | All Maps","protocol":17,"map":"pl_pier","folder":"tf","game":"Team Fortress","app_id":440,"player_count":0,"max_players":24,"Bots":0,"server_type":"Dedicated","server_os":"Linux","password":true,"vac":true,"version":"7961495","steam_id":85568392924494504,"keywords":["nocrits","nodmgspread","payload","uncletopia"],"game_id":440,"stv_port":27016,"stv_name":"Uncletopia | Hong Kong | 1 | All Maps | STV","players":null},{"server_id":1,"name":"Uncletopia | Los Angeles | 1 | All Maps","name_short":"lax-1","host":"lax-1.us.uncletopia.com","port":27015,"enabled":true,"region":"us-west","cc":"us","latitude":33.94279,"longitude":-118.41004,"reserved":0,"last_update":"0001-01-01T00:00:00Z","name_a2s":"Uncletopia | Los Angeles | 1 | All Maps","protocol":17,"map":"cp_process_final","folder":"tf","game":"Team Fortress","app_id":440,"player_count":25,"max_players":24,"Bots":0,"server_type":"Dedicated","server_os":"Linux","password":true,"vac":true,"version":"7961495","steam_id":85568392924469991,"keywords":["cp","nocrits","nodmgspread","uncletopia"],"game_id":440,"stv_port":27016,"stv_name":"Uncletopia | Los Angeles | 1 | All Maps | STV","players":[{"user_id":414,"name":"THE Shovel Knight","steam_id":76561198306811759,"connected_time":1461000000000,"state":"active","ping":134},{"user_id":421,"name":"starry","steam_id":76561198989740125,"connected_time":1216000000000,"state":"active","ping":127},{"user_id":441,"name":"STUPID DUMBASS BABY","steam_id":76561199112576615,"connected_time":259000000000,"state":"active","ping":72},{"user_id":423,"name":"Buuw","steam_id":76561198085707714,"connected_time":1105000000000,"state":"active","ping":46},{"user_id":442,"name":"Dinosaur","steam_id":76561199079626189,"connected_time":190000000000,"state":"active","ping":102},{"user_id":432,"name":"Jpxfred","steam_id":76561199414783749,"connected_time":901000000000,"state":"active","ping":60},{"user_id":434,"name":"warband","steam_id":76561198093229614,"connected_time":774000000000,"state":"active","ping":101},{"user_id":301,"name":"roody","steam_id":76561198066260405,"connected_time":8979000000000,"state":"active","ping":75},{"user_id":418,"name":"Renox‚ú™","steam_id":76561198887269549,"connected_time":1352000000000,"state":"active","ping":63},{"user_id":419,"name":"Winnie","steam_id":76561198117342640,"connected_time":1351000000000,"state":"active","ping":62},{"user_id":388,"name":"Alchemist","steam_id":76561198094238189,"connected_time":3137000000000,"state":"active","ping":57},{"user_id":422,"name":"Caster","steam_id":76561198131592341,"connected_time":1195000000000,"state":"active","ping":62},{"user_id":427,"name":"fish","steam_id":76561198054070811,"connected_time":1038000000000,"state":"active","ping":64},{"user_id":428,"name":"allahsdroptop (Bag/Chaser)","steam_id":76561198133195238,"connected_time":1016000000000,"state":"active","ping":69},{"user_id":443,"name":"SmurfSouls","steam_id":76561198207739253,"connected_time":177000000000,"state":"active","ping":62},{"user_id":430,"name":"backshot overlord","steam_id":76561198984612489,"connected_time":960000000000,"state":"active","ping":57},{"user_id":436,"name":"e7","steam_id":76561198154265084,"connected_time":677000000000,"state":"active","ping":54},{"user_id":307,"name":"duddlee","steam_id":76561198030052564,"connected_time":8906000000000,"state":"active","ping":91},{"user_id":431,"name":"Real_Jakepaul","steam_id":76561198170243578,"connected_time":956000000000,"state":"active","ping":88},{"user_id":433,"name":"mo wangs","steam_id":76561198045992418,"connected_time":881000000000,"state":"active","ping":81},{"user_id":354,"name":"GalaxyDoug32","steam_id":76561197997126305,"connected_time":6125000000000,"state":"active","ping":89},{"user_id":444,"name":"un-flipped shoes","steam_id":76561198045964573,"connected_time":67000000000,"state":"active","ping":48},{"user_id":437,"name":"The New Bob","steam_id":76561199122072556,"connected_time":626000000000,"state":"active","ping":137},{"user_id":438,"name":"diggydino885","steam_id":76561199502897302,"connected_time":615000000000,"state":"active","ping":54},{"user_id":439,"name":"Jimjonjoe","steam_id":76561199195695913,"connected_time":612000000000,"state":"active","ping":89}]},{"server_id":112,"name":"Uncletopia | Los Angeles | 2 | All Maps","name_short":"lax-2","host":"lax-1.us.uncletopia.com","port":27025,"enabled":true,"region":"us-west","cc":"us","latitude":33.94279,"longitude":-118.41004,"reserved":0,"last_update":"0001-01-01T00:00:00Z","name_a2s":"Uncletopia | Los Angeles | 2 | All Maps","protocol":17,"map":"pl_frontier_final","folder":"tf","game":"Team Fortress","app_id":440,"player_count":24,"max_players":24,"Bots":0,"server_type":"Dedicated","server_os":"Linux","password":true,"vac":true,"version":"7961495","steam_id":85568392924469992,"keywords":["nocrits","nodmgspread","payload","uncletopia"],"game_id":440,"stv_port":27026,"stv_name":"Uncletopia | Los Angeles | 2 | All Maps | STV","players":[{"user_id":321,"name":"PainInTheRuss","steam_id":76561197977960543,"connected_time":668000000000,"state":"active","ping":56},{"user_id":282,"name":"skoob","steam_id":76561198025855758,"connected_time":4232000000000,"state":"active","ping":48},{"user_id":272,"name":"falikk","steam_id":76561197970821648,"connected_time":4787000000000,"state":"active","ping":79},{"user_id":310,"name":"Timewaves","steam_id":76561198000186054,"connected_time":1515000000000,"state":"active","ping":52},{"user_id":273,"name":"This Is My TF2 profile","steam_id":76561198829267740,"connected_time":4683000000000,"state":"active","ping":66},{"user_id":313,"name":"Velocity","steam_id":76561198188085449,"connected_time":904000000000,"state":"active","ping":56},{"user_id":322,"name":"Firedust19","steam_id":76561198153238631,"connected_time":268000000000,"state":"active","ping":66},{"user_id":314,"name":"Spha","steam_id":76561198796297800,"connected_time":881000000000,"state":"active","ping":42},{"user_id":315,"name":"Acuzik","steam_id":76561198045453400,"connected_time":867000000000,"state":"active","ping":100},{"user_id":316,"name":"Braingoo Hex","steam_id":76561198083094783,"connected_time":866000000000,"state":"active","ping":107},{"user_id":291,"name":"jdm","steam_id":76561199497603020,"connected_time":3473000000000,"state":"active","ping":46},{"user_id":317,"name":"b.net queue waiter","steam_id":76561197968787431,"connected_time":860000000000,"state":"active","ping":84},{"user_id":289,"name":"seattlepilot","steam_id":76561198157510704,"connected_time":3672000000000,"state":"active","ping":89},{"user_id":311,"name":"OxOoxen841","steam_id":76561198297981993,"connected_time":1428000000000,"state":"active","ping":121},{"user_id":233,"name":"TacoMan4Life","steam_id":76561198832562728,"connected_time":7311000000000,"state":"active","ping":62},{"user_id":281,"name":"cyren caster","steam_id":76561198204509499,"connected_time":4247000000000,"state":"active","ping":65},{"user_id":300,"name":"turnip","steam_id":76561197999375941,"connected_time":2330000000000,"state":"active","ping":89},{"user_id":318,"name":"Extinct698","steam_id":76561199388041110,"connected_time":848000000000,"state":"active","ping":63},{"user_id":319,"name":"Sarbanes-Oxley","steam_id":76561197975898479,"connected_time":824000000000,"state":"active","ping":95},{"user_id":301,"name":"Human Resources Manager","steam_id":76561198066386411,"connected_time":2326000000000,"state":"active","ping":60},{"user_id":320,"name":"KingSteve42","steam_id":76561198409455888,"connected_time":808000000000,"state":"active","ping":112},{"user_id":325,"name":"LogicalFurret","steam_id":76561198350604657,"connected_time":61000000000,"state":"active","ping":73},{"user_id":305,"name":"Major_Pippy","steam_id":76561198004482878,"connected_time":2037000000000,"state":"active","ping":80},{"user_id":307,"name":"RagingRoosevelt","steam_id":76561197985483153,"connected_time":1983000000000,"state":"active","ping":71}]},{"server_id":324,"name":"Uncletopia | Los Angeles | 3 | All Maps","name_short":"lax-3","host":"lax-1.us.uncletopia.com","port":27035,"enabled":true,"region":"us-west","cc":"us","latitude":33.94279,"longitude":-118.41004,"reserved":0,"last_update":"0001-01-01T00:00:00Z","name_a2s":"Uncletopia | Los Angeles | 3 | All Maps","protocol":17,"map":"pl_barnblitz","folder":"tf","game":"Team Fortress","app_id":440,"player_count":24,"max_players":24,"Bots":0,"server_type":"Dedicated","server_os":"Linux","password":true,"vac":true,"version":"7961495","steam_id":85568392924510198,"keywords":["nocrits","nodmgspread","payload","uncletopia"],"game_id":440,"stv_port":27036,"stv_name":"Uncletopia | Los Angeles | 3 | All Maps | STV","players":[{"user_id":9,"name":"thuck","steam_id":76561198858474714,"connected_time":5414000000000,"state":"active","ping":76},{"user_id":76,"name":"011sra","steam_id":76561199489542125,"connected_time":200000000000,"state":"active","ping":69},{"user_id":54,"name":"dodecadron","steam_id":76561198027397222,"connected_time":1641000000000,"state":"active","ping":92},{"user_id":20,"name":"Boolet","steam_id":76561198088666151,"connected_time":3110000000000,"state":"active","ping":93},{"user_id":62,"name":"GreenApples","steam_id":76561198120559543,"connected_time":945000000000,"state":"active","ping":59},{"user_id":72,"name":"Speedycat","steam_id":76561198024821259,"connected_time":553000000000,"state":"active","ping":48},{"user_id":21,"name":"CometDrg0n_(he/him)","steam_id":76561198175713051,"connected_time":3085000000000,"state":"active","ping":69},{"user_id":61,"name":"Dullahan","steam_id":76561198119668908,"connected_time":957000000000,"state":"active","ping":58},{"user_id":58,"name":"rmbl","steam_id":76561198150137369,"connected_time":1018000000000,"state":"active","ping":56},{"user_id":55,"name":"Captain Crunch","steam_id":76561199141538581,"connected_time":1330000000000,"state":"active","ping":57},{"user_id":73,"name":"The Depressed John","steam_id":76561198148193895,"connected_time":551000000000,"state":"active","ping":119},{"user_id":57,"name":"Jimmy","steam_id":76561198857959855,"connected_time":1049000000000,"state":"active","ping":50},{"user_id":68,"name":"papi Chulo","steam_id":76561198126274984,"connected_time":723000000000,"state":"active","ping":68},{"user_id":56,"name":"Laxoloni","steam_id":76561199197045700,"connected_time":1197000000000,"state":"active","ping":71},{"user_id":47,"name":"tRiCkStAb","steam_id":76561197984716005,"connected_time":2177000000000,"state":"active","ping":60},{"user_id":64,"name":"Porcini","steam_id":76561198227037524,"connected_time":933000000000,"state":"active","ping":68},{"user_id":31,"name":"Grungus","steam_id":76561198047700230,"connected_time":2848000000000,"state":"active","ping":61},{"user_id":75,"name":"Mike Bean Burritos","steam_id":76561198173430607,"connected_time":380000000000,"state":"active","ping":81},{"user_id":66,"name":"cask","steam_id":76561198141873995,"connected_time":899000000000,"state":"active","ping":88},{"user_id":70,"name":"Ygitor","steam_id":76561198328114476,"connected_time":711000000000,"state":"active","ping":60},{"user_id":35,"name":"Buswolley","steam_id":76561197995205571,"connected_time":2774000000000,"state":"active","ping":57},{"user_id":36,"name":"Subby Wubby Boi 0w0","steam_id":76561198297585031,"connected_time":2770000000000,"state":"active","ping":67},{"user_id":74,"name":"Nathan Yeet","steam_id":76561198883966591,"connected_time":529000000000,"state":"active","ping":122},{"user_id":44,"name":"Petrivus","steam_id":76561198202152453,"connected_time":2383000000000,"state":"active","ping":84}]},{"server_id":25,"name":"Uncletopia | Los Angeles | 4 | Stopwatch","name_short":"lax-4","host":"lax-1.us.uncletopia.com","port":27045,"enabled":true,"region":"us-west","cc":"us","latitude":33.94279,"longitude":-118.41004,"reserved":0,"last_update":"0001-01-01T00:00:00Z","name_a2s":"Uncletopia | Los Angeles | 4 | Stopwatch","protocol":17,"map":"workshop/pl_barnblitz_pro7.ugc582280235","folder":"tf","game":"Team Fortress","app_id":440,"player_count":0,"max_players":24,"Bots":0,"server_type":"Dedicated","server_os":"Linux","password":true,"vac":true,"version":"7961495","steam_id":85568392924510199,"keywords":["nocrits","nodmgspread","payload","uncletopia"],"game_id":440,"stv_port":27046,"stv_name":"Uncletopia | Los Angeles | 4 | Stopwatch | STV","players":null},{"server_id":11,"name":"Uncletopia | London | 1 | All Maps","name_short":"lon-1","host":"lon-1.uk.uncletopia.com","port":27015,"enabled":true,"region":"eu","cc":"gb","latitude":51.509865,"longitude":-0.118092,"reserved":0,"last_update":"0001-01-01T00:00:00Z","name_a2s":"Uncletopia | London | 1 | All Maps","protocol":17,"map":"pl_upward","folder":"tf","game":"Team Fortress","app_id":440,"player_count":22,"max_players":24,"Bots":0,"server_type":"Dedicated","server_os":"Linux","password":true,"vac":true,"version":"7961495","steam_id":85568392924367362,"keywords":["nocrits","nodmgspread","payload","uncletopia"],"game_id":440,"stv_port":27016,"stv_name":"Uncletopia | London | 1 | All Maps | STV","players":[{"user_id":1163,"name":"1 in a Trillion Football Moment","steam_id":76561199075279565,"connected_time":1423000000000,"state":"active","ping":149},{"user_id":1174,"name":"Rezolt","steam_id":76561198069074807,"connected_time":765000000000,"state":"active","ping":129},{"user_id":1143,"name":"@KINGDRIICK","steam_id":76561198048396162,"connected_time":4408000000000,"state":"active","ping":86},{"user_id":1180,"name":"Mr.Dies a lot","steam_id":76561199061602946,"connected_time":85000000000,"state":"active","ping":90},{"user_id":1118,"name":"Jake from State Farm #Save TF2","steam_id":76561198277987173,"connected_time":5970000000000,"state":"active","ping":159},{"user_id":1119,"name":"GeoJumper","steam_id":76561198391022888,"connected_time":5922000000000,"state":"active","ping":49},{"user_id":1170,"name":"yuno appreciator","steam_id":76561198083286511,"connected_time":1182000000000,"state":"active","ping":35},{"user_id":1099,"name":"geroxe cruo","steam_id":76561199480942903,"connected_time":7442000000000,"state":"active","ping":111},{"user_id":1168,"name":"‚ù§Mr.M‚ù§","steam_id":76561198071053911,"connected_time":1279000000000,"state":"active","ping":58},{"user_id":1138,"name":"is it your crocodile?","steam_id":76561198346638308,"connected_time":4768000000000,"state":"active","ping":59},{"user_id":1160,"name":"jonbob","steam_id":76561197963506620,"connected_time":1434000000000,"state":"active","ping":51},{"user_id":1154,"name":"gatl","steam_id":76561198116926545,"connected_time":3049000000000,"state":"active","ping":64},{"user_id":1076,"name":"F2P Challenge","steam_id":76561199498773639,"connected_time":8628000000000,"state":"active","ping":78},{"user_id":1164,"name":"ne,dange","steam_id":76561198044189114,"connected_time":1422000000000,"state":"active","ping":62},{"user_id":1169,"name":"Greg","steam_id":76561198014131702,"connected_time":1226000000000,"state":"active","ping":135},{"user_id":1128,"name":"else1","steam_id":76561197996558319,"connected_time":5274000000000,"state":"active","ping":89},{"user_id":1173,"name":"wheelie bin","steam_id":76561198040040328,"connected_time":841000000000,"state":"active","ping":50},{"user_id":1172,"name":"Dani","steam_id":76561198211627920,"connected_time":946000000000,"state":"active","ping":75},{"user_id":1129,"name":"–º–æ–Ω–æ–ª–∏—Ç","steam_id":76561198066755808,"connected_time":5234000000000,"state":"active","ping":62},{"user_id":1175,"name":"Play slowly, pls","steam_id":76561198006463587,"connected_time":266000000000,"state":"active","ping":334},{"user_id":1158,"name":"sleeping souls","steam_id":76561198205464653,"connected_time":2079000000000,"state":"active","ping":63},{"user_id":1162,"name":"what can swim? a little stone","steam_id":76561198123131045,"connected_time":1433000000000,"state":"active","ping":74}]},{"server_id":114,"name":"Uncletopia | London | 2 | All Maps","name_short":"lon-2","host":"lon-1.uk.uncletopia.com","port":27025,"enabled":true,"region":"eu","cc":"gb","latitude":51.509865,"longitude":-0.118092,"reserved":0,"last_update":"0001-01-01T00:00:00Z","name_a2s":"Uncletopia | London | 2 | All Maps","protocol":17,"map":"cp_sunshine","folder":"tf","game":"Team Fortress","app_id":440,"player_count":0,"max_players":24,"Bots":0,"server_type":"Dedicated","server_os":"Linux","password":true,"vac":true,"version":"7961495","steam_id":85568392924470941,"keywords":["cp","nocrits","nodmgspread","uncletopia"],"game_id":440,"stv_port":27026,"stv_name":"Uncletopia | London | 2 | All Maps | STV","players":null},{"server_id":320,"name":"Uncletopia | London | 3 | All Maps","name_short":"lon-3","host":"lon-1.uk.uncletopia.com","port":27035,"enabled":true,"region":"eu","cc":"gb","latitude":51.509865,"longitude":-0.118092,"reserved":0,"last_update":"0001-01-01T00:00:00Z","name_a2s":"Uncletopia | London | 3 | All Maps","protocol":17,"map":"koth_cascade","folder":"tf","game":"Team Fortress","app_id":440,"player_count":0,"max_players":24,"Bots":0,"server_type":"Dedicated","server_os":"Linux","password":true,"vac":true,"version":"7961495","steam_id":85568392924510192,"keywords":["cp","nocrits","nodmgspread","uncletopia"],"game_id":440,"stv_port":27036,"stv_name":"Uncletopia | London | 3 | All Maps | STV","players":null},{"server_id":321,"name":"Uncletopia | London | 4 | All Maps","name_short":"lon-4","host":"lon-1.uk.uncletopia.com","port":27045,"enabled":true,"region":"eu","cc":"gb","latitude":51.509865,"longitude":-0.118092,"reserved":0,"last_update":"0001-01-01T00:00:00Z","name_a2s":"Uncletopia | London | 4 | All Maps","protocol":17,"map":"pl_upward","folder":"tf","game":"Team Fortress","app_id":440,"player_count":0,"max_players":24,"Bots":0,"server_type":"Dedicated","server_os":"Linux","password":true,"vac":true,"version":"7961495","steam_id":85568392924510193,"keywords":["nocrits","nodmgspread","payload","uncletopia"],"game_id":440,"stv_port":27046,"stv_name":"Uncletopia | London | 4 | All Maps | STV","players":null},{"server_id":21,"name":"Uncletopia | London | 5 | All Maps","name_short":"lon-5","host":"lon-1.uk.uncletopia.com","port":27055,"enabled":true,"region":"eu","cc":"gb","latitude":51.509865,"longitude":-0.118092,"reserved":0,"last_update":"0001-01-01T00:00:00Z","name_a2s":"Uncletopia | London | 5 | All Maps","protocol":17,"map":"koth_highpass","folder":"tf","game":"Team Fortress","app_id":440,"player_count":0,"max_players":24,"Bots":0,"server_type":"Dedicated","server_os":"Linux","password":true,"vac":true,"version":"7961495","steam_id":85568392924742829,"keywords":["cp","nocrits","nodmgspread","uncletopia"],"game_id":440,"stv_port":27056,"stv_name":"Uncletopia | London | 5 | All Maps | STV","players":null},{"server_id":22,"name":"Uncletopia | London | 6 | All Maps","name_short":"lon-6","host":"lon-1.uk.uncletopia.com","port":27065,"enabled":true,"region":"eu","cc":"gb","latitude":51.509865,"longitude":-0.118092,"reserved":0,"last_update":"0001-01-01T00:00:00Z","name_a2s":"Uncletopia | London | 6 | All Maps","protocol":17,"map":"pl_frontier_final","folder":"tf","game":"Team Fortress","app_id":440,"player_count":0,"max_players":24,"Bots":0,"server_type":"Dedicated","server_os":"Linux","password":true,"vac":true,"version":"7961495","steam_id":85568392924742830,"keywords":["nocrits","nodmgspread","payload","uncletopia"],"game_id":440,"stv_port":27066,"stv_name":"Uncletopia | London | 6 | All Maps | STV","players":null},{"server_id":40,"name":"Uncletopia | London | 7 | Stopwatch","name_short":"lon-7","host":"lon-1.uk.uncletopia.com","port":27075,"enabled":true,"region":"eu","cc":"gb","latitude":51.509865,"longitude":-0.118092,"reserved":0,"last_update":"0001-01-01T00:00:00Z","name_a2s":"Uncletopia | London | 7 | Stopwatch","protocol":17,"map":"workshop/koth_ashville_final.ugc2130459942","folder":"tf","game":"Team Fortress","app_id":440,"player_count":0,"max_players":24,"Bots":0,"server_type":"Dedicated","server_os":"Linux","password":true,"vac":true,"version":"7961495","steam_id":85568392924964314,"keywords":["cp","nocrits","nodmgspread","uncletopia"],"game_id":440,"stv_port":27076,"stv_name":"Uncletopia | London | 7 | Stopwatch | STV","players":null},{"server_id":41,"name":"Uncletopia | London | 8 | Community","name_short":"lon-8","host":"lon-1.uk.uncletopia.com","port":27085,"enabled":true,"region":"eu","cc":"gb","latitude":51.509865,"longitude":-0.118092,"reserved":0,"last_update":"0001-01-01T00:00:00Z","name_a2s":"Uncletopia | London | 8 | Community","protocol":17,"map":"workshop/pl_barnblitz_pro7.ugc582280235","folder":"tf","game":"Team Fortress","app_id":440,"player_count":0,"max_players":24,"Bots":0,"server_type":"Dedicated","server_os":"Linux","password":true,"vac":true,"version":"7961495","steam_id":85568392924964315,"keywords":["nocrits","nodmgspread","payload","uncletopia"],"game_id":440,"stv_port":27086,"stv_name":"Uncletopia | London | 8 | Community | STV","players":null},{"server_id":300,"name":"Uncletopia | Montr√©al | 1 | One Thousand Uncles","name_short":"mtl-1","host":"mtl-1.ca.uncletopia.com","port":27015,"enabled":true,"region":"us-east","cc":"ca","latitude":45.50889,"longitude":-73.56167,"reserved":0,"last_update":"0001-01-01T00:00:00Z","name_a2s":"","protocol":0,"map":"","folder":"","game":"","app_id":0,"player_count":0,"max_players":0,"Bots":0,"server_type":"","server_os":"","password":false,"vac":false,"version":"","steam_id":0,"keywords":null,"game_id":0,"stv_port":0,"stv_name":"","players":null},{"server_id":301,"name":"Uncletopia | Montr√©al | 2 | One Thousand Uncles","name_short":"mtl-2","host":"mtl-1.ca.uncletopia.com","port":27025,"enabled":true,"region":"us-east","cc":"ca","latitude":45.50889,"longitude":-73.56167,"reserved":0,"last_update":"0001-01-01T00:00:00Z","name_a2s":"","protocol":0,"map":"","folder":"","game":"","app_id":0,"player_count":0,"max_players":0,"Bots":0,"server_type":"","server_os":"","password":false,"vac":false,"version":"","steam_id":0,"keywords":null,"game_id":0,"stv_port":0,"stv_name":"","players":null},{"server_id":302,"name":"Uncletopia | Montr√©al | 3 | One Thousand Uncles","name_short":"mtl-3","host":"mtl-1.ca.uncletopia.com","port":27035,"enabled":true,"region":"us-east","cc":"ca","latitude":45.50889,"longitude":-73.56167,"reserved":0,"last_update":"0001-01-01T00:00:00Z","name_a2s":"","protocol":0,"map":"","folder":"","game":"","app_id":0,"player_count":3,"max_players":0,"Bots":0,"server_type":"","server_os":"","password":false,"vac":false,"version":"","steam_id":0,"keywords":null,"game_id":0,"stv_port":0,"stv_name":"","players":[{"user_id":207,"name":"RacoonGamer","steam_id":76561198100907657,"connected_time":852000000000,"state":"active","ping":45},{"user_id":224,"name":"Orange","steam_id":76561198169914315,"connected_time":338000000000,"state":"active","ping":101},{"user_id":225,"name":"Strange Festive Femboy","steam_id":76561198050385093,"connected_time":320000000000,"state":"active","ping":56}]},{"server_id":13,"name":"Uncletopia | New York City | 1 | All Maps","name_short":"nyc-1","host":"nyc-1.us.uncletopia.com","port":27015,"enabled":true,"region":"us-east","cc":"us","latitude":40.73061,"longitude":-73.93524,"reserved":0,"last_update":"0001-01-01T00:00:00Z","name_a2s":"Uncletopia | New York City | 1 | All Maps","protocol":17,"map":"pl_enclosure_final","folder":"tf","game":"Team Fortress","app_id":440,"player_count":0,"max_players":24,"Bots":0,"server_type":"Dedicated","server_os":"Linux","password":true,"vac":true,"version":"7961495","steam_id":85568392924469993,"keywords":["nocrits","nodmgspread","payload","uncletopia"],"game_id":440,"stv_port":27016,"stv_name":"Uncletopia | New York City | 1 | All Maps | STV","players":null},{"server_id":14,"name":"Uncletopia | New York City | 2 | All Maps","name_short":"nyc-2","host":"nyc-1.us.uncletopia.com","port":27025,"enabled":true,"region":"us-east","cc":"us","latitude":40.73061,"longitude":-73.93524,"reserved":0,"last_update":"0001-01-01T00:00:00Z","name_a2s":"Uncletopia | New York City | 2 | All Maps","protocol":17,"map":"pl_upward","folder":"tf","game":"Team Fortress","app_id":440,"player_count":4,"max_players":24,"Bots":0,"server_type":"Dedicated","server_os":"Linux","password":true,"vac":true,"version":"7961495","steam_id":85568392924469994,"keywords":["nocrits","nodmgspread","payload","uncletopia"],"game_id":440,"stv_port":27026,"stv_name":"Uncletopia | New York City | 2 | All Maps | STV","players":[{"user_id":407,"name":"Cervid√©","steam_id":76561198098579497,"connected_time":4992000000000,"state":"active","ping":55},{"user_id":410,"name":"Piss God","steam_id":76561198090504334,"connected_time":4729000000000,"state":"active","ping":59},{"user_id":452,"name":"BigNugs","steam_id":76561198056402610,"connected_time":914000000000,"state":"active","ping":72},{"user_id":451,"name":"GH578","steam_id":76561199493262585,"connected_time":1138000000000,"state":"active","ping":99}]},{"server_id":15,"name":"Uncletopia | New York City | 3 | Stopwatch","name_short":"nyc-3","host":"nyc-1.us.uncletopia.com","port":27035,"enabled":true,"region":"us-east","cc":"us","latitude":40.73061,"longitude":-73.93524,"reserved":0,"last_update":"0001-01-01T00:00:00Z","name_a2s":"Uncletopia | New York City | 3 | Stopwatch","protocol":17,"map":"workshop/koth_ashville_final.ugc2130459942","folder":"tf","game":"Team Fortress","app_id":440,"player_count":0,"max_players":24,"Bots":0,"server_type":"Dedicated","server_os":"Linux","password":true,"vac":true,"version":"7961495","steam_id":85568392924742820,"keywords":["cp","nocrits","nodmgspread","uncletopia"],"game_id":440,"stv_port":27036,"stv_name":"Uncletopia | New York City | 3 | Stopwatch | STV","players":null},{"server_id":16,"name":"Uncletopia | New York City | 4 | Community","name_short":"nyc-4","host":"nyc-1.us.uncletopia.com","port":27045,"enabled":true,"region":"us-east","cc":"us","latitude":40.73061,"longitude":-73.93524,"reserved":0,"last_update":"0001-01-01T00:00:00Z","name_a2s":"Uncletopia | New York City | 4 | Community","protocol":17,"map":"workshop/koth_slaughter_rc1.ugc1712845210","folder":"tf","game":"Team Fortress","app_id":440,"player_count":0,"max_players":24,"Bots":0,"server_type":"Dedicated","server_os":"Linux","password":true,"vac":true,"version":"7961495","steam_id":85568392924742821,"keywords":["cp","nocrits","nodmgspread","uncletopia"],"game_id":440,"stv_port":27046,"stv_name":"Uncletopia | New York City | 4 | Community | STV","players":null},{"server_id":142,"name":"Uncletopia | S√£o Paulo | 1 | All Maps","name_short":"sao-1","host":"sao-1.br.uncletopia.com","port":27015,"enabled":true,"region":"sa","cc":"br","latitude":-23.533773,"longitude":-46.62529,"reserved":0,"last_update":"0001-01-01T00:00:00Z","name_a2s":"Uncletopia | S√£o Paulo | 1 | All Maps","protocol":17,"map":"koth_cascade","folder":"tf","game":"Team Fortress","app_id":440,"player_count":0,"max_players":24,"Bots":0,"server_type":"Dedicated","server_os":"Linux","password":true,"vac":true,"version":"7961495","steam_id":85568392924469996,"keywords":["cp","nocrits","nodmgspread","uncletopia"],"game_id":440,"stv_port":27016,"stv_name":"Uncletopia | S√£o Paulo | 1 | All Maps | STV","players":null},{"server_id":143,"name":"Uncletopia | S√£o Paulo | 2 | Community","name_short":"sao-2","host":"sao-2.br.uncletopia.com","port":27015,"enabled":true,"region":"sa","cc":"br","latitude":-23.533773,"longitude":-46.62529,"reserved":0,"last_update":"0001-01-01T00:00:00Z","name_a2s":"Uncletopia | S√£o Paulo | 2 | Community","protocol":17,"map":"pl_badwater","folder":"tf","game":"Team Fortress","app_id":440,"player_count":0,"max_players":24,"Bots":0,"server_type":"Dedicated","server_os":"Linux","password":true,"vac":true,"version":"7961495","steam_id":85568392924485349,"keywords":["nocrits","nodmgspread","payload","uncletopia"],"game_id":440,"stv_port":27016,"stv_name":"Uncletopia | S√£o Paulo | 2 | Community | STV","players":null},{"server_id":7,"name":"Uncletopia | Seattle | 1 | All Maps","name_short":"sea-1","host":"sea-1.us.uncletopia.com","port":27015,"enabled":true,"region":"us-west","cc":"us","latitude":47.608013,"longitude":-122.33517,"reserved":0,"last_update":"0001-01-01T00:00:00Z","name_a2s":"Uncletopia | Seattle | 1 | All Maps","protocol":17,"map":"pl_snowycoast","folder":"tf","game":"Team Fortress","app_id":440,"player_count":25,"max_players":24,"Bots":0,"server_type":"Dedicated","server_os":"Linux","password":true,"vac":true,"version":"7961495","steam_id":85568392924469997,"keywords":["nocrits","nodmgspread","payload","uncletopia"],"game_id":440,"stv_port":27016,"stv_name":"Uncletopia | Seattle | 1 | All Maps | STV","players":[{"user_id":804,"name":"Streamline","steam_id":76561198031098638,"connected_time":151000000000,"state":"active","ping":109},{"user_id":803,"name":"kenZino","steam_id":76561197967971192,"connected_time":164000000000,"state":"active","ping":36},{"user_id":805,"name":"Engynier Gaimeang (F2P)","steam_id":76561199013888779,"connected_time":150000000000,"state":"active","ping":61},{"user_id":758,"name":"DubiousDodo","steam_id":76561198828172686,"connected_time":4701000000000,"state":"active","ping":74},{"user_id":776,"name":"Batso","steam_id":76561198106589452,"connected_time":3414000000000,"state":"active","ping":78},{"user_id":743,"name":"Havi","steam_id":76561198197832829,"connected_time":6400000000000,"state":"active","ping":45},{"user_id":673,"name":"DaddyGalaxy","steam_id":76561198139697796,"connected_time":12266000000000,"state":"active","ping":55},{"user_id":806,"name":"Ayayayayayayayayayayayayahuasca","steam_id":76561199002906056,"connected_time":3000000000,"state":"spawning","ping":47},{"user_id":782,"name":"Meso","steam_id":76561199088153190,"connected_time":2907000000000,"state":"active","ping":73},{"user_id":727,"name":"Mignyanne :3","steam_id":76561198048754056,"connected_time":7308000000000,"state":"active","ping":60},{"user_id":797,"name":"The Horny","steam_id":76561198863639459,"connected_time":1120000000000,"state":"active","ping":63},{"user_id":795,"name":"Maid 'n' China","steam_id":76561198423392976,"connected_time":1232000000000,"state":"active","ping":62},{"user_id":669,"name":"rat gets the cheese","steam_id":76561198031234032,"connected_time":12608000000000,"state":"active","ping":105},{"user_id":764,"name":"SolarusD","steam_id":76561198029279861,"connected_time":4391000000000,"state":"active","ping":62},{"user_id":785,"name":"Allister","steam_id":76561197999823352,"connected_time":2468000000000,"state":"active","ping":112},{"user_id":796,"name":"Strikerbolt","steam_id":76561199095622897,"connected_time":1177000000000,"state":"active","ping":76},{"user_id":783,"name":"vfa","steam_id":76561198055729118,"connected_time":2538000000000,"state":"active","ping":62},{"user_id":781,"name":"Sweets","steam_id":76561198998446307,"connected_time":2919000000000,"state":"active","ping":82},{"user_id":799,"name":"trackpad gaming | f2p","steam_id":76561198840414371,"connected_time":1061000000000,"state":"active","ping":52},{"user_id":786,"name":"Cosmo","steam_id":76561199085643398,"connected_time":2439000000000,"state":"active","ping":76},{"user_id":801,"name":"tap","steam_id":76561199483478720,"connected_time":908000000000,"state":"active","ping":87},{"user_id":802,"name":"Kelladrin","steam_id":76561198040727880,"connected_time":296000000000,"state":"active","ping":61},{"user_id":774,"name":"HopeTheNeko","steam_id":76561199159285465,"connected_time":3767000000000,"state":"active","ping":78},{"user_id":784,"name":"top 10 sidewalks","steam_id":76561198844273999,"connected_time":2528000000000,"state":"active","ping":45},{"user_id":807,"name":"Quigi","steam_id":76561198144645874,"connected_time":2000000000,"state":"spawning","ping":79}]},{"server_id":119,"name":"Uncletopia | Seattle | 2 | All Maps","name_short":"sea-2","host":"sea-1.us.uncletopia.com","port":27025,"enabled":true,"region":"us-west","cc":"us","latitude":47.608013,"longitude":-122.33517,"reserved":0,"last_update":"0001-01-01T00:00:00Z","name_a2s":"Uncletopia | Seattle | 2 | All Maps","protocol":17,"map":"pl_swiftwater_final1","folder":"tf","game":"Team Fortress","app_id":440,"player_count":24,"max_players":24,"Bots":0,"server_type":"Dedicated","server_os":"Linux","password":true,"vac":true,"version":"7961495","steam_id":85568392924469998,"keywords":["nocrits","nodmgspread","payload","uncletopia"],"game_id":440,"stv_port":27026,"stv_name":"Uncletopia | Seattle | 2 | All Maps | STV","players":[{"user_id":328,"name":"MythicalP7","steam_id":76561198224785716,"connected_time":1949000000000,"state":"active","ping":63},{"user_id":322,"name":"--_Cook_--","steam_id":76561198080855748,"connected_time":2083000000000,"state":"active","ping":122},{"user_id":335,"name":"Mongol-wave","steam_id":76561198121052800,"connected_time":973000000000,"state":"active","ping":54},{"user_id":273,"name":"cannanza * \u003c3 teafy","steam_id":76561198103496593,"connected_time":5878000000000,"state":"active","ping":110},{"user_id":295,"name":"jon pickle water","steam_id":76561199036212135,"connected_time":4635000000000,"state":"active","ping":51},{"user_id":346,"name":"squibonacci","steam_id":76561198305870184,"connected_time":793000000000,"state":"active","ping":69},{"user_id":302,"name":"R5-D4","steam_id":76561198025196439,"connected_time":3761000000000,"state":"active","ping":61},{"user_id":340,"name":"Lad","steam_id":76561197990645296,"connected_time":885000000000,"state":"active","ping":105},{"user_id":323,"name":"Kc","steam_id":76561198210734407,"connected_time":2082000000000,"state":"active","ping":113},{"user_id":232,"name":"worker","steam_id":76561198039608940,"connected_time":8856000000000,"state":"active","ping":60},{"user_id":337,"name":"JavaScript Frappuccino","steam_id":76561198111620153,"connected_time":935000000000,"state":"active","ping":43},{"user_id":320,"name":"Useless","steam_id":76561198116079299,"connected_time":2649000000000,"state":"active","ping":49},{"user_id":341,"name":"Spooky Santabox","steam_id":76561198329679481,"connected_time":883000000000,"state":"active","ping":51},{"user_id":338,"name":"Keamy","steam_id":76561199471434875,"connected_time":920000000000,"state":"active","ping":43},{"user_id":342,"name":"They could be ********","steam_id":76561198441020995,"connected_time":881000000000,"state":"active","ping":58},{"user_id":336,"name":"slepeboi","steam_id":76561198168297206,"connected_time":962000000000,"state":"active","ping":63},{"user_id":349,"name":"AlIen","steam_id":76561198093605031,"connected_time":197000000000,"state":"active","ping":54},{"user_id":347,"name":"ed","steam_id":76561198080475712,"connected_time":790000000000,"state":"active","ping":71},{"user_id":321,"name":"Cheezbeargur","steam_id":76561198164702899,"connected_time":2636000000000,"state":"active","ping":67},{"user_id":293,"name":"teafy * \u003c3 cannanza","steam_id":76561198406252824,"connected_time":4914000000000,"state":"active","ping":60},{"user_id":292,"name":"Bob Sapp's Liver","steam_id":76561198011675372,"connected_time":5027000000000,"state":"active","ping":49},{"user_id":333,"name":"Branta","steam_id":76561199103842843,"connected_time":1179000000000,"state":"active","ping":44},{"user_id":326,"name":"tophawkyy","steam_id":76561199075934685,"connected_time":1997000000000,"state":"active","ping":80},{"user_id":283,"name":"Bolbi","steam_id":76561198051811597,"connected_time":5118000000000,"state":"active","ping":80}]},{"server_id":406,"name":"Uncletopia | Seattle | 3 | Stopwatch","name_short":"sea-3","host":"sea-1.us.uncletopia.com","port":27035,"enabled":true,"region":"us-west","cc":"us","latitude":47.608013,"longitude":-122.33517,"reserved":0,"last_update":"0001-01-01T00:00:00Z","name_a2s":"Uncletopia | Seattle | 3 | Stopwatch","protocol":17,"map":"workshop/koth_clearcut_b15.ugc2107050255","folder":"tf","game":"Team Fortress","app_id":440,"player_count":0,"max_players":24,"Bots":0,"server_type":"Dedicated","server_os":"Linux","password":true,"vac":true,"version":"7961495","steam_id":85568392924515217,"keywords":["cp","nocrits","nodmgspread","uncletopia"],"game_id":440,"stv_port":27036,"stv_name":"Uncletopia | Seattle | 3 | Stopwatch | STV","players":null},{"server_id":17,"name":"Uncletopia | San Francisco | 1 | All Maps","name_short":"sfo-1","host":"sfo-1.us.uncletopia.com","port":27015,"enabled":true,"region":"us-west","cc":"us","latitude":37.77397,"longitude":-122.4313,"reserved":0,"last_update":"0001-01-01T00:00:00Z","name_a2s":"Uncletopia | San Francisco | 1 | All Maps","protocol":17,"map":"koth_cascade","folder":"tf","game":"Team Fortress","app_id":440,"player_count":0,"max_players":24,"Bots":0,"server_type":"Dedicated","server_os":"Linux","password":true,"vac":true,"version":"7961495","steam_id":85568392924469999,"keywords":["cp","nocrits","nodmgspread","uncletopia"],"game_id":440,"stv_port":27016,"stv_name":"Uncletopia | San Francisco | 1 | All Maps | STV","players":null},{"server_id":18,"name":"Uncletopia | San Francisco | 2 | All Maps","name_short":"sfo-2","host":"sfo-1.us.uncletopia.com","port":27025,"enabled":true,"region":"us-west","cc":"us","latitude":37.77397,"longitude":-122.4313,"reserved":0,"last_update":"0001-01-01T00:00:00Z","name_a2s":"Uncletopia | San Francisco | 2 | All Maps","protocol":17,"map":"koth_cascade","folder":"tf","game":"Team Fortress","app_id":440,"player_count":0,"max_players":24,"Bots":0,"server_type":"Dedicated","server_os":"Linux","password":true,"vac":true,"version":"7961495","steam_id":85568392924470000,"keywords":["cp","nocrits","nodmgspread","uncletopia"],"game_id":440,"stv_port":27026,"stv_name":"Uncletopia | San Francisco | 2 | All Maps | STV","players":null},{"server_id":19,"name":"Uncletopia | San Francisco | 3 | Stopwatch","name_short":"sfo-3","host":"sfo-1.us.uncletopia.com","port":27035,"enabled":true,"region":"us-west","cc":"us","latitude":37.77397,"longitude":-122.4313,"reserved":0,"last_update":"0001-01-01T00:00:00Z","name_a2s":"Uncletopia | San Francisco | 3 | Stopwatch","protocol":17,"map":"workshop/pl_barnblitz_pro7.ugc582280235","folder":"tf","game":"Team Fortress","app_id":440,"player_count":22,"max_players":24,"Bots":0,"server_type":"Dedicated","server_os":"Linux","password":true,"vac":true,"version":"7961495","steam_id":85568392924742824,"keywords":["nocrits","nodmgspread","payload","uncletopia"],"game_id":440,"stv_port":27036,"stv_name":"Uncletopia | San Francisco | 3 | Stopwatch | STV","players":[{"user_id":139,"name":"diddy bop","steam_id":76561198327633561,"connected_time":303000000000,"state":"active","ping":72},{"user_id":140,"name":"dQw4w9WgXcQ","steam_id":76561198122136432,"connected_time":270000000000,"state":"active","ping":68},{"user_id":130,"name":"The Don","steam_id":76561198322125657,"connected_time":770000000000,"state":"active","ping":85},{"user_id":142,"name":"Spare(8)Ball","steam_id":76561197982432995,"connected_time":197000000000,"state":"active","ping":51},{"user_id":93,"name":"pepper_ment","steam_id":76561198404691203,"connected_time":3384000000000,"state":"active","ping":47},{"user_id":143,"name":"real singles in your area","steam_id":76561198004625126,"connected_time":96000000000,"state":"active","ping":87},{"user_id":111,"name":"Bushforg","steam_id":76561198967806996,"connected_time":1632000000000,"state":"active","ping":58},{"user_id":117,"name":"Ghwhaine","steam_id":76561199045414702,"connected_time":1372000000000,"state":"active","ping":77},{"user_id":114,"name":"josie","steam_id":76561198170848553,"connected_time":1439000000000,"state":"active","ping":65},{"user_id":131,"name":"The gang is what I trust","steam_id":76561198046775352,"connected_time":648000000000,"state":"active","ping":47},{"user_id":118,"name":"Ratchet55","steam_id":76561198208655521,"connected_time":1358000000000,"state":"active","ping":87},{"user_id":138,"name":"Ryld","steam_id":76561198010174380,"connected_time":448000000000,"state":"active","ping":96},{"user_id":129,"name":"Siopao","steam_id":76561198254089497,"connected_time":874000000000,"state":"active","ping":58},{"user_id":144,"name":"truck.freak.1978","steam_id":76561198062712676,"connected_time":74000000000,"state":"active","ping":69},{"user_id":145,"name":"La()VaJ()86","steam_id":76561198247547042,"connected_time":16000000000,"state":"spawning","ping":116},{"user_id":126,"name":"Preston","steam_id":76561198335444084,"connected_time":1077000000000,"state":"active","ping":128},{"user_id":99,"name":"sillygoon","steam_id":76561199086142678,"connected_time":3223000000000,"state":"active","ping":76},{"user_id":132,"name":"Infernatious","steam_id":76561199483610732,"connected_time":641000000000,"state":"active","ping":63},{"user_id":134,"name":"lil uzi squirt","steam_id":76561198045926594,"connected_time":572000000000,"state":"active","ping":58},{"user_id":136,"name":"NightGhost1400","steam_id":76561198810730471,"connected_time":530000000000,"state":"active","ping":65},{"user_id":137,"name":"Deck (new arch linux setup)","steam_id":76561198153129589,"connected_time":453000000000,"state":"active","ping":88},{"user_id":86,"name":"Drive-By-Fish-Guy","steam_id":76561198105513652,"connected_time":3719000000000,"state":"active","ping":86}]},{"server_id":20,"name":"Uncletopia | San Francisco | 4 | Community","name_short":"sfo-4","host":"sfo-1.us.uncletopia.com","port":27045,"enabled":true,"region":"us-west","cc":"us","latitude":37.77397,"longitude":-122.4313,"reserved":0,"last_update":"0001-01-01T00:00:00Z","name_a2s":"Uncletopia | San Francisco | 4 | Community","protocol":17,"map":"workshop/cp_bruhstbowl_b6.ugc2878604990","folder":"tf","game":"Team Fortress","app_id":440,"player_count":2,"max_players":24,"Bots":0,"server_type":"Dedicated","server_os":"Linux","password":true,"vac":true,"version":"7961495","steam_id":85568392924742826,"keywords":["cp","nocrits","nodmgspread","uncletopia"],"game_id":440,"stv_port":27046,"stv_name":"Uncletopia | San Francisco | 4 | Community | STV","players":[{"user_id":19,"name":"Wankers","steam_id":76561199440211419,"connected_time":42000000000,"state":"spawning","ping":168},{"user_id":20,"name":"Gasoline","steam_id":76561199066095058,"connected_time":18000000000,"state":"spawning","ping":260}]},{"server_id":141,"name":"Uncletopia | Sydney | 1 | All Maps","name_short":"syd-1","host":"syd-1.au.uncletopia.com","port":27015,"enabled":true,"region":"au","cc":"au","latitude":-33.865143,"longitude":151.2099,"reserved":0,"last_update":"0001-01-01T00:00:00Z","name_a2s":"Uncletopia | Sydney | 1 | All Maps","protocol":17,"map":"pl_barnblitz","folder":"tf","game":"Team Fortress","app_id":440,"player_count":0,"max_players":24,"Bots":0,"server_type":"Dedicated","server_os":"Linux","password":true,"vac":true,"version":"7961495","steam_id":85568392924470001,"keywords":["nocrits","nodmgspread","payload","uncletopia"],"game_id":440,"stv_port":27016,"stv_name":"Uncletopia | Sydney | 1 | All Maps | STV","players":null},{"server_id":123,"name":"Uncletopia | Sydney | 2 | All Maps","name_short":"syd-2","host":"syd-1.au.uncletopia.com","port":27025,"enabled":true,"region":"au","cc":"au","latitude":-33.865143,"longitude":151.2099,"reserved":0,"last_update":"0001-01-01T00:00:00Z","name_a2s":"Uncletopia | Sydney | 2 | All Maps","protocol":17,"map":"koth_lakeside_final","folder":"tf","game":"Team Fortress","app_id":440,"player_count":0,"max_players":24,"Bots":0,"server_type":"Dedicated","server_os":"Linux","password":true,"vac":true,"version":"7961495","steam_id":85568392924470002,"keywords":["cp","nocrits","nodmgspread","uncletopia"],"game_id":440,"stv_port":27026,"stv_name":"Uncletopia | Sydney | 2 | All Maps | STV","players":null},{"server_id":395,"name":"Uncletopia | Sydney | 3 | All Maps","name_short":"syd-3","host":"syd-1.au.uncletopia.com","port":27035,"enabled":true,"region":"au","cc":"au","latitude":-33.865143,"longitude":151.2099,"reserved":0,"last_update":"0001-01-01T00:00:00Z","name_a2s":"Uncletopia | Sydney | 3 | All Maps","protocol":17,"map":"koth_highpass","folder":"tf","game":"Team Fortress","app_id":440,"player_count":0,"max_players":24,"Bots":0,"server_type":"Dedicated","server_os":"Linux","password":true,"vac":true,"version":"7961495","steam_id":85568392925194467,"keywords":["cp","nocrits","nodmgspread","uncletopia"],"game_id":440,"stv_port":27036,"stv_name":"Uncletopia | Sydney | 3 | All Maps | STV","players":null},{"server_id":396,"name":"Uncletopia | Sydney | 4 | All Maps","name_short":"syd-4","host":"syd-1.au.uncletopia.com","port":27045,"enabled":true,"region":"au","cc":"au","latitude":-33.865143,"longitude":151.2099,"reserved":0,"last_update":"0001-01-01T00:00:00Z","name_a2s":"Uncletopia | Sydney | 4 | All Maps","protocol":17,"map":"koth_cascade","folder":"tf","game":"Team Fortress","app_id":440,"player_count":0,"max_players":24,"Bots":0,"server_type":"Dedicated","server_os":"Linux","password":true,"vac":true,"version":"7961495","steam_id":85568392925397958,"keywords":["cp","nocrits","nodmgspread","uncletopia"],"game_id":440,"stv_port":27046,"stv_name":"Uncletopia | Sydney | 4 | All Maps | STV","players":null},{"server_id":58,"name":"Uncletopia | Sydney | 5 | Stopwatch","name_short":"syd-5","host":"syd-1.au.uncletopia.com","port":27055,"enabled":true,"region":"au","cc":"au","latitude":-33.865143,"longitude":151.2099,"reserved":0,"last_update":"0001-01-01T00:00:00Z","name_a2s":"Uncletopia | Sydney | 5 | Stopwatch","protocol":17,"map":"pl_frontier_final","folder":"tf","game":"Team Fortress","app_id":440,"player_count":0,"max_players":24,"Bots":0,"server_type":"Dedicated","server_os":"Linux","password":true,"vac":true,"version":"7961495","steam_id":85568392925397959,"keywords":["nocrits","nodmgspread","payload","uncletopia"],"game_id":440,"stv_port":27056,"stv_name":"Uncletopia | Sydney | 5 | Stopwatch | STV","players":null},{"server_id":59,"name":"Uncletopia | Sydney | 6 | Community","name_short":"syd-6","host":"syd-1.au.uncletopia.com","port":27065,"enabled":true,"region":"au","cc":"au","latitude":-33.865143,"longitude":151.2099,"reserved":0,"last_update":"0001-01-01T00:00:00Z","name_a2s":"Uncletopia | Sydney | 6 | Community","protocol":17,"map":"cp_sunshine","folder":"tf","game":"Team Fortress","app_id":440,"player_count":0,"max_players":24,"Bots":0,"server_type":"Dedicated","server_os":"Linux","password":true,"vac":true,"version":"7961495","steam_id":85568392925397960,"keywords":["cp","nocrits","nodmgspread","uncletopia"],"game_id":440,"stv_port":27066,"stv_name":"Uncletopia | Sydney | 6 | Community | STV","players":null},{"server_id":49,"name":"Uncletopia | Warsaw | 1 | One Thousand Uncles","name_short":"waw-1","host":"waw-1.pl.uncletopia.com","port":27015,"enabled":true,"region":"eu","cc":"pl","latitude":52.2297,"longitude":21.017532,"reserved":0,"last_update":"0001-01-01T00:00:00Z","name_a2s":"Uncletopia | Warsaw | 1 | One Thousand Uncles","protocol":17,"map":"koth_highpass","folder":"tf","game":"Team Fortress","app_id":440,"player_count":0,"max_players":32,"Bots":0,"server_type":"Dedicated","server_os":"Linux","password":true,"vac":true,"version":"7961495","steam_id":85568392925397850,"keywords":["alltalk","cp","danepve","increased_maxplayers","nocrits","norespawntime","uncletopia"],"game_id":440,"stv_port":0,"stv_name":"","players":null},{"server_id":50,"name":"Uncletopia | Warsaw | 2 | One Thousand Uncles","name_short":"waw-2","host":"waw-1.pl.uncletopia.com","port":27025,"enabled":true,"region":"eu","cc":"pl","latitude":52.2297,"longitude":21.017532,"reserved":0,"last_update":"0001-01-01T00:00:00Z","name_a2s":"Uncletopia | Warsaw | 2 | One Thousand Uncles","protocol":17,"map":"pl_goldrush","folder":"tf","game":"Team Fortress","app_id":440,"player_count":0,"max_players":32,"Bots":0,"server_type":"Dedicated","server_os":"Linux","password":true,"vac":true,"version":"7961495","steam_id":85568392925397851,"keywords":["alltalk","danepve","increased_maxplayers","nocrits","norespawntime","payload","uncletopia"],"game_id":440,"stv_port":0,"stv_name":"","players":null},{"server_id":51,"name":"Uncletopia | Warsaw | 3 | All Maps","name_short":"waw-3","host":"waw-1.pl.uncletopia.com","port":27035,"enabled":true,"region":"eu","cc":"pl","latitude":52.2297,"longitude":21.017532,"reserved":0,"last_update":"0001-01-01T00:00:00Z","name_a2s":"Uncletopia | Warsaw | 3 | All Maps","protocol":17,"map":"plr_pipeline","folder":"tf","game":"Team Fortress","app_id":440,"player_count":0,"max_players":24,"Bots":0,"server_type":"Dedicated","server_os":"Linux","password":true,"vac":true,"version":"7961495","steam_id":85568392925397852,"keywords":["nocrits","nodmgspread","payload","uncletopia"],"game_id":440,"stv_port":27036,"stv_name":"Uncletopia | Warsaw | 3 | All Maps | STV","players":null},{"server_id":52,"name":"Uncletopia | Warsaw | 4 | All Maps","name_short":"waw-4","host":"waw-1.pl.uncletopia.com","port":27045,"enabled":true,"region":"eu","cc":"pl","latitude":52.2297,"longitude":21.017532,"reserved":0,"last_update":"0001-01-01T00:00:00Z","name_a2s":"Uncletopia | Warsaw | 4 | All Maps","protocol":17,"map":"cp_coldfront","folder":"tf","game":"Team Fortress","app_id":440,"player_count":0,"max_players":24,"Bots":0,"server_type":"Dedicated","server_os":"Linux","password":true,"vac":true,"version":"7961495","steam_id":85568392925397853,"keywords":["cp","nocrits","nodmgspread","uncletopia"],"game_id":440,"stv_port":27046,"stv_name":"Uncletopia | Warsaw | 4 | All Maps | STV","players":null},{"server_id":53,"name":"Uncletopia | Warsaw | 5 | Stopwatch","name_short":"waw-5","host":"waw-1.pl.uncletopia.com","port":27055,"enabled":true,"region":"eu","cc":"pl","latitude":52.2297,"longitude":21.017532,"reserved":0,"last_update":"0001-01-01T00:00:00Z","name_a2s":"Uncletopia | Warsaw | 5 | Stopwatch","protocol":17,"map":"workshop/koth_bagel_rc6.ugc2514036946","folder":"tf","game":"Team Fortress","app_id":440,"player_count":0,"max_players":24,"Bots":0,"server_type":"Dedicated","server_os":"Linux","password":true,"vac":true,"version":"7961495","steam_id":85568392925397854,"keywords":["cp","nocrits","nodmgspread","uncletopia"],"game_id":440,"stv_port":27056,"stv_name":"Uncletopia | Warsaw | 5 | Stopwatch | STV","players":null},{"server_id":54,"name":"Uncletopia | Warsaw | 6 | Community","name_short":"waw-6","host":"waw-1.pl.uncletopia.com","port":27065,"enabled":true,"region":"eu","cc":"pl","latitude":52.2297,"longitude":21.017532,"reserved":0,"last_update":"0001-01-01T00:00:00Z","name_a2s":"Uncletopia | Warsaw | 6 | Community","protocol":17,"map":"workshop/pl_badwater_pro_v12.ugc2142942074","folder":"tf","game":"Team Fortress","app_id":440,"player_count":0,"max_players":24,"Bots":0,"server_type":"Dedicated","server_os":"Linux","password":true,"vac":true,"version":"7961495","steam_id":85568392925397856,"keywords":["nocrits","nodmgspread","payload","uncletopia"],"game_id":440,"stv_port":27066,"stv_name":"Uncletopia | Warsaw | 6 | Community | STV","players":null}]}