{"status":true,"message":"","result":[{"server_id":9,"name":"Uncletopia | Atlanta | 1 | All Maps","name_short":"atl-1","host":"atl-1.us.uncletopia.com","port":27015,"enabled":true,"region":"us-east","cc":"us","latitude":33.753746,"longitude":-84.38633,"reserved":0,"last_update":"0001-01-01T00:00:00Z","name_a2s":"Uncletopia | Atlanta | 1 | All Maps","protocol":17,"map":"cp_steel","folder":"tf","game":"Team Fortress","app_id":440,"player_count":24,"max_players":24,"Bots":0,"server_type":"Dedicated","server_os":"Linux","password":true,"vac":true,"version":"7757534","steam_id":85568392924469982,"keywords":["cp","nocrits","nodmgspread","uncletopia"],"game_id":440,"stv_port":27016,"stv_name":"Uncletopia | Atlanta | 1 | All Maps | STV","players":[{"user_id":315,"name":"radiohead enjoyer","steam_id":76561198397662124,"connected_time":5273000000000,"state":"active","ping":89},{"user_id":373,"name":"nemo","steam_id":76561198319990195,"connected_time":419000000000,"state":"active","ping":76},{"user_id":369,"name":"Rio\u003c33333","steam_id":76561198299175965,"connected_time":599000000000,"state":"active","ping":59},{"user_id":338,"name":"Jet?","steam_id":76561198098130891,"connected_time":3084000000000,"state":"active","ping":76},{"user_id":331,"name":"popfulmail","steam_id":76561198865971290,"connected_time":3112000000000,"state":"active","ping":88},{"user_id":353,"name":"Flint","steam_id":76561198066547582,"connected_time":1790000000000,"state":"active","ping":106},{"user_id":332,"name":"atl1icyy","steam_id":76561198968001329,"connected_time":3106000000000,"state":"active","ping":46},{"user_id":375,"name":"mayhem","steam_id":76561199246637881,"connected_time":146000000000,"state":"active","ping":60},{"user_id":339,"name":"ATL 1 | Save your wifi","steam_id":76561198286147372,"connected_time":3083000000000,"state":"active","ping":51},{"user_id":356,"name":"MasterGeek.MX","steam_id":76561198063355220,"connected_time":1702000000000,"state":"active","ping":123},{"user_id":341,"name":"G_Bob","steam_id":76561198098133233,"connected_time":3061000000000,"state":"active","ping":55},{"user_id":334,"name":"You Want Me","steam_id":76561198135492119,"connected_time":3104000000000,"state":"active","ping":72},{"user_id":376,"name":"[.iG]Ak Warsman","steam_id":76561197995983788,"connected_time":80000000000,"state":"spawning","ping":135},{"user_id":322,"name":"cola","steam_id":76561198374390458,"connected_time":5064000000000,"state":"active","ping":58},{"user_id":357,"name":"Ground Control to Majortom","steam_id":76561198065589126,"connected_time":1700000000000,"state":"active","ping":70},{"user_id":351,"name":"Ashes!","steam_id":76561197998475441,"connected_time":2094000000000,"state":"active","ping":76},{"user_id":366,"name":"Uganda Knuckles lll","steam_id":76561199121276474,"connected_time":1295000000000,"state":"active","ping":82},{"user_id":371,"name":"DFR DeezNoodlez","steam_id":76561198246700372,"connected_time":545000000000,"state":"active","ping":60},{"user_id":372,"name":"AverageSandwich","steam_id":76561199474528163,"connected_time":544000000000,"state":"active","ping":118},{"user_id":359,"name":"BIG HOG","steam_id":76561198079923652,"connected_time":1665000000000,"state":"active","ping":64},{"user_id":374,"name":"Monkey Mode","steam_id":76561197961267543,"connected_time":242000000000,"state":"active","ping":55},{"user_id":349,"name":"Brown_Dream","steam_id":76561198975766145,"connected_time":2388000000000,"state":"active","ping":77},{"user_id":361,"name":"Recursive Gamer","steam_id":76561198042102952,"connected_time":1630000000000,"state":"active","ping":86},{"user_id":336,"name":"lil hog","steam_id":76561199230929836,"connected_time":3103000000000,"state":"active","ping":81}]},{"server_id":400,"name":"Uncletopia | Atlanta | 3 | Community","name_short":"atl-3","host":"atl-1.us.uncletopia.com","port":27035,"enabled":true,"region":"us-east","cc":"us","latitude":33.753746,"longitude":-84.38633,"reserved":0,"last_update":"0001-01-01T00:00:00Z","name_a2s":"Uncletopia | Atlanta | 3 | Community","protocol":17,"map":"workshop/cp_overgrown_rc7b.ugc503939302","folder":"tf","game":"Team Fortress","app_id":440,"player_count":21,"max_players":24,"Bots":0,"server_type":"Dedicated","server_os":"Linux","password":true,"vac":true,"version":"7757534","steam_id":85568392924515187,"keywords":["cp","nocrits","nodmgspread","uncletopia"],"game_id":440,"stv_port":27036,"stv_name":"Uncletopia | Atlanta | 3 | Community | STV","players":[{"user_id":129,"name":"Barnasaurus","steam_id":76561199211707794,"connected_time":844000000000,"state":"active","ping":90},{"user_id":134,"name":"PLEBISLORD","steam_id":76561198375679278,"connected_time":358000000000,"state":"active","ping":119},{"user_id":128,"name":"THRILLHO","steam_id":76561198371663047,"connected_time":871000000000,"state":"active","ping":60},{"user_id":112,"name":"guh","steam_id":76561197972342286,"connected_time":1988000000000,"state":"active","ping":75},{"user_id":132,"name":"Moshi Man","steam_id":76561198038249762,"connected_time":517000000000,"state":"active","ping":70},{"user_id":117,"name":"BlixyDragon","steam_id":76561198295422834,"connected_time":1286000000000,"state":"active","ping":111},{"user_id":130,"name":"JacripspyVulcano","steam_id":76561198966980576,"connected_time":567000000000,"state":"active","ping":64},{"user_id":131,"name":"aether","steam_id":76561198178293861,"connected_time":555000000000,"state":"active","ping":89},{"user_id":133,"name":"AlwaysChilling","steam_id":76561198054236546,"connected_time":507000000000,"state":"active","ping":72},{"user_id":135,"name":"FoobGang","steam_id":76561199082401122,"connected_time":345000000000,"state":"active","ping":99},{"user_id":137,"name":"AgentBarrel","steam_id":76561198051294946,"connected_time":288000000000,"state":"active","ping":68},{"user_id":20,"name":"Nichnolte","steam_id":76561198051811176,"connected_time":6210000000000,"state":"active","ping":181},{"user_id":126,"name":"Featherless Biped","steam_id":76561198034171721,"connected_time":897000000000,"state":"active","ping":89},{"user_id":85,"name":"Gay Cake","steam_id":76561198004388831,"connected_time":4082000000000,"state":"active","ping":80},{"user_id":120,"name":"Mjetalac","steam_id":76561198133085217,"connected_time":1264000000000,"state":"active","ping":184},{"user_id":122,"name":"Admins_Idiot","steam_id":76561198105516683,"connected_time":1220000000000,"state":"active","ping":54},{"user_id":94,"name":"bojack from the show bojack hor","steam_id":76561198053006712,"connected_time":3408000000000,"state":"active","ping":59},{"user_id":41,"name":"sweppy","steam_id":76561198035457667,"connected_time":5955000000000,"state":"active","ping":44},{"user_id":123,"name":"fudo myoo","steam_id":76561198456258164,"connected_time":1216000000000,"state":"active","ping":58},{"user_id":107,"name":"Ghostly","steam_id":76561198080155633,"connected_time":2882000000000,"state":"active","ping":85},{"user_id":127,"name":"TF2 Scout","steam_id":76561199211023244,"connected_time":881000000000,"state":"active","ping":186}]},{"server_id":401,"name":"Uncletopia | Atlanta | 4 | No Payload","name_short":"atl-4","host":"atl-1.us.uncletopia.com","port":27045,"enabled":true,"region":"us-east","cc":"us","latitude":33.753746,"longitude":-84.38633,"reserved":0,"last_update":"0001-01-01T00:00:00Z","name_a2s":"","protocol":0,"map":"","folder":"","game":"","app_id":0,"player_count":0,"max_players":0,"Bots":0,"server_type":"","server_os":"","password":false,"vac":false,"version":"","steam_id":0,"keywords":null,"game_id":0,"stv_port":0,"stv_name":"","players":null},{"server_id":2,"name":"Uncletopia | Chicago | 1 | All Maps","name_short":"chi-1","host":"chi-1.us.uncletopia.com","port":27015,"enabled":true,"region":"us-central","cc":"us","latitude":41.881832,"longitude":-87.62318,"reserved":0,"last_update":"0001-01-01T00:00:00Z","name_a2s":"Uncletopia | Chicago | 1 | All Maps","protocol":17,"map":"pl_snowycoast","folder":"tf","game":"Team Fortress","app_id":440,"player_count":24,"max_players":24,"Bots":0,"server_type":"Dedicated","server_os":"Linux","password":true,"vac":true,"version":"7757534","steam_id":85568392924469984,"keywords":["nocrits","nodmgspread","payload","uncletopia"],"game_id":440,"stv_port":27016,"stv_name":"Uncletopia | Chicago | 1 | All Maps | STV","players":[{"user_id":588,"name":"grind","steam_id":76561198801214349,"connected_time":821000000000,"state":"active","ping":76},{"user_id":586,"name":"keyboardorca","steam_id":76561198934960505,"connected_time":1000000000000,"state":"active","ping":65},{"user_id":592,"name":"tum","steam_id":76561198084712019,"connected_time":469000000000,"state":"active","ping":99},{"user_id":518,"name":"years","steam_id":76561197994098627,"connected_time":4408000000000,"state":"active","ping":121},{"user_id":584,"name":"robotferret87","steam_id":76561198259837716,"connected_time":1031000000000,"state":"active","ping":84},{"user_id":599,"name":"Saint","steam_id":76561199122494395,"connected_time":104000000000,"state":"active","ping":77},{"user_id":564,"name":"Cheeeeeeeen","steam_id":76561198986388085,"connected_time":2278000000000,"state":"active","ping":106},{"user_id":577,"name":"Takareer","steam_id":76561198001751765,"connected_time":1448000000000,"state":"active","ping":56},{"user_id":466,"name":"bary","steam_id":76561197988317087,"connected_time":7839000000000,"state":"active","ping":64},{"user_id":566,"name":"Smet19","steam_id":76561198118455606,"connected_time":2068000000000,"state":"active","ping":59},{"user_id":535,"name":"mossy_woods","steam_id":76561198284350370,"connected_time":3586000000000,"state":"active","ping":67},{"user_id":595,"name":"‡ºò ‚ãÜÀöüéßCaffeine‚òï*Àñ¬∞","steam_id":76561199259309294,"connected_time":326000000000,"state":"active","ping":99},{"user_id":596,"name":"john","steam_id":76561198850447852,"connected_time":322000000000,"state":"active","ping":85},{"user_id":542,"name":"Rec","steam_id":76561198022813906,"connected_time":3344000000000,"state":"active","ping":54},{"user_id":593,"name":"Healing Weapons Guy","steam_id":76561198005608047,"connected_time":433000000000,"state":"active","ping":62},{"user_id":600,"name":"Sloome Lover","steam_id":76561198299879257,"connected_time":98000000000,"state":"active","ping":76},{"user_id":594,"name":"angryboa","steam_id":76561197970648235,"connected_time":403000000000,"state":"active","ping":94},{"user_id":545,"name":"Master Of Whales","steam_id":76561198349104889,"connected_time":3184000000000,"state":"active","ping":114},{"user_id":579,"name":"lyanide","steam_id":76561198311704368,"connected_time":1253000000000,"state":"active","ping":87},{"user_id":557,"name":"Jak(i)","steam_id":76561198076823144,"connected_time":2674000000000,"state":"active","ping":68},{"user_id":567,"name":"miner","steam_id":76561198073035221,"connected_time":2057000000000,"state":"active","ping":63},{"user_id":597,"name":"Belmore","steam_id":76561198009355231,"connected_time":321000000000,"state":"active","ping":117},{"user_id":570,"name":"Crab Rangoon","steam_id":76561198059310510,"connected_time":2002000000000,"state":"active","ping":69},{"user_id":598,"name":"Sous-Chef","steam_id":76561198075705827,"connected_time":309000000000,"state":"active","ping":76}]},{"server_id":106,"name":"Uncletopia | Chicago | 2 | All Maps","name_short":"chi-2","host":"chi-1.us.uncletopia.com","port":27025,"enabled":true,"region":"us-central","cc":"us","latitude":41.881832,"longitude":-87.62318,"reserved":0,"last_update":"0001-01-01T00:00:00Z","name_a2s":"Uncletopia | Chicago | 2 | All Maps","protocol":17,"map":"koth_brazil","folder":"tf","game":"Team Fortress","app_id":440,"player_count":24,"max_players":24,"Bots":0,"server_type":"Dedicated","server_os":"Linux","password":true,"vac":true,"version":"7757534","steam_id":85568392924469985,"keywords":["cp","nocrits","nodmgspread","uncletopia"],"game_id":440,"stv_port":27026,"stv_name":"Uncletopia | Chicago | 2 | All Maps | STV","players":[{"user_id":645,"name":"Dangerous_Dave76","steam_id":76561199230056550,"connected_time":199000000000,"state":"active","ping":116},{"user_id":618,"name":"LOL LIMEWIRE !!!!","steam_id":76561198066970734,"connected_time":1495000000000,"state":"active","ping":105},{"user_id":646,"name":"Smoker Lung","steam_id":76561198077167395,"connected_time":169000000000,"state":"active","ping":55},{"user_id":621,"name":"basilberry","steam_id":76561198145275937,"connected_time":1420000000000,"state":"active","ping":90},{"user_id":632,"name":"Dosario","steam_id":76561198298095535,"connected_time":598000000000,"state":"active","ping":100},{"user_id":647,"name":"PTSleepyHead","steam_id":76561198037748705,"connected_time":146000000000,"state":"active","ping":101},{"user_id":636,"name":"Triple Pain","steam_id":76561198103510264,"connected_time":474000000000,"state":"active","ping":54},{"user_id":648,"name":"Dahrealjerry","steam_id":76561199114254890,"connected_time":138000000000,"state":"active","ping":104},{"user_id":644,"name":"·µê'À¢f'·µóÀ¢","steam_id":76561198090271815,"connected_time":228000000000,"state":"active","ping":121},{"user_id":649,"name":"neverseemeagain","steam_id":76561198062054335,"connected_time":122000000000,"state":"active","ping":96},{"user_id":594,"name":"Astrozombeez","steam_id":76561198113754079,"connected_time":2347000000000,"state":"active","ping":99},{"user_id":637,"name":"swan","steam_id":76561198012569200,"connected_time":453000000000,"state":"active","ping":72},{"user_id":650,"name":"Leviathan","steam_id":76561197997528907,"connected_time":114000000000,"state":"active","ping":57},{"user_id":622,"name":"aimboat","steam_id":76561198218131923,"connected_time":1404000000000,"state":"active","ping":64},{"user_id":641,"name":"JunkYardFox","steam_id":76561199088276403,"connected_time":380000000000,"state":"active","ping":51},{"user_id":651,"name":"merektd","steam_id":76561198123109185,"connected_time":108000000000,"state":"active","ping":57},{"user_id":597,"name":"JimmySquid","steam_id":76561198254242530,"connected_time":2308000000000,"state":"active","ping":69},{"user_id":631,"name":"merge without looking","steam_id":76561198056702628,"connected_time":656000000000,"state":"active","ping":60},{"user_id":652,"name":"Kaluka","steam_id":76561198036861445,"connected_time":97000000000,"state":"active","ping":74},{"user_id":625,"name":"6kre_1t","steam_id":76561198106157810,"connected_time":1188000000000,"state":"active","ping":61},{"user_id":653,"name":"Would You Make Me A Sandwich?","steam_id":76561198152332211,"connected_time":97000000000,"state":"active","ping":59},{"user_id":640,"name":"AndreaTheGinger","steam_id":76561198379463759,"connected_time":388000000000,"state":"active","ping":64},{"user_id":654,"name":"Lilac","steam_id":76561198977523626,"connected_time":95000000000,"state":"active","ping":71},{"user_id":656,"name":"Mr. Soupman","steam_id":76561198021649598,"connected_time":42000000000,"state":"active","ping":61}]},{"server_id":402,"name":"Uncletopia | Chicago | 3 | All Maps","name_short":"chi-3","host":"chi-1.us.uncletopia.com","port":27035,"enabled":true,"region":"us-central","cc":"us","latitude":41.881832,"longitude":-87.62318,"reserved":0,"last_update":"0001-01-01T00:00:00Z","name_a2s":"Uncletopia | Chicago | 3 | All Maps","protocol":17,"map":"koth_cascade","folder":"tf","game":"Team Fortress","app_id":440,"player_count":0,"max_players":24,"Bots":0,"server_type":"Dedicated","server_os":"Linux","password":true,"vac":true,"version":"7757534","steam_id":85568392924515191,"keywords":["cp","nocrits","nodmgspread","uncletopia"],"game_id":440,"stv_port":27036,"stv_name":"Uncletopia | Chicago | 3 | All Maps | STV","players":null},{"server_id":403,"name":"Uncletopia | Chicago | 4 | All Maps","name_short":"chi-4","host":"chi-1.us.uncletopia.com","port":27045,"enabled":true,"region":"us-central","cc":"us","latitude":41.881832,"longitude":-87.62318,"reserved":0,"last_update":"0001-01-01T00:00:00Z","name_a2s":"Uncletopia | Chicago | 4 | All Maps","protocol":17,"map":"pl_swiftwater_final1","folder":"tf","game":"Team Fortress","app_id":440,"player_count":24,"max_players":24,"Bots":0,"server_type":"Dedicated","server_os":"Linux","password":true,"vac":true,"version":"7757534","steam_id":85568392924515193,"keywords":["nocrits","nodmgspread","payload","uncletopia"],"game_id":440,"stv_port":27046,"stv_name":"Uncletopia | Chicago | 4 | All Maps | STV","players":[{"user_id":466,"name":"RockMan","steam_id":76561199228684720,"connected_time":272000000000,"state":"active","ping":79},{"user_id":402,"name":"RedSock","steam_id":76561198161243404,"connected_time":4668000000000,"state":"active","ping":46},{"user_id":451,"name":"Gad","steam_id":76561198020792373,"connected_time":1096000000000,"state":"active","ping":58},{"user_id":418,"name":"SafetyInstructor","steam_id":76561199195205705,"connected_time":3725000000000,"state":"active","ping":85},{"user_id":465,"name":"causedactus","steam_id":76561199200211867,"connected_time":308000000000,"state":"active","ping":183},{"user_id":467,"name":"Lane","steam_id":76561197965828506,"connected_time":272000000000,"state":"active","ping":36},{"user_id":454,"name":"tabasco","steam_id":76561198355094896,"connected_time":1003000000000,"state":"active","ping":71},{"user_id":431,"name":"Fr–∞nk","steam_id":76561198150754556,"connected_time":2769000000000,"state":"active","ping":45},{"user_id":458,"name":"Isopentyl Ethanoate","steam_id":76561198116389072,"connected_time":456000000000,"state":"active","ping":117},{"user_id":456,"name":"Kitt(eh) ‚àë:3","steam_id":76561198110858518,"connected_time":660000000000,"state":"active","ping":56},{"user_id":468,"name":"The_Duck_Watching_You","steam_id":76561199363112232,"connected_time":269000000000,"state":"active","ping":92},{"user_id":449,"name":"caption cool","steam_id":76561197990612056,"connected_time":1111000000000,"state":"active","ping":49},{"user_id":450,"name":"Rappitor","steam_id":76561198105613110,"connected_time":1100000000000,"state":"active","ping":49},{"user_id":459,"name":"Macko","steam_id":76561198452005461,"connected_time":410000000000,"state":"active","ping":80},{"user_id":420,"name":"King Cotton","steam_id":76561198292444376,"connected_time":3717000000000,"state":"active","ping":86},{"user_id":460,"name":"Doctor Glocktorpus [NGC]","steam_id":76561198049194645,"connected_time":375000000000,"state":"active","ping":69},{"user_id":427,"name":"B)","steam_id":76561198093921290,"connected_time":3190000000000,"state":"active","ping":48},{"user_id":470,"name":"Comfy Monkey","steam_id":76561197998434936,"connected_time":250000000000,"state":"active","ping":53},{"user_id":462,"name":"Yam Jazzy Jim","steam_id":76561198000788950,"connected_time":330000000000,"state":"active","ping":66},{"user_id":469,"name":"zed","steam_id":76561198090531755,"connected_time":265000000000,"state":"active","ping":74},{"user_id":464,"name":"Chillin Turt","steam_id":76561198025796849,"connected_time":314000000000,"state":"active","ping":71},{"user_id":413,"name":"Femboy Gaming","steam_id":76561199121980584,"connected_time":4067000000000,"state":"active","ping":62},{"user_id":438,"name":"Atlas","steam_id":76561198127975050,"connected_time":2438000000000,"state":"active","ping":75},{"user_id":318,"name":"when the oob hits","steam_id":76561198277163301,"connected_time":10157000000000,"state":"active","ping":65}]},{"server_id":36,"name":"Uncletopia | Chicago | 5 | All Maps","name_short":"chi-5","host":"chi-2.us.uncletopia.com","port":27015,"enabled":true,"region":"us-central","cc":"us","latitude":41.881832,"longitude":-87.62318,"reserved":0,"last_update":"0001-01-01T00:00:00Z","name_a2s":"Uncletopia | Chicago | 5 | All Maps","protocol":17,"map":"koth_lakeside_final","folder":"tf","game":"Team Fortress","app_id":440,"player_count":0,"max_players":24,"Bots":0,"server_type":"Dedicated","server_os":"Linux","password":true,"vac":true,"version":"7757534","steam_id":85568392924866362,"keywords":["cp","nocrits","nodmgspread","uncletopia"],"game_id":440,"stv_port":27016,"stv_name":"Uncletopia | Chicago | 5 | All Maps | STV","players":null},{"server_id":37,"name":"Uncletopia | Chicago | 6 | All Maps","name_short":"chi-6","host":"chi-2.us.uncletopia.com","port":27025,"enabled":true,"region":"us-central","cc":"us","latitude":41.881832,"longitude":-87.62318,"reserved":0,"last_update":"0001-01-01T00:00:00Z","name_a2s":"Uncletopia | Chicago | 6 | All Maps","protocol":17,"map":"cp_dustbowl","folder":"tf","game":"Team Fortress","app_id":440,"player_count":24,"max_players":24,"Bots":0,"server_type":"Dedicated","server_os":"Linux","password":true,"vac":true,"version":"7757534","steam_id":85568392924866363,"keywords":["cp","nocrits","nodmgspread","uncletopia"],"game_id":440,"stv_port":27026,"stv_name":"Uncletopia | Chicago | 6 | All Maps | STV","players":[{"user_id":6,"name":"dicksnip","steam_id":76561198356515396,"connected_time":2141000000000,"state":"active","ping":71},{"user_id":7,"name":"Dustbowl's Electrician","steam_id":76561199027981643,"connected_time":1564000000000,"state":"active","ping":71},{"user_id":39,"name":"Lakhesis","steam_id":76561197969796919,"connected_time":318000000000,"state":"active","ping":61},{"user_id":12,"name":"Wang of Wall St","steam_id":76561198047460598,"connected_time":1010000000000,"state":"active","ping":78},{"user_id":11,"name":"dubba (‚Ä¢ÃÄ_‚Ä¢ÃÅ )","steam_id":76561199428471192,"connected_time":1075000000000,"state":"active","ping":114},{"user_id":13,"name":"Anxiety","steam_id":76561198365627687,"connected_time":973000000000,"state":"active","ping":115},{"user_id":14,"name":"Big Boy B-Franks","steam_id":76561198050292373,"connected_time":907000000000,"state":"active","ping":199},{"user_id":15,"name":"Kraftlos","steam_id":76561198074350350,"connected_time":864000000000,"state":"active","ping":75},{"user_id":16,"name":"Brain Tumor","steam_id":76561198805526881,"connected_time":861000000000,"state":"active","ping":83},{"user_id":17,"name":"Mr. Fungus","steam_id":76561199054621064,"connected_time":834000000000,"state":"active","ping":84},{"user_id":19,"name":"hoOmIN","steam_id":76561198334947079,"connected_time":805000000000,"state":"active","ping":88},{"user_id":35,"name":"scotchTape_sero‚Ñ¢","steam_id":76561198865210316,"connected_time":532000000000,"state":"active","ping":60},{"user_id":21,"name":"Turtlin'","steam_id":76561198885096042,"connected_time":727000000000,"state":"active","ping":63},{"user_id":22,"name":"Busta Nutt","steam_id":76561198013308693,"connected_time":696000000000,"state":"active","ping":61},{"user_id":24,"name":"Hill Bill","steam_id":76561198131629233,"connected_time":684000000000,"state":"active","ping":58},{"user_id":36,"name":"DATONA","steam_id":76561198325164208,"connected_time":521000000000,"state":"active","ping":72},{"user_id":26,"name":"SDR Phantom","steam_id":76561198873231200,"connected_time":658000000000,"state":"active","ping":72},{"user_id":27,"name":"Zippy","steam_id":76561198279229422,"connected_time":654000000000,"state":"active","ping":57},{"user_id":28,"name":"MINI CRIT!999","steam_id":76561198027649268,"connected_time":654000000000,"state":"active","ping":84},{"user_id":29,"name":"Zoo Keeper Engie","steam_id":76561198064380111,"connected_time":639000000000,"state":"active","ping":78},{"user_id":38,"name":"faxxy","steam_id":76561198079621240,"connected_time":452000000000,"state":"active","ping":76},{"user_id":40,"name":"Quailey","steam_id":76561198435292841,"connected_time":189000000000,"state":"active","ping":74},{"user_id":32,"name":"CertifiedCereal","steam_id":76561198055027895,"connected_time":634000000000,"state":"active","ping":72},{"user_id":33,"name":"Dingolf","steam_id":76561198010127454,"connected_time":631000000000,"state":"active","ping":93}]},{"server_id":38,"name":"Uncletopia | Chicago | 7 | Stopwatch Beta","name_short":"chi-7","host":"chi-2.us.uncletopia.com","port":27035,"enabled":true,"region":"us-central","cc":"us","latitude":41.881832,"longitude":-87.62318,"reserved":0,"last_update":"0001-01-01T00:00:00Z","name_a2s":"Uncletopia | Chicago | 7 | Stopwatch Beta","protocol":17,"map":"workshop/koth_bagel_rc6.ugc2514036946","folder":"tf","game":"Team Fortress","app_id":440,"player_count":0,"max_players":24,"Bots":0,"server_type":"Dedicated","server_os":"Linux","password":true,"vac":true,"version":"7757534","steam_id":85568392924866364,"keywords":["cp","nocrits","nodmgspread","uncletopia"],"game_id":440,"stv_port":27036,"stv_name":"Uncletopia | Chicago | 7 | Stopwatch Beta | STV","players":null},{"server_id":39,"name":"Uncletopia | Chicago | 8 | Community","name_short":"chi-8","host":"chi-2.us.uncletopia.com","port":27045,"enabled":true,"region":"us-central","cc":"us","latitude":41.881832,"longitude":-87.62318,"reserved":0,"last_update":"0001-01-01T00:00:00Z","name_a2s":"Uncletopia | Chicago | 8 | Community","protocol":17,"map":"koth_lakeside_final","folder":"tf","game":"Team Fortress","app_id":440,"player_count":0,"max_players":24,"Bots":0,"server_type":"Dedicated","server_os":"Linux","password":true,"vac":true,"version":"7757534","steam_id":85568392924866365,"keywords":["cp","nocrits","nodmgspread","uncletopia"],"game_id":440,"stv_port":27046,"stv_name":"Uncletopia | Chicago | 8 | Community | STV","players":null},{"server_id":8,"name":"Uncletopia | Dallas | 1 | All Maps","name_short":"dal-1","host":"dal-1.us.uncletopia.com","port":27015,"enabled":true,"region":"us-central","cc":"us","latitude":32.779167,"longitude":-96.80889,"reserved":0,"last_update":"0001-01-01T00:00:00Z","name_a2s":"Uncletopia | Dallas | 1 | All Maps","protocol":17,"map":"pl_snowycoast","folder":"tf","game":"Team Fortress","app_id":440,"player_count":24,"max_players":24,"Bots":0,"server_type":"Dedicated","server_os":"Linux","password":true,"vac":true,"version":"7757534","steam_id":85568392924469986,"keywords":["nocrits","nodmgspread","payload","uncletopia"],"game_id":440,"stv_port":27016,"stv_name":"Uncletopia | Dallas | 1 | All Maps | STV","players":[{"user_id":413,"name":"Metatron","steam_id":76561198332386371,"connected_time":4000000000,"state":"spawning","ping":57},{"user_id":371,"name":"dog (real)","steam_id":76561198041770884,"connected_time":2209000000000,"state":"active","ping":73},{"user_id":409,"name":"BigE","steam_id":76561198152514160,"connected_time":1022000000000,"state":"active","ping":65},{"user_id":404,"name":"Krow","steam_id":76561198010392099,"connected_time":1124000000000,"state":"active","ping":53},{"user_id":414,"name":"LuciD","steam_id":76561198242842394,"connected_time":3000000000,"state":"spawning","ping":66},{"user_id":383,"name":"ItchyThunder111","steam_id":76561199149907692,"connected_time":1610000000000,"state":"active","ping":124},{"user_id":393,"name":"Moop","steam_id":76561198096984681,"connected_time":1425000000000,"state":"active","ping":55},{"user_id":408,"name":"Mitty","steam_id":76561198014177684,"connected_time":1098000000000,"state":"active","ping":82},{"user_id":379,"name":"Ayvier","steam_id":76561198042750874,"connected_time":1725000000000,"state":"active","ping":80},{"user_id":317,"name":"Moizturized","steam_id":76561198873850038,"connected_time":5304000000000,"state":"active","ping":73},{"user_id":384,"name":"MalixCrash","steam_id":76561198048172582,"connected_time":1608000000000,"state":"active","ping":93},{"user_id":374,"name":"Vanya","steam_id":76561198042631561,"connected_time":2184000000000,"state":"active","ping":91},{"user_id":345,"name":"Devoid","steam_id":76561198254039012,"connected_time":3644000000000,"state":"active","ping":66},{"user_id":401,"name":"Tealim","steam_id":76561198330085713,"connected_time":1309000000000,"state":"active","ping":77},{"user_id":412,"name":"Batwing_Confetti","steam_id":76561199380166778,"connected_time":567000000000,"state":"active","ping":120},{"user_id":381,"name":"SpinetinglingToast","steam_id":76561198099470670,"connected_time":1650000000000,"state":"active","ping":86},{"user_id":411,"name":"EmeraldCola","steam_id":76561198066663687,"connected_time":671000000000,"state":"active","ping":84},{"user_id":410,"name":"tj3002rocks","steam_id":76561199017921546,"connected_time":1006000000000,"state":"active","ping":57},{"user_id":322,"name":"Training Arc","steam_id":76561198038832034,"connected_time":5238000000000,"state":"active","ping":105},{"user_id":415,"name":"Trash Medic","steam_id":76561199042228163,"connected_time":3000000000,"state":"spawning","ping":46},{"user_id":416,"name":"sollarious101","steam_id":76561199086649385,"connected_time":2000000000,"state":"spawning","ping":68},{"user_id":399,"name":"finger","steam_id":76561198068558572,"connected_time":1320000000000,"state":"active","ping":87},{"user_id":407,"name":"Toasty","steam_id":76561198001136776,"connected_time":1108000000000,"state":"active","ping":56},{"user_id":361,"name":"bean d eafs","steam_id":76561199474853299,"connected_time":3113000000000,"state":"active","ping":93}]},{"server_id":108,"name":"Uncletopia | Dallas | 2 | All Maps","name_short":"dal-2","host":"dal-1.us.uncletopia.com","port":27025,"enabled":true,"region":"us-central","cc":"us","latitude":32.779167,"longitude":-96.80889,"reserved":0,"last_update":"0001-01-01T00:00:00Z","name_a2s":"Uncletopia | Dallas | 2 | All Maps","protocol":17,"map":"cp_powerhouse","folder":"tf","game":"Team Fortress","app_id":440,"player_count":24,"max_players":24,"Bots":0,"server_type":"Dedicated","server_os":"Linux","password":true,"vac":true,"version":"7757534","steam_id":85568392924469988,"keywords":["cp","nocrits","nodmgspread","uncletopia"],"game_id":440,"stv_port":27026,"stv_name":"Uncletopia | Dallas | 2 | All Maps | STV","players":[{"user_id":218,"name":"Biggles","steam_id":76561198126576389,"connected_time":925000000000,"state":"active","ping":78},{"user_id":199,"name":"yeyoi","steam_id":76561198069821885,"connected_time":1143000000000,"state":"active","ping":85},{"user_id":200,"name":"Zdrada","steam_id":76561198018693240,"connected_time":1140000000000,"state":"active","ping":70},{"user_id":234,"name":"Momon","steam_id":76561199067860158,"connected_time":436000000000,"state":"active","ping":48},{"user_id":231,"name":"Booker","steam_id":76561198065120639,"connected_time":544000000000,"state":"active","ping":82},{"user_id":211,"name":"Quakedad","steam_id":76561198055811307,"connected_time":1015000000000,"state":"active","ping":132},{"user_id":191,"name":"domky","steam_id":76561198066114874,"connected_time":1721000000000,"state":"active","ping":104},{"user_id":153,"name":"eBay","steam_id":76561198061214569,"connected_time":5545000000000,"state":"active","ping":86},{"user_id":192,"name":"Exo","steam_id":76561198076645019,"connected_time":1703000000000,"state":"active","ping":44},{"user_id":226,"name":"TI-83 Plus","steam_id":76561198316134443,"connected_time":723000000000,"state":"active","ping":85},{"user_id":228,"name":"Superbearhero","steam_id":76561198252350708,"connected_time":702000000000,"state":"active","ping":41},{"user_id":206,"name":"GAME GAMING","steam_id":76561199222119901,"connected_time":1066000000000,"state":"active","ping":92},{"user_id":232,"name":"Chimpish","steam_id":76561199263493270,"connected_time":513000000000,"state":"active","ping":95},{"user_id":212,"name":"Voxany","steam_id":76561198081096335,"connected_time":1010000000000,"state":"active","ping":120},{"user_id":229,"name":"Aeris","steam_id":76561198287271028,"connected_time":686000000000,"state":"active","ping":71},{"user_id":230,"name":"Actually retarded","steam_id":76561198276513608,"connected_time":682000000000,"state":"active","ping":173},{"user_id":210,"name":"nhbiker","steam_id":76561198081277675,"connected_time":1031000000000,"state":"active","ping":79},{"user_id":233,"name":"teatimesukka","steam_id":76561198978749594,"connected_time":486000000000,"state":"active","ping":40},{"user_id":236,"name":"DJ Chalice","steam_id":76561197974872458,"connected_time":172000000000,"state":"active","ping":86},{"user_id":213,"name":"[]{}#^*+=","steam_id":76561198127039453,"connected_time":999000000000,"state":"active","ping":70},{"user_id":214,"name":"K.A.R.M.A.","steam_id":76561198240750142,"connected_time":999000000000,"state":"active","ping":76},{"user_id":175,"name":"BOR XOR","steam_id":76561198063294776,"connected_time":3869000000000,"state":"active","ping":76},{"user_id":235,"name":"MancalaMadMan","steam_id":76561198347324053,"connected_time":352000000000,"state":"active","ping":114},{"user_id":217,"name":"GRONT","steam_id":76561198040464533,"connected_time":952000000000,"state":"active","ping":74}]},{"server_id":5,"name":"Uncletopia | Frankfurt | 1 | All Maps","name_short":"frk-1","host":"frk-1.de.uncletopia.com","port":27015,"enabled":true,"region":"eu","cc":"de","latitude":50.110924,"longitude":8.682127,"reserved":0,"last_update":"0001-01-01T00:00:00Z","name_a2s":"Uncletopia | Frankfurt | 1 | All Maps","protocol":17,"map":"pl_borneo","folder":"tf","game":"Team Fortress","app_id":440,"player_count":0,"max_players":24,"Bots":0,"server_type":"Dedicated","server_os":"Linux","password":true,"vac":true,"version":"7757534","steam_id":85568392924469989,"keywords":["nocrits","nodmgspread","payload","uncletopia"],"game_id":440,"stv_port":27016,"stv_name":"Uncletopia | Frankfurt | 1 | All Maps | STV","players":null},{"server_id":110,"name":"Uncletopia | Frankfurt | 2 | All Maps","name_short":"frk-2","host":"frk-1.de.uncletopia.com","port":27025,"enabled":true,"region":"eu","cc":"de","latitude":50.110924,"longitude":8.682127,"reserved":0,"last_update":"0001-01-01T00:00:00Z","name_a2s":"Uncletopia | Frankfurt | 2 | All Maps","protocol":17,"map":"cp_snakewater_final1","folder":"tf","game":"Team Fortress","app_id":440,"player_count":0,"max_players":24,"Bots":0,"server_type":"Dedicated","server_os":"Linux","password":true,"vac":true,"version":"7757534","steam_id":85568392924469990,"keywords":["cp","nocrits","nodmgspread","uncletopia"],"game_id":440,"stv_port":27026,"stv_name":"Uncletopia | Frankfurt | 2 | All Maps | STV","players":null},{"server_id":308,"name":"Uncletopia | Frankfurt | 3 | All Maps","name_short":"frk-3","host":"frk-1.de.uncletopia.com","port":27035,"enabled":true,"region":"eu","cc":"de","latitude":50.110924,"longitude":8.682127,"reserved":0,"last_update":"0001-01-01T00:00:00Z","name_a2s":"Uncletopia | Frankfurt | 3 | All Maps","protocol":17,"map":"cp_egypt_final","folder":"tf","game":"Team Fortress","app_id":440,"player_count":22,"max_players":24,"Bots":0,"server_type":"Dedicated","server_os":"Linux","password":true,"vac":true,"version":"7757534","steam_id":85568392924504274,"keywords":["cp","nocrits","nodmgspread","uncletopia"],"game_id":440,"stv_port":27036,"stv_name":"Uncletopia | Frankfurt | 3 | All Maps | STV","players":[{"user_id":413,"name":"eli","steam_id":76561198802155838,"connected_time":2355000000000,"state":"active","ping":126},{"user_id":411,"name":"Yoshikage Kira","steam_id":76561198410598772,"connected_time":2397000000000,"state":"active","ping":57},{"user_id":434,"name":"shr1mple","steam_id":76561198173537027,"connected_time":1414000000000,"state":"active","ping":35},{"user_id":400,"name":"king","steam_id":76561198881197962,"connected_time":3014000000000,"state":"active","ping":90},{"user_id":446,"name":"4","steam_id":76561197964945192,"connected_time":71000000000,"state":"active","ping":47},{"user_id":442,"name":"Rawrins","steam_id":76561198014462899,"connected_time":377000000000,"state":"active","ping":91},{"user_id":426,"name":"Bleachy","steam_id":76561198101976229,"connected_time":1748000000000,"state":"active","ping":54},{"user_id":447,"name":"KingofCubes","steam_id":76561198258037513,"connected_time":45000000000,"state":"active","ping":74},{"user_id":393,"name":"Bodhi","steam_id":76561198000606642,"connected_time":4122000000000,"state":"active","ping":80},{"user_id":448,"name":"Lukas","steam_id":76561198009118452,"connected_time":14000000000,"state":"active","ping":59},{"user_id":445,"name":"Silent Person","steam_id":76561198107763537,"connected_time":231000000000,"state":"active","ping":78},{"user_id":428,"name":"mespe","steam_id":76561198121530649,"connected_time":1561000000000,"state":"active","ping":63},{"user_id":441,"name":"Big Mac Gaming","steam_id":76561198158209651,"connected_time":461000000000,"state":"active","ping":66},{"user_id":431,"name":"AsuX","steam_id":76561197990333289,"connected_time":1463000000000,"state":"active","ping":60},{"user_id":432,"name":"Arget","steam_id":76561198084121867,"connected_time":1461000000000,"state":"active","ping":69},{"user_id":435,"name":"Bat in a thousand","steam_id":76561198320506848,"connected_time":1409000000000,"state":"active","ping":57},{"user_id":395,"name":"KillerQueen (he/they/she)","steam_id":76561199019399725,"connected_time":3438000000000,"state":"active","ping":61},{"user_id":419,"name":"PinkKong","steam_id":76561197993950694,"connected_time":2151000000000,"state":"active","ping":82},{"user_id":444,"name":"Lune ‚ô•","steam_id":76561198013043575,"connected_time":362000000000,"state":"active","ping":60},{"user_id":436,"name":"Lew","steam_id":76561198076039504,"connected_time":1405000000000,"state":"active","ping":72},{"user_id":425,"name":"Purps","steam_id":76561198053886680,"connected_time":1959000000000,"state":"active","ping":59},{"user_id":437,"name":"Spootnak","steam_id":76561198049052518,"connected_time":1384000000000,"state":"active","ping":64}]},{"server_id":309,"name":"Uncletopia | Frankfurt | 4 | All Maps","name_short":"frk-4","host":"frk-1.de.uncletopia.com","port":27045,"enabled":true,"region":"eu","cc":"de","latitude":50.110924,"longitude":8.682127,"reserved":0,"last_update":"0001-01-01T00:00:00Z","name_a2s":"Uncletopia | Frankfurt | 4 | All Maps","protocol":17,"map":"koth_cascade","folder":"tf","game":"Team Fortress","app_id":440,"player_count":0,"max_players":24,"Bots":0,"server_type":"Dedicated","server_os":"Linux","password":true,"vac":true,"version":"7757534","steam_id":85568392924504275,"keywords":["cp","nocrits","nodmgspread","uncletopia"],"game_id":440,"stv_port":27046,"stv_name":"Uncletopia | Frankfurt | 4 | All Maps | STV","players":null},{"server_id":310,"name":"Uncletopia | Frankfurt | 5 | All Maps","name_short":"frk-5","host":"frk-1.de.uncletopia.com","port":27055,"enabled":true,"region":"eu","cc":"de","latitude":50.110924,"longitude":8.682127,"reserved":0,"last_update":"0001-01-01T00:00:00Z","name_a2s":"Uncletopia | Frankfurt | 5 | All Maps","protocol":17,"map":"koth_highpass","folder":"tf","game":"Team Fortress","app_id":440,"player_count":0,"max_players":24,"Bots":0,"server_type":"Dedicated","server_os":"Linux","password":true,"vac":true,"version":"7757534","steam_id":85568392924504277,"keywords":["cp","nocrits","nodmgspread","uncletopia"],"game_id":440,"stv_port":27056,"stv_name":"Uncletopia | Frankfurt | 5 | All Maps | STV","players":null},{"server_id":311,"name":"Uncletopia | Frankfurt | 6 | All Maps","name_short":"frk-6","host":"frk-1.de.uncletopia.com","port":27065,"enabled":true,"region":"eu","cc":"de","latitude":50.110924,"longitude":8.682127,"reserved":0,"last_update":"0001-01-01T00:00:00Z","name_a2s":"Uncletopia | Frankfurt | 6 | All Maps","protocol":17,"map":"pl_snowycoast","folder":"tf","game":"Team Fortress","app_id":440,"player_count":23,"max_players":24,"Bots":0,"server_type":"Dedicated","server_os":"Linux","password":true,"vac":true,"version":"7757534","steam_id":85568392924504278,"keywords":["nocrits","nodmgspread","payload","uncletopia"],"game_id":440,"stv_port":27066,"stv_name":"Uncletopia | Frankfurt | 6 | All Maps | STV","players":[{"user_id":180,"name":"tralalaOuiOui","steam_id":76561197963471507,"connected_time":3391000000000,"state":"active","ping":56},{"user_id":178,"name":"Udinese Dion","steam_id":76561198067931573,"connected_time":3503000000000,"state":"active","ping":42},{"user_id":202,"name":"beckler","steam_id":76561198029266963,"connected_time":2426000000000,"state":"active","ping":42},{"user_id":224,"name":"Videogamer","steam_id":76561198106012909,"connected_time":711000000000,"state":"active","ping":74},{"user_id":203,"name":"Tonne","steam_id":76561197970856766,"connected_time":2408000000000,"state":"active","ping":58},{"user_id":183,"name":"\u003c3 chunky chack *^.^* \u003c3","steam_id":76561198343506483,"connected_time":3191000000000,"state":"active","ping":90},{"user_id":230,"name":"Reisen","steam_id":76561199174579733,"connected_time":149000000000,"state":"active","ping":148},{"user_id":136,"name":"proph","steam_id":76561197998803950,"connected_time":6820000000000,"state":"active","ping":52},{"user_id":221,"name":"tiia (cold hends)","steam_id":76561198046196005,"connected_time":828000000000,"state":"active","ping":44},{"user_id":153,"name":"rummy","steam_id":76561197997573379,"connected_time":5741000000000,"state":"active","ping":62},{"user_id":218,"name":"Christmas Ham","steam_id":76561198119601623,"connected_time":1018000000000,"state":"active","ping":71},{"user_id":222,"name":"kektuse","steam_id":76561198088426580,"connected_time":808000000000,"state":"active","ping":60},{"user_id":228,"name":"soulja boy face reveal","steam_id":76561198097820508,"connected_time":404000000000,"state":"active","ping":51},{"user_id":192,"name":"RedMser","steam_id":76561198007644974,"connected_time":3124000000000,"state":"active","ping":43},{"user_id":133,"name":"LionKing","steam_id":76561198023399545,"connected_time":7007000000000,"state":"active","ping":51},{"user_id":229,"name":"Reast","steam_id":76561198022796927,"connected_time":220000000000,"state":"active","ping":83},{"user_id":194,"name":"KittyKate ‚ù§","steam_id":76561198116340817,"connected_time":3084000000000,"state":"active","ping":61},{"user_id":198,"name":"Cheshireycat","steam_id":76561198067204908,"connected_time":2923000000000,"state":"active","ping":74},{"user_id":212,"name":"lettuce at 58p","steam_id":76561199401283123,"connected_time":1775000000000,"state":"active","ping":63},{"user_id":195,"name":"BuzzBees ‚ù§","steam_id":76561198101502273,"connected_time":3070000000000,"state":"active","ping":71},{"user_id":214,"name":"Mata_FM","steam_id":76561198044824504,"connected_time":1764000000000,"state":"active","ping":62},{"user_id":215,"name":"V8","steam_id":76561199233979726,"connected_time":1762000000000,"state":"active","ping":88},{"user_id":216,"name":"dissatisfaction","steam_id":76561198132004093,"connected_time":1714000000000,"state":"active","ping":72}]},{"server_id":23,"name":"Uncletopia | Frankfurt | 7 | Stopwatch Beta","name_short":"frk-7","host":"frk-1.de.uncletopia.com","port":27075,"enabled":true,"region":"eu","cc":"de","latitude":50.110924,"longitude":8.682127,"reserved":0,"last_update":"0001-01-01T00:00:00Z","name_a2s":"Uncletopia | Frankfurt | 7 | Stopwatch Beta","protocol":17,"map":"pl_swiftwater_final1","folder":"tf","game":"Team Fortress","app_id":440,"player_count":0,"max_players":24,"Bots":0,"server_type":"Dedicated","server_os":"Linux","password":true,"vac":true,"version":"7757534","steam_id":85568392924742827,"keywords":["nocrits","nodmgspread","payload","uncletopia"],"game_id":440,"stv_port":27076,"stv_name":"Uncletopia | Frankfurt | 7 | Stopwatch Beta | STV","players":null},{"server_id":24,"name":"Uncletopia | Frankfurt | 8 | Community","name_short":"frk-8","host":"frk-1.de.uncletopia.com","port":27085,"enabled":true,"region":"eu","cc":"de","latitude":50.110924,"longitude":8.682127,"reserved":0,"last_update":"0001-01-01T00:00:00Z","name_a2s":"Uncletopia | Frankfurt | 8 | Community","protocol":17,"map":"koth_viaduct","folder":"tf","game":"Team Fortress","app_id":440,"player_count":0,"max_players":24,"Bots":0,"server_type":"Dedicated","server_os":"Linux","password":true,"vac":true,"version":"7757534","steam_id":85568392924742828,"keywords":["cp","nocrits","nodmgspread","uncletopia"],"game_id":440,"stv_port":27086,"stv_name":"Uncletopia | Frankfurt | 8 | Community | STV","players":null},{"server_id":202,"name":"Uncletopia | Hong Kong | 1 | All Maps","name_short":"hgk-1","host":"hgk-1.hk.uncletopia.com","port":27015,"enabled":true,"region":"asia","cc":"hk","latitude":22.302711,"longitude":114.177216,"reserved":0,"last_update":"0001-01-01T00:00:00Z","name_a2s":"Uncletopia | Hong Kong | 1 | All Maps","protocol":17,"map":"cp_sunshine","folder":"tf","game":"Team Fortress","app_id":440,"player_count":0,"max_players":24,"Bots":0,"server_type":"Dedicated","server_os":"Linux","password":true,"vac":true,"version":"7757534","steam_id":85568392924494504,"keywords":["cp","nocrits","nodmgspread","uncletopia"],"game_id":440,"stv_port":27016,"stv_name":"Uncletopia | Hong Kong | 1 | All Maps | STV","players":null},{"server_id":1,"name":"Uncletopia | Los Angeles | 1 | All Maps","name_short":"lax-1","host":"lax-1.us.uncletopia.com","port":27015,"enabled":true,"region":"us-west","cc":"us","latitude":33.94279,"longitude":-118.41004,"reserved":0,"last_update":"0001-01-01T00:00:00Z","name_a2s":"Uncletopia | Los Angeles | 1 | All Maps","protocol":17,"map":"pl_upward","folder":"tf","game":"Team Fortress","app_id":440,"player_count":23,"max_players":24,"Bots":0,"server_type":"Dedicated","server_os":"Linux","password":true,"vac":true,"version":"7757534","steam_id":85568392924469991,"keywords":["nocrits","nodmgspread","payload","uncletopia"],"game_id":440,"stv_port":27016,"stv_name":"Uncletopia | Los Angeles | 1 | All Maps | STV","players":[{"user_id":147,"name":"Mischievous44","steam_id":76561198106532712,"connected_time":573000000000,"state":"active","ping":99},{"user_id":156,"name":"bad to the bone","steam_id":76561198419097079,"connected_time":31000000000,"state":"active","ping":125},{"user_id":157,"name":"Dyson","steam_id":76561199081837220,"connected_time":25000000000,"state":"spawning","ping":89},{"user_id":124,"name":"germ","steam_id":76561199062396598,"connected_time":1661000000000,"state":"active","ping":105},{"user_id":148,"name":"Wendall555","steam_id":76561198985637603,"connected_time":349000000000,"state":"active","ping":45},{"user_id":113,"name":"Type Three Dabeetus","steam_id":76561198062710038,"connected_time":2207000000000,"state":"active","ping":61},{"user_id":90,"name":"terrorism? boy howdy","steam_id":76561198844003641,"connected_time":3341000000000,"state":"active","ping":60},{"user_id":91,"name":"‚ù¶ Panurge ‚ù¶","steam_id":76561198017907737,"connected_time":3339000000000,"state":"active","ping":98},{"user_id":152,"name":"Thundarous Gookerton","steam_id":76561199159928133,"connected_time":195000000000,"state":"active","ping":120},{"user_id":149,"name":"Stumblin' in","steam_id":76561198119826352,"connected_time":331000000000,"state":"active","ping":81},{"user_id":151,"name":"Shattered Soul","steam_id":76561198322226862,"connected_time":271000000000,"state":"active","ping":115},{"user_id":133,"name":"soup","steam_id":76561198099977572,"connected_time":1351000000000,"state":"active","ping":88},{"user_id":146,"name":"A Puppy","steam_id":76561198828184456,"connected_time":589000000000,"state":"active","ping":100},{"user_id":106,"name":"wolf_71","steam_id":76561198963570945,"connected_time":2558000000000,"state":"active","ping":91},{"user_id":134,"name":"rE_d0","steam_id":76561198975450630,"connected_time":1159000000000,"state":"active","ping":79},{"user_id":144,"name":"barbara","steam_id":76561198072417792,"connected_time":599000000000,"state":"active","ping":114},{"user_id":116,"name":"mrbeast109385079350229083479082","steam_id":76561198370687830,"connected_time":2158000000000,"state":"active","ping":113},{"user_id":153,"name":"rlty","steam_id":76561198009395055,"connected_time":177000000000,"state":"active","ping":105},{"user_id":155,"name":"Nerdin4Life","steam_id":76561198138417387,"connected_time":145000000000,"state":"active","ping":64},{"user_id":120,"name":"Buswolley","steam_id":76561197995205571,"connected_time":2082000000000,"state":"active","ping":64},{"user_id":142,"name":"Dentivent","steam_id":76561197971953043,"connected_time":1131000000000,"state":"active","ping":56},{"user_id":121,"name":"Ramenparty","steam_id":76561198105510790,"connected_time":1766000000000,"state":"active","ping":52},{"user_id":141,"name":"AcidBat3","steam_id":76561198169389335,"connected_time":1132000000000,"state":"active","ping":41}]},{"server_id":112,"name":"Uncletopia | Los Angeles | 2 | All Maps","name_short":"lax-2","host":"lax-1.us.uncletopia.com","port":27025,"enabled":true,"region":"us-west","cc":"us","latitude":33.94279,"longitude":-118.41004,"reserved":0,"last_update":"0001-01-01T00:00:00Z","name_a2s":"Uncletopia | Los Angeles | 2 | All Maps","protocol":17,"map":"pl_pier","folder":"tf","game":"Team Fortress","app_id":440,"player_count":24,"max_players":24,"Bots":0,"server_type":"Dedicated","server_os":"Linux","password":true,"vac":true,"version":"7757534","steam_id":85568392924469992,"keywords":["nocrits","nodmgspread","payload","uncletopia"],"game_id":440,"stv_port":27026,"stv_name":"Uncletopia | Los Angeles | 2 | All Maps | STV","players":[{"user_id":43,"name":"bobtheninjaman","steam_id":76561198066424544,"connected_time":2602000000000,"state":"active","ping":93},{"user_id":50,"name":"Joey Wheeler","steam_id":76561198073792437,"connected_time":2212000000000,"state":"active","ping":60},{"user_id":67,"name":"Juanelo","steam_id":76561199096390505,"connected_time":1455000000000,"state":"active","ping":86},{"user_id":65,"name":"Simba","steam_id":76561198073845172,"connected_time":1623000000000,"state":"active","ping":60},{"user_id":68,"name":"DiscoTraveler","steam_id":76561199240168088,"connected_time":1279000000000,"state":"active","ping":97},{"user_id":54,"name":"Pathara44","steam_id":76561198048238620,"connected_time":1983000000000,"state":"active","ping":100},{"user_id":70,"name":"ÃöÕ¶ÕíÃÄÕ´ÃùÃ¨Ã©ÕìÃØÃ†Ã™ ÃöÕ¶Õí","steam_id":76561199161322235,"connected_time":867000000000,"state":"active","ping":58},{"user_id":73,"name":"Axel Beoulve","steam_id":76561198126511231,"connected_time":778000000000,"state":"active","ping":85},{"user_id":19,"name":"Spoilt Pudding","steam_id":76561198001195423,"connected_time":4641000000000,"state":"active","ping":81},{"user_id":56,"name":"CGamer6155","steam_id":76561199440141596,"connected_time":1960000000000,"state":"active","ping":117},{"user_id":21,"name":"Voon","steam_id":76561198166843533,"connected_time":4501000000000,"state":"active","ping":128},{"user_id":72,"name":"Cooki","steam_id":76561198051705314,"connected_time":846000000000,"state":"active","ping":126},{"user_id":74,"name":"Kymat","steam_id":76561198056367793,"connected_time":767000000000,"state":"active","ping":110},{"user_id":46,"name":"Slavic Pancake","steam_id":76561199319750064,"connected_time":2309000000000,"state":"active","ping":79},{"user_id":40,"name":"FiddyFoMike","steam_id":76561198057072581,"connected_time":2794000000000,"state":"active","ping":59},{"user_id":41,"name":"Coco","steam_id":76561198066858513,"connected_time":2794000000000,"state":"active","ping":68},{"user_id":75,"name":"Aeront","steam_id":76561198072032723,"connected_time":762000000000,"state":"active","ping":125},{"user_id":59,"name":"Matt","steam_id":76561198008108521,"connected_time":1822000000000,"state":"active","ping":121},{"user_id":48,"name":"nella","steam_id":76561198079349621,"connected_time":2270000000000,"state":"active","ping":54},{"user_id":60,"name":"Basement Grandpa","steam_id":76561198014574925,"connected_time":1814000000000,"state":"active","ping":119},{"user_id":77,"name":"TheBrocklobster","steam_id":76561198039682984,"connected_time":724000000000,"state":"active","ping":64},{"user_id":62,"name":"Exidy Buying Backpacks","steam_id":76561198036216584,"connected_time":1748000000000,"state":"active","ping":124},{"user_id":78,"name":"mike","steam_id":76561198003593070,"connected_time":593000000000,"state":"active","ping":117},{"user_id":64,"name":"Leftshadows","steam_id":76561199089515791,"connected_time":1685000000000,"state":"active","ping":68}]},{"server_id":324,"name":"Uncletopia | Los Angeles | 3 | All Maps","name_short":"lax-3","host":"lax-1.us.uncletopia.com","port":27035,"enabled":true,"region":"us-west","cc":"us","latitude":33.94279,"longitude":-118.41004,"reserved":0,"last_update":"0001-01-01T00:00:00Z","name_a2s":"Uncletopia | Los Angeles | 3 | All Maps","protocol":17,"map":"cp_altitude","folder":"tf","game":"Team Fortress","app_id":440,"player_count":0,"max_players":24,"Bots":0,"server_type":"Dedicated","server_os":"Linux","password":true,"vac":true,"version":"7757534","steam_id":85568392924510198,"keywords":["cp","nocrits","nodmgspread","uncletopia"],"game_id":440,"stv_port":27036,"stv_name":"Uncletopia | Los Angeles | 3 | All Maps | STV","players":null},{"server_id":25,"name":"Uncletopia | Los Angeles | 4 | Stopwatch Beta","name_short":"lax-4","host":"lax-1.us.uncletopia.com","port":27045,"enabled":true,"region":"us-west","cc":"us","latitude":33.94279,"longitude":-118.41004,"reserved":0,"last_update":"0001-01-01T00:00:00Z","name_a2s":"Uncletopia | Los Angeles | 4 | Stopwatch Beta","protocol":17,"map":"cp_dustbowl","folder":"tf","game":"Team Fortress","app_id":440,"player_count":0,"max_players":24,"Bots":0,"server_type":"Dedicated","server_os":"Linux","password":true,"vac":true,"version":"7757534","steam_id":85568392924510199,"keywords":["cp","nocrits","nodmgspread","uncletopia"],"game_id":440,"stv_port":27046,"stv_name":"Uncletopia | Los Angeles | 4 | Stopwatch Beta | STV","players":null},{"server_id":11,"name":"Uncletopia | London | 1 | All Maps","name_short":"lon-1","host":"lon-1.uk.uncletopia.com","port":27015,"enabled":true,"region":"eu","cc":"gb","latitude":51.509865,"longitude":-0.118092,"reserved":0,"last_update":"0001-01-01T00:00:00Z","name_a2s":"Uncletopia | London | 1 | All Maps","protocol":17,"map":"koth_lakeside_final","folder":"tf","game":"Team Fortress","app_id":440,"player_count":22,"max_players":24,"Bots":0,"server_type":"Dedicated","server_os":"Linux","password":true,"vac":true,"version":"7757534","steam_id":85568392924367362,"keywords":["cp","nocrits","nodmgspread","uncletopia"],"game_id":440,"stv_port":27016,"stv_name":"Uncletopia | London | 1 | All Maps | STV","players":[{"user_id":663,"name":"Economic crisis","steam_id":76561198063562843,"connected_time":1920000000000,"state":"active","ping":63},{"user_id":686,"name":"junktodelete","steam_id":76561199055054866,"connected_time":133000000000,"state":"active","ping":172},{"user_id":654,"name":"Hejnus","steam_id":76561197988395035,"connected_time":2529000000000,"state":"active","ping":70},{"user_id":645,"name":"Skyfoogle","steam_id":76561198027177883,"connected_time":3396000000000,"state":"active","ping":59},{"user_id":673,"name":"NoPfizer","steam_id":76561198307914381,"connected_time":1286000000000,"state":"active","ping":54},{"user_id":665,"name":"Cillian","steam_id":76561199046965320,"connected_time":1739000000000,"state":"active","ping":80},{"user_id":681,"name":"The Ginger","steam_id":76561198306862332,"connected_time":897000000000,"state":"active","ping":63},{"user_id":602,"name":"fresh prince of no hair","steam_id":76561198064342804,"connected_time":6367000000000,"state":"active","ping":81},{"user_id":683,"name":"Piss_boy","steam_id":76561198082406639,"connected_time":247000000000,"state":"active","ping":97},{"user_id":568,"name":"Evil weed wizard","steam_id":76561198076137526,"connected_time":8989000000000,"state":"active","ping":54},{"user_id":684,"name":"Dragul","steam_id":76561198032885938,"connected_time":231000000000,"state":"active","ping":60},{"user_id":687,"name":"help","steam_id":76561199056338917,"connected_time":45000000000,"state":"active","ping":146},{"user_id":666,"name":"Bentley","steam_id":76561197978252169,"connected_time":1712000000000,"state":"active","ping":56},{"user_id":653,"name":"Disasterday","steam_id":76561198044767090,"connected_time":2659000000000,"state":"active","ping":59},{"user_id":610,"name":"regimiro","steam_id":76561198120457008,"connected_time":6182000000000,"state":"active","ping":47},{"user_id":685,"name":"aGryphoN","steam_id":76561198245175308,"connected_time":228000000000,"state":"active","ping":55},{"user_id":677,"name":"Edla","steam_id":76561198062815315,"connected_time":975000000000,"state":"active","ping":111},{"user_id":678,"name":"beebo","steam_id":76561199120277007,"connected_time":968000000000,"state":"active","ping":59},{"user_id":622,"name":"Mad_Scientist","steam_id":76561198121431854,"connected_time":5396000000000,"state":"active","ping":64},{"user_id":679,"name":"Sodsboy","steam_id":76561198030482006,"connected_time":965000000000,"state":"active","ping":42},{"user_id":656,"name":"Endi","steam_id":76561198914938199,"connected_time":2503000000000,"state":"active","ping":103},{"user_id":671,"name":"akakez","steam_id":76561198095432821,"connected_time":1515000000000,"state":"active","ping":119}]},{"server_id":114,"name":"Uncletopia | London | 2 | All Maps","name_short":"lon-2","host":"lon-1.uk.uncletopia.com","port":27025,"enabled":true,"region":"eu","cc":"gb","latitude":51.509865,"longitude":-0.118092,"reserved":0,"last_update":"0001-01-01T00:00:00Z","name_a2s":"Uncletopia | London | 2 | All Maps","protocol":17,"map":"pl_borneo","folder":"tf","game":"Team Fortress","app_id":440,"player_count":0,"max_players":24,"Bots":0,"server_type":"Dedicated","server_os":"Linux","password":true,"vac":true,"version":"7757534","steam_id":85568392924470941,"keywords":["nocrits","nodmgspread","payload","uncletopia"],"game_id":440,"stv_port":27026,"stv_name":"Uncletopia | London | 2 | All Maps | STV","players":null},{"server_id":320,"name":"Uncletopia | London | 3 | All Maps","name_short":"lon-3","host":"lon-1.uk.uncletopia.com","port":27035,"enabled":true,"region":"eu","cc":"gb","latitude":51.509865,"longitude":-0.118092,"reserved":0,"last_update":"0001-01-01T00:00:00Z","name_a2s":"Uncletopia | London | 3 | All Maps","protocol":17,"map":"pl_badwater","folder":"tf","game":"Team Fortress","app_id":440,"player_count":23,"max_players":24,"Bots":0,"server_type":"Dedicated","server_os":"Linux","password":true,"vac":true,"version":"7757534","steam_id":85568392924510192,"keywords":["nocrits","nodmgspread","payload","uncletopia"],"game_id":440,"stv_port":27036,"stv_name":"Uncletopia | London | 3 | All Maps | STV","players":[{"user_id":329,"name":"Steen","steam_id":76561198122992510,"connected_time":2436000000000,"state":"active","ping":45},{"user_id":354,"name":"Tom","steam_id":76561198008519979,"connected_time":357000000000,"state":"active","ping":66},{"user_id":319,"name":"CrowbarWarrior","steam_id":76561198044077015,"connected_time":2894000000000,"state":"active","ping":83},{"user_id":332,"name":"grandpa's post-mortem photo","steam_id":76561198130116078,"connected_time":2208000000000,"state":"active","ping":91},{"user_id":340,"name":"Choruptian","steam_id":76561198017686366,"connected_time":1067000000000,"state":"active","ping":71},{"user_id":342,"name":"limbicsystem","steam_id":76561198025612680,"connected_time":1006000000000,"state":"active","ping":56},{"user_id":306,"name":"IceDreamer","steam_id":76561197997569989,"connected_time":3474000000000,"state":"active","ping":45},{"user_id":322,"name":"Julez","steam_id":76561198045505082,"connected_time":2760000000000,"state":"active","ping":76},{"user_id":355,"name":"Vinnidict","steam_id":76561198037087000,"connected_time":304000000000,"state":"active","ping":78},{"user_id":324,"name":"Anttech","steam_id":76561198065184022,"connected_time":2668000000000,"state":"active","ping":64},{"user_id":351,"name":"Kvicha Kvaratskhelia","steam_id":76561198179339326,"connected_time":665000000000,"state":"active","ping":79},{"user_id":343,"name":"mr K","steam_id":76561198120166752,"connected_time":1001000000000,"state":"active","ping":86},{"user_id":353,"name":"paranoia","steam_id":76561198274105878,"connected_time":432000000000,"state":"active","ping":88},{"user_id":303,"name":"$n√òw","steam_id":76561198238781028,"connected_time":3604000000000,"state":"active","ping":104},{"user_id":310,"name":"Bilbo Ballbaggins","steam_id":76561198070593514,"connected_time":3334000000000,"state":"active","ping":52},{"user_id":323,"name":"S'all good, man","steam_id":76561198363882056,"connected_time":2757000000000,"state":"active","ping":42},{"user_id":338,"name":"dairy","steam_id":76561198117033273,"connected_time":1145000000000,"state":"active","ping":50},{"user_id":330,"name":"zak","steam_id":76561197998895428,"connected_time":2359000000000,"state":"active","ping":60},{"user_id":300,"name":"Danipp","steam_id":76561198027147377,"connected_time":3717000000000,"state":"active","ping":75},{"user_id":339,"name":"randompixel","steam_id":76561198003941207,"connected_time":1130000000000,"state":"active","ping":54},{"user_id":348,"name":"tapeworms!","steam_id":76561198069649097,"connected_time":822000000000,"state":"active","ping":48},{"user_id":352,"name":"‚ù§ToxicAngel‚ù§","steam_id":76561198062208751,"connected_time":598000000000,"state":"active","ping":49},{"user_id":223,"name":"John Noob","steam_id":76561197999170026,"connected_time":7546000000000,"state":"active","ping":100}]},{"server_id":321,"name":"Uncletopia | London | 4 | All Maps","name_short":"lon-4","host":"lon-1.uk.uncletopia.com","port":27045,"enabled":true,"region":"eu","cc":"gb","latitude":51.509865,"longitude":-0.118092,"reserved":0,"last_update":"0001-01-01T00:00:00Z","name_a2s":"Uncletopia | London | 4 | All Maps","protocol":17,"map":"cp_sunshine","folder":"tf","game":"Team Fortress","app_id":440,"player_count":0,"max_players":24,"Bots":0,"server_type":"Dedicated","server_os":"Linux","password":true,"vac":true,"version":"7757534","steam_id":85568392924510193,"keywords":["cp","nocrits","nodmgspread","uncletopia"],"game_id":440,"stv_port":27046,"stv_name":"Uncletopia | London | 4 | All Maps | STV","players":null},{"server_id":21,"name":"Uncletopia | London | 5 | All Maps","name_short":"lon-5","host":"lon-1.uk.uncletopia.com","port":27055,"enabled":true,"region":"eu","cc":"gb","latitude":51.509865,"longitude":-0.118092,"reserved":0,"last_update":"0001-01-01T00:00:00Z","name_a2s":"Uncletopia | London | 5 | All Maps","protocol":17,"map":"koth_viaduct","folder":"tf","game":"Team Fortress","app_id":440,"player_count":0,"max_players":24,"Bots":0,"server_type":"Dedicated","server_os":"Linux","password":true,"vac":true,"version":"7757534","steam_id":85568392924742829,"keywords":["cp","nocrits","nodmgspread","uncletopia"],"game_id":440,"stv_port":27056,"stv_name":"Uncletopia | London | 5 | All Maps | STV","players":null},{"server_id":22,"name":"Uncletopia | London | 6 | All Maps","name_short":"lon-6","host":"lon-1.uk.uncletopia.com","port":27065,"enabled":true,"region":"eu","cc":"gb","latitude":51.509865,"longitude":-0.118092,"reserved":0,"last_update":"0001-01-01T00:00:00Z","name_a2s":"Uncletopia | London | 6 | All Maps","protocol":17,"map":"koth_lakeside_final","folder":"tf","game":"Team Fortress","app_id":440,"player_count":0,"max_players":24,"Bots":0,"server_type":"Dedicated","server_os":"Linux","password":true,"vac":true,"version":"7757534","steam_id":85568392924742830,"keywords":["cp","nocrits","nodmgspread","uncletopia"],"game_id":440,"stv_port":27066,"stv_name":"Uncletopia | London | 6 | All Maps | STV","players":null},{"server_id":40,"name":"Uncletopia | London | 7 | No Payload","name_short":"lon-7","host":"lon-1.uk.uncletopia.com","port":27075,"enabled":true,"region":"eu","cc":"gb","latitude":51.509865,"longitude":-0.118092,"reserved":0,"last_update":"0001-01-01T00:00:00Z","name_a2s":"Uncletopia | London | 7 | No Payload","protocol":17,"map":"koth_highpass","folder":"tf","game":"Team Fortress","app_id":440,"player_count":0,"max_players":24,"Bots":0,"server_type":"Dedicated","server_os":"Linux","password":true,"vac":true,"version":"7757534","steam_id":85568392924964314,"keywords":["cp","nocrits","nodmgspread","uncletopia"],"game_id":440,"stv_port":27076,"stv_name":"Uncletopia | London | 7 | No Payload | STV","players":null},{"server_id":41,"name":"Uncletopia | London | 8 | Community","name_short":"lon-8","host":"lon-1.uk.uncletopia.com","port":27085,"enabled":true,"region":"eu","cc":"gb","latitude":51.509865,"longitude":-0.118092,"reserved":0,"last_update":"0001-01-01T00:00:00Z","name_a2s":"Uncletopia | London | 8 | Community","protocol":17,"map":"cp_altitude","folder":"tf","game":"Team Fortress","app_id":440,"player_count":0,"max_players":24,"Bots":0,"server_type":"Dedicated","server_os":"Linux","password":true,"vac":true,"version":"7757534","steam_id":85568392924964315,"keywords":["cp","nocrits","nodmgspread","uncletopia"],"game_id":440,"stv_port":27086,"stv_name":"Uncletopia | London | 8 | Community | STV","players":null},{"server_id":300,"name":"Uncletopia | Montr√©al | 1 | All Maps","name_short":"mtl-1","host":"mtl-1.ca.uncletopia.com","port":27015,"enabled":true,"region":"us-east","cc":"ca","latitude":45.50889,"longitude":-73.56167,"reserved":0,"last_update":"0001-01-01T00:00:00Z","name_a2s":"Uncletopia | Montr√©al | 1 | All Maps","protocol":17,"map":"pl_pier","folder":"tf","game":"Team Fortress","app_id":440,"player_count":0,"max_players":24,"Bots":0,"server_type":"Dedicated","server_os":"Linux","password":true,"vac":true,"version":"7757534","steam_id":85568392924500087,"keywords":["nocrits","nodmgspread","payload","uncletopia"],"game_id":440,"stv_port":27016,"stv_name":"Uncletopia | Montr√©al | 1 | All Maps | STV","players":null},{"server_id":301,"name":"Uncletopia | Montr√©al | 2 | All Maps","name_short":"mtl-2","host":"mtl-1.ca.uncletopia.com","port":27025,"enabled":true,"region":"us-east","cc":"ca","latitude":45.50889,"longitude":-73.56167,"reserved":0,"last_update":"0001-01-01T00:00:00Z","name_a2s":"Uncletopia | Montr√©al | 2 | All Maps","protocol":17,"map":"pl_snowycoast","folder":"tf","game":"Team Fortress","app_id":440,"player_count":0,"max_players":24,"Bots":0,"server_type":"Dedicated","server_os":"Linux","password":true,"vac":true,"version":"7757534","steam_id":85568392924500088,"keywords":["nocrits","nodmgspread","payload","uncletopia"],"game_id":440,"stv_port":27026,"stv_name":"Uncletopia | Montr√©al | 2 | All Maps | STV","players":null},{"server_id":302,"name":"Uncletopia | Montr√©al | 3 | All Maps","name_short":"mtl-3","host":"mtl-1.ca.uncletopia.com","port":27035,"enabled":true,"region":"us-east","cc":"ca","latitude":45.50889,"longitude":-73.56167,"reserved":0,"last_update":"0001-01-01T00:00:00Z","name_a2s":"Uncletopia | Montr√©al | 3 | All Maps","protocol":17,"map":"pl_frontier_final","folder":"tf","game":"Team Fortress","app_id":440,"player_count":5,"max_players":24,"Bots":0,"server_type":"Dedicated","server_os":"Linux","password":true,"vac":true,"version":"7757534","steam_id":85568392924500089,"keywords":["nocrits","nodmgspread","payload","uncletopia"],"game_id":440,"stv_port":27036,"stv_name":"Uncletopia | Montr√©al | 3 | All Maps | STV","players":[{"user_id":4,"name":"nut the dude","steam_id":76561199204451552,"connected_time":1161000000000,"state":"active","ping":65},{"user_id":5,"name":"TeamLightning","steam_id":76561198065213167,"connected_time":1134000000000,"state":"active","ping":131},{"user_id":6,"name":"navis","steam_id":76561198996230924,"connected_time":825000000000,"state":"active","ping":59},{"user_id":7,"name":"30 fps gaming","steam_id":76561199216756079,"connected_time":563000000000,"state":"active","ping":110},{"user_id":9,"name":"Medic","steam_id":76561198023443251,"connected_time":487000000000,"state":"active","ping":76}]},{"server_id":303,"name":"Uncletopia | Montr√©al | 4 | No Payload","name_short":"mtl-4","host":"mtl-1.ca.uncletopia.com","port":27045,"enabled":true,"region":"us-east","cc":"ca","latitude":45.50889,"longitude":-73.56167,"reserved":0,"last_update":"0001-01-01T00:00:00Z","name_a2s":"Uncletopia | Montr√©al | 4 | No Payload","protocol":17,"map":"pl_pier","folder":"tf","game":"Team Fortress","app_id":440,"player_count":0,"max_players":24,"Bots":0,"server_type":"Dedicated","server_os":"Linux","password":true,"vac":true,"version":"7757534","steam_id":85568392924500090,"keywords":["nocrits","nodmgspread","payload","uncletopia"],"game_id":440,"stv_port":27046,"stv_name":"Uncletopia | Montr√©al | 4 | No Payload | STV","players":null},{"server_id":13,"name":"Uncletopia | New York City | 1 | All Maps","name_short":"nyc-1","host":"nyc-1.us.uncletopia.com","port":27015,"enabled":true,"region":"us-east","cc":"us","latitude":40.73061,"longitude":-73.93524,"reserved":0,"last_update":"0001-01-01T00:00:00Z","name_a2s":"Uncletopia | New York City | 1 | All Maps","protocol":17,"map":"pl_badwater","folder":"tf","game":"Team Fortress","app_id":440,"player_count":24,"max_players":24,"Bots":0,"server_type":"Dedicated","server_os":"Linux","password":true,"vac":true,"version":"7757534","steam_id":85568392924469993,"keywords":["nocrits","nodmgspread","payload","uncletopia"],"game_id":440,"stv_port":27016,"stv_name":"Uncletopia | New York City | 1 | All Maps | STV","players":[{"user_id":182,"name":"stewfat","steam_id":76561198084066964,"connected_time":1079000000000,"state":"active","ping":154},{"user_id":106,"name":"Crazy Dave","steam_id":76561198875469297,"connected_time":6039000000000,"state":"active","ping":84},{"user_id":173,"name":"Timon's high on crack cocaine!","steam_id":76561198180396430,"connected_time":1509000000000,"state":"active","ping":54},{"user_id":149,"name":"goofbears","steam_id":76561199100831175,"connected_time":2850000000000,"state":"active","ping":60},{"user_id":169,"name":"Slavaskyanovamirakevchei","steam_id":76561198141218864,"connected_time":1757000000000,"state":"active","ping":53},{"user_id":155,"name":"What day is it?","steam_id":76561199056736682,"connected_time":2513000000000,"state":"active","ping":79},{"user_id":181,"name":"[$55 Official Tumblr Sweatpants","steam_id":76561198294013916,"connected_time":1266000000000,"state":"active","ping":44},{"user_id":189,"name":"Citron","steam_id":76561198278687374,"connected_time":703000000000,"state":"active","ping":59},{"user_id":190,"name":"Ghost","steam_id":76561198110914180,"connected_time":356000000000,"state":"active","ping":176},{"user_id":194,"name":"gghfgfgfg","steam_id":76561198064823861,"connected_time":151000000000,"state":"active","ping":52},{"user_id":185,"name":"Yumyumyaz","steam_id":76561198142866179,"connected_time":743000000000,"state":"active","ping":83},{"user_id":197,"name":"Nice21","steam_id":76561199427548141,"connected_time":10000000000,"state":"active","ping":129},{"user_id":178,"name":"an inebriated newt fancier","steam_id":76561197985428155,"connected_time":1441000000000,"state":"active","ping":66},{"user_id":188,"name":"Hank","steam_id":76561198094830509,"connected_time":713000000000,"state":"active","ping":64},{"user_id":156,"name":"piflle","steam_id":76561199283873577,"connected_time":2495000000000,"state":"active","ping":75},{"user_id":174,"name":"igbygames","steam_id":76561199169224041,"connected_time":1504000000000,"state":"active","ping":83},{"user_id":192,"name":"slop","steam_id":76561198199803242,"connected_time":317000000000,"state":"active","ping":79},{"user_id":196,"name":"smelly boy james(he stinkin)","steam_id":76561197997006216,"connected_time":57000000000,"state":"active","ping":65},{"user_id":162,"name":"Z4LTte","steam_id":76561198283258068,"connected_time":2151000000000,"state":"active","ping":55},{"user_id":177,"name":"Sleepy Sunny","steam_id":76561199304796706,"connected_time":1459000000000,"state":"active","ping":73},{"user_id":179,"name":"Peepster","steam_id":76561198297854733,"connected_time":1429000000000,"state":"active","ping":85},{"user_id":180,"name":"cucumper","steam_id":76561198079504588,"connected_time":1303000000000,"state":"active","ping":75},{"user_id":187,"name":"Maitre Poulet","steam_id":76561198995260426,"connected_time":738000000000,"state":"active","ping":68},{"user_id":184,"name":"Shmuzy","steam_id":76561198252123826,"connected_time":973000000000,"state":"active","ping":135}]},{"server_id":14,"name":"Uncletopia | New York City | 2 | All Maps","name_short":"nyc-2","host":"nyc-1.us.uncletopia.com","port":27025,"enabled":true,"region":"us-east","cc":"us","latitude":40.73061,"longitude":-73.93524,"reserved":0,"last_update":"0001-01-01T00:00:00Z","name_a2s":"Uncletopia | New York City | 2 | All Maps","protocol":17,"map":"koth_cascade","folder":"tf","game":"Team Fortress","app_id":440,"player_count":7,"max_players":24,"Bots":0,"server_type":"Dedicated","server_os":"Linux","password":true,"vac":true,"version":"7757534","steam_id":85568392924469994,"keywords":["cp","nocrits","nodmgspread","uncletopia"],"game_id":440,"stv_port":27026,"stv_name":"Uncletopia | New York City | 2 | All Maps | STV","players":[{"user_id":71,"name":"cum makes me fearless","steam_id":76561199153376034,"connected_time":390000000000,"state":"active","ping":90},{"user_id":72,"name":"mysingingmonstersfan34","steam_id":76561199148656125,"connected_time":360000000000,"state":"active","ping":76},{"user_id":75,"name":"sopping wet beast","steam_id":76561198995121468,"connected_time":316000000000,"state":"active","ping":88},{"user_id":74,"name":"sexhaver2014","steam_id":76561199219844308,"connected_time":353000000000,"state":"active","ping":119},{"user_id":77,"name":"MrAwesomeCC","steam_id":76561198796173796,"connected_time":135000000000,"state":"active","ping":68},{"user_id":78,"name":"Theristes#SaveTf2","steam_id":76561198055947434,"connected_time":19000000000,"state":"active","ping":121},{"user_id":79,"name":"tooth","steam_id":76561197986437643,"connected_time":15000000000,"state":"active","ping":57}]},{"server_id":15,"name":"Uncletopia | New York City | 3 | Stopwatch Beta","name_short":"nyc-3","host":"nyc-1.us.uncletopia.com","port":27035,"enabled":true,"region":"us-east","cc":"us","latitude":40.73061,"longitude":-73.93524,"reserved":0,"last_update":"0001-01-01T00:00:00Z","name_a2s":"Uncletopia | New York City | 3 | Stopwatch Beta","protocol":17,"map":"workshop/koth_product_final.ugc454272353","folder":"tf","game":"Team Fortress","app_id":440,"player_count":0,"max_players":24,"Bots":0,"server_type":"Dedicated","server_os":"Linux","password":true,"vac":true,"version":"7757534","steam_id":85568392924742820,"keywords":["cp","nocrits","nodmgspread","uncletopia"],"game_id":440,"stv_port":27036,"stv_name":"Uncletopia | New York City | 3 | Stopwatch Beta | STV","players":null},{"server_id":16,"name":"Uncletopia | New York City | 4 | Community","name_short":"nyc-4","host":"nyc-1.us.uncletopia.com","port":27045,"enabled":true,"region":"us-east","cc":"us","latitude":40.73061,"longitude":-73.93524,"reserved":0,"last_update":"0001-01-01T00:00:00Z","name_a2s":"Uncletopia | New York City | 4 | Community","protocol":17,"map":"pl_frontier_final","folder":"tf","game":"Team Fortress","app_id":440,"player_count":0,"max_players":24,"Bots":0,"server_type":"Dedicated","server_os":"Linux","password":true,"vac":true,"version":"7757534","steam_id":85568392924742821,"keywords":["nocrits","nodmgspread","payload","uncletopia"],"game_id":440,"stv_port":27046,"stv_name":"Uncletopia | New York City | 4 | Community | STV","players":null},{"server_id":142,"name":"Uncletopia | S√£o Paulo | 1 | All Maps","name_short":"sao-1","host":"sao-1.br.uncletopia.com","port":27015,"enabled":true,"region":"sa","cc":"br","latitude":-23.533773,"longitude":-46.62529,"reserved":0,"last_update":"0001-01-01T00:00:00Z","name_a2s":"Uncletopia | S√£o Paulo | 1 | All Maps","protocol":17,"map":"pl_pier","folder":"tf","game":"Team Fortress","app_id":440,"player_count":0,"max_players":24,"Bots":0,"server_type":"Dedicated","server_os":"Linux","password":true,"vac":true,"version":"7757534","steam_id":85568392924469996,"keywords":["nocrits","nodmgspread","payload","uncletopia"],"game_id":440,"stv_port":27016,"stv_name":"Uncletopia | S√£o Paulo | 1 | All Maps | STV","players":null},{"server_id":143,"name":"Uncletopia | S√£o Paulo | 2 | All Maps","name_short":"sao-2","host":"sao-2.br.uncletopia.com","port":27015,"enabled":true,"region":"sa","cc":"br","latitude":-23.533773,"longitude":-46.62529,"reserved":0,"last_update":"0001-01-01T00:00:00Z","name_a2s":"Uncletopia | S√£o Paulo | 2 | All Maps","protocol":17,"map":"pl_snowycoast","folder":"tf","game":"Team Fortress","app_id":440,"player_count":0,"max_players":24,"Bots":0,"server_type":"Dedicated","server_os":"Linux","password":true,"vac":true,"version":"7757534","steam_id":85568392924485349,"keywords":["nocrits","nodmgspread","payload","uncletopia"],"game_id":440,"stv_port":27016,"stv_name":"Uncletopia | S√£o Paulo | 2 | All Maps | STV","players":null},{"server_id":7,"name":"Uncletopia | Seattle | 1 | All Maps","name_short":"sea-1","host":"sea-1.us.uncletopia.com","port":27015,"enabled":true,"region":"us-west","cc":"us","latitude":47.608013,"longitude":-122.33517,"reserved":0,"last_update":"0001-01-01T00:00:00Z","name_a2s":"Uncletopia | Seattle | 1 | All Maps","protocol":17,"map":"pl_swiftwater_final1","folder":"tf","game":"Team Fortress","app_id":440,"player_count":23,"max_players":24,"Bots":0,"server_type":"Dedicated","server_os":"Linux","password":true,"vac":true,"version":"7757534","steam_id":85568392924469997,"keywords":["nocrits","nodmgspread","payload","uncletopia"],"game_id":440,"stv_port":27016,"stv_name":"Uncletopia | Seattle | 1 | All Maps | STV","players":[{"user_id":487,"name":"Saul Goodman","steam_id":76561198354289529,"connected_time":33000000000,"state":"spawning","ping":98},{"user_id":485,"name":"Pneumo.","steam_id":76561197987911883,"connected_time":45000000000,"state":"active","ping":64},{"user_id":417,"name":"Agent Q","steam_id":76561198830829003,"connected_time":4370000000000,"state":"active","ping":96},{"user_id":434,"name":"DOWNWARD SPIRAL","steam_id":76561198170120946,"connected_time":3837000000000,"state":"active","ping":90},{"user_id":488,"name":"TheMagicMrWaffle","steam_id":76561198104357256,"connected_time":31000000000,"state":"active","ping":75},{"user_id":442,"name":"Spy on cart","steam_id":76561198025466913,"connected_time":3644000000000,"state":"active","ping":56},{"user_id":454,"name":"Dauntless Duelist","steam_id":76561198025056018,"connected_time":3430000000000,"state":"active","ping":47},{"user_id":433,"name":"Mico (Becoming Postal Dude)","steam_id":76561198125462953,"connected_time":3851000000000,"state":"active","ping":43},{"user_id":435,"name":"MINILEGOLAS","steam_id":76561198859362058,"connected_time":3819000000000,"state":"active","ping":126},{"user_id":467,"name":"jacix3 [gay wolfgirl]{she/it}","steam_id":76561198205004165,"connected_time":2018000000000,"state":"active","ping":57},{"user_id":475,"name":"Lil Urge","steam_id":76561198162207470,"connected_time":1537000000000,"state":"active","ping":60},{"user_id":470,"name":"CulperRing","steam_id":76561198556615605,"connected_time":1822000000000,"state":"active","ping":105},{"user_id":464,"name":"dirty30","steam_id":76561198021226566,"connected_time":2814000000000,"state":"active","ping":48},{"user_id":476,"name":"SkiesRed","steam_id":76561199389262041,"connected_time":1523000000000,"state":"active","ping":108},{"user_id":463,"name":"jawnymac","steam_id":76561198179529599,"connected_time":2908000000000,"state":"active","ping":64},{"user_id":477,"name":"AmiableNebula","steam_id":76561198094306627,"connected_time":1492000000000,"state":"active","ping":72},{"user_id":484,"name":"Starfruit66","steam_id":76561198069917277,"connected_time":1183000000000,"state":"active","ping":78},{"user_id":480,"name":"Themasterman75","steam_id":76561199385573293,"connected_time":1307000000000,"state":"active","ping":69},{"user_id":481,"name":"üéÑAndreaJinglingüéÑ","steam_id":76561198198658783,"connected_time":1293000000000,"state":"active","ping":61},{"user_id":459,"name":"WaffleWithNoToppings","steam_id":76561199088280111,"connected_time":3356000000000,"state":"active","ping":58},{"user_id":483,"name":"ArcticWolf Art","steam_id":76561198141753331,"connected_time":1252000000000,"state":"active","ping":46},{"user_id":461,"name":"Willy Wonker","steam_id":76561198082944789,"connected_time":3352000000000,"state":"active","ping":80},{"user_id":486,"name":"vfa","steam_id":76561198055729118,"connected_time":45000000000,"state":"active","ping":60}]},{"server_id":119,"name":"Uncletopia | Seattle | 2 | All Maps","name_short":"sea-2","host":"sea-1.us.uncletopia.com","port":27025,"enabled":true,"region":"us-west","cc":"us","latitude":47.608013,"longitude":-122.33517,"reserved":0,"last_update":"0001-01-01T00:00:00Z","name_a2s":"Uncletopia | Seattle | 2 | All Maps","protocol":17,"map":"cp_altitude","folder":"tf","game":"Team Fortress","app_id":440,"player_count":23,"max_players":24,"Bots":0,"server_type":"Dedicated","server_os":"Linux","password":true,"vac":true,"version":"7757534","steam_id":85568392924469998,"keywords":["cp","nocrits","nodmgspread","uncletopia"],"game_id":440,"stv_port":27026,"stv_name":"Uncletopia | Seattle | 2 | All Maps | STV","players":[{"user_id":256,"name":"el muchacho","steam_id":76561198282632562,"connected_time":2819000000000,"state":"active","ping":112},{"user_id":294,"name":"god approaches","steam_id":76561198081617990,"connected_time":37000000000,"state":"active","ping":113},{"user_id":286,"name":"=Silver=","steam_id":76561198292307127,"connected_time":990000000000,"state":"active","ping":71},{"user_id":280,"name":"Literally Roxy's Wife Tsuyu","steam_id":76561198175421763,"connected_time":1337000000000,"state":"active","ping":106},{"user_id":276,"name":"Rhutebeer","steam_id":76561198018302761,"connected_time":1673000000000,"state":"active","ping":136},{"user_id":277,"name":"Naffers","steam_id":76561198195957335,"connected_time":1363000000000,"state":"active","ping":43},{"user_id":216,"name":"Sir Galahad","steam_id":76561198195999859,"connected_time":4997000000000,"state":"active","ping":54},{"user_id":250,"name":"Battle Pope","steam_id":76561198059627663,"connected_time":2904000000000,"state":"active","ping":76},{"user_id":292,"name":"Path To Victory","steam_id":76561198026958898,"connected_time":290000000000,"state":"active","ping":106},{"user_id":285,"name":"Piddlybonking the Cheese Man","steam_id":76561197970791798,"connected_time":1038000000000,"state":"active","ping":39},{"user_id":227,"name":"EEBIGAA","steam_id":76561198056535988,"connected_time":4373000000000,"state":"active","ping":65},{"user_id":278,"name":"Bubbamanme","steam_id":76561198119778504,"connected_time":1358000000000,"state":"active","ping":58},{"user_id":289,"name":"The Notorious RBG","steam_id":76561198014275148,"connected_time":619000000000,"state":"active","ping":130},{"user_id":194,"name":"nnobi","steam_id":76561198878729277,"connected_time":6197000000000,"state":"active","ping":130},{"user_id":260,"name":"Thirsty guy","steam_id":76561199059653595,"connected_time":2660000000000,"state":"active","ping":48},{"user_id":268,"name":"Cosmosis Jones","steam_id":76561198970097093,"connected_time":2178000000000,"state":"active","ping":76},{"user_id":274,"name":"DennethThaThinather","steam_id":76561198098121768,"connected_time":1795000000000,"state":"active","ping":58},{"user_id":281,"name":"Angstrom Boli","steam_id":76561198025670585,"connected_time":1245000000000,"state":"active","ping":102},{"user_id":264,"name":"Scampy","steam_id":76561198001506924,"connected_time":2306000000000,"state":"active","ping":58},{"user_id":279,"name":"Jeugh","steam_id":76561198073498865,"connected_time":1348000000000,"state":"active","ping":137},{"user_id":282,"name":"Winter the Witchie","steam_id":76561198151971178,"connected_time":1241000000000,"state":"active","ping":115},{"user_id":246,"name":"1 Great Wooden Dad","steam_id":76561198377126974,"connected_time":3298000000000,"state":"active","ping":123},{"user_id":284,"name":"heimdall","steam_id":76561198069380992,"connected_time":1113000000000,"state":"active","ping":122}]},{"server_id":406,"name":"Uncletopia | Seattle | 3 | Stopwatch Beta","name_short":"sea-3","host":"sea-1.us.uncletopia.com","port":27035,"enabled":true,"region":"us-west","cc":"us","latitude":47.608013,"longitude":-122.33517,"reserved":0,"last_update":"0001-01-01T00:00:00Z","name_a2s":"Uncletopia | Seattle | 3 | Stopwatch Beta","protocol":17,"map":"pl_borneo","folder":"tf","game":"Team Fortress","app_id":440,"player_count":0,"max_players":24,"Bots":0,"server_type":"Dedicated","server_os":"Linux","password":true,"vac":true,"version":"7757534","steam_id":85568392924515217,"keywords":["nocrits","nodmgspread","payload","uncletopia"],"game_id":440,"stv_port":27036,"stv_name":"Uncletopia | Seattle | 3 | Stopwatch Beta | STV","players":null},{"server_id":17,"name":"Uncletopia | San Francisco | 1 | All Maps","name_short":"sfo-1","host":"sfo-1.us.uncletopia.com","port":27015,"enabled":true,"region":"us-west","cc":"us","latitude":37.77397,"longitude":-122.4313,"reserved":0,"last_update":"0001-01-01T00:00:00Z","name_a2s":"Uncletopia | San Francisco | 1 | All Maps","protocol":17,"map":"koth_highpass","folder":"tf","game":"Team Fortress","app_id":440,"player_count":0,"max_players":24,"Bots":0,"server_type":"Dedicated","server_os":"Linux","password":true,"vac":true,"version":"7757534","steam_id":85568392924469999,"keywords":["cp","nocrits","nodmgspread","uncletopia"],"game_id":440,"stv_port":27016,"stv_name":"Uncletopia | San Francisco | 1 | All Maps | STV","players":null},{"server_id":18,"name":"Uncletopia | San Francisco | 2 | All Maps","name_short":"sfo-2","host":"sfo-1.us.uncletopia.com","port":27025,"enabled":true,"region":"us-west","cc":"us","latitude":37.77397,"longitude":-122.4313,"reserved":0,"last_update":"0001-01-01T00:00:00Z","name_a2s":"Uncletopia | San Francisco | 2 | All Maps","protocol":17,"map":"koth_viaduct","folder":"tf","game":"Team Fortress","app_id":440,"player_count":0,"max_players":24,"Bots":0,"server_type":"Dedicated","server_os":"Linux","password":true,"vac":true,"version":"7757534","steam_id":85568392924470000,"keywords":["cp","nocrits","nodmgspread","uncletopia"],"game_id":440,"stv_port":27026,"stv_name":"Uncletopia | San Francisco | 2 | All Maps | STV","players":null},{"server_id":19,"name":"Uncletopia | San Francisco | 3 | Stopwatch Beta","name_short":"sfo-3","host":"sfo-1.us.uncletopia.com","port":27035,"enabled":true,"region":"us-west","cc":"us","latitude":37.77397,"longitude":-122.4313,"reserved":0,"last_update":"0001-01-01T00:00:00Z","name_a2s":"Uncletopia | San Francisco | 3 | Stopwatch Beta","protocol":17,"map":"cp_snakewater_final1","folder":"tf","game":"Team Fortress","app_id":440,"player_count":0,"max_players":24,"Bots":0,"server_type":"Dedicated","server_os":"Linux","password":true,"vac":true,"version":"7757534","steam_id":85568392924742824,"keywords":["cp","nocrits","nodmgspread","uncletopia"],"game_id":440,"stv_port":27036,"stv_name":"Uncletopia | San Francisco | 3 | Stopwatch Beta | STV","players":null},{"server_id":20,"name":"Uncletopia | San Francisco | 4 | Community","name_short":"sfo-4","host":"sfo-1.us.uncletopia.com","port":27045,"enabled":true,"region":"us-west","cc":"us","latitude":37.77397,"longitude":-122.4313,"reserved":0,"last_update":"0001-01-01T00:00:00Z","name_a2s":"Uncletopia | San Francisco | 4 | Community","protocol":17,"map":"pl_frontier_final","folder":"tf","game":"Team Fortress","app_id":440,"player_count":0,"max_players":24,"Bots":0,"server_type":"Dedicated","server_os":"Linux","password":true,"vac":true,"version":"7757534","steam_id":85568392924742826,"keywords":["nocrits","nodmgspread","payload","uncletopia"],"game_id":440,"stv_port":27046,"stv_name":"Uncletopia | San Francisco | 4 | Community | STV","players":null},{"server_id":141,"name":"Uncletopia | Sydney | 1 | All Maps","name_short":"syd-1","host":"syd-1.au.uncletopia.com","port":27015,"enabled":true,"region":"au","cc":"au","latitude":-33.865143,"longitude":151.2099,"reserved":0,"last_update":"0001-01-01T00:00:00Z","name_a2s":"Uncletopia | Sydney | 1 | All Maps","protocol":17,"map":"pl_pier","folder":"tf","game":"Team Fortress","app_id":440,"player_count":10,"max_players":24,"Bots":0,"server_type":"Dedicated","server_os":"Linux","password":true,"vac":true,"version":"7757534","steam_id":85568392924470001,"keywords":["nocrits","nodmgspread","payload","uncletopia"],"game_id":440,"stv_port":27016,"stv_name":"Uncletopia | Sydney | 1 | All Maps | STV","players":[{"user_id":3,"name":"Shadow Puppeteer","steam_id":76561198151121997,"connected_time":5237000000000,"state":"active","ping":70},{"user_id":38,"name":"punished angry birds player","steam_id":76561198799721381,"connected_time":468000000000,"state":"active","ping":60},{"user_id":24,"name":"TheLegend27","steam_id":76561197969619053,"connected_time":1610000000000,"state":"active","ping":70},{"user_id":37,"name":"Um Autista Por Aqui","steam_id":76561199474131173,"connected_time":649000000000,"state":"active","ping":367},{"user_id":41,"name":"Crimson Marshmello","steam_id":76561198311358321,"connected_time":165000000000,"state":"active","ping":60},{"user_id":42,"name":"Palladium","steam_id":76561198199187025,"connected_time":161000000000,"state":"spawning","ping":355},{"user_id":35,"name":"Gucci Flip Flops","steam_id":76561198282404128,"connected_time":862000000000,"state":"active","ping":50},{"user_id":27,"name":"CareBear","steam_id":76561198152496674,"connected_time":1501000000000,"state":"active","ping":105},{"user_id":28,"name":"Moo_UwU","steam_id":76561199138512017,"connected_time":1458000000000,"state":"active","ping":260},{"user_id":36,"name":"NeonBlue33","steam_id":76561199463234329,"connected_time":842000000000,"state":"active","ping":235}]},{"server_id":123,"name":"Uncletopia | Sydney | 2 | All Maps","name_short":"syd-2","host":"syd-1.au.uncletopia.com","port":27025,"enabled":true,"region":"au","cc":"au","latitude":-33.865143,"longitude":151.2099,"reserved":0,"last_update":"0001-01-01T00:00:00Z","name_a2s":"Uncletopia | Sydney | 2 | All Maps","protocol":17,"map":"pl_upward","folder":"tf","game":"Team Fortress","app_id":440,"player_count":0,"max_players":24,"Bots":0,"server_type":"Dedicated","server_os":"Linux","password":true,"vac":true,"version":"7757534","steam_id":85568392924470002,"keywords":["nocrits","nodmgspread","payload","uncletopia"],"game_id":440,"stv_port":27026,"stv_name":"Uncletopia | Sydney | 2 | All Maps | STV","players":null},{"server_id":395,"name":"Uncletopia | Sydney | 3 | All Maps","name_short":"syd-3","host":"syd-1.au.uncletopia.com","port":27035,"enabled":true,"region":"au","cc":"au","latitude":-33.865143,"longitude":151.2099,"reserved":0,"last_update":"0001-01-01T00:00:00Z","name_a2s":"Uncletopia | Sydney | 3 | All Maps","protocol":17,"map":"pl_borneo","folder":"tf","game":"Team Fortress","app_id":440,"player_count":0,"max_players":24,"Bots":0,"server_type":"Dedicated","server_os":"Linux","password":true,"vac":true,"version":"7757534","steam_id":85568392925194467,"keywords":["nocrits","nodmgspread","payload","uncletopia"],"game_id":440,"stv_port":27036,"stv_name":"Uncletopia | Sydney | 3 | All Maps | STV","players":null},{"server_id":396,"name":"Uncletopia | Sydney | 4 | All Maps","name_short":"syd-4","host":"syd-1.au.uncletopia.com","port":27045,"enabled":true,"region":"au","cc":"au","latitude":-33.865143,"longitude":151.2099,"reserved":0,"last_update":"0001-01-01T00:00:00Z","name_a2s":"Uncletopia | Sydney | 4 | All Maps","protocol":17,"map":"pl_upward","folder":"tf","game":"Team Fortress","app_id":440,"player_count":0,"max_players":24,"Bots":0,"server_type":"Dedicated","server_os":"Linux","password":true,"vac":true,"version":"7757534","steam_id":85568392925397958,"keywords":["nocrits","nodmgspread","payload","uncletopia"],"game_id":440,"stv_port":27046,"stv_name":"Uncletopia | Sydney | 4 | All Maps | STV","players":null},{"server_id":58,"name":"Uncletopia | Sydney | 5 | Stopwatch Beta","name_short":"syd-5","host":"syd-1.au.uncletopia.com","port":27055,"enabled":true,"region":"au","cc":"au","latitude":-33.865143,"longitude":151.2099,"reserved":0,"last_update":"0001-01-01T00:00:00Z","name_a2s":"Uncletopia | Sydney | 5 | Stopwatch Beta","protocol":17,"map":"koth_cascade","folder":"tf","game":"Team Fortress","app_id":440,"player_count":0,"max_players":24,"Bots":0,"server_type":"Dedicated","server_os":"Linux","password":true,"vac":true,"version":"7757534","steam_id":85568392925397959,"keywords":["cp","nocrits","nodmgspread","uncletopia"],"game_id":440,"stv_port":27056,"stv_name":"Uncletopia | Sydney | 5 | Stopwatch Beta | STV","players":null},{"server_id":59,"name":"Uncletopia | Sydney | 6 | Community","name_short":"syd-6","host":"syd-1.au.uncletopia.com","port":27065,"enabled":true,"region":"au","cc":"au","latitude":-33.865143,"longitude":151.2099,"reserved":0,"last_update":"0001-01-01T00:00:00Z","name_a2s":"Uncletopia | Sydney | 6 | Community","protocol":17,"map":"pl_badwater","folder":"tf","game":"Team Fortress","app_id":440,"player_count":0,"max_players":24,"Bots":0,"server_type":"Dedicated","server_os":"Linux","password":true,"vac":true,"version":"7757534","steam_id":85568392925397960,"keywords":["nocrits","nodmgspread","payload","uncletopia"],"game_id":440,"stv_port":27066,"stv_name":"Uncletopia | Sydney | 6 | Community | STV","players":null},{"server_id":49,"name":"Uncletopia | Warsaw | 1 | All Maps","name_short":"waw-1","host":"waw-1.pl.uncletopia.com","port":27015,"enabled":true,"region":"eu","cc":"pl","latitude":52.2297,"longitude":21.017532,"reserved":0,"last_update":"0001-01-01T00:00:00Z","name_a2s":"","protocol":0,"map":"","folder":"","game":"","app_id":0,"player_count":0,"max_players":0,"Bots":0,"server_type":"","server_os":"","password":false,"vac":false,"version":"","steam_id":0,"keywords":null,"game_id":0,"stv_port":0,"stv_name":"","players":null},{"server_id":50,"name":"Uncletopia | Warsaw | 2 | All Maps","name_short":"waw-2","host":"waw-1.pl.uncletopia.com","port":27025,"enabled":true,"region":"eu","cc":"pl","latitude":52.2297,"longitude":21.017532,"reserved":0,"last_update":"0001-01-01T00:00:00Z","name_a2s":"Uncletopia | Warsaw | 2 | All Maps","protocol":17,"map":"koth_highpass","folder":"tf","game":"Team Fortress","app_id":440,"player_count":0,"max_players":24,"Bots":0,"server_type":"Dedicated","server_os":"Linux","password":true,"vac":true,"version":"7757534","steam_id":85568392925397851,"keywords":["cp","nocrits","nodmgspread","uncletopia"],"game_id":440,"stv_port":27026,"stv_name":"Uncletopia | Warsaw | 2 | All Maps | STV","players":null},{"server_id":51,"name":"Uncletopia | Warsaw | 3 | All Maps","name_short":"waw-3","host":"waw-1.pl.uncletopia.com","port":27035,"enabled":true,"region":"eu","cc":"pl","latitude":52.2297,"longitude":21.017532,"reserved":0,"last_update":"0001-01-01T00:00:00Z","name_a2s":"Uncletopia | Warsaw | 3 | All Maps","protocol":17,"map":"pl_pier","folder":"tf","game":"Team Fortress","app_id":440,"player_count":0,"max_players":24,"Bots":0,"server_type":"Dedicated","server_os":"Linux","password":true,"vac":true,"version":"7757534","steam_id":85568392925397852,"keywords":["nocrits","nodmgspread","payload","uncletopia"],"game_id":440,"stv_port":27036,"stv_name":"Uncletopia | Warsaw | 3 | All Maps | STV","players":null},{"server_id":52,"name":"Uncletopia | Warsaw | 4 | All Maps","name_short":"waw-4","host":"waw-1.pl.uncletopia.com","port":27045,"enabled":true,"region":"eu","cc":"pl","latitude":52.2297,"longitude":21.017532,"reserved":0,"last_update":"0001-01-01T00:00:00Z","name_a2s":"Uncletopia | Warsaw | 4 | All Maps","protocol":17,"map":"koth_highpass","folder":"tf","game":"Team Fortress","app_id":440,"player_count":0,"max_players":24,"Bots":0,"server_type":"Dedicated","server_os":"Linux","password":true,"vac":true,"version":"7757534","steam_id":85568392925397853,"keywords":["cp","nocrits","nodmgspread","uncletopia"],"game_id":440,"stv_port":27046,"stv_name":"Uncletopia | Warsaw | 4 | All Maps | STV","players":null},{"server_id":53,"name":"Uncletopia | Warsaw | 5 | Stopwatch Beta","name_short":"waw-5","host":"waw-1.pl.uncletopia.com","port":27055,"enabled":true,"region":"eu","cc":"pl","latitude":52.2297,"longitude":21.017532,"reserved":0,"last_update":"0001-01-01T00:00:00Z","name_a2s":"Uncletopia | Warsaw | 5 | Stopwatch Beta","protocol":17,"map":"pl_pier","folder":"tf","game":"Team Fortress","app_id":440,"player_count":0,"max_players":24,"Bots":0,"server_type":"Dedicated","server_os":"Linux","password":true,"vac":true,"version":"7757534","steam_id":85568392925397854,"keywords":["nocrits","nodmgspread","payload","uncletopia"],"game_id":440,"stv_port":27056,"stv_name":"Uncletopia | Warsaw | 5 | Stopwatch Beta | STV","players":null},{"server_id":54,"name":"Uncletopia | Warsaw | 6 | Community","name_short":"waw-6","host":"waw-1.pl.uncletopia.com","port":27065,"enabled":true,"region":"eu","cc":"pl","latitude":52.2297,"longitude":21.017532,"reserved":0,"last_update":"0001-01-01T00:00:00Z","name_a2s":"Uncletopia | Warsaw | 6 | Community","protocol":17,"map":"koth_highpass","folder":"tf","game":"Team Fortress","app_id":440,"player_count":0,"max_players":24,"Bots":0,"server_type":"Dedicated","server_os":"Linux","password":true,"vac":true,"version":"7757534","steam_id":85568392925397856,"keywords":["cp","nocrits","nodmgspread","uncletopia"],"game_id":440,"stv_port":27066,"stv_name":"Uncletopia | Warsaw | 6 | Community | STV","players":null}]}