{"status":true,"message":"","result":[{"server_id":9,"name":"Uncletopia | Atlanta | 1 | All Maps","name_short":"atl-1","host":"atl-1.us.uncletopia.com","port":27015,"enabled":true,"region":"us-east","cc":"us","latitude":33.753746,"longitude":-84.38633,"reserved":0,"last_update":"0001-01-01T00:00:00Z","name_a2s":"Uncletopia | Atlanta | 1 | All Maps","protocol":17,"map":"cp_altitude","folder":"tf","game":"Team Fortress","app_id":440,"player_count":0,"max_players":24,"Bots":0,"server_type":"Dedicated","server_os":"Linux","password":true,"vac":true,"version":"7882260","steam_id":85568392924469982,"keywords":["cp","nocrits","nodmgspread","uncletopia"],"game_id":440,"stv_port":27016,"stv_name":"Uncletopia | Atlanta | 1 | All Maps | STV","players":null},{"server_id":104,"name":"Uncletopia | Atlanta | 2 | All Maps","name_short":"atl-2","host":"atl-1.us.uncletopia.com","port":27025,"enabled":true,"region":"us-east","cc":"us","latitude":33.753746,"longitude":-84.38633,"reserved":0,"last_update":"0001-01-01T00:00:00Z","name_a2s":"Uncletopia | Atlanta | 2 | All Maps","protocol":17,"map":"pl_swiftwater_final1","folder":"tf","game":"Team Fortress","app_id":440,"player_count":0,"max_players":24,"Bots":0,"server_type":"Dedicated","server_os":"Linux","password":true,"vac":true,"version":"7882260","steam_id":85568392924469983,"keywords":["nocrits","nodmgspread","payload","uncletopia"],"game_id":440,"stv_port":27026,"stv_name":"Uncletopia | Atlanta | 2 | All Maps | STV","players":null},{"server_id":400,"name":"Uncletopia | Atlanta | 3 | Community","name_short":"atl-3","host":"atl-1.us.uncletopia.com","port":27035,"enabled":true,"region":"us-east","cc":"us","latitude":33.753746,"longitude":-84.38633,"reserved":0,"last_update":"0001-01-01T00:00:00Z","name_a2s":"Uncletopia | Atlanta | 3 | Community","protocol":17,"map":"pl_borneo","folder":"tf","game":"Team Fortress","app_id":440,"player_count":0,"max_players":24,"Bots":0,"server_type":"Dedicated","server_os":"Linux","password":true,"vac":true,"version":"7882260","steam_id":85568392924515187,"keywords":["nocrits","nodmgspread","payload","uncletopia"],"game_id":440,"stv_port":27036,"stv_name":"Uncletopia | Atlanta | 3 | Community | STV","players":null},{"server_id":401,"name":"Uncletopia | Atlanta | 4 | No Payload","name_short":"atl-4","host":"atl-1.us.uncletopia.com","port":27045,"enabled":true,"region":"us-east","cc":"us","latitude":33.753746,"longitude":-84.38633,"reserved":0,"last_update":"0001-01-01T00:00:00Z","name_a2s":"","protocol":0,"map":"","folder":"","game":"","app_id":0,"player_count":0,"max_players":0,"Bots":0,"server_type":"","server_os":"","password":false,"vac":false,"version":"","steam_id":0,"keywords":null,"game_id":0,"stv_port":0,"stv_name":"","players":null},{"server_id":2,"name":"Uncletopia | Chicago | 1 | All Maps","name_short":"chi-1","host":"chi-1.us.uncletopia.com","port":27015,"enabled":true,"region":"us-central","cc":"us","latitude":41.881832,"longitude":-87.62318,"reserved":0,"last_update":"0001-01-01T00:00:00Z","name_a2s":"Uncletopia | Chicago | 1 | All Maps","protocol":17,"map":"pl_borneo","folder":"tf","game":"Team Fortress","app_id":440,"player_count":24,"max_players":24,"Bots":0,"server_type":"Dedicated","server_os":"Linux","password":true,"vac":true,"version":"7882260","steam_id":85568392924469984,"keywords":["nocrits","nodmgspread","payload","uncletopia"],"game_id":440,"stv_port":27016,"stv_name":"Uncletopia | Chicago | 1 | All Maps | STV","players":[{"user_id":109,"name":"Looking for BBW in stanfield nc","steam_id":76561199207371234,"connected_time":1619000000000,"state":"active","ping":86},{"user_id":120,"name":"Capt. Grins","steam_id":76561198032663494,"connected_time":711000000000,"state":"active","ping":56},{"user_id":101,"name":"FunGi","steam_id":76561198881418662,"connected_time":1643000000000,"state":"active","ping":80},{"user_id":116,"name":"Lynx","steam_id":76561198322363286,"connected_time":869000000000,"state":"active","ping":73},{"user_id":113,"name":"Questor","steam_id":76561198034859665,"connected_time":1422000000000,"state":"active","ping":87},{"user_id":117,"name":"Dwaggy","steam_id":76561198027369555,"connected_time":809000000000,"state":"active","ping":69},{"user_id":115,"name":"Asanez3","steam_id":76561198037381436,"connected_time":969000000000,"state":"active","ping":86},{"user_id":125,"name":"Apricot","steam_id":76561198355699935,"connected_time":449000000000,"state":"active","ping":115},{"user_id":90,"name":"Cdi","steam_id":76561198056223909,"connected_time":3404000000000,"state":"active","ping":55},{"user_id":122,"name":"Chilling Bing","steam_id":76561198140651185,"connected_time":639000000000,"state":"active","ping":75},{"user_id":124,"name":"Bleebi","steam_id":76561197971264259,"connected_time":494000000000,"state":"active","ping":55},{"user_id":123,"name":"fnkwgn","steam_id":76561198036884600,"connected_time":547000000000,"state":"active","ping":63},{"user_id":112,"name":"JoJoJo","steam_id":76561198067153390,"connected_time":1566000000000,"state":"active","ping":51},{"user_id":36,"name":"Lost","steam_id":76561198093713427,"connected_time":7577000000000,"state":"active","ping":60},{"user_id":114,"name":"SCARY MONSTERS","steam_id":76561198042034176,"connected_time":1418000000000,"state":"active","ping":60},{"user_id":97,"name":"Saber0X1","steam_id":76561198090226093,"connected_time":2716000000000,"state":"active","ping":75},{"user_id":75,"name":"ghastlierest gamer","steam_id":76561198057374871,"connected_time":4174000000000,"state":"active","ping":61},{"user_id":23,"name":"dansci","steam_id":76561198269530717,"connected_time":8956000000000,"state":"active","ping":60},{"user_id":99,"name":"jack","steam_id":76561198314104415,"connected_time":2550000000000,"state":"active","ping":70},{"user_id":121,"name":"WILLSOON","steam_id":76561199019790002,"connected_time":709000000000,"state":"active","ping":89},{"user_id":119,"name":"Demoman With One Joke","steam_id":76561197993467034,"connected_time":736000000000,"state":"active","ping":52},{"user_id":126,"name":"PyroEagle","steam_id":76561198296434231,"connected_time":274000000000,"state":"active","ping":72},{"user_id":103,"name":"Zen","steam_id":76561199008362890,"connected_time":1642000000000,"state":"active","ping":66}]},{"server_id":106,"name":"Uncletopia | Chicago | 2 | All Maps","name_short":"chi-2","host":"chi-1.us.uncletopia.com","port":27025,"enabled":true,"region":"us-central","cc":"us","latitude":41.881832,"longitude":-87.62318,"reserved":0,"last_update":"0001-01-01T00:00:00Z","name_a2s":"Uncletopia | Chicago | 2 | All Maps","protocol":17,"map":"koth_lakeside_final","folder":"tf","game":"Team Fortress","app_id":440,"player_count":0,"max_players":24,"Bots":0,"server_type":"Dedicated","server_os":"Linux","password":true,"vac":true,"version":"7882260","steam_id":85568392924469985,"keywords":["cp","nocrits","nodmgspread","uncletopia"],"game_id":440,"stv_port":27026,"stv_name":"Uncletopia | Chicago | 2 | All Maps | STV","players":null},{"server_id":402,"name":"Uncletopia | Chicago | 3 | All Maps","name_short":"chi-3","host":"chi-1.us.uncletopia.com","port":27035,"enabled":true,"region":"us-central","cc":"us","latitude":41.881832,"longitude":-87.62318,"reserved":0,"last_update":"0001-01-01T00:00:00Z","name_a2s":"Uncletopia | Chicago | 3 | All Maps","protocol":17,"map":"pl_snowycoast","folder":"tf","game":"Team Fortress","app_id":440,"player_count":25,"max_players":24,"Bots":0,"server_type":"Dedicated","server_os":"Linux","password":true,"vac":true,"version":"7882260","steam_id":85568392924515191,"keywords":["nocrits","nodmgspread","payload","uncletopia"],"game_id":440,"stv_port":27036,"stv_name":"Uncletopia | Chicago | 3 | All Maps | STV","players":[{"user_id":65,"name":"BudTuggly","steam_id":76561198026873580,"connected_time":1232000000000,"state":"active","ping":45},{"user_id":81,"name":"Shrimpeee","steam_id":76561199012689768,"connected_time":251000000000,"state":"active","ping":152},{"user_id":67,"name":"Mr. Morale","steam_id":76561198868600487,"connected_time":1161000000000,"state":"active","ping":109},{"user_id":45,"name":"J21","steam_id":76561198066590783,"connected_time":2866000000000,"state":"active","ping":65},{"user_id":75,"name":"cosmic ambiance","steam_id":76561198042788986,"connected_time":534000000000,"state":"active","ping":83},{"user_id":9,"name":"never existed","steam_id":76561198054390505,"connected_time":5192000000000,"state":"active","ping":46},{"user_id":55,"name":"oh..woahh...","steam_id":76561198021224745,"connected_time":2166000000000,"state":"active","ping":59},{"user_id":44,"name":"Fresh0c0","steam_id":76561198271933283,"connected_time":2888000000000,"state":"active","ping":60},{"user_id":12,"name":"glue sniffer","steam_id":76561198044689778,"connected_time":5097000000000,"state":"active","ping":60},{"user_id":73,"name":"threethree","steam_id":76561198177354155,"connected_time":719000000000,"state":"active","ping":45},{"user_id":32,"name":"Helloppl65","steam_id":76561198272420658,"connected_time":4418000000000,"state":"active","ping":120},{"user_id":42,"name":"Mury","steam_id":76561198069743049,"connected_time":3379000000000,"state":"active","ping":97},{"user_id":76,"name":"[IRP] Dover","steam_id":76561198417653786,"connected_time":470000000000,"state":"active","ping":120},{"user_id":71,"name":"Some random dude","steam_id":76561199477705792,"connected_time":859000000000,"state":"active","ping":121},{"user_id":80,"name":"Bogey","steam_id":76561198096227944,"connected_time":286000000000,"state":"active","ping":69},{"user_id":70,"name":"IlTrashPanda","steam_id":76561198447864095,"connected_time":953000000000,"state":"active","ping":85},{"user_id":49,"name":"gaming elliptical","steam_id":76561198013456569,"connected_time":2615000000000,"state":"active","ping":46},{"user_id":79,"name":"Thy Stupid Rat","steam_id":76561198272075712,"connected_time":298000000000,"state":"active","ping":69},{"user_id":72,"name":"lividpooper","steam_id":76561198053332483,"connected_time":840000000000,"state":"active","ping":62},{"user_id":82,"name":"Winter the Witchie | B-DAY","steam_id":76561198151971178,"connected_time":245000000000,"state":"active","ping":63},{"user_id":83,"name":"Bookman","steam_id":76561197993072125,"connected_time":114000000000,"state":"spawning","ping":87},{"user_id":33,"name":"MellowBoy-2354","steam_id":76561199080630632,"connected_time":4410000000000,"state":"active","ping":102},{"user_id":63,"name":"Mr.Bady","steam_id":76561199094651706,"connected_time":1508000000000,"state":"active","ping":68},{"user_id":64,"name":"erm....","steam_id":76561198143132686,"connected_time":1498000000000,"state":"active","ping":86},{"user_id":78,"name":"Peppino","steam_id":76561198189176634,"connected_time":455000000000,"state":"active","ping":75}]},{"server_id":403,"name":"Uncletopia | Chicago | 4 | All Maps","name_short":"chi-4","host":"chi-1.us.uncletopia.com","port":27045,"enabled":true,"region":"us-central","cc":"us","latitude":41.881832,"longitude":-87.62318,"reserved":0,"last_update":"0001-01-01T00:00:00Z","name_a2s":"Uncletopia | Chicago | 4 | All Maps","protocol":17,"map":"koth_lakeside_final","folder":"tf","game":"Team Fortress","app_id":440,"player_count":0,"max_players":24,"Bots":0,"server_type":"Dedicated","server_os":"Linux","password":true,"vac":true,"version":"7882260","steam_id":85568392924515193,"keywords":["cp","nocrits","nodmgspread","uncletopia"],"game_id":440,"stv_port":27046,"stv_name":"Uncletopia | Chicago | 4 | All Maps | STV","players":null},{"server_id":36,"name":"Uncletopia | Chicago | 5 | All Maps","name_short":"chi-5","host":"chi-2.us.uncletopia.com","port":27015,"enabled":true,"region":"us-central","cc":"us","latitude":41.881832,"longitude":-87.62318,"reserved":0,"last_update":"0001-01-01T00:00:00Z","name_a2s":"Uncletopia | Chicago | 5 | All Maps","protocol":17,"map":"cp_dustbowl","folder":"tf","game":"Team Fortress","app_id":440,"player_count":0,"max_players":24,"Bots":0,"server_type":"Dedicated","server_os":"Linux","password":true,"vac":true,"version":"7882260","steam_id":85568392924866362,"keywords":["cp","nocrits","nodmgspread","uncletopia"],"game_id":440,"stv_port":27016,"stv_name":"Uncletopia | Chicago | 5 | All Maps | STV","players":null},{"server_id":37,"name":"Uncletopia | Chicago | 6 | All Maps","name_short":"chi-6","host":"chi-2.us.uncletopia.com","port":27025,"enabled":true,"region":"us-central","cc":"us","latitude":41.881832,"longitude":-87.62318,"reserved":0,"last_update":"0001-01-01T00:00:00Z","name_a2s":"Uncletopia | Chicago | 6 | All Maps","protocol":17,"map":"cp_altitude","folder":"tf","game":"Team Fortress","app_id":440,"player_count":0,"max_players":24,"Bots":0,"server_type":"Dedicated","server_os":"Linux","password":true,"vac":true,"version":"7882260","steam_id":85568392924866363,"keywords":["cp","nocrits","nodmgspread","uncletopia"],"game_id":440,"stv_port":27026,"stv_name":"Uncletopia | Chicago | 6 | All Maps | STV","players":null},{"server_id":38,"name":"Uncletopia | Chicago | 7 | Stopwatch Beta","name_short":"chi-7","host":"chi-2.us.uncletopia.com","port":27035,"enabled":true,"region":"us-central","cc":"us","latitude":41.881832,"longitude":-87.62318,"reserved":0,"last_update":"0001-01-01T00:00:00Z","name_a2s":"Uncletopia | Chicago | 7 | Stopwatch Beta","protocol":17,"map":"pl_upward","folder":"tf","game":"Team Fortress","app_id":440,"player_count":0,"max_players":24,"Bots":0,"server_type":"Dedicated","server_os":"Linux","password":true,"vac":true,"version":"7882260","steam_id":85568392924866364,"keywords":["nocrits","nodmgspread","payload","uncletopia"],"game_id":440,"stv_port":27036,"stv_name":"Uncletopia | Chicago | 7 | Stopwatch Beta | STV","players":null},{"server_id":39,"name":"Uncletopia | Chicago | 8 | Community","name_short":"chi-8","host":"chi-2.us.uncletopia.com","port":27045,"enabled":true,"region":"us-central","cc":"us","latitude":41.881832,"longitude":-87.62318,"reserved":0,"last_update":"0001-01-01T00:00:00Z","name_a2s":"Uncletopia | Chicago | 8 | Community","protocol":17,"map":"pl_badwater","folder":"tf","game":"Team Fortress","app_id":440,"player_count":0,"max_players":24,"Bots":0,"server_type":"Dedicated","server_os":"Linux","password":true,"vac":true,"version":"7882260","steam_id":85568392924866365,"keywords":["nocrits","nodmgspread","payload","uncletopia"],"game_id":440,"stv_port":27046,"stv_name":"Uncletopia | Chicago | 8 | Community | STV","players":null},{"server_id":8,"name":"Uncletopia | Dallas | 1 | All Maps","name_short":"dal-1","host":"dal-1.us.uncletopia.com","port":27015,"enabled":true,"region":"us-central","cc":"us","latitude":32.779167,"longitude":-96.80889,"reserved":0,"last_update":"0001-01-01T00:00:00Z","name_a2s":"Uncletopia | Dallas | 1 | All Maps","protocol":17,"map":"koth_viaduct","folder":"tf","game":"Team Fortress","app_id":440,"player_count":2,"max_players":24,"Bots":0,"server_type":"Dedicated","server_os":"Linux","password":true,"vac":true,"version":"7882260","steam_id":85568392924469986,"keywords":["cp","nocrits","nodmgspread","uncletopia"],"game_id":440,"stv_port":27016,"stv_name":"Uncletopia | Dallas | 1 | All Maps | STV","players":[{"user_id":9,"name":"pudl","steam_id":76561198043726592,"connected_time":432000000000,"state":"active","ping":43},{"user_id":10,"name":"_Lusty_","steam_id":76561198876948142,"connected_time":128000000000,"state":"active","ping":72}]},{"server_id":108,"name":"Uncletopia | Dallas | 2 | All Maps","name_short":"dal-2","host":"dal-1.us.uncletopia.com","port":27025,"enabled":true,"region":"us-central","cc":"us","latitude":32.779167,"longitude":-96.80889,"reserved":0,"last_update":"0001-01-01T00:00:00Z","name_a2s":"Uncletopia | Dallas | 2 | All Maps","protocol":17,"map":"cp_snakewater_final1","folder":"tf","game":"Team Fortress","app_id":440,"player_count":0,"max_players":24,"Bots":0,"server_type":"Dedicated","server_os":"Linux","password":true,"vac":true,"version":"7882260","steam_id":85568392924469988,"keywords":["cp","nocrits","nodmgspread","uncletopia"],"game_id":440,"stv_port":27026,"stv_name":"Uncletopia | Dallas | 2 | All Maps | STV","players":null},{"server_id":5,"name":"Uncletopia | Frankfurt | 1 | All Maps","name_short":"frk-1","host":"frk-1.de.uncletopia.com","port":27015,"enabled":true,"region":"eu","cc":"de","latitude":50.110924,"longitude":8.682127,"reserved":0,"last_update":"0001-01-01T00:00:00Z","name_a2s":"Uncletopia | Frankfurt | 1 | All Maps","protocol":17,"map":"pl_pier","folder":"tf","game":"Team Fortress","app_id":440,"player_count":18,"max_players":24,"Bots":0,"server_type":"Dedicated","server_os":"Linux","password":true,"vac":true,"version":"7882260","steam_id":85568392924469989,"keywords":["nocrits","nodmgspread","payload","uncletopia"],"game_id":440,"stv_port":27016,"stv_name":"Uncletopia | Frankfurt | 1 | All Maps | STV","players":[{"user_id":328,"name":"mole","steam_id":76561198082177314,"connected_time":1504000000000,"state":"active","ping":75},{"user_id":309,"name":"Skeletros","steam_id":76561198130969152,"connected_time":2491000000000,"state":"active","ping":136},{"user_id":304,"name":"Bustin","steam_id":76561198142263809,"connected_time":2683000000000,"state":"active","ping":75},{"user_id":342,"name":"Remembrance","steam_id":76561199229247163,"connected_time":392000000000,"state":"active","ping":65},{"user_id":336,"name":"Maru","steam_id":76561198030931030,"connected_time":1086000000000,"state":"active","ping":62},{"user_id":288,"name":"BEASTSLAYER","steam_id":76561197988085026,"connected_time":4015000000000,"state":"active","ping":65},{"user_id":256,"name":"walluu","steam_id":76561198121830870,"connected_time":6718000000000,"state":"active","ping":61},{"user_id":298,"name":"Drakehellstone","steam_id":76561199112627742,"connected_time":3162000000000,"state":"active","ping":64},{"user_id":331,"name":"BELADIT","steam_id":76561198011911501,"connected_time":1409000000000,"state":"active","ping":74},{"user_id":314,"name":"domek brexit geezerüá¨üáß","steam_id":76561198048447632,"connected_time":2399000000000,"state":"active","ping":74},{"user_id":302,"name":"Kurage","steam_id":76561198021221288,"connected_time":2736000000000,"state":"active","ping":52},{"user_id":344,"name":"Anadest","steam_id":76561198992528373,"connected_time":279000000000,"state":"active","ping":73},{"user_id":316,"name":"Star_","steam_id":76561198160975698,"connected_time":2392000000000,"state":"active","ping":56},{"user_id":321,"name":"\u003c blank \u003e","steam_id":76561198059375315,"connected_time":2310000000000,"state":"active","ping":63},{"user_id":341,"name":"Rincey-Windey","steam_id":76561198011591682,"connected_time":457000000000,"state":"active","ping":121},{"user_id":319,"name":"MGE BROTHER","steam_id":76561198796600155,"connected_time":2353000000000,"state":"active","ping":81},{"user_id":320,"name":"LET'S F!CK THEM!","steam_id":76561198297602677,"connected_time":2332000000000,"state":"active","ping":90},{"user_id":253,"name":"Aspartus","steam_id":76561198101385763,"connected_time":6876000000000,"state":"active","ping":42}]},{"server_id":110,"name":"Uncletopia | Frankfurt | 2 | All Maps","name_short":"frk-2","host":"frk-1.de.uncletopia.com","port":27025,"enabled":true,"region":"eu","cc":"de","latitude":50.110924,"longitude":8.682127,"reserved":0,"last_update":"0001-01-01T00:00:00Z","name_a2s":"Uncletopia | Frankfurt | 2 | All Maps","protocol":17,"map":"koth_lakeside_final","folder":"tf","game":"Team Fortress","app_id":440,"player_count":17,"max_players":24,"Bots":0,"server_type":"Dedicated","server_os":"Linux","password":true,"vac":true,"version":"7882260","steam_id":85568392924469990,"keywords":["cp","nocrits","nodmgspread","uncletopia"],"game_id":440,"stv_port":27026,"stv_name":"Uncletopia | Frankfurt | 2 | All Maps | STV","players":[{"user_id":16,"name":"Arkheid","steam_id":76561198063066081,"connected_time":1661000000000,"state":"active","ping":50},{"user_id":23,"name":"Playad","steam_id":76561198977412147,"connected_time":779000000000,"state":"active","ping":60},{"user_id":24,"name":"Pan Pan","steam_id":76561199074670515,"connected_time":730000000000,"state":"active","ping":87},{"user_id":43,"name":"Cum slave","steam_id":76561199035732179,"connected_time":12000000000,"state":"spawning","ping":239},{"user_id":20,"name":"Egor Pomidor","steam_id":76561199175688390,"connected_time":1208000000000,"state":"active","ping":74},{"user_id":30,"name":"BreadTeleporter","steam_id":76561199467521396,"connected_time":359000000000,"state":"active","ping":62},{"user_id":27,"name":"Dude Time","steam_id":76561198092991160,"connected_time":587000000000,"state":"active","ping":150},{"user_id":28,"name":"UwUlric","steam_id":76561198136794751,"connected_time":477000000000,"state":"active","ping":84},{"user_id":44,"name":"spy among us","steam_id":76561198392537090,"connected_time":5000000000,"state":"spawning","ping":59},{"user_id":31,"name":"LuckyFoxy","steam_id":76561198448479201,"connected_time":347000000000,"state":"active","ping":91},{"user_id":34,"name":"ArikMor","steam_id":76561199124472513,"connected_time":204000000000,"state":"active","ping":133},{"user_id":33,"name":"Shark","steam_id":76561198205226501,"connected_time":266000000000,"state":"active","ping":164},{"user_id":42,"name":"pansy","steam_id":76561199074558259,"connected_time":84000000000,"state":"active","ping":67},{"user_id":36,"name":"kinimon","steam_id":76561198178453270,"connected_time":199000000000,"state":"active","ping":55},{"user_id":38,"name":"Weebster","steam_id":76561198801009143,"connected_time":195000000000,"state":"active","ping":130},{"user_id":40,"name":"J√∂rmungandr","steam_id":76561198007905163,"connected_time":174000000000,"state":"active","ping":64},{"user_id":41,"name":"Carlo","steam_id":76561198276491098,"connected_time":143000000000,"state":"active","ping":59}]},{"server_id":308,"name":"Uncletopia | Frankfurt | 3 | All Maps","name_short":"frk-3","host":"frk-1.de.uncletopia.com","port":27035,"enabled":true,"region":"eu","cc":"de","latitude":50.110924,"longitude":8.682127,"reserved":0,"last_update":"0001-01-01T00:00:00Z","name_a2s":"Uncletopia | Frankfurt | 3 | All Maps","protocol":17,"map":"cp_process_final","folder":"tf","game":"Team Fortress","app_id":440,"player_count":0,"max_players":24,"Bots":0,"server_type":"Dedicated","server_os":"Linux","password":true,"vac":true,"version":"7882260","steam_id":85568392924504274,"keywords":["cp","nocrits","nodmgspread","uncletopia"],"game_id":440,"stv_port":27036,"stv_name":"Uncletopia | Frankfurt | 3 | All Maps | STV","players":null},{"server_id":309,"name":"Uncletopia | Frankfurt | 4 | All Maps","name_short":"frk-4","host":"frk-1.de.uncletopia.com","port":27045,"enabled":true,"region":"eu","cc":"de","latitude":50.110924,"longitude":8.682127,"reserved":0,"last_update":"0001-01-01T00:00:00Z","name_a2s":"Uncletopia | Frankfurt | 4 | All Maps","protocol":17,"map":"cp_egypt_final","folder":"tf","game":"Team Fortress","app_id":440,"player_count":24,"max_players":24,"Bots":0,"server_type":"Dedicated","server_os":"Linux","password":true,"vac":true,"version":"7882260","steam_id":85568392924504275,"keywords":["cp","nocrits","nodmgspread","uncletopia"],"game_id":440,"stv_port":27046,"stv_name":"Uncletopia | Frankfurt | 4 | All Maps | STV","players":[{"user_id":129,"name":"elio","steam_id":76561198142662131,"connected_time":759000000000,"state":"active","ping":74},{"user_id":137,"name":"Nelkobud","steam_id":76561198115606282,"connected_time":343000000000,"state":"active","ping":74},{"user_id":110,"name":"Dunya","steam_id":76561198041371314,"connected_time":2040000000000,"state":"active","ping":120},{"user_id":108,"name":"n-ski","steam_id":76561198020550849,"connected_time":2070000000000,"state":"active","ping":80},{"user_id":138,"name":"M E H","steam_id":76561198038436594,"connected_time":179000000000,"state":"active","ping":73},{"user_id":64,"name":"Eazy-E hbivnm","steam_id":76561197996468677,"connected_time":3650000000000,"state":"active","ping":57},{"user_id":142,"name":"UglyTwinYgor","steam_id":76561198132718039,"connected_time":134000000000,"state":"active","ping":67},{"user_id":135,"name":"hot guy","steam_id":76561198083063005,"connected_time":557000000000,"state":"active","ping":55},{"user_id":139,"name":"Spectral Sloth","steam_id":76561198170083139,"connected_time":154000000000,"state":"active","ping":82},{"user_id":132,"name":"glorbus","steam_id":76561198969544894,"connected_time":640000000000,"state":"active","ping":53},{"user_id":96,"name":"That Brown Nerd","steam_id":76561198196685086,"connected_time":2315000000000,"state":"active","ping":60},{"user_id":127,"name":"molderfaker","steam_id":76561199347900130,"connected_time":821000000000,"state":"active","ping":96},{"user_id":65,"name":"Kendrick HugeE","steam_id":76561198245495152,"connected_time":3645000000000,"state":"active","ping":60},{"user_id":140,"name":"zherny","steam_id":76561198027033926,"connected_time":153000000000,"state":"active","ping":73},{"user_id":111,"name":"Sir Warock","steam_id":76561198180468693,"connected_time":1909000000000,"state":"active","ping":84},{"user_id":114,"name":"Renolox","steam_id":76561198036590182,"connected_time":1683000000000,"state":"active","ping":71},{"user_id":70,"name":"Usher Arentrir","steam_id":76561198334126785,"connected_time":3366000000000,"state":"active","ping":74},{"user_id":83,"name":"Jackie Johnny","steam_id":76561198137726995,"connected_time":2673000000000,"state":"active","ping":53},{"user_id":101,"name":"T - Bone","steam_id":76561198107005109,"connected_time":2165000000000,"state":"active","ping":104},{"user_id":126,"name":"nevim","steam_id":76561199120843402,"connected_time":1116000000000,"state":"active","ping":47},{"user_id":121,"name":"dongus","steam_id":76561198042774930,"connected_time":1420000000000,"state":"active","ping":81},{"user_id":143,"name":"Holo","steam_id":76561198348567663,"connected_time":87000000000,"state":"active","ping":74},{"user_id":141,"name":"Buddy","steam_id":76561198050185582,"connected_time":152000000000,"state":"active","ping":71},{"user_id":123,"name":"de_nerferno","steam_id":76561198051903037,"connected_time":1369000000000,"state":"active","ping":103}]},{"server_id":310,"name":"Uncletopia | Frankfurt | 5 | All Maps","name_short":"frk-5","host":"frk-1.de.uncletopia.com","port":27055,"enabled":true,"region":"eu","cc":"de","latitude":50.110924,"longitude":8.682127,"reserved":0,"last_update":"0001-01-01T00:00:00Z","name_a2s":"Uncletopia | Frankfurt | 5 | All Maps","protocol":17,"map":"pl_thundermountain","folder":"tf","game":"Team Fortress","app_id":440,"player_count":24,"max_players":24,"Bots":0,"server_type":"Dedicated","server_os":"Linux","password":true,"vac":true,"version":"7882260","steam_id":85568392924504277,"keywords":["nocrits","nodmgspread","payload","uncletopia"],"game_id":440,"stv_port":27056,"stv_name":"Uncletopia | Frankfurt | 5 | All Maps | STV","players":[{"user_id":161,"name":"Wanderer","steam_id":76561198188470389,"connected_time":477000000000,"state":"active","ping":103},{"user_id":130,"name":"bonk enjoyer","steam_id":76561198111568728,"connected_time":3034000000000,"state":"active","ping":51},{"user_id":160,"name":"bady_3","steam_id":76561199030975778,"connected_time":716000000000,"state":"active","ping":159},{"user_id":142,"name":"TonTon","steam_id":76561198145468895,"connected_time":1637000000000,"state":"active","ping":47},{"user_id":153,"name":"easer_punk","steam_id":76561199225555393,"connected_time":1160000000000,"state":"active","ping":56},{"user_id":157,"name":"Mac Bean","steam_id":76561198133782205,"connected_time":824000000000,"state":"active","ping":113},{"user_id":158,"name":"‚à´cos¬≤(2x)sin(x)dx","steam_id":76561198079937590,"connected_time":791000000000,"state":"active","ping":50},{"user_id":124,"name":"Akkie.","steam_id":76561198017619091,"connected_time":3825000000000,"state":"active","ping":69},{"user_id":125,"name":"Soerlssoelss√∂en","steam_id":76561197993060585,"connected_time":3739000000000,"state":"active","ping":77},{"user_id":163,"name":"playgreen.","steam_id":76561198363855764,"connected_time":260000000000,"state":"active","ping":64},{"user_id":141,"name":"HwK!","steam_id":76561198287835588,"connected_time":1700000000000,"state":"active","ping":89},{"user_id":150,"name":"Shadow","steam_id":76561199128177959,"connected_time":1310000000000,"state":"active","ping":64},{"user_id":112,"name":"froglids","steam_id":76561198045466919,"connected_time":5491000000000,"state":"active","ping":69},{"user_id":133,"name":"woop","steam_id":76561198985105074,"connected_time":2619000000000,"state":"active","ping":88},{"user_id":159,"name":"|TG| Speaker264","steam_id":76561198056133535,"connected_time":787000000000,"state":"active","ping":55},{"user_id":149,"name":"Sex Man TF2","steam_id":76561198798657045,"connected_time":1338000000000,"state":"active","ping":75},{"user_id":145,"name":"ash","steam_id":76561198004728744,"connected_time":1574000000000,"state":"active","ping":51},{"user_id":88,"name":"After8","steam_id":76561198090750865,"connected_time":7029000000000,"state":"active","ping":71},{"user_id":135,"name":"Huan Martines üéÉ","steam_id":76561199196245596,"connected_time":2348000000000,"state":"active","ping":81},{"user_id":134,"name":"John","steam_id":76561199012566222,"connected_time":2513000000000,"state":"active","ping":60},{"user_id":162,"name":"Xiqui","steam_id":76561198818386611,"connected_time":467000000000,"state":"active","ping":95},{"user_id":123,"name":"Well, off to hang myself","steam_id":76561198053374944,"connected_time":3863000000000,"state":"active","ping":75},{"user_id":151,"name":"The Mask...","steam_id":76561198052402891,"connected_time":1251000000000,"state":"active","ping":60},{"user_id":154,"name":"Chopperson_","steam_id":76561198873728497,"connected_time":1157000000000,"state":"active","ping":113}]},{"server_id":311,"name":"Uncletopia | Frankfurt | 6 | All Maps","name_short":"frk-6","host":"frk-1.de.uncletopia.com","port":27065,"enabled":true,"region":"eu","cc":"de","latitude":50.110924,"longitude":8.682127,"reserved":0,"last_update":"0001-01-01T00:00:00Z","name_a2s":"Uncletopia | Frankfurt | 6 | All Maps","protocol":17,"map":"pl_upward","folder":"tf","game":"Team Fortress","app_id":440,"player_count":24,"max_players":24,"Bots":0,"server_type":"Dedicated","server_os":"Linux","password":true,"vac":true,"version":"7882260","steam_id":85568392924504278,"keywords":["nocrits","nodmgspread","payload","uncletopia"],"game_id":440,"stv_port":27066,"stv_name":"Uncletopia | Frankfurt | 6 | All Maps | STV","players":[{"user_id":308,"name":"Mankor","steam_id":76561198020439322,"connected_time":736000000000,"state":"active","ping":53},{"user_id":315,"name":"Purple Energetic","steam_id":76561198965998351,"connected_time":493000000000,"state":"active","ping":71},{"user_id":252,"name":"Acbh","steam_id":76561198158271672,"connected_time":4857000000000,"state":"active","ping":71},{"user_id":247,"name":"Stefos","steam_id":76561198121601141,"connected_time":4981000000000,"state":"active","ping":79},{"user_id":324,"name":"k.","steam_id":76561198062330245,"connected_time":121000000000,"state":"active","ping":59},{"user_id":292,"name":"REN","steam_id":76561198000596385,"connected_time":2226000000000,"state":"active","ping":66},{"user_id":309,"name":"YOU ARE SHITTING YOUR SELF","steam_id":76561198371719058,"connected_time":724000000000,"state":"active","ping":67},{"user_id":320,"name":"The Third Degree collector","steam_id":76561199165355017,"connected_time":347000000000,"state":"active","ping":95},{"user_id":295,"name":"Penis Contortionist","steam_id":76561198073663784,"connected_time":2062000000000,"state":"active","ping":51},{"user_id":310,"name":"Punker","steam_id":76561198255964089,"connected_time":701000000000,"state":"active","ping":107},{"user_id":318,"name":"Na'vi Misato (by popular demand","steam_id":76561198130860698,"connected_time":419000000000,"state":"active","ping":66},{"user_id":195,"name":"OreHaX","steam_id":76561198272166623,"connected_time":8513000000000,"state":"active","ping":59},{"user_id":316,"name":"M√∂wta√º","steam_id":76561197979148699,"connected_time":467000000000,"state":"active","ping":60},{"user_id":312,"name":"JohnTraveltime","steam_id":76561199244281754,"connected_time":693000000000,"state":"active","ping":74},{"user_id":300,"name":"Twitch//TrueKing","steam_id":76561198971240136,"connected_time":1068000000000,"state":"active","ping":97},{"user_id":294,"name":"daanvanliempt05","steam_id":76561198355398948,"connected_time":2134000000000,"state":"active","ping":56},{"user_id":323,"name":"Zero (Orbital Gear Mastermind)","steam_id":76561198017416816,"connected_time":177000000000,"state":"active","ping":59},{"user_id":314,"name":"imrealylazy","steam_id":76561198878574518,"connected_time":556000000000,"state":"active","ping":61},{"user_id":305,"name":"Per√§miehen√§","steam_id":76561197968945306,"connected_time":823000000000,"state":"active","ping":75},{"user_id":321,"name":"Prophet","steam_id":76561198160097198,"connected_time":300000000000,"state":"active","ping":79},{"user_id":313,"name":"PlebCord","steam_id":76561198120685803,"connected_time":685000000000,"state":"active","ping":79},{"user_id":302,"name":"Tiranus 58","steam_id":76561198417094245,"connected_time":1000000000000,"state":"active","ping":67},{"user_id":322,"name":"Popop","steam_id":76561198004793795,"connected_time":203000000000,"state":"active","ping":46},{"user_id":307,"name":"Johny","steam_id":76561198255587465,"connected_time":764000000000,"state":"active","ping":64}]},{"server_id":23,"name":"Uncletopia | Frankfurt | 7 | Stopwatch Beta","name_short":"frk-7","host":"frk-1.de.uncletopia.com","port":27075,"enabled":true,"region":"eu","cc":"de","latitude":50.110924,"longitude":8.682127,"reserved":0,"last_update":"0001-01-01T00:00:00Z","name_a2s":"Uncletopia | Frankfurt | 7 | Stopwatch Beta","protocol":17,"map":"workshop/koth_clearcut_b15.ugc2107050255","folder":"tf","game":"Team Fortress","app_id":440,"player_count":0,"max_players":24,"Bots":0,"server_type":"Dedicated","server_os":"Linux","password":true,"vac":true,"version":"7882260","steam_id":85568392924742827,"keywords":["cp","nocrits","nodmgspread","uncletopia"],"game_id":440,"stv_port":27076,"stv_name":"Uncletopia | Frankfurt | 7 | Stopwatch Beta | STV","players":null},{"server_id":24,"name":"Uncletopia | Frankfurt | 8 | Community","name_short":"frk-8","host":"frk-1.de.uncletopia.com","port":27085,"enabled":true,"region":"eu","cc":"de","latitude":50.110924,"longitude":8.682127,"reserved":0,"last_update":"0001-01-01T00:00:00Z","name_a2s":"Uncletopia | Frankfurt | 8 | Community","protocol":17,"map":"workshop/cp_hazyfort_rc6.ugc1365963729","folder":"tf","game":"Team Fortress","app_id":440,"player_count":0,"max_players":24,"Bots":0,"server_type":"Dedicated","server_os":"Linux","password":true,"vac":true,"version":"7882260","steam_id":85568392924742828,"keywords":["cp","nocrits","nodmgspread","uncletopia"],"game_id":440,"stv_port":27086,"stv_name":"Uncletopia | Frankfurt | 8 | Community | STV","players":null},{"server_id":202,"name":"Uncletopia | Hong Kong | 1 | All Maps","name_short":"hgk-1","host":"hgk-1.hk.uncletopia.com","port":27015,"enabled":true,"region":"asia","cc":"hk","latitude":22.302711,"longitude":114.177216,"reserved":0,"last_update":"0001-01-01T00:00:00Z","name_a2s":"Uncletopia | Hong Kong | 1 | All Maps","protocol":17,"map":"cp_egypt_final","folder":"tf","game":"Team Fortress","app_id":440,"player_count":24,"max_players":24,"Bots":0,"server_type":"Dedicated","server_os":"Linux","password":true,"vac":true,"version":"7882260","steam_id":85568392924494504,"keywords":["cp","nocrits","nodmgspread","uncletopia"],"game_id":440,"stv_port":27016,"stv_name":"Uncletopia | Hong Kong | 1 | All Maps | STV","players":[{"user_id":499,"name":"lario","steam_id":76561199146847474,"connected_time":2541000000000,"state":"active","ping":39},{"user_id":457,"name":"TheChainsaw","steam_id":76561198312001455,"connected_time":7181000000000,"state":"active","ping":115},{"user_id":507,"name":"GAMA","steam_id":76561198049755630,"connected_time":2089000000000,"state":"active","ping":111},{"user_id":491,"name":"kkr","steam_id":76561198878176849,"connected_time":3081000000000,"state":"active","ping":96},{"user_id":508,"name":"SEX","steam_id":76561198374545561,"connected_time":2072000000000,"state":"active","ping":80},{"user_id":530,"name":"Headmouth","steam_id":76561198019789855,"connected_time":5000000000,"state":"spawning","ping":176},{"user_id":458,"name":"El Blanco","steam_id":76561198100044991,"connected_time":7140000000000,"state":"active","ping":127},{"user_id":476,"name":"r/sinkpissers","steam_id":76561198413116920,"connected_time":4852000000000,"state":"active","ping":75},{"user_id":521,"name":"m 1 k o","steam_id":76561198337154745,"connected_time":220000000000,"state":"active","ping":96},{"user_id":483,"name":"stupendous sycophant","steam_id":76561198055553140,"connected_time":4146000000000,"state":"active","ping":75},{"user_id":498,"name":"Cornelius Cuntwad","steam_id":76561199122491157,"connected_time":2572000000000,"state":"active","ping":176},{"user_id":426,"name":"erwynmurphy711","steam_id":76561198288311270,"connected_time":10674000000000,"state":"active","ping":126},{"user_id":461,"name":"Azule","steam_id":76561198136804802,"connected_time":6913000000000,"state":"active","ping":91},{"user_id":517,"name":"JDSFE","steam_id":76561198975490851,"connected_time":247000000000,"state":"active","ping":113},{"user_id":509,"name":"booty cheeks xd","steam_id":76561198324008555,"connected_time":2070000000000,"state":"active","ping":51},{"user_id":504,"name":"17","steam_id":76561198241530712,"connected_time":2382000000000,"state":"active","ping":71},{"user_id":427,"name":"TomCat","steam_id":76561198133744053,"connected_time":10661000000000,"state":"active","ping":122},{"user_id":524,"name":"Lelouch","steam_id":76561198828840546,"connected_time":111000000000,"state":"active","ping":80},{"user_id":465,"name":"Stupid B","steam_id":76561198131423270,"connected_time":6049000000000,"state":"active","ping":119},{"user_id":471,"name":"TOP 69 Women Beater","steam_id":76561198333809604,"connected_time":5952000000000,"state":"active","ping":77},{"user_id":470,"name":"Milk‚ù§","steam_id":76561198163911560,"connected_time":5970000000000,"state":"active","ping":93},{"user_id":400,"name":"ArcticDolphin","steam_id":76561198203626319,"connected_time":11511000000000,"state":"active","ping":161},{"user_id":423,"name":"Barbet","steam_id":76561199096946793,"connected_time":10998000000000,"state":"active","ping":112},{"user_id":488,"name":"Turbo.RF4 x Platinum","steam_id":76561199061012484,"connected_time":3377000000000,"state":"active","ping":72}]},{"server_id":1,"name":"Uncletopia | Los Angeles | 1 | All Maps","name_short":"lax-1","host":"lax-1.us.uncletopia.com","port":27015,"enabled":true,"region":"us-west","cc":"us","latitude":33.94279,"longitude":-118.41004,"reserved":0,"last_update":"0001-01-01T00:00:00Z","name_a2s":"Uncletopia | Los Angeles | 1 | All Maps","protocol":17,"map":"pl_upward","folder":"tf","game":"Team Fortress","app_id":440,"player_count":0,"max_players":24,"Bots":0,"server_type":"Dedicated","server_os":"Linux","password":true,"vac":true,"version":"7882260","steam_id":85568392924469991,"keywords":["nocrits","nodmgspread","payload","uncletopia"],"game_id":440,"stv_port":27016,"stv_name":"Uncletopia | Los Angeles | 1 | All Maps | STV","players":null},{"server_id":112,"name":"Uncletopia | Los Angeles | 2 | All Maps","name_short":"lax-2","host":"lax-1.us.uncletopia.com","port":27025,"enabled":true,"region":"us-west","cc":"us","latitude":33.94279,"longitude":-118.41004,"reserved":0,"last_update":"0001-01-01T00:00:00Z","name_a2s":"Uncletopia | Los Angeles | 2 | All Maps","protocol":17,"map":"cp_sunshine","folder":"tf","game":"Team Fortress","app_id":440,"player_count":0,"max_players":24,"Bots":0,"server_type":"Dedicated","server_os":"Linux","password":true,"vac":true,"version":"7882260","steam_id":85568392924469992,"keywords":["cp","nocrits","nodmgspread","uncletopia"],"game_id":440,"stv_port":27026,"stv_name":"Uncletopia | Los Angeles | 2 | All Maps | STV","players":null},{"server_id":324,"name":"Uncletopia | Los Angeles | 3 | All Maps","name_short":"lax-3","host":"lax-1.us.uncletopia.com","port":27035,"enabled":true,"region":"us-west","cc":"us","latitude":33.94279,"longitude":-118.41004,"reserved":0,"last_update":"0001-01-01T00:00:00Z","name_a2s":"Uncletopia | Los Angeles | 3 | All Maps","protocol":17,"map":"pl_swiftwater_final1","folder":"tf","game":"Team Fortress","app_id":440,"player_count":0,"max_players":24,"Bots":0,"server_type":"Dedicated","server_os":"Linux","password":true,"vac":true,"version":"7882260","steam_id":85568392924510198,"keywords":["nocrits","nodmgspread","payload","uncletopia"],"game_id":440,"stv_port":27036,"stv_name":"Uncletopia | Los Angeles | 3 | All Maps | STV","players":null},{"server_id":25,"name":"Uncletopia | Los Angeles | 4 | Stopwatch Beta","name_short":"lax-4","host":"lax-1.us.uncletopia.com","port":27045,"enabled":true,"region":"us-west","cc":"us","latitude":33.94279,"longitude":-118.41004,"reserved":0,"last_update":"0001-01-01T00:00:00Z","name_a2s":"Uncletopia | Los Angeles | 4 | Stopwatch Beta","protocol":17,"map":"koth_viaduct","folder":"tf","game":"Team Fortress","app_id":440,"player_count":0,"max_players":24,"Bots":0,"server_type":"Dedicated","server_os":"Linux","password":true,"vac":true,"version":"7882260","steam_id":85568392924510199,"keywords":["cp","nocrits","nodmgspread","uncletopia"],"game_id":440,"stv_port":27046,"stv_name":"Uncletopia | Los Angeles | 4 | Stopwatch Beta | STV","players":null},{"server_id":11,"name":"Uncletopia | London | 1 | All Maps","name_short":"lon-1","host":"lon-1.uk.uncletopia.com","port":27015,"enabled":true,"region":"eu","cc":"gb","latitude":51.509865,"longitude":-0.118092,"reserved":0,"last_update":"0001-01-01T00:00:00Z","name_a2s":"Uncletopia | London | 1 | All Maps","protocol":17,"map":"pl_barnblitz","folder":"tf","game":"Team Fortress","app_id":440,"player_count":24,"max_players":24,"Bots":0,"server_type":"Dedicated","server_os":"Linux","password":true,"vac":true,"version":"7882260","steam_id":85568392924367362,"keywords":["nocrits","nodmgspread","payload","uncletopia"],"game_id":440,"stv_port":27016,"stv_name":"Uncletopia | London | 1 | All Maps | STV","players":[{"user_id":328,"name":"\u003e\u003c\u003e","steam_id":76561198152392309,"connected_time":6481000000000,"state":"active","ping":45},{"user_id":391,"name":"The SexHaver Gamer","steam_id":76561198093735871,"connected_time":707000000000,"state":"active","ping":61},{"user_id":330,"name":"gexfan3165","steam_id":76561199459414738,"connected_time":6421000000000,"state":"active","ping":75},{"user_id":374,"name":"Anri Okita's Massive Milkers","steam_id":76561199186352720,"connected_time":1558000000000,"state":"active","ping":48},{"user_id":373,"name":"ToniGAM3S","steam_id":76561198128605351,"connected_time":1791000000000,"state":"active","ping":69},{"user_id":395,"name":"Dragon","steam_id":76561198163255365,"connected_time":602000000000,"state":"active","ping":105},{"user_id":396,"name":"Cotton Eye Joe","steam_id":76561198080594207,"connected_time":495000000000,"state":"active","ping":56},{"user_id":388,"name":"Much_doge_many_wow","steam_id":76561199076791503,"connected_time":1072000000000,"state":"active","ping":49},{"user_id":368,"name":"something","steam_id":76561198198581615,"connected_time":2192000000000,"state":"active","ping":74},{"user_id":403,"name":"jimmy bob","steam_id":76561198319583692,"connected_time":62000000000,"state":"active","ping":60},{"user_id":365,"name":"big poo","steam_id":76561198129157178,"connected_time":2806000000000,"state":"active","ping":95},{"user_id":355,"name":"‚ô•aura‚ô•","steam_id":76561198066258544,"connected_time":3072000000000,"state":"active","ping":60},{"user_id":337,"name":"Grease Huffer","steam_id":76561198982674420,"connected_time":5052000000000,"state":"active","ping":39},{"user_id":353,"name":"nappo","steam_id":76561198060105180,"connected_time":3073000000000,"state":"active","ping":74},{"user_id":393,"name":"Bonca","steam_id":76561198137503531,"connected_time":618000000000,"state":"active","ping":75},{"user_id":394,"name":"lunaire","steam_id":76561198163344452,"connected_time":613000000000,"state":"active","ping":100},{"user_id":397,"name":"CHLEBU","steam_id":76561198980068774,"connected_time":492000000000,"state":"active","ping":77},{"user_id":379,"name":"Pepegi","steam_id":76561198001230113,"connected_time":1517000000000,"state":"active","ping":84},{"user_id":389,"name":"The2PLAYZ","steam_id":76561198352720404,"connected_time":1020000000000,"state":"active","ping":86},{"user_id":382,"name":"Mr_Pulse_","steam_id":76561198095001602,"connected_time":1490000000000,"state":"active","ping":106},{"user_id":359,"name":"Bonkie","steam_id":76561198205701441,"connected_time":2919000000000,"state":"active","ping":55},{"user_id":371,"name":"Commit Persona 3","steam_id":76561198060503243,"connected_time":2082000000000,"state":"active","ping":45},{"user_id":385,"name":"Popxpce / trade.tf","steam_id":76561198365405733,"connected_time":1338000000000,"state":"active","ping":205},{"user_id":399,"name":"Princess Peach","steam_id":76561198260272240,"connected_time":371000000000,"state":"active","ping":54}]},{"server_id":114,"name":"Uncletopia | London | 2 | All Maps","name_short":"lon-2","host":"lon-1.uk.uncletopia.com","port":27025,"enabled":true,"region":"eu","cc":"gb","latitude":51.509865,"longitude":-0.118092,"reserved":0,"last_update":"0001-01-01T00:00:00Z","name_a2s":"Uncletopia | London | 2 | All Maps","protocol":17,"map":"koth_highpass","folder":"tf","game":"Team Fortress","app_id":440,"player_count":0,"max_players":24,"Bots":0,"server_type":"Dedicated","server_os":"Linux","password":true,"vac":true,"version":"7882260","steam_id":85568392924470941,"keywords":["cp","nocrits","nodmgspread","uncletopia"],"game_id":440,"stv_port":27026,"stv_name":"Uncletopia | London | 2 | All Maps | STV","players":null},{"server_id":320,"name":"Uncletopia | London | 3 | All Maps","name_short":"lon-3","host":"lon-1.uk.uncletopia.com","port":27035,"enabled":true,"region":"eu","cc":"gb","latitude":51.509865,"longitude":-0.118092,"reserved":0,"last_update":"0001-01-01T00:00:00Z","name_a2s":"Uncletopia | London | 3 | All Maps","protocol":17,"map":"cp_dustbowl","folder":"tf","game":"Team Fortress","app_id":440,"player_count":24,"max_players":24,"Bots":0,"server_type":"Dedicated","server_os":"Linux","password":true,"vac":true,"version":"7882260","steam_id":85568392924510192,"keywords":["cp","nocrits","nodmgspread","uncletopia"],"game_id":440,"stv_port":27036,"stv_name":"Uncletopia | London | 3 | All Maps | STV","players":[{"user_id":262,"name":"WaDIP","steam_id":76561198010270494,"connected_time":2044000000000,"state":"active","ping":82},{"user_id":277,"name":"Miss Bari","steam_id":76561198365286092,"connected_time":1384000000000,"state":"active","ping":42},{"user_id":267,"name":"slippy","steam_id":76561198389760428,"connected_time":1753000000000,"state":"active","ping":65},{"user_id":281,"name":"The.Real.Genesis","steam_id":76561198999652040,"connected_time":1228000000000,"state":"active","ping":47},{"user_id":293,"name":"solus control unit","steam_id":76561198131944941,"connected_time":658000000000,"state":"active","ping":69},{"user_id":216,"name":"Snake-chan","steam_id":76561199044755854,"connected_time":5111000000000,"state":"active","ping":84},{"user_id":279,"name":"Greenmaker","steam_id":76561198060466591,"connected_time":1340000000000,"state":"active","ping":91},{"user_id":263,"name":"the uhhh","steam_id":76561198208045069,"connected_time":2043000000000,"state":"active","ping":46},{"user_id":287,"name":"Salih","steam_id":76561198287934839,"connected_time":950000000000,"state":"active","ping":59},{"user_id":290,"name":"Igames","steam_id":76561198414062544,"connected_time":885000000000,"state":"active","ping":46},{"user_id":272,"name":"dalokohs bar gaming","steam_id":76561199105796083,"connected_time":1693000000000,"state":"active","ping":81},{"user_id":238,"name":"M2rtRa","steam_id":76561198111036466,"connected_time":4008000000000,"state":"active","ping":82},{"user_id":297,"name":"Watermelon","steam_id":76561198078349914,"connected_time":14000000000,"state":"spawning","ping":89},{"user_id":273,"name":"antnt","steam_id":76561198112546748,"connected_time":1680000000000,"state":"active","ping":55},{"user_id":246,"name":"I am the one who donks","steam_id":76561198419583460,"connected_time":3575000000000,"state":"active","ping":66},{"user_id":259,"name":"Wally","steam_id":76561199383437138,"connected_time":2286000000000,"state":"active","ping":118},{"user_id":280,"name":"Jon","steam_id":76561199380849468,"connected_time":1327000000000,"state":"active","ping":63},{"user_id":291,"name":"JAZZ COMMANDO","steam_id":76561198031766068,"connected_time":811000000000,"state":"active","ping":54},{"user_id":275,"name":"Û†Ä°Û†Ä°","steam_id":76561198399390201,"connected_time":1646000000000,"state":"active","ping":94},{"user_id":226,"name":"Sylvanas","steam_id":76561198154904165,"connected_time":4575000000000,"state":"active","ping":110},{"user_id":285,"name":"Amoru","steam_id":76561198798161817,"connected_time":1079000000000,"state":"active","ping":88},{"user_id":295,"name":"Der dicke Polizist","steam_id":76561197960302224,"connected_time":332000000000,"state":"active","ping":66},{"user_id":236,"name":"wide appreciator","steam_id":76561198083286511,"connected_time":4107000000000,"state":"active","ping":39},{"user_id":292,"name":"rwota","steam_id":76561198385769722,"connected_time":802000000000,"state":"active","ping":105}]},{"server_id":321,"name":"Uncletopia | London | 4 | All Maps","name_short":"lon-4","host":"lon-1.uk.uncletopia.com","port":27045,"enabled":true,"region":"eu","cc":"gb","latitude":51.509865,"longitude":-0.118092,"reserved":0,"last_update":"0001-01-01T00:00:00Z","name_a2s":"Uncletopia | London | 4 | All Maps","protocol":17,"map":"pl_pier","folder":"tf","game":"Team Fortress","app_id":440,"player_count":24,"max_players":24,"Bots":0,"server_type":"Dedicated","server_os":"Linux","password":true,"vac":true,"version":"7882260","steam_id":85568392924510193,"keywords":["nocrits","nodmgspread","payload","uncletopia"],"game_id":440,"stv_port":27046,"stv_name":"Uncletopia | London | 4 | All Maps | STV","players":[{"user_id":38,"name":"Balls","steam_id":76561198086400484,"connected_time":2558000000000,"state":"active","ping":68},{"user_id":68,"name":"maxi2643","steam_id":76561198090196297,"connected_time":292000000000,"state":"active","ping":44},{"user_id":69,"name":"Davey","steam_id":76561198256879107,"connected_time":288000000000,"state":"active","ping":72},{"user_id":59,"name":"Thors","steam_id":76561197968739075,"connected_time":1390000000000,"state":"active","ping":44},{"user_id":32,"name":"Grelamass","steam_id":76561199372198864,"connected_time":2636000000000,"state":"active","ping":79},{"user_id":58,"name":"Shay","steam_id":76561198032438746,"connected_time":1464000000000,"state":"active","ping":103},{"user_id":20,"name":"SovietZombie‚Ñ¢","steam_id":76561198140093751,"connected_time":2852000000000,"state":"active","ping":43},{"user_id":70,"name":"Uncle Terry","steam_id":76561198396415736,"connected_time":251000000000,"state":"active","ping":60},{"user_id":46,"name":"D0kai","steam_id":76561198389271720,"connected_time":2437000000000,"state":"active","ping":53},{"user_id":71,"name":"Michael","steam_id":76561198003146906,"connected_time":249000000000,"state":"active","ping":44},{"user_id":36,"name":"Sunny","steam_id":76561198125892600,"connected_time":2567000000000,"state":"active","ping":120},{"user_id":50,"name":"Max Power","steam_id":76561198019269089,"connected_time":2307000000000,"state":"active","ping":58},{"user_id":27,"name":"–ë–æ–µ–≤–æ–π –∫–æ–º–∞—Ä","steam_id":76561198796564094,"connected_time":2742000000000,"state":"active","ping":92},{"user_id":72,"name":"kingusiad≈Ço21","steam_id":76561198848777986,"connected_time":246000000000,"state":"active","ping":75},{"user_id":60,"name":"John","steam_id":76561198903255436,"connected_time":1383000000000,"state":"active","ping":44},{"user_id":65,"name":"AxeWorld","steam_id":76561198048940625,"connected_time":813000000000,"state":"active","ping":60},{"user_id":64,"name":"Neco-arc Astolfo","steam_id":76561198989682540,"connected_time":1114000000000,"state":"active","ping":53},{"user_id":73,"name":"Mateen (pbuh)","steam_id":76561198253308058,"connected_time":244000000000,"state":"active","ping":53},{"user_id":74,"name":"marysiad≈Ço18","steam_id":76561198130366273,"connected_time":242000000000,"state":"active","ping":81},{"user_id":43,"name":"Cannabis Enjoyer","steam_id":76561198051685232,"connected_time":2492000000000,"state":"active","ping":48},{"user_id":77,"name":"blurst of times","steam_id":76561197972325640,"connected_time":110000000000,"state":"active","ping":47},{"user_id":52,"name":"LOBZIK","steam_id":76561198114830120,"connected_time":2044000000000,"state":"active","ping":77},{"user_id":63,"name":"Mads","steam_id":76561198089261782,"connected_time":1231000000000,"state":"active","ping":71},{"user_id":56,"name":"bhalazs","steam_id":76561198248831634,"connected_time":1907000000000,"state":"active","ping":93}]},{"server_id":21,"name":"Uncletopia | London | 5 | All Maps","name_short":"lon-5","host":"lon-1.uk.uncletopia.com","port":27055,"enabled":true,"region":"eu","cc":"gb","latitude":51.509865,"longitude":-0.118092,"reserved":0,"last_update":"0001-01-01T00:00:00Z","name_a2s":"Uncletopia | London | 5 | All Maps","protocol":17,"map":"koth_viaduct","folder":"tf","game":"Team Fortress","app_id":440,"player_count":0,"max_players":24,"Bots":0,"server_type":"Dedicated","server_os":"Linux","password":true,"vac":true,"version":"7882260","steam_id":85568392924742829,"keywords":["cp","nocrits","nodmgspread","uncletopia"],"game_id":440,"stv_port":27056,"stv_name":"Uncletopia | London | 5 | All Maps | STV","players":null},{"server_id":22,"name":"Uncletopia | London | 6 | All Maps","name_short":"lon-6","host":"lon-1.uk.uncletopia.com","port":27065,"enabled":true,"region":"eu","cc":"gb","latitude":51.509865,"longitude":-0.118092,"reserved":0,"last_update":"0001-01-01T00:00:00Z","name_a2s":"Uncletopia | London | 6 | All Maps","protocol":17,"map":"koth_viaduct","folder":"tf","game":"Team Fortress","app_id":440,"player_count":20,"max_players":24,"Bots":0,"server_type":"Dedicated","server_os":"Linux","password":true,"vac":true,"version":"7882260","steam_id":85568392924742830,"keywords":["cp","nocrits","nodmgspread","uncletopia"],"game_id":440,"stv_port":27066,"stv_name":"Uncletopia | London | 6 | All Maps | STV","players":[{"user_id":216,"name":"pepsi cola","steam_id":76561199289526521,"connected_time":187000000000,"state":"active","ping":91},{"user_id":205,"name":"Dzieciol","steam_id":76561198160237556,"connected_time":1134000000000,"state":"active","ping":62},{"user_id":198,"name":"Seail_M","steam_id":76561198002405605,"connected_time":1796000000000,"state":"active","ping":62},{"user_id":192,"name":"Gardvord","steam_id":76561198120715753,"connected_time":1912000000000,"state":"active","ping":78},{"user_id":204,"name":"J.G. Klaus","steam_id":76561198001111196,"connected_time":1474000000000,"state":"active","ping":158},{"user_id":178,"name":"Sentry hater","steam_id":76561199269309068,"connected_time":4144000000000,"state":"active","ping":87},{"user_id":200,"name":"jello_hey","steam_id":76561199176327650,"connected_time":1723000000000,"state":"active","ping":134},{"user_id":219,"name":"MisterLegitimate","steam_id":76561199198559715,"connected_time":8000000000,"state":"spawning","ping":91},{"user_id":218,"name":"Quiet Kid","steam_id":76561199134800446,"connected_time":31000000000,"state":"active","ping":174},{"user_id":194,"name":"Tiobio","steam_id":76561198355473473,"connected_time":1904000000000,"state":"active","ping":76},{"user_id":210,"name":"C.H.E.R.E.P.","steam_id":76561198026938595,"connected_time":887000000000,"state":"active","ping":76},{"user_id":207,"name":"Varsk","steam_id":76561198061398890,"connected_time":1019000000000,"state":"active","ping":40},{"user_id":103,"name":"hmscole09","steam_id":76561198811362788,"connected_time":8758000000000,"state":"active","ping":55},{"user_id":116,"name":"suddenly, a bear","steam_id":76561198195857751,"connected_time":7933000000000,"state":"active","ping":75},{"user_id":217,"name":"Starach","steam_id":76561198084530972,"connected_time":124000000000,"state":"active","ping":53},{"user_id":214,"name":"Cookies and Bakies","steam_id":76561198017442928,"connected_time":424000000000,"state":"active","ping":81},{"user_id":179,"name":"Andy","steam_id":76561198046918834,"connected_time":4140000000000,"state":"active","ping":63},{"user_id":160,"name":"Z4p4d","steam_id":76561198011755675,"connected_time":5454000000000,"state":"active","ping":78},{"user_id":209,"name":"Pringles","steam_id":76561198120850843,"connected_time":951000000000,"state":"active","ping":76},{"user_id":215,"name":"sebastian","steam_id":76561198169853697,"connected_time":421000000000,"state":"active","ping":64}]},{"server_id":40,"name":"Uncletopia | London | 7 | No Payload","name_short":"lon-7","host":"lon-1.uk.uncletopia.com","port":27075,"enabled":true,"region":"eu","cc":"gb","latitude":51.509865,"longitude":-0.118092,"reserved":0,"last_update":"0001-01-01T00:00:00Z","name_a2s":"Uncletopia | London | 7 | No Payload","protocol":17,"map":"ctf_turbine","folder":"tf","game":"Team Fortress","app_id":440,"player_count":0,"max_players":24,"Bots":0,"server_type":"Dedicated","server_os":"Linux","password":true,"vac":true,"version":"7882260","steam_id":85568392924964314,"keywords":["ctf","nocrits","nodmgspread","uncletopia"],"game_id":440,"stv_port":27076,"stv_name":"Uncletopia | London | 7 | No Payload | STV","players":null},{"server_id":41,"name":"Uncletopia | London | 8 | Community","name_short":"lon-8","host":"lon-1.uk.uncletopia.com","port":27085,"enabled":true,"region":"eu","cc":"gb","latitude":51.509865,"longitude":-0.118092,"reserved":0,"last_update":"0001-01-01T00:00:00Z","name_a2s":"Uncletopia | London | 8 | Community","protocol":17,"map":"workshop/pl_corrode_rc2.ugc546577989","folder":"tf","game":"Team Fortress","app_id":440,"player_count":24,"max_players":24,"Bots":0,"server_type":"Dedicated","server_os":"Linux","password":true,"vac":true,"version":"7882260","steam_id":85568392924964315,"keywords":["nocrits","nodmgspread","payload","uncletopia"],"game_id":440,"stv_port":27086,"stv_name":"Uncletopia | London | 8 | Community | STV","players":[{"user_id":183,"name":"I smelled your hair","steam_id":76561198231916584,"connected_time":2343000000000,"state":"active","ping":49},{"user_id":201,"name":"Gramma!","steam_id":76561198340989175,"connected_time":973000000000,"state":"active","ping":169},{"user_id":191,"name":"The KlitCommander","steam_id":76561197988387150,"connected_time":1794000000000,"state":"active","ping":59},{"user_id":205,"name":"Hole","steam_id":76561198032645679,"connected_time":835000000000,"state":"active","ping":49},{"user_id":206,"name":"damn, that bussy can squirt","steam_id":76561198050214002,"connected_time":828000000000,"state":"active","ping":63},{"user_id":204,"name":"Doctor racism (OFFICIAL)","steam_id":76561199196316280,"connected_time":899000000000,"state":"active","ping":84},{"user_id":135,"name":"Iphy","steam_id":76561198137519489,"connected_time":5557000000000,"state":"active","ping":73},{"user_id":207,"name":"Werit Fortress","steam_id":76561198397163021,"connected_time":797000000000,"state":"active","ping":152},{"user_id":128,"name":"MasterNaglis","steam_id":76561198348834177,"connected_time":5662000000000,"state":"active","ping":81},{"user_id":208,"name":"cof","steam_id":76561199128417805,"connected_time":777000000000,"state":"active","ping":53},{"user_id":156,"name":"ossop","steam_id":76561198045271499,"connected_time":4202000000000,"state":"active","ping":75},{"user_id":186,"name":"L'espion Fran√ßais","steam_id":76561198148271880,"connected_time":2044000000000,"state":"active","ping":57},{"user_id":209,"name":"Dor_atar","steam_id":76561198973980542,"connected_time":765000000000,"state":"active","ping":81},{"user_id":210,"name":"foursixsixseven","steam_id":76561199123727043,"connected_time":731000000000,"state":"active","ping":45},{"user_id":211,"name":"SandvichOblitirator","steam_id":76561199187087453,"connected_time":728000000000,"state":"active","ping":145},{"user_id":218,"name":"naZireael","steam_id":76561198188258338,"connected_time":508000000000,"state":"active","ping":133},{"user_id":176,"name":"¬∞Creamy Gilligan","steam_id":76561198001569384,"connected_time":3329000000000,"state":"active","ping":158},{"user_id":143,"name":"Flare","steam_id":76561198039098320,"connected_time":5219000000000,"state":"active","ping":51},{"user_id":212,"name":"scott steiners strongest warrio","steam_id":76561198148888622,"connected_time":677000000000,"state":"active","ping":59},{"user_id":219,"name":"Beni ü¶ßüçå","steam_id":76561198011340227,"connected_time":176000000000,"state":"active","ping":69},{"user_id":179,"name":"luivul","steam_id":76561197990672410,"connected_time":3232000000000,"state":"active","ping":84},{"user_id":180,"name":"antondstepanenko","steam_id":76561198966147466,"connected_time":3176000000000,"state":"active","ping":92},{"user_id":216,"name":"Furno","steam_id":76561197999723047,"connected_time":535000000000,"state":"active","ping":48},{"user_id":217,"name":"padillacampos","steam_id":76561198161923970,"connected_time":525000000000,"state":"active","ping":81}]},{"server_id":300,"name":"Uncletopia | Montr√©al | 1 | All Maps","name_short":"mtl-1","host":"mtl-1.ca.uncletopia.com","port":27015,"enabled":true,"region":"us-east","cc":"ca","latitude":45.50889,"longitude":-73.56167,"reserved":0,"last_update":"0001-01-01T00:00:00Z","name_a2s":"Uncletopia | Montr√©al | 1 | All Maps","protocol":17,"map":"cp_dustbowl","folder":"tf","game":"Team Fortress","app_id":440,"player_count":0,"max_players":24,"Bots":0,"server_type":"Dedicated","server_os":"Linux","password":true,"vac":true,"version":"7882260","steam_id":85568392924500087,"keywords":["cp","nocrits","nodmgspread","uncletopia"],"game_id":440,"stv_port":27016,"stv_name":"Uncletopia | Montr√©al | 1 | All Maps | STV","players":null},{"server_id":301,"name":"Uncletopia | Montr√©al | 2 | All Maps","name_short":"mtl-2","host":"mtl-1.ca.uncletopia.com","port":27025,"enabled":true,"region":"us-east","cc":"ca","latitude":45.50889,"longitude":-73.56167,"reserved":0,"last_update":"0001-01-01T00:00:00Z","name_a2s":"Uncletopia | Montr√©al | 2 | All Maps","protocol":17,"map":"pl_swiftwater_final1","folder":"tf","game":"Team Fortress","app_id":440,"player_count":0,"max_players":24,"Bots":0,"server_type":"Dedicated","server_os":"Linux","password":true,"vac":true,"version":"7882260","steam_id":85568392924500088,"keywords":["nocrits","nodmgspread","payload","uncletopia"],"game_id":440,"stv_port":27026,"stv_name":"Uncletopia | Montr√©al | 2 | All Maps | STV","players":null},{"server_id":302,"name":"Uncletopia | Montr√©al | 3 | All Maps","name_short":"mtl-3","host":"mtl-1.ca.uncletopia.com","port":27035,"enabled":true,"region":"us-east","cc":"ca","latitude":45.50889,"longitude":-73.56167,"reserved":0,"last_update":"0001-01-01T00:00:00Z","name_a2s":"Uncletopia | Montr√©al | 3 | All Maps","protocol":17,"map":"koth_highpass","folder":"tf","game":"Team Fortress","app_id":440,"player_count":0,"max_players":24,"Bots":0,"server_type":"Dedicated","server_os":"Linux","password":true,"vac":true,"version":"7882260","steam_id":85568392924500089,"keywords":["cp","nocrits","nodmgspread","uncletopia"],"game_id":440,"stv_port":27036,"stv_name":"Uncletopia | Montr√©al | 3 | All Maps | STV","players":null},{"server_id":303,"name":"Uncletopia | Montr√©al | 4 | No Payload","name_short":"mtl-4","host":"mtl-1.ca.uncletopia.com","port":27045,"enabled":true,"region":"us-east","cc":"ca","latitude":45.50889,"longitude":-73.56167,"reserved":0,"last_update":"0001-01-01T00:00:00Z","name_a2s":"Uncletopia | Montr√©al | 4 | No Payload","protocol":17,"map":"koth_highpass","folder":"tf","game":"Team Fortress","app_id":440,"player_count":0,"max_players":24,"Bots":0,"server_type":"Dedicated","server_os":"Linux","password":true,"vac":true,"version":"7882260","steam_id":85568392924500090,"keywords":["cp","nocrits","nodmgspread","uncletopia"],"game_id":440,"stv_port":27046,"stv_name":"Uncletopia | Montr√©al | 4 | No Payload | STV","players":null},{"server_id":13,"name":"Uncletopia | New York City | 1 | All Maps","name_short":"nyc-1","host":"nyc-1.us.uncletopia.com","port":27015,"enabled":true,"region":"us-east","cc":"us","latitude":40.73061,"longitude":-73.93524,"reserved":0,"last_update":"0001-01-01T00:00:00Z","name_a2s":"Uncletopia | New York City | 1 | All Maps","protocol":17,"map":"pl_pier","folder":"tf","game":"Team Fortress","app_id":440,"player_count":23,"max_players":24,"Bots":0,"server_type":"Dedicated","server_os":"Linux","password":true,"vac":true,"version":"7882260","steam_id":85568392924469993,"keywords":["nocrits","nodmgspread","payload","uncletopia"],"game_id":440,"stv_port":27016,"stv_name":"Uncletopia | New York City | 1 | All Maps | STV","players":[{"user_id":5,"name":"Ian","steam_id":76561199078852180,"connected_time":3496000000000,"state":"active","ping":55},{"user_id":6,"name":"Pootis Pie¬Æ","steam_id":76561199058049384,"connected_time":3421000000000,"state":"active","ping":62},{"user_id":7,"name":"zzzPoison","steam_id":76561198302928116,"connected_time":2996000000000,"state":"active","ping":73},{"user_id":8,"name":"Auto_Correct","steam_id":76561198254988078,"connected_time":2990000000000,"state":"active","ping":60},{"user_id":9,"name":"rat eater","steam_id":76561199216874750,"connected_time":2873000000000,"state":"active","ping":76},{"user_id":17,"name":"yes","steam_id":76561197977461320,"connected_time":2248000000000,"state":"active","ping":145},{"user_id":38,"name":"Scorch_","steam_id":76561197977611078,"connected_time":1417000000000,"state":"active","ping":65},{"user_id":45,"name":"IceRunner","steam_id":76561198999311013,"connected_time":1166000000000,"state":"active","ping":91},{"user_id":58,"name":"alice phoebe lou - shelter","steam_id":76561198141700569,"connected_time":28000000000,"state":"spawning","ping":52},{"user_id":16,"name":"winkie456","steam_id":76561198352628243,"connected_time":2314000000000,"state":"active","ping":54},{"user_id":59,"name":"nnobi","steam_id":76561198878729277,"connected_time":6000000000,"state":"spawning","ping":84},{"user_id":19,"name":"Ghostly","steam_id":76561199229629421,"connected_time":2139000000000,"state":"active","ping":145},{"user_id":54,"name":"Yup","steam_id":76561198847690613,"connected_time":342000000000,"state":"active","ping":62},{"user_id":21,"name":"Walmart Employee #10893","steam_id":76561198102045762,"connected_time":2123000000000,"state":"active","ping":61},{"user_id":50,"name":"DaybreakerYa","steam_id":76561199013632613,"connected_time":429000000000,"state":"active","ping":69},{"user_id":23,"name":"SilentSpykiller","steam_id":76561198094050751,"connected_time":2082000000000,"state":"active","ping":83},{"user_id":39,"name":"rack","steam_id":76561198966980576,"connected_time":1400000000000,"state":"active","ping":45},{"user_id":55,"name":"salad","steam_id":76561198214528083,"connected_time":255000000000,"state":"active","ping":66},{"user_id":57,"name":"The Incredible Fem Boy","steam_id":76561198355754259,"connected_time":148000000000,"state":"active","ping":64},{"user_id":48,"name":"Hulkster","steam_id":76561198278156353,"connected_time":460000000000,"state":"active","ping":105},{"user_id":52,"name":"Nyko","steam_id":76561198143197549,"connected_time":399000000000,"state":"active","ping":58},{"user_id":30,"name":"booty jiggae","steam_id":76561198089026129,"connected_time":1996000000000,"state":"active","ping":42},{"user_id":35,"name":"frank","steam_id":76561198045499333,"connected_time":1516000000000,"state":"active","ping":74}]},{"server_id":14,"name":"Uncletopia | New York City | 2 | All Maps","name_short":"nyc-2","host":"nyc-1.us.uncletopia.com","port":27025,"enabled":true,"region":"us-east","cc":"us","latitude":40.73061,"longitude":-73.93524,"reserved":0,"last_update":"0001-01-01T00:00:00Z","name_a2s":"Uncletopia | New York City | 2 | All Maps","protocol":17,"map":"pl_frontier_final","folder":"tf","game":"Team Fortress","app_id":440,"player_count":0,"max_players":24,"Bots":0,"server_type":"Dedicated","server_os":"Linux","password":true,"vac":true,"version":"7882260","steam_id":85568392924469994,"keywords":["nocrits","nodmgspread","payload","uncletopia"],"game_id":440,"stv_port":27026,"stv_name":"Uncletopia | New York City | 2 | All Maps | STV","players":null},{"server_id":15,"name":"Uncletopia | New York City | 3 | Stopwatch Beta","name_short":"nyc-3","host":"nyc-1.us.uncletopia.com","port":27035,"enabled":true,"region":"us-east","cc":"us","latitude":40.73061,"longitude":-73.93524,"reserved":0,"last_update":"0001-01-01T00:00:00Z","name_a2s":"Uncletopia | New York City | 3 | Stopwatch Beta","protocol":17,"map":"pl_borneo","folder":"tf","game":"Team Fortress","app_id":440,"player_count":0,"max_players":24,"Bots":0,"server_type":"Dedicated","server_os":"Linux","password":true,"vac":true,"version":"7882260","steam_id":85568392924742820,"keywords":["nocrits","nodmgspread","payload","uncletopia"],"game_id":440,"stv_port":27036,"stv_name":"Uncletopia | New York City | 3 | Stopwatch Beta | STV","players":null},{"server_id":16,"name":"Uncletopia | New York City | 4 | Community","name_short":"nyc-4","host":"nyc-1.us.uncletopia.com","port":27045,"enabled":true,"region":"us-east","cc":"us","latitude":40.73061,"longitude":-73.93524,"reserved":0,"last_update":"0001-01-01T00:00:00Z","name_a2s":"Uncletopia | New York City | 4 | Community","protocol":17,"map":"cp_altitude","folder":"tf","game":"Team Fortress","app_id":440,"player_count":0,"max_players":24,"Bots":0,"server_type":"Dedicated","server_os":"Linux","password":true,"vac":true,"version":"7882260","steam_id":85568392924742821,"keywords":["cp","nocrits","nodmgspread","uncletopia"],"game_id":440,"stv_port":27046,"stv_name":"Uncletopia | New York City | 4 | Community | STV","players":null},{"server_id":142,"name":"Uncletopia | S√£o Paulo | 1 | All Maps","name_short":"sao-1","host":"sao-1.br.uncletopia.com","port":27015,"enabled":true,"region":"sa","cc":"br","latitude":-23.533773,"longitude":-46.62529,"reserved":0,"last_update":"0001-01-01T00:00:00Z","name_a2s":"Uncletopia | S√£o Paulo | 1 | All Maps","protocol":17,"map":"koth_viaduct","folder":"tf","game":"Team Fortress","app_id":440,"player_count":0,"max_players":24,"Bots":0,"server_type":"Dedicated","server_os":"Linux","password":true,"vac":true,"version":"7882260","steam_id":85568392924469996,"keywords":["cp","nocrits","nodmgspread","uncletopia"],"game_id":440,"stv_port":27016,"stv_name":"Uncletopia | S√£o Paulo | 1 | All Maps | STV","players":null},{"server_id":143,"name":"Uncletopia | S√£o Paulo | 2 | All Maps","name_short":"sao-2","host":"sao-2.br.uncletopia.com","port":27015,"enabled":true,"region":"sa","cc":"br","latitude":-23.533773,"longitude":-46.62529,"reserved":0,"last_update":"0001-01-01T00:00:00Z","name_a2s":"Uncletopia | S√£o Paulo | 2 | All Maps","protocol":17,"map":"cp_process_final","folder":"tf","game":"Team Fortress","app_id":440,"player_count":0,"max_players":24,"Bots":0,"server_type":"Dedicated","server_os":"Linux","password":true,"vac":true,"version":"7882260","steam_id":85568392924485349,"keywords":["cp","nocrits","nodmgspread","uncletopia"],"game_id":440,"stv_port":27016,"stv_name":"Uncletopia | S√£o Paulo | 2 | All Maps | STV","players":null},{"server_id":7,"name":"Uncletopia | Seattle | 1 | All Maps","name_short":"sea-1","host":"sea-1.us.uncletopia.com","port":27015,"enabled":true,"region":"us-west","cc":"us","latitude":47.608013,"longitude":-122.33517,"reserved":0,"last_update":"0001-01-01T00:00:00Z","name_a2s":"Uncletopia | Seattle | 1 | All Maps","protocol":17,"map":"cp_altitude","folder":"tf","game":"Team Fortress","app_id":440,"player_count":0,"max_players":24,"Bots":0,"server_type":"Dedicated","server_os":"Linux","password":true,"vac":true,"version":"7882260","steam_id":85568392924469997,"keywords":["cp","nocrits","nodmgspread","uncletopia"],"game_id":440,"stv_port":27016,"stv_name":"Uncletopia | Seattle | 1 | All Maps | STV","players":null},{"server_id":119,"name":"Uncletopia | Seattle | 2 | All Maps","name_short":"sea-2","host":"sea-1.us.uncletopia.com","port":27025,"enabled":true,"region":"us-west","cc":"us","latitude":47.608013,"longitude":-122.33517,"reserved":0,"last_update":"0001-01-01T00:00:00Z","name_a2s":"Uncletopia | Seattle | 2 | All Maps","protocol":17,"map":"pl_snowycoast","folder":"tf","game":"Team Fortress","app_id":440,"player_count":0,"max_players":24,"Bots":0,"server_type":"Dedicated","server_os":"Linux","password":true,"vac":true,"version":"7882260","steam_id":85568392924469998,"keywords":["nocrits","nodmgspread","payload","uncletopia"],"game_id":440,"stv_port":27026,"stv_name":"Uncletopia | Seattle | 2 | All Maps | STV","players":null},{"server_id":406,"name":"Uncletopia | Seattle | 3 | Stopwatch Beta","name_short":"sea-3","host":"sea-1.us.uncletopia.com","port":27035,"enabled":true,"region":"us-west","cc":"us","latitude":47.608013,"longitude":-122.33517,"reserved":0,"last_update":"0001-01-01T00:00:00Z","name_a2s":"Uncletopia | Seattle | 3 | Stopwatch Beta","protocol":17,"map":"koth_viaduct","folder":"tf","game":"Team Fortress","app_id":440,"player_count":0,"max_players":24,"Bots":0,"server_type":"Dedicated","server_os":"Linux","password":true,"vac":true,"version":"7882260","steam_id":85568392924515217,"keywords":["cp","nocrits","nodmgspread","uncletopia"],"game_id":440,"stv_port":27036,"stv_name":"Uncletopia | Seattle | 3 | Stopwatch Beta | STV","players":null},{"server_id":17,"name":"Uncletopia | San Francisco | 1 | All Maps","name_short":"sfo-1","host":"sfo-1.us.uncletopia.com","port":27015,"enabled":true,"region":"us-west","cc":"us","latitude":37.77397,"longitude":-122.4313,"reserved":0,"last_update":"0001-01-01T00:00:00Z","name_a2s":"Uncletopia | San Francisco | 1 | All Maps","protocol":17,"map":"pl_pier","folder":"tf","game":"Team Fortress","app_id":440,"player_count":0,"max_players":24,"Bots":0,"server_type":"Dedicated","server_os":"Linux","password":true,"vac":true,"version":"7882260","steam_id":85568392924469999,"keywords":["nocrits","nodmgspread","payload","uncletopia"],"game_id":440,"stv_port":27016,"stv_name":"Uncletopia | San Francisco | 1 | All Maps | STV","players":null},{"server_id":18,"name":"Uncletopia | San Francisco | 2 | All Maps","name_short":"sfo-2","host":"sfo-1.us.uncletopia.com","port":27025,"enabled":true,"region":"us-west","cc":"us","latitude":37.77397,"longitude":-122.4313,"reserved":0,"last_update":"0001-01-01T00:00:00Z","name_a2s":"Uncletopia | San Francisco | 2 | All Maps","protocol":17,"map":"pl_borneo","folder":"tf","game":"Team Fortress","app_id":440,"player_count":23,"max_players":24,"Bots":0,"server_type":"Dedicated","server_os":"Linux","password":true,"vac":true,"version":"7882260","steam_id":85568392924470000,"keywords":["nocrits","nodmgspread","payload","uncletopia"],"game_id":440,"stv_port":27026,"stv_name":"Uncletopia | San Francisco | 2 | All Maps | STV","players":[{"user_id":51,"name":"TrashCanGaming","steam_id":76561199150746424,"connected_time":1899000000000,"state":"active","ping":93},{"user_id":66,"name":"Likeia #Savetf2","steam_id":76561198005214207,"connected_time":1558000000000,"state":"active","ping":97},{"user_id":113,"name":"bottle assassin","steam_id":76561198316281740,"connected_time":193000000000,"state":"active","ping":158},{"user_id":52,"name":"Riceguy","steam_id":76561199277204999,"connected_time":1876000000000,"state":"active","ping":145},{"user_id":32,"name":"‚ô• thedittofemboy ‚ô•","steam_id":76561199013129784,"connected_time":3654000000000,"state":"active","ping":84},{"user_id":77,"name":"jay","steam_id":76561199474493516,"connected_time":768000000000,"state":"active","ping":60},{"user_id":72,"name":"beans","steam_id":76561199082781884,"connected_time":1392000000000,"state":"active","ping":63},{"user_id":114,"name":"Marvelzombie","steam_id":76561198129951058,"connected_time":192000000000,"state":"active","ping":122},{"user_id":34,"name":"Compress Dong","steam_id":76561198018950826,"connected_time":3112000000000,"state":"active","ping":43},{"user_id":115,"name":"CousinCarL","steam_id":76561198028421250,"connected_time":173000000000,"state":"active","ping":105},{"user_id":117,"name":"America The Best","steam_id":76561198148347471,"connected_time":114000000000,"state":"active","ping":179},{"user_id":116,"name":"bunceian","steam_id":76561198975662918,"connected_time":119000000000,"state":"active","ping":97},{"user_id":111,"name":"Strange","steam_id":76561198310853086,"connected_time":224000000000,"state":"active","ping":108},{"user_id":78,"name":"Wiggee","steam_id":76561197972792989,"connected_time":691000000000,"state":"active","ping":84},{"user_id":118,"name":"‰ªôÂ•≥Â§¥Â≠ê‰∫éË∞¶","steam_id":76561199031075505,"connected_time":72000000000,"state":"active","ping":134},{"user_id":99,"name":"Funny Man","steam_id":76561198072396659,"connected_time":386000000000,"state":"active","ping":117},{"user_id":109,"name":"YoyoMama","steam_id":76561198260113828,"connected_time":233000000000,"state":"active","ping":57},{"user_id":26,"name":"Kontrast","steam_id":76561198822353564,"connected_time":4062000000000,"state":"active","ping":73},{"user_id":73,"name":"Trout","steam_id":76561199021874173,"connected_time":1273000000000,"state":"active","ping":108},{"user_id":68,"name":"Terminal Brain Rot","steam_id":76561198112594672,"connected_time":1534000000000,"state":"active","ping":109},{"user_id":75,"name":"Rick Astley Is A F2P?","steam_id":76561199258805660,"connected_time":1074000000000,"state":"active","ping":110},{"user_id":31,"name":"Phoenix","steam_id":76561197971265992,"connected_time":3857000000000,"state":"active","ping":70},{"user_id":110,"name":"mitch caught a body bout a week","steam_id":76561198199258353,"connected_time":231000000000,"state":"active","ping":94}]},{"server_id":19,"name":"Uncletopia | San Francisco | 3 | Stopwatch Beta","name_short":"sfo-3","host":"sfo-1.us.uncletopia.com","port":27035,"enabled":true,"region":"us-west","cc":"us","latitude":37.77397,"longitude":-122.4313,"reserved":0,"last_update":"0001-01-01T00:00:00Z","name_a2s":"Uncletopia | San Francisco | 3 | Stopwatch Beta","protocol":17,"map":"pl_snowycoast","folder":"tf","game":"Team Fortress","app_id":440,"player_count":0,"max_players":24,"Bots":0,"server_type":"Dedicated","server_os":"Linux","password":true,"vac":true,"version":"7882260","steam_id":85568392924742824,"keywords":["nocrits","nodmgspread","payload","uncletopia"],"game_id":440,"stv_port":27036,"stv_name":"Uncletopia | San Francisco | 3 | Stopwatch Beta | STV","players":null},{"server_id":20,"name":"Uncletopia | San Francisco | 4 | Community","name_short":"sfo-4","host":"sfo-1.us.uncletopia.com","port":27045,"enabled":true,"region":"us-west","cc":"us","latitude":37.77397,"longitude":-122.4313,"reserved":0,"last_update":"0001-01-01T00:00:00Z","name_a2s":"Uncletopia | San Francisco | 4 | Community","protocol":17,"map":"pl_swiftwater_final1","folder":"tf","game":"Team Fortress","app_id":440,"player_count":0,"max_players":24,"Bots":0,"server_type":"Dedicated","server_os":"Linux","password":true,"vac":true,"version":"7882260","steam_id":85568392924742826,"keywords":["nocrits","nodmgspread","payload","uncletopia"],"game_id":440,"stv_port":27046,"stv_name":"Uncletopia | San Francisco | 4 | Community | STV","players":null},{"server_id":141,"name":"Uncletopia | Sydney | 1 | All Maps","name_short":"syd-1","host":"syd-1.au.uncletopia.com","port":27015,"enabled":true,"region":"au","cc":"au","latitude":-33.865143,"longitude":151.2099,"reserved":0,"last_update":"0001-01-01T00:00:00Z","name_a2s":"Uncletopia | Sydney | 1 | All Maps","protocol":17,"map":"koth_viaduct","folder":"tf","game":"Team Fortress","app_id":440,"player_count":20,"max_players":24,"Bots":0,"server_type":"Dedicated","server_os":"Linux","password":true,"vac":true,"version":"7882260","steam_id":85568392924470001,"keywords":["cp","nocrits","nodmgspread","uncletopia"],"game_id":440,"stv_port":27016,"stv_name":"Uncletopia | Sydney | 1 | All Maps | STV","players":[{"user_id":703,"name":"cigarette burns on my skin","steam_id":76561198027629227,"connected_time":206000000000,"state":"active","ping":37},{"user_id":684,"name":"Jiffy360","steam_id":76561198149550772,"connected_time":1083000000000,"state":"active","ping":90},{"user_id":558,"name":"ad","steam_id":76561198061562365,"connected_time":12366000000000,"state":"active","ping":62},{"user_id":678,"name":"Bobby Wilkinson","steam_id":76561198054985347,"connected_time":1461000000000,"state":"active","ping":58},{"user_id":685,"name":"wom","steam_id":76561199375834537,"connected_time":1075000000000,"state":"active","ping":125},{"user_id":679,"name":"hive","steam_id":76561199099744527,"connected_time":1461000000000,"state":"active","ping":56},{"user_id":708,"name":"IT'S ULTRAKILLING TIME!!!","steam_id":76561198168662287,"connected_time":173000000000,"state":"active","ping":45},{"user_id":705,"name":"Drapperbat","steam_id":76561198058550889,"connected_time":188000000000,"state":"active","ping":105},{"user_id":683,"name":"Turret","steam_id":76561198054728921,"connected_time":1235000000000,"state":"active","ping":41},{"user_id":689,"name":"2345y","steam_id":76561198076912448,"connected_time":658000000000,"state":"active","ping":57},{"user_id":690,"name":"y5432","steam_id":76561198276390707,"connected_time":629000000000,"state":"active","ping":41},{"user_id":691,"name":"vng $\\/\\/@G","steam_id":76561198110594320,"connected_time":614000000000,"state":"active","ping":35},{"user_id":647,"name":"broccoli","steam_id":76561198838171912,"connected_time":5533000000000,"state":"active","ping":143},{"user_id":589,"name":"Petrolhead02 Œ∂","steam_id":76561198130702029,"connected_time":10341000000000,"state":"active","ping":98},{"user_id":696,"name":"Rags","steam_id":76561198179481430,"connected_time":423000000000,"state":"active","ping":105},{"user_id":591,"name":"‡∂û","steam_id":76561199397915047,"connected_time":10332000000000,"state":"active","ping":124},{"user_id":631,"name":"shutterstock camel","steam_id":76561198079345240,"connected_time":7739000000000,"state":"active","ping":52},{"user_id":701,"name":"wackel","steam_id":76561198091003826,"connected_time":269000000000,"state":"active","ping":57},{"user_id":707,"name":"Hydro","steam_id":76561198356210513,"connected_time":178000000000,"state":"active","ping":55},{"user_id":709,"name":"xaevra","steam_id":76561198153518516,"connected_time":168000000000,"state":"active","ping":47}]},{"server_id":123,"name":"Uncletopia | Sydney | 2 | All Maps","name_short":"syd-2","host":"syd-1.au.uncletopia.com","port":27025,"enabled":true,"region":"au","cc":"au","latitude":-33.865143,"longitude":151.2099,"reserved":0,"last_update":"0001-01-01T00:00:00Z","name_a2s":"Uncletopia | Sydney | 2 | All Maps","protocol":17,"map":"pl_pier","folder":"tf","game":"Team Fortress","app_id":440,"player_count":0,"max_players":24,"Bots":0,"server_type":"Dedicated","server_os":"Linux","password":true,"vac":true,"version":"7882260","steam_id":85568392924470002,"keywords":["nocrits","nodmgspread","payload","uncletopia"],"game_id":440,"stv_port":27026,"stv_name":"Uncletopia | Sydney | 2 | All Maps | STV","players":null},{"server_id":395,"name":"Uncletopia | Sydney | 3 | All Maps","name_short":"syd-3","host":"syd-1.au.uncletopia.com","port":27035,"enabled":true,"region":"au","cc":"au","latitude":-33.865143,"longitude":151.2099,"reserved":0,"last_update":"0001-01-01T00:00:00Z","name_a2s":"Uncletopia | Sydney | 3 | All Maps","protocol":17,"map":"koth_viaduct","folder":"tf","game":"Team Fortress","app_id":440,"player_count":0,"max_players":24,"Bots":0,"server_type":"Dedicated","server_os":"Linux","password":true,"vac":true,"version":"7882260","steam_id":85568392925194467,"keywords":["cp","nocrits","nodmgspread","uncletopia"],"game_id":440,"stv_port":27036,"stv_name":"Uncletopia | Sydney | 3 | All Maps | STV","players":null},{"server_id":396,"name":"Uncletopia | Sydney | 4 | All Maps","name_short":"syd-4","host":"syd-1.au.uncletopia.com","port":27045,"enabled":true,"region":"au","cc":"au","latitude":-33.865143,"longitude":151.2099,"reserved":0,"last_update":"0001-01-01T00:00:00Z","name_a2s":"Uncletopia | Sydney | 4 | All Maps","protocol":17,"map":"koth_highpass","folder":"tf","game":"Team Fortress","app_id":440,"player_count":0,"max_players":24,"Bots":0,"server_type":"Dedicated","server_os":"Linux","password":true,"vac":true,"version":"7882260","steam_id":85568392925397958,"keywords":["cp","nocrits","nodmgspread","uncletopia"],"game_id":440,"stv_port":27046,"stv_name":"Uncletopia | Sydney | 4 | All Maps | STV","players":null},{"server_id":58,"name":"Uncletopia | Sydney | 5 | Stopwatch Beta","name_short":"syd-5","host":"syd-1.au.uncletopia.com","port":27055,"enabled":true,"region":"au","cc":"au","latitude":-33.865143,"longitude":151.2099,"reserved":0,"last_update":"0001-01-01T00:00:00Z","name_a2s":"Uncletopia | Sydney | 5 | Stopwatch Beta","protocol":17,"map":"workshop/koth_ramjam_rc1.ugc459778887","folder":"tf","game":"Team Fortress","app_id":440,"player_count":0,"max_players":24,"Bots":0,"server_type":"Dedicated","server_os":"Linux","password":true,"vac":true,"version":"7882260","steam_id":85568392925397959,"keywords":["cp","nocrits","nodmgspread","uncletopia"],"game_id":440,"stv_port":27056,"stv_name":"Uncletopia | Sydney | 5 | Stopwatch Beta | STV","players":null},{"server_id":59,"name":"Uncletopia | Sydney | 6 | Community","name_short":"syd-6","host":"syd-1.au.uncletopia.com","port":27065,"enabled":true,"region":"au","cc":"au","latitude":-33.865143,"longitude":151.2099,"reserved":0,"last_update":"0001-01-01T00:00:00Z","name_a2s":"Uncletopia | Sydney | 6 | Community","protocol":17,"map":"workshop/koth_synthetic_rc6a.ugc1549817316","folder":"tf","game":"Team Fortress","app_id":440,"player_count":0,"max_players":24,"Bots":0,"server_type":"Dedicated","server_os":"Linux","password":true,"vac":true,"version":"7882260","steam_id":85568392925397960,"keywords":["cp","nocrits","nodmgspread","uncletopia"],"game_id":440,"stv_port":27066,"stv_name":"Uncletopia | Sydney | 6 | Community | STV","players":null},{"server_id":49,"name":"Uncletopia | Warsaw | 1 | All Maps","name_short":"waw-1","host":"waw-1.pl.uncletopia.com","port":27015,"enabled":true,"region":"eu","cc":"pl","latitude":52.2297,"longitude":21.017532,"reserved":0,"last_update":"0001-01-01T00:00:00Z","name_a2s":"","protocol":0,"map":"","folder":"","game":"","app_id":0,"player_count":0,"max_players":0,"Bots":0,"server_type":"","server_os":"","password":false,"vac":false,"version":"","steam_id":0,"keywords":null,"game_id":0,"stv_port":0,"stv_name":"","players":null},{"server_id":50,"name":"Uncletopia | Warsaw | 2 | All Maps","name_short":"waw-2","host":"waw-1.pl.uncletopia.com","port":27025,"enabled":true,"region":"eu","cc":"pl","latitude":52.2297,"longitude":21.017532,"reserved":0,"last_update":"0001-01-01T00:00:00Z","name_a2s":"Uncletopia | Warsaw | 2 | All Maps","protocol":17,"map":"koth_viaduct","folder":"tf","game":"Team Fortress","app_id":440,"player_count":0,"max_players":24,"Bots":0,"server_type":"Dedicated","server_os":"Linux","password":true,"vac":true,"version":"7882260","steam_id":85568392925397851,"keywords":["cp","nocrits","nodmgspread","uncletopia"],"game_id":440,"stv_port":27026,"stv_name":"Uncletopia | Warsaw | 2 | All Maps | STV","players":null},{"server_id":51,"name":"Uncletopia | Warsaw | 3 | All Maps","name_short":"waw-3","host":"waw-1.pl.uncletopia.com","port":27035,"enabled":true,"region":"eu","cc":"pl","latitude":52.2297,"longitude":21.017532,"reserved":0,"last_update":"0001-01-01T00:00:00Z","name_a2s":"Uncletopia | Warsaw | 3 | All Maps","protocol":17,"map":"pl_swiftwater_final1","folder":"tf","game":"Team Fortress","app_id":440,"player_count":0,"max_players":24,"Bots":0,"server_type":"Dedicated","server_os":"Linux","password":true,"vac":true,"version":"7882260","steam_id":85568392925397852,"keywords":["nocrits","nodmgspread","payload","uncletopia"],"game_id":440,"stv_port":27036,"stv_name":"Uncletopia | Warsaw | 3 | All Maps | STV","players":null},{"server_id":52,"name":"Uncletopia | Warsaw | 4 | All Maps","name_short":"waw-4","host":"waw-1.pl.uncletopia.com","port":27045,"enabled":true,"region":"eu","cc":"pl","latitude":52.2297,"longitude":21.017532,"reserved":0,"last_update":"0001-01-01T00:00:00Z","name_a2s":"Uncletopia | Warsaw | 4 | All Maps","protocol":17,"map":"koth_cascade","folder":"tf","game":"Team Fortress","app_id":440,"player_count":0,"max_players":24,"Bots":0,"server_type":"Dedicated","server_os":"Linux","password":true,"vac":true,"version":"7882260","steam_id":85568392925397853,"keywords":["cp","nocrits","nodmgspread","uncletopia"],"game_id":440,"stv_port":27046,"stv_name":"Uncletopia | Warsaw | 4 | All Maps | STV","players":null},{"server_id":53,"name":"Uncletopia | Warsaw | 5 | Stopwatch Beta","name_short":"waw-5","host":"waw-1.pl.uncletopia.com","port":27055,"enabled":true,"region":"eu","cc":"pl","latitude":52.2297,"longitude":21.017532,"reserved":0,"last_update":"0001-01-01T00:00:00Z","name_a2s":"Uncletopia | Warsaw | 5 | Stopwatch Beta","protocol":17,"map":"cp_dustbowl","folder":"tf","game":"Team Fortress","app_id":440,"player_count":0,"max_players":24,"Bots":0,"server_type":"Dedicated","server_os":"Linux","password":true,"vac":true,"version":"7882260","steam_id":85568392925397854,"keywords":["cp","nocrits","nodmgspread","uncletopia"],"game_id":440,"stv_port":27056,"stv_name":"Uncletopia | Warsaw | 5 | Stopwatch Beta | STV","players":null},{"server_id":54,"name":"Uncletopia | Warsaw | 6 | Community","name_short":"waw-6","host":"waw-1.pl.uncletopia.com","port":27065,"enabled":true,"region":"eu","cc":"pl","latitude":52.2297,"longitude":21.017532,"reserved":0,"last_update":"0001-01-01T00:00:00Z","name_a2s":"Uncletopia | Warsaw | 6 | Community","protocol":17,"map":"workshop/koth_bagel_rc6.ugc2514036946","folder":"tf","game":"Team Fortress","app_id":440,"player_count":0,"max_players":24,"Bots":0,"server_type":"Dedicated","server_os":"Linux","password":true,"vac":true,"version":"7882260","steam_id":85568392925397856,"keywords":["cp","nocrits","nodmgspread","uncletopia"],"game_id":440,"stv_port":27066,"stv_name":"Uncletopia | Warsaw | 6 | Community | STV","players":null}]}