{"status":true,"message":"","result":[{"server_id":9,"name":"Uncletopia | Atlanta | 1 | All Maps","name_short":"atl-1","host":"atl-1.us.uncletopia.com","port":27015,"enabled":true,"region":"us-east","cc":"us","latitude":33.753746,"longitude":-84.38633,"reserved":0,"last_update":"0001-01-01T00:00:00Z","name_a2s":"Uncletopia | Atlanta | 1 | All Maps","protocol":17,"map":"cp_process_final","folder":"tf","game":"Team Fortress","app_id":440,"player_count":24,"max_players":24,"Bots":0,"server_type":"Dedicated","server_os":"Linux","password":true,"vac":true,"version":"7961495","steam_id":85568392924469982,"keywords":["cp","nocrits","nodmgspread","uncletopia"],"game_id":440,"stv_port":27016,"stv_name":"Uncletopia | Atlanta | 1 | All Maps | STV","players":[{"user_id":1012,"name":"FrostWare","steam_id":76561198187077534,"connected_time":1622000000000,"state":"active","ping":78},{"user_id":1006,"name":"Giorno Giovanna","steam_id":76561198044106874,"connected_time":2224000000000,"state":"active","ping":93},{"user_id":1029,"name":"blizzard","steam_id":76561198066056920,"connected_time":38000000000,"state":"spawning","ping":126},{"user_id":1007,"name":"Scremz (Jeffery Bomber)","steam_id":76561198090314229,"connected_time":2209000000000,"state":"active","ping":53},{"user_id":1008,"name":"^5t^6i^5n^6y","steam_id":76561198010743348,"connected_time":2103000000000,"state":"active","ping":60},{"user_id":1024,"name":"jek","steam_id":76561198097816136,"connected_time":815000000000,"state":"active","ping":45},{"user_id":1018,"name":"I have an OCD to kill.","steam_id":76561198021649180,"connected_time":1358000000000,"state":"active","ping":61},{"user_id":1023,"name":"arii","steam_id":76561198047026002,"connected_time":818000000000,"state":"active","ping":74},{"user_id":896,"name":"Jin","steam_id":76561198119873148,"connected_time":12528000000000,"state":"active","ping":75},{"user_id":1026,"name":"PickleHater13","steam_id":76561198259380127,"connected_time":639000000000,"state":"active","ping":74},{"user_id":956,"name":"femboy folder size, 5tb","steam_id":76561199149210631,"connected_time":6816000000000,"state":"active","ping":46},{"user_id":1020,"name":"clausain","steam_id":76561198115405064,"connected_time":1231000000000,"state":"active","ping":60},{"user_id":997,"name":"Hm.","steam_id":76561198446378419,"connected_time":2775000000000,"state":"active","ping":65},{"user_id":1000,"name":"garbozo","steam_id":76561199048486891,"connected_time":2713000000000,"state":"active","ping":78},{"user_id":994,"name":"Raizen","steam_id":76561199092445367,"connected_time":2908000000000,"state":"active","ping":68},{"user_id":955,"name":"Bunt","steam_id":76561198124477567,"connected_time":6935000000000,"state":"active","ping":38},{"user_id":998,"name":"blademiss","steam_id":76561198062083019,"connected_time":2749000000000,"state":"active","ping":127},{"user_id":1009,"name":"Liam TF2","steam_id":76561198067137160,"connected_time":2046000000000,"state":"active","ping":121},{"user_id":1021,"name":"lilac brooch...","steam_id":76561198333718916,"connected_time":1228000000000,"state":"active","ping":57},{"user_id":1002,"name":"Edwon","steam_id":76561198319902846,"connected_time":2690000000000,"state":"active","ping":95},{"user_id":1027,"name":"Scopedawg","steam_id":76561198034705209,"connected_time":377000000000,"state":"active","ping":74},{"user_id":1028,"name":"BumpofNight","steam_id":76561198011581312,"connected_time":348000000000,"state":"active","ping":71},{"user_id":1004,"name":"zheon","steam_id":76561198318622241,"connected_time":2628000000000,"state":"active","ping":63},{"user_id":1016,"name":"penguin","steam_id":76561197960318045,"connected_time":1478000000000,"state":"active","ping":76}]},{"server_id":104,"name":"Uncletopia | Atlanta | 2 | All Maps","name_short":"atl-2","host":"atl-1.us.uncletopia.com","port":27025,"enabled":true,"region":"us-east","cc":"us","latitude":33.753746,"longitude":-84.38633,"reserved":0,"last_update":"0001-01-01T00:00:00Z","name_a2s":"Uncletopia | Atlanta | 2 | All Maps","protocol":17,"map":"cp_mountainlab","folder":"tf","game":"Team Fortress","app_id":440,"player_count":0,"max_players":24,"Bots":0,"server_type":"Dedicated","server_os":"Linux","password":true,"vac":true,"version":"7961495","steam_id":85568392924469983,"keywords":["cp","nocrits","nodmgspread","uncletopia"],"game_id":440,"stv_port":27026,"stv_name":"Uncletopia | Atlanta | 2 | All Maps | STV","players":null},{"server_id":400,"name":"Uncletopia | Atlanta | 3 | Stopwatch","name_short":"atl-3","host":"atl-1.us.uncletopia.com","port":27035,"enabled":true,"region":"us-east","cc":"us","latitude":33.753746,"longitude":-84.38633,"reserved":0,"last_update":"0001-01-01T00:00:00Z","name_a2s":"Uncletopia | Atlanta | 3 | Stopwatch","protocol":17,"map":"koth_highpass","folder":"tf","game":"Team Fortress","app_id":440,"player_count":0,"max_players":24,"Bots":0,"server_type":"Dedicated","server_os":"Linux","password":true,"vac":true,"version":"7961495","steam_id":85568392924515187,"keywords":["cp","nocrits","nodmgspread","uncletopia"],"game_id":440,"stv_port":27036,"stv_name":"Uncletopia | Atlanta | 3 | Stopwatch | STV","players":null},{"server_id":401,"name":"Uncletopia | Atlanta | 4 | Community","name_short":"atl-4","host":"atl-1.us.uncletopia.com","port":27045,"enabled":true,"region":"us-east","cc":"us","latitude":33.753746,"longitude":-84.38633,"reserved":0,"last_update":"0001-01-01T00:00:00Z","name_a2s":"Uncletopia | Atlanta | 4 | Community","protocol":17,"map":"workshop/koth_bagel_rc6.ugc2514036946","folder":"tf","game":"Team Fortress","app_id":440,"player_count":0,"max_players":24,"Bots":0,"server_type":"Dedicated","server_os":"Linux","password":true,"vac":true,"version":"7961495","steam_id":85568392924515188,"keywords":["cp","nocrits","nodmgspread","uncletopia"],"game_id":440,"stv_port":27046,"stv_name":"Uncletopia | Atlanta | 4 | Community | STV","players":null},{"server_id":2,"name":"Uncletopia | Chicago | 1 | All Maps","name_short":"chi-1","host":"chi-1.us.uncletopia.com","port":27015,"enabled":true,"region":"us-central","cc":"us","latitude":41.881832,"longitude":-87.62318,"reserved":0,"last_update":"0001-01-01T00:00:00Z","name_a2s":"Uncletopia | Chicago | 1 | All Maps","protocol":17,"map":"pl_badwater","folder":"tf","game":"Team Fortress","app_id":440,"player_count":0,"max_players":24,"Bots":0,"server_type":"Dedicated","server_os":"Linux","password":true,"vac":true,"version":"7961495","steam_id":85568392924469984,"keywords":["nocrits","nodmgspread","payload","uncletopia"],"game_id":440,"stv_port":27016,"stv_name":"Uncletopia | Chicago | 1 | All Maps | STV","players":null},{"server_id":106,"name":"Uncletopia | Chicago | 2 | All Maps","name_short":"chi-2","host":"chi-1.us.uncletopia.com","port":27025,"enabled":true,"region":"us-central","cc":"us","latitude":41.881832,"longitude":-87.62318,"reserved":0,"last_update":"0001-01-01T00:00:00Z","name_a2s":"Uncletopia | Chicago | 2 | All Maps","protocol":17,"map":"cp_sunshine","folder":"tf","game":"Team Fortress","app_id":440,"player_count":24,"max_players":24,"Bots":0,"server_type":"Dedicated","server_os":"Linux","password":true,"vac":true,"version":"7961495","steam_id":85568392924469985,"keywords":["cp","nocrits","nodmgspread","uncletopia"],"game_id":440,"stv_port":27026,"stv_name":"Uncletopia | Chicago | 2 | All Maps | STV","players":[{"user_id":791,"name":"Menachem","steam_id":76561198041226420,"connected_time":5856000000000,"state":"active","ping":46},{"user_id":859,"name":"PaD_Ding","steam_id":76561198831202965,"connected_time":233000000000,"state":"active","ping":166},{"user_id":813,"name":"existentialape","steam_id":76561198991703081,"connected_time":4372000000000,"state":"active","ping":62},{"user_id":851,"name":"Weird Round","steam_id":76561197969205852,"connected_time":698000000000,"state":"active","ping":79},{"user_id":801,"name":"God's Drunkest Driver","steam_id":76561199174579733,"connected_time":4949000000000,"state":"active","ping":69},{"user_id":861,"name":"Russell","steam_id":76561198024159373,"connected_time":47000000000,"state":"active","ping":80},{"user_id":854,"name":"Booty Warrior","steam_id":76561199197289548,"connected_time":514000000000,"state":"active","ping":103},{"user_id":839,"name":"StupidStuff","steam_id":76561198850565003,"connected_time":1626000000000,"state":"active","ping":64},{"user_id":837,"name":"carne asada","steam_id":76561198108398751,"connected_time":1853000000000,"state":"active","ping":56},{"user_id":855,"name":"KazmirlYT","steam_id":76561198116008410,"connected_time":455000000000,"state":"active","ping":106},{"user_id":853,"name":"Thequirka","steam_id":76561198968058652,"connected_time":571000000000,"state":"active","ping":97},{"user_id":847,"name":"trash beast","steam_id":76561198015792736,"connected_time":843000000000,"state":"active","ping":76},{"user_id":849,"name":"KingMando","steam_id":76561198462240323,"connected_time":763000000000,"state":"active","ping":95},{"user_id":829,"name":"Old Nosey","steam_id":76561198024885884,"connected_time":2581000000000,"state":"active","ping":80},{"user_id":841,"name":"Blargh","steam_id":76561198044095816,"connected_time":1443000000000,"state":"active","ping":61},{"user_id":805,"name":"BrianD","steam_id":76561198074638559,"connected_time":4804000000000,"state":"active","ping":77},{"user_id":857,"name":"I I | #SaveTF2","steam_id":76561199101935057,"connected_time":379000000000,"state":"active","ping":175},{"user_id":833,"name":"bossman","steam_id":76561198103515747,"connected_time":2202000000000,"state":"active","ping":91},{"user_id":860,"name":"Lennu","steam_id":76561198060730154,"connected_time":149000000000,"state":"active","ping":76},{"user_id":862,"name":"HornySockPuppet","steam_id":76561198135035516,"connected_time":2000000000,"state":"spawning","ping":68},{"user_id":842,"name":"Prinz","steam_id":76561198175476071,"connected_time":1421000000000,"state":"active","ping":111},{"user_id":846,"name":"GamingJuice42","steam_id":76561198110469437,"connected_time":919000000000,"state":"active","ping":58},{"user_id":808,"name":"Sigfig","steam_id":76561198000237899,"connected_time":4782000000000,"state":"active","ping":62},{"user_id":827,"name":"Durts","steam_id":76561198045954506,"connected_time":2666000000000,"state":"active","ping":99}]},{"server_id":402,"name":"Uncletopia | Chicago | 3 | All Maps","name_short":"chi-3","host":"chi-1.us.uncletopia.com","port":27035,"enabled":true,"region":"us-central","cc":"us","latitude":41.881832,"longitude":-87.62318,"reserved":0,"last_update":"0001-01-01T00:00:00Z","name_a2s":"Uncletopia | Chicago | 3 | All Maps","protocol":17,"map":"koth_viaduct","folder":"tf","game":"Team Fortress","app_id":440,"player_count":0,"max_players":24,"Bots":0,"server_type":"Dedicated","server_os":"Linux","password":true,"vac":true,"version":"7961495","steam_id":85568392924515191,"keywords":["cp","nocrits","nodmgspread","uncletopia"],"game_id":440,"stv_port":27036,"stv_name":"Uncletopia | Chicago | 3 | All Maps | STV","players":null},{"server_id":403,"name":"Uncletopia | Chicago | 4 | All Maps","name_short":"chi-4","host":"chi-1.us.uncletopia.com","port":27045,"enabled":true,"region":"us-central","cc":"us","latitude":41.881832,"longitude":-87.62318,"reserved":0,"last_update":"0001-01-01T00:00:00Z","name_a2s":"Uncletopia | Chicago | 4 | All Maps","protocol":17,"map":"cp_dustbowl","folder":"tf","game":"Team Fortress","app_id":440,"player_count":22,"max_players":24,"Bots":0,"server_type":"Dedicated","server_os":"Linux","password":true,"vac":true,"version":"7961495","steam_id":85568392924515193,"keywords":["cp","nocrits","nodmgspread","uncletopia"],"game_id":440,"stv_port":27046,"stv_name":"Uncletopia | Chicago | 4 | All Maps | STV","players":[{"user_id":930,"name":"Colorbleed","steam_id":76561198113360446,"connected_time":1123000000000,"state":"active","ping":105},{"user_id":935,"name":"sailaser","steam_id":76561198035752229,"connected_time":850000000000,"state":"active","ping":62},{"user_id":936,"name":"TJGSASQUATCH","steam_id":76561198077806921,"connected_time":841000000000,"state":"active","ping":71},{"user_id":942,"name":"5FuriousNutSlaps","steam_id":76561197996665296,"connected_time":503000000000,"state":"active","ping":122},{"user_id":915,"name":"Trident Gum","steam_id":76561198043684960,"connected_time":2799000000000,"state":"active","ping":67},{"user_id":943,"name":"RestingImmortal","steam_id":76561198254240564,"connected_time":493000000000,"state":"active","ping":71},{"user_id":949,"name":"shut the fuck up and listen","steam_id":76561198018093835,"connected_time":41000000000,"state":"active","ping":70},{"user_id":937,"name":"Pronoun of Choice Kisser","steam_id":76561198798176670,"connected_time":830000000000,"state":"active","ping":50},{"user_id":934,"name":"A Knight With The Mug","steam_id":76561198325350546,"connected_time":897000000000,"state":"active","ping":74},{"user_id":940,"name":"Û†Ä°Û†Ä°","steam_id":76561198068384105,"connected_time":712000000000,"state":"active","ping":59},{"user_id":931,"name":"Zeelidox","steam_id":76561198110613375,"connected_time":1047000000000,"state":"active","ping":76},{"user_id":938,"name":"warren","steam_id":76561198136331136,"connected_time":790000000000,"state":"active","ping":75},{"user_id":941,"name":"cookie","steam_id":76561198051499968,"connected_time":710000000000,"state":"active","ping":80},{"user_id":945,"name":"Jeshiie","steam_id":76561198344339322,"connected_time":302000000000,"state":"active","ping":80},{"user_id":946,"name":"Admiral Angry","steam_id":76561198058199206,"connected_time":237000000000,"state":"active","ping":59},{"user_id":927,"name":"Burnt Toast","steam_id":76561198174761155,"connected_time":1503000000000,"state":"active","ping":103},{"user_id":947,"name":"Congcrab","steam_id":76561198078687685,"connected_time":195000000000,"state":"active","ping":88},{"user_id":913,"name":"Video Game 2","steam_id":76561198041231215,"connected_time":3186000000000,"state":"active","ping":50},{"user_id":914,"name":"Ludcmorais","steam_id":76561198359217809,"connected_time":2996000000000,"state":"active","ping":180},{"user_id":948,"name":"‚ô°crybaby‚ô°","steam_id":76561199042734489,"connected_time":186000000000,"state":"active","ping":117},{"user_id":839,"name":"kilroy_39","steam_id":76561198205173325,"connected_time":9667000000000,"state":"active","ping":86},{"user_id":912,"name":"Team Fartpiss Poo","steam_id":76561199163591880,"connected_time":3213000000000,"state":"active","ping":92}]},{"server_id":36,"name":"Uncletopia | Chicago | 5 | All Maps","name_short":"chi-5","host":"chi-2.us.uncletopia.com","port":27015,"enabled":true,"region":"us-central","cc":"us","latitude":41.881832,"longitude":-87.62318,"reserved":0,"last_update":"0001-01-01T00:00:00Z","name_a2s":"Uncletopia | Chicago | 5 | All Maps","protocol":17,"map":"cp_process_final","folder":"tf","game":"Team Fortress","app_id":440,"player_count":0,"max_players":24,"Bots":0,"server_type":"Dedicated","server_os":"Linux","password":true,"vac":true,"version":"7961495","steam_id":85568392924866362,"keywords":["cp","nocrits","nodmgspread","uncletopia"],"game_id":440,"stv_port":27016,"stv_name":"Uncletopia | Chicago | 5 | All Maps | STV","players":null},{"server_id":37,"name":"Uncletopia | Chicago | 6 | All Maps","name_short":"chi-6","host":"chi-2.us.uncletopia.com","port":27025,"enabled":true,"region":"us-central","cc":"us","latitude":41.881832,"longitude":-87.62318,"reserved":0,"last_update":"0001-01-01T00:00:00Z","name_a2s":"Uncletopia | Chicago | 6 | All Maps","protocol":17,"map":"pl_borneo","folder":"tf","game":"Team Fortress","app_id":440,"player_count":0,"max_players":24,"Bots":0,"server_type":"Dedicated","server_os":"Linux","password":true,"vac":true,"version":"7961495","steam_id":85568392924866363,"keywords":["nocrits","nodmgspread","payload","uncletopia"],"game_id":440,"stv_port":27026,"stv_name":"Uncletopia | Chicago | 6 | All Maps | STV","players":null},{"server_id":38,"name":"Uncletopia | Chicago | 7 | Stopwatch","name_short":"chi-7","host":"chi-2.us.uncletopia.com","port":27035,"enabled":true,"region":"us-central","cc":"us","latitude":41.881832,"longitude":-87.62318,"reserved":0,"last_update":"0001-01-01T00:00:00Z","name_a2s":"Uncletopia | Chicago | 7 | Stopwatch","protocol":17,"map":"workshop/koth_clearcut_b15.ugc2107050255","folder":"tf","game":"Team Fortress","app_id":440,"player_count":0,"max_players":24,"Bots":0,"server_type":"Dedicated","server_os":"Linux","password":true,"vac":true,"version":"7961495","steam_id":85568392924866364,"keywords":["cp","nocrits","nodmgspread","uncletopia"],"game_id":440,"stv_port":27036,"stv_name":"Uncletopia | Chicago | 7 | Stopwatch | STV","players":null},{"server_id":39,"name":"Uncletopia | Chicago | 8 | Community","name_short":"chi-8","host":"chi-2.us.uncletopia.com","port":27045,"enabled":true,"region":"us-central","cc":"us","latitude":41.881832,"longitude":-87.62318,"reserved":0,"last_update":"0001-01-01T00:00:00Z","name_a2s":"Uncletopia | Chicago | 8 | Community","protocol":17,"map":"workshop/pl_jinn_rc2.ugc2964570577","folder":"tf","game":"Team Fortress","app_id":440,"player_count":0,"max_players":24,"Bots":0,"server_type":"Dedicated","server_os":"Linux","password":true,"vac":true,"version":"7961495","steam_id":85568392924866365,"keywords":["nocrits","nodmgspread","payload","uncletopia"],"game_id":440,"stv_port":27046,"stv_name":"Uncletopia | Chicago | 8 | Community | STV","players":null},{"server_id":8,"name":"Uncletopia | Dallas | 1 | All Maps","name_short":"dal-1","host":"dal-1.us.uncletopia.com","port":27015,"enabled":true,"region":"us-central","cc":"us","latitude":32.779167,"longitude":-96.80889,"reserved":0,"last_update":"0001-01-01T00:00:00Z","name_a2s":"Uncletopia | Dallas | 1 | All Maps","protocol":17,"map":"koth_lakeside_final","folder":"tf","game":"Team Fortress","app_id":440,"player_count":0,"max_players":24,"Bots":0,"server_type":"Dedicated","server_os":"Linux","password":true,"vac":true,"version":"7961495","steam_id":85568392924469986,"keywords":["cp","nocrits","nodmgspread","uncletopia"],"game_id":440,"stv_port":27016,"stv_name":"Uncletopia | Dallas | 1 | All Maps | STV","players":null},{"server_id":108,"name":"Uncletopia | Dallas | 2 | All Maps","name_short":"dal-2","host":"dal-1.us.uncletopia.com","port":27025,"enabled":true,"region":"us-central","cc":"us","latitude":32.779167,"longitude":-96.80889,"reserved":0,"last_update":"0001-01-01T00:00:00Z","name_a2s":"Uncletopia | Dallas | 2 | All Maps","protocol":17,"map":"pl_pier","folder":"tf","game":"Team Fortress","app_id":440,"player_count":0,"max_players":24,"Bots":0,"server_type":"Dedicated","server_os":"Linux","password":true,"vac":true,"version":"7961495","steam_id":85568392924469988,"keywords":["nocrits","nodmgspread","payload","uncletopia"],"game_id":440,"stv_port":27026,"stv_name":"Uncletopia | Dallas | 2 | All Maps | STV","players":null},{"server_id":404,"name":"Uncletopia | Dallas | 3 | All Maps","name_short":"dal-3","host":"dal-1.us.uncletopia.com","port":27035,"enabled":true,"region":"us-central","cc":"us","latitude":32.779167,"longitude":-96.80889,"reserved":0,"last_update":"0001-01-01T00:00:00Z","name_a2s":"Uncletopia | Dallas | 3 | All Maps","protocol":17,"map":"cp_mountainlab","folder":"tf","game":"Team Fortress","app_id":440,"player_count":0,"max_players":24,"Bots":0,"server_type":"Dedicated","server_os":"Linux","password":true,"vac":true,"version":"7961495","steam_id":85568392924515219,"keywords":["cp","nocrits","nodmgspread","uncletopia"],"game_id":440,"stv_port":27036,"stv_name":"Uncletopia | Dallas | 3 | All Maps | STV","players":null},{"server_id":405,"name":"Uncletopia | Dallas | 4 | Community","name_short":"dal-4","host":"dal-1.us.uncletopia.com","port":27045,"enabled":true,"region":"us-central","cc":"us","latitude":32.779167,"longitude":-96.80889,"reserved":0,"last_update":"0001-01-01T00:00:00Z","name_a2s":"Uncletopia | Dallas | 4 | Community","protocol":17,"map":"workshop/pl_barnblitz_pro7.ugc582280235","folder":"tf","game":"Team Fortress","app_id":440,"player_count":0,"max_players":24,"Bots":0,"server_type":"Dedicated","server_os":"Linux","password":true,"vac":true,"version":"7961495","steam_id":85568392924515220,"keywords":["nocrits","nodmgspread","payload","uncletopia"],"game_id":440,"stv_port":27046,"stv_name":"Uncletopia | Dallas | 4 | Community | STV","players":null},{"server_id":5,"name":"Uncletopia | Frankfurt | 1 | All Maps","name_short":"frk-1","host":"frk-1.de.uncletopia.com","port":27015,"enabled":true,"region":"eu","cc":"de","latitude":50.110924,"longitude":8.682127,"reserved":0,"last_update":"0001-01-01T00:00:00Z","name_a2s":"Uncletopia | Frankfurt | 1 | All Maps","protocol":17,"map":"koth_highpass","folder":"tf","game":"Team Fortress","app_id":440,"player_count":0,"max_players":24,"Bots":0,"server_type":"Dedicated","server_os":"Linux","password":true,"vac":true,"version":"7961495","steam_id":85568392924469989,"keywords":["cp","nocrits","nodmgspread","uncletopia"],"game_id":440,"stv_port":27016,"stv_name":"Uncletopia | Frankfurt | 1 | All Maps | STV","players":null},{"server_id":110,"name":"Uncletopia | Frankfurt | 2 | All Maps","name_short":"frk-2","host":"frk-1.de.uncletopia.com","port":27025,"enabled":true,"region":"eu","cc":"de","latitude":50.110924,"longitude":8.682127,"reserved":0,"last_update":"0001-01-01T00:00:00Z","name_a2s":"Uncletopia | Frankfurt | 2 | All Maps","protocol":17,"map":"cp_coldfront","folder":"tf","game":"Team Fortress","app_id":440,"player_count":0,"max_players":24,"Bots":0,"server_type":"Dedicated","server_os":"Linux","password":true,"vac":true,"version":"7961495","steam_id":85568392924469990,"keywords":["cp","nocrits","nodmgspread","uncletopia"],"game_id":440,"stv_port":27026,"stv_name":"Uncletopia | Frankfurt | 2 | All Maps | STV","players":null},{"server_id":308,"name":"Uncletopia | Frankfurt | 3 | All Maps","name_short":"frk-3","host":"frk-1.de.uncletopia.com","port":27035,"enabled":true,"region":"eu","cc":"de","latitude":50.110924,"longitude":8.682127,"reserved":0,"last_update":"0001-01-01T00:00:00Z","name_a2s":"Uncletopia | Frankfurt | 3 | All Maps","protocol":17,"map":"plr_pipeline","folder":"tf","game":"Team Fortress","app_id":440,"player_count":0,"max_players":24,"Bots":0,"server_type":"Dedicated","server_os":"Linux","password":true,"vac":true,"version":"7961495","steam_id":85568392924504274,"keywords":["nocrits","nodmgspread","payload","uncletopia"],"game_id":440,"stv_port":27036,"stv_name":"Uncletopia | Frankfurt | 3 | All Maps | STV","players":null},{"server_id":309,"name":"Uncletopia | Frankfurt | 4 | All Maps","name_short":"frk-4","host":"frk-1.de.uncletopia.com","port":27045,"enabled":true,"region":"eu","cc":"de","latitude":50.110924,"longitude":8.682127,"reserved":0,"last_update":"0001-01-01T00:00:00Z","name_a2s":"Uncletopia | Frankfurt | 4 | All Maps","protocol":17,"map":"koth_lakeside_final","folder":"tf","game":"Team Fortress","app_id":440,"player_count":0,"max_players":24,"Bots":0,"server_type":"Dedicated","server_os":"Linux","password":true,"vac":true,"version":"7961495","steam_id":85568392924504275,"keywords":["cp","nocrits","nodmgspread","uncletopia"],"game_id":440,"stv_port":27046,"stv_name":"Uncletopia | Frankfurt | 4 | All Maps | STV","players":null},{"server_id":310,"name":"Uncletopia | Frankfurt | 5 | All Maps","name_short":"frk-5","host":"frk-1.de.uncletopia.com","port":27055,"enabled":true,"region":"eu","cc":"de","latitude":50.110924,"longitude":8.682127,"reserved":0,"last_update":"0001-01-01T00:00:00Z","name_a2s":"Uncletopia | Frankfurt | 5 | All Maps","protocol":17,"map":"pl_upward","folder":"tf","game":"Team Fortress","app_id":440,"player_count":21,"max_players":24,"Bots":0,"server_type":"Dedicated","server_os":"Linux","password":true,"vac":true,"version":"7961495","steam_id":85568392924504277,"keywords":["nocrits","nodmgspread","payload","uncletopia"],"game_id":440,"stv_port":27056,"stv_name":"Uncletopia | Frankfurt | 5 | All Maps | STV","players":[{"user_id":170,"name":"Christmas Ham","steam_id":76561198119601623,"connected_time":2683000000000,"state":"active","ping":60},{"user_id":171,"name":"DarkMelody","steam_id":76561198063225937,"connected_time":2282000000000,"state":"active","ping":126},{"user_id":147,"name":"‚òÖLily","steam_id":76561198014774371,"connected_time":5552000000000,"state":"active","ping":45},{"user_id":206,"name":"baronne","steam_id":76561198262910410,"connected_time":96000000000,"state":"active","ping":96},{"user_id":159,"name":"scrumtush","steam_id":76561198252226948,"connected_time":4308000000000,"state":"active","ping":62},{"user_id":207,"name":"pandeux","steam_id":76561198343527617,"connected_time":13000000000,"state":"active","ping":959},{"user_id":199,"name":"Saint","steam_id":76561198003296382,"connected_time":754000000000,"state":"active","ping":60},{"user_id":186,"name":"stegosaurus sex","steam_id":76561199120843402,"connected_time":1403000000000,"state":"active","ping":57},{"user_id":190,"name":"Zulik92","steam_id":76561198152442373,"connected_time":1116000000000,"state":"active","ping":55},{"user_id":195,"name":"mt","steam_id":76561197961319303,"connected_time":983000000000,"state":"active","ping":45},{"user_id":188,"name":"Micha≈Ç","steam_id":76561198320346362,"connected_time":1290000000000,"state":"active","ping":60},{"user_id":203,"name":"DoomGuy","steam_id":76561198303785233,"connected_time":308000000000,"state":"active","ping":105},{"user_id":111,"name":"Tiq9r","steam_id":76561198997501172,"connected_time":8834000000000,"state":"active","ping":82},{"user_id":193,"name":"Preksy","steam_id":76561199179193076,"connected_time":1026000000000,"state":"active","ping":63},{"user_id":204,"name":"–ë–ü–õ–Æ–°","steam_id":76561199427949758,"connected_time":270000000000,"state":"active","ping":120},{"user_id":182,"name":"0\u003e0","steam_id":76561198049741238,"connected_time":1677000000000,"state":"active","ping":90},{"user_id":145,"name":"MHE_HOPM","steam_id":76561199073846518,"connected_time":5679000000000,"state":"active","ping":61},{"user_id":194,"name":"Pico","steam_id":76561198063552545,"connected_time":1012000000000,"state":"active","ping":85},{"user_id":180,"name":"Enysmo","steam_id":76561198138038762,"connected_time":1777000000000,"state":"active","ping":120},{"user_id":183,"name":"SolidShade","steam_id":76561198219790681,"connected_time":1630000000000,"state":"active","ping":81},{"user_id":153,"name":"Nittugai","steam_id":76561198067366462,"connected_time":4757000000000,"state":"active","ping":59}]},{"server_id":311,"name":"Uncletopia | Frankfurt | 6 | All Maps","name_short":"frk-6","host":"frk-1.de.uncletopia.com","port":27065,"enabled":true,"region":"eu","cc":"de","latitude":50.110924,"longitude":8.682127,"reserved":0,"last_update":"0001-01-01T00:00:00Z","name_a2s":"Uncletopia | Frankfurt | 6 | All Maps","protocol":17,"map":"cp_steel","folder":"tf","game":"Team Fortress","app_id":440,"player_count":0,"max_players":24,"Bots":0,"server_type":"Dedicated","server_os":"Linux","password":true,"vac":true,"version":"7961495","steam_id":85568392924504278,"keywords":["cp","nocrits","nodmgspread","uncletopia"],"game_id":440,"stv_port":27066,"stv_name":"Uncletopia | Frankfurt | 6 | All Maps | STV","players":null},{"server_id":23,"name":"Uncletopia | Frankfurt | 7 | Stopwatch","name_short":"frk-7","host":"frk-1.de.uncletopia.com","port":27075,"enabled":true,"region":"eu","cc":"de","latitude":50.110924,"longitude":8.682127,"reserved":0,"last_update":"0001-01-01T00:00:00Z","name_a2s":"Uncletopia | Frankfurt | 7 | Stopwatch","protocol":17,"map":"workshop/cp_process_f12.ugc2302948105","folder":"tf","game":"Team Fortress","app_id":440,"player_count":0,"max_players":24,"Bots":0,"server_type":"Dedicated","server_os":"Linux","password":true,"vac":true,"version":"7961495","steam_id":85568392924742827,"keywords":["cp","nocrits","nodmgspread","uncletopia"],"game_id":440,"stv_port":27076,"stv_name":"Uncletopia | Frankfurt | 7 | Stopwatch | STV","players":null},{"server_id":24,"name":"Uncletopia | Frankfurt | 8 | Community","name_short":"frk-8","host":"frk-1.de.uncletopia.com","port":27085,"enabled":true,"region":"eu","cc":"de","latitude":50.110924,"longitude":8.682127,"reserved":0,"last_update":"0001-01-01T00:00:00Z","name_a2s":"Uncletopia | Frankfurt | 8 | Community","protocol":17,"map":"workshop/pl_stallberg_rc3.ugc1849111469","folder":"tf","game":"Team Fortress","app_id":440,"player_count":0,"max_players":24,"Bots":0,"server_type":"Dedicated","server_os":"Linux","password":true,"vac":true,"version":"7961495","steam_id":85568392924742828,"keywords":["nocrits","nodmgspread","payload","uncletopia"],"game_id":440,"stv_port":27086,"stv_name":"Uncletopia | Frankfurt | 8 | Community | STV","players":null},{"server_id":202,"name":"Uncletopia | Hong Kong | 1 | All Maps","name_short":"hgk-1","host":"hgk-1.hk.uncletopia.com","port":27015,"enabled":true,"region":"asia","cc":"hk","latitude":22.302711,"longitude":114.177216,"reserved":0,"last_update":"0001-01-01T00:00:00Z","name_a2s":"Uncletopia | Hong Kong | 1 | All Maps","protocol":17,"map":"pl_snowycoast","folder":"tf","game":"Team Fortress","app_id":440,"player_count":24,"max_players":24,"Bots":0,"server_type":"Dedicated","server_os":"Linux","password":true,"vac":true,"version":"7961495","steam_id":85568392924494504,"keywords":["nocrits","nodmgspread","payload","uncletopia"],"game_id":440,"stv_port":27016,"stv_name":"Uncletopia | Hong Kong | 1 | All Maps | STV","players":[{"user_id":87,"name":"Corbezy","steam_id":76561197993398349,"connected_time":2603000000000,"state":"active","ping":94},{"user_id":89,"name":"MongGoyo63","steam_id":76561198349540834,"connected_time":2106000000000,"state":"active","ping":90},{"user_id":109,"name":"sett.","steam_id":76561199010718657,"connected_time":770000000000,"state":"active","ping":75},{"user_id":91,"name":"2746","steam_id":76561199390507975,"connected_time":2059000000000,"state":"active","ping":44},{"user_id":110,"name":"yuko","steam_id":76561198181866314,"connected_time":770000000000,"state":"active","ping":55},{"user_id":115,"name":"Mystery cheese üßÄ","steam_id":76561198304002409,"connected_time":100000000000,"state":"active","ping":81},{"user_id":102,"name":"nyakky","steam_id":76561198927779787,"connected_time":1498000000000,"state":"active","ping":92},{"user_id":95,"name":"Borneo employee","steam_id":76561199137927625,"connected_time":1565000000000,"state":"active","ping":93},{"user_id":45,"name":"toad‚ô°","steam_id":76561198082199290,"connected_time":6936000000000,"state":"active","ping":41},{"user_id":90,"name":"Haru","steam_id":76561198240627872,"connected_time":2106000000000,"state":"active","ping":51},{"user_id":101,"name":"DirtyDan","steam_id":76561198364890290,"connected_time":1513000000000,"state":"active","ping":69},{"user_id":114,"name":"Guus Frang","steam_id":76561198033562613,"connected_time":132000000000,"state":"active","ping":101},{"user_id":67,"name":"qingque","steam_id":76561198230213828,"connected_time":5256000000000,"state":"active","ping":64},{"user_id":106,"name":"XBOX","steam_id":76561198408850699,"connected_time":1477000000000,"state":"active","ping":48},{"user_id":49,"name":"CELTICS LOST LETSGOOOO","steam_id":76561199219484527,"connected_time":6588000000000,"state":"active","ping":112},{"user_id":108,"name":"Lelouch","steam_id":76561198828840546,"connected_time":873000000000,"state":"active","ping":78},{"user_id":86,"name":"Drutzhfer","steam_id":76561198299948446,"connected_time":2685000000000,"state":"active","ping":104},{"user_id":112,"name":"RyanEscobar","steam_id":76561199165279360,"connected_time":144000000000,"state":"active","ping":77},{"user_id":54,"name":"v1.","steam_id":76561198037571054,"connected_time":6305000000000,"state":"active","ping":42},{"user_id":113,"name":"Telekhine","steam_id":76561198387120618,"connected_time":136000000000,"state":"active","ping":63},{"user_id":58,"name":"BABYMETAL","steam_id":76561198113401862,"connected_time":6142000000000,"state":"active","ping":96},{"user_id":116,"name":"Arukas","steam_id":76561198095278714,"connected_time":96000000000,"state":"active","ping":39},{"user_id":83,"name":"Under The Bridge","steam_id":76561198093184384,"connected_time":3626000000000,"state":"active","ping":86},{"user_id":84,"name":"BURN PYGMALION!!!","steam_id":76561198074339034,"connected_time":3626000000000,"state":"active","ping":76}]},{"server_id":1,"name":"Uncletopia | Los Angeles | 1 | All Maps","name_short":"lax-1","host":"lax-1.us.uncletopia.com","port":27015,"enabled":true,"region":"us-west","cc":"us","latitude":33.94279,"longitude":-118.41004,"reserved":0,"last_update":"0001-01-01T00:00:00Z","name_a2s":"Uncletopia | Los Angeles | 1 | All Maps","protocol":17,"map":"pl_frontier_final","folder":"tf","game":"Team Fortress","app_id":440,"player_count":0,"max_players":24,"Bots":0,"server_type":"Dedicated","server_os":"Linux","password":true,"vac":true,"version":"7961495","steam_id":85568392924469991,"keywords":["nocrits","nodmgspread","payload","uncletopia"],"game_id":440,"stv_port":27016,"stv_name":"Uncletopia | Los Angeles | 1 | All Maps | STV","players":null},{"server_id":112,"name":"Uncletopia | Los Angeles | 2 | All Maps","name_short":"lax-2","host":"lax-1.us.uncletopia.com","port":27025,"enabled":true,"region":"us-west","cc":"us","latitude":33.94279,"longitude":-118.41004,"reserved":0,"last_update":"0001-01-01T00:00:00Z","name_a2s":"Uncletopia | Los Angeles | 2 | All Maps","protocol":17,"map":"pl_snowycoast","folder":"tf","game":"Team Fortress","app_id":440,"player_count":24,"max_players":24,"Bots":0,"server_type":"Dedicated","server_os":"Linux","password":true,"vac":true,"version":"7961495","steam_id":85568392924469992,"keywords":["nocrits","nodmgspread","payload","uncletopia"],"game_id":440,"stv_port":27026,"stv_name":"Uncletopia | Los Angeles | 2 | All Maps | STV","players":[{"user_id":554,"name":"Jacky","steam_id":76561198097043127,"connected_time":5841000000000,"state":"active","ping":57},{"user_id":608,"name":"weedexperiment","steam_id":76561198083975056,"connected_time":2625000000000,"state":"active","ping":117},{"user_id":616,"name":"i need u","steam_id":76561198030625151,"connected_time":812000000000,"state":"active","ping":45},{"user_id":620,"name":"Junfez","steam_id":76561198340001889,"connected_time":715000000000,"state":"active","ping":111},{"user_id":571,"name":"Byan","steam_id":76561198319090131,"connected_time":4628000000000,"state":"active","ping":74},{"user_id":501,"name":"jacket","steam_id":76561199494406383,"connected_time":9391000000000,"state":"active","ping":50},{"user_id":590,"name":"Mystic man of potatoe","steam_id":76561198027267207,"connected_time":3544000000000,"state":"active","ping":56},{"user_id":617,"name":"Gwue","steam_id":76561198301867054,"connected_time":758000000000,"state":"active","ping":52},{"user_id":612,"name":"the pizza","steam_id":76561198221331476,"connected_time":2183000000000,"state":"active","ping":54},{"user_id":623,"name":"derpywoman5000","steam_id":76561198049258493,"connected_time":671000000000,"state":"active","ping":93},{"user_id":601,"name":"shitass | yall arent real","steam_id":76561198210572481,"connected_time":2927000000000,"state":"active","ping":45},{"user_id":594,"name":"Killerofzombie23","steam_id":76561198799173778,"connected_time":3504000000000,"state":"active","ping":76},{"user_id":600,"name":"MASHUP KREEPS !!!","steam_id":76561198114269880,"connected_time":2945000000000,"state":"active","ping":59},{"user_id":615,"name":"Seanvich","steam_id":76561198065805500,"connected_time":1275000000000,"state":"active","ping":119},{"user_id":602,"name":"90mg ketamine in my balls","steam_id":76561198067176829,"connected_time":2889000000000,"state":"active","ping":48},{"user_id":583,"name":"level 7 firemancer","steam_id":76561198209571677,"connected_time":3948000000000,"state":"active","ping":106},{"user_id":619,"name":"MORE BOUNCE TO THE OUNCE","steam_id":76561198243399336,"connected_time":743000000000,"state":"active","ping":72},{"user_id":564,"name":"Lickity Split","steam_id":76561198132051047,"connected_time":4831000000000,"state":"active","ping":75},{"user_id":621,"name":"Sterling Nano","steam_id":76561198048580088,"connected_time":701000000000,"state":"active","ping":104},{"user_id":622,"name":"Drakon","steam_id":76561198078210822,"connected_time":695000000000,"state":"active","ping":62},{"user_id":625,"name":"cicero","steam_id":76561198174799574,"connected_time":491000000000,"state":"active","ping":63},{"user_id":539,"name":"gallowdance","steam_id":76561198154719104,"connected_time":7078000000000,"state":"active","ping":75},{"user_id":610,"name":"tildaheart","steam_id":76561198815644949,"connected_time":2615000000000,"state":"active","ping":87},{"user_id":614,"name":"Schnitz","steam_id":76561198265484253,"connected_time":1398000000000,"state":"active","ping":60}]},{"server_id":324,"name":"Uncletopia | Los Angeles | 3 | All Maps","name_short":"lax-3","host":"lax-1.us.uncletopia.com","port":27035,"enabled":true,"region":"us-west","cc":"us","latitude":33.94279,"longitude":-118.41004,"reserved":0,"last_update":"0001-01-01T00:00:00Z","name_a2s":"Uncletopia | Los Angeles | 3 | All Maps","protocol":17,"map":"cp_gorge","folder":"tf","game":"Team Fortress","app_id":440,"player_count":0,"max_players":24,"Bots":0,"server_type":"Dedicated","server_os":"Linux","password":true,"vac":true,"version":"7961495","steam_id":85568392924510198,"keywords":["cp","nocrits","nodmgspread","uncletopia"],"game_id":440,"stv_port":27036,"stv_name":"Uncletopia | Los Angeles | 3 | All Maps | STV","players":null},{"server_id":25,"name":"Uncletopia | Los Angeles | 4 | Stopwatch","name_short":"lax-4","host":"lax-1.us.uncletopia.com","port":27045,"enabled":true,"region":"us-west","cc":"us","latitude":33.94279,"longitude":-118.41004,"reserved":0,"last_update":"0001-01-01T00:00:00Z","name_a2s":"Uncletopia | Los Angeles | 4 | Stopwatch","protocol":17,"map":"workshop/koth_ashville_final.ugc2130459942","folder":"tf","game":"Team Fortress","app_id":440,"player_count":0,"max_players":24,"Bots":0,"server_type":"Dedicated","server_os":"Linux","password":true,"vac":true,"version":"7961495","steam_id":85568392924510199,"keywords":["cp","nocrits","nodmgspread","uncletopia"],"game_id":440,"stv_port":27046,"stv_name":"Uncletopia | Los Angeles | 4 | Stopwatch | STV","players":null},{"server_id":11,"name":"Uncletopia | London | 1 | All Maps","name_short":"lon-1","host":"lon-1.uk.uncletopia.com","port":27015,"enabled":true,"region":"eu","cc":"gb","latitude":51.509865,"longitude":-0.118092,"reserved":0,"last_update":"0001-01-01T00:00:00Z","name_a2s":"Uncletopia | London | 1 | All Maps","protocol":17,"map":"pl_snowycoast","folder":"tf","game":"Team Fortress","app_id":440,"player_count":22,"max_players":24,"Bots":0,"server_type":"Dedicated","server_os":"Linux","password":true,"vac":true,"version":"7961495","steam_id":85568392924367362,"keywords":["nocrits","nodmgspread","payload","uncletopia"],"game_id":440,"stv_port":27016,"stv_name":"Uncletopia | London | 1 | All Maps | STV","players":[{"user_id":60,"name":"korupt","steam_id":76561198022738512,"connected_time":675000000000,"state":"active","ping":47},{"user_id":49,"name":"Headhunter","steam_id":76561198094427417,"connected_time":1641000000000,"state":"active","ping":61},{"user_id":63,"name":"row666","steam_id":76561198141459966,"connected_time":553000000000,"state":"active","ping":69},{"user_id":59,"name":"The worst TF2 player(Real)","steam_id":76561199184873889,"connected_time":678000000000,"state":"active","ping":64},{"user_id":58,"name":"–∫—Å—é—à–∞","steam_id":76561199149307190,"connected_time":682000000000,"state":"active","ping":80},{"user_id":36,"name":"aukmenfaru","steam_id":76561198277858041,"connected_time":2432000000000,"state":"active","ping":100},{"user_id":56,"name":"Crazy Bell","steam_id":76561198031226933,"connected_time":856000000000,"state":"active","ping":56},{"user_id":47,"name":"Michael","steam_id":76561198003146906,"connected_time":2078000000000,"state":"active","ping":46},{"user_id":69,"name":"Rad","steam_id":76561199001560866,"connected_time":94000000000,"state":"active","ping":71},{"user_id":61,"name":"The Cool Ice Guy","steam_id":76561198146194820,"connected_time":657000000000,"state":"active","ping":46},{"user_id":62,"name":"RandomName","steam_id":76561198055552108,"connected_time":655000000000,"state":"active","ping":62},{"user_id":45,"name":"0","steam_id":76561199293036742,"connected_time":2089000000000,"state":"active","ping":59},{"user_id":51,"name":"Vix The Vulpix","steam_id":76561198292181452,"connected_time":1426000000000,"state":"active","ping":149},{"user_id":70,"name":"milo","steam_id":76561198119016918,"connected_time":37000000000,"state":"spawning","ping":63},{"user_id":57,"name":"Dolcelatte","steam_id":76561198038501770,"connected_time":780000000000,"state":"active","ping":60},{"user_id":39,"name":"Cencut","steam_id":76561198989449047,"connected_time":2325000000000,"state":"active","ping":132},{"user_id":55,"name":"iq drops","steam_id":76561198035795130,"connected_time":945000000000,"state":"active","ping":63},{"user_id":28,"name":"„ÉÑFreddY„ÉÑ","steam_id":76561198018780925,"connected_time":2821000000000,"state":"active","ping":75},{"user_id":29,"name":"Nightmenia","steam_id":76561198010430569,"connected_time":2739000000000,"state":"active","ping":50},{"user_id":30,"name":"silicon based life form","steam_id":76561199127121346,"connected_time":2707000000000,"state":"active","ping":49},{"user_id":32,"name":"peyniz","steam_id":76561198044189114,"connected_time":2651000000000,"state":"active","ping":67},{"user_id":67,"name":"DigitalZero","steam_id":76561198136124809,"connected_time":308000000000,"state":"active","ping":74}]},{"server_id":114,"name":"Uncletopia | London | 2 | All Maps","name_short":"lon-2","host":"lon-1.uk.uncletopia.com","port":27025,"enabled":true,"region":"eu","cc":"gb","latitude":51.509865,"longitude":-0.118092,"reserved":0,"last_update":"0001-01-01T00:00:00Z","name_a2s":"Uncletopia | London | 2 | All Maps","protocol":17,"map":"cp_mountainlab","folder":"tf","game":"Team Fortress","app_id":440,"player_count":0,"max_players":24,"Bots":0,"server_type":"Dedicated","server_os":"Linux","password":true,"vac":true,"version":"7961495","steam_id":85568392924470941,"keywords":["cp","nocrits","nodmgspread","uncletopia"],"game_id":440,"stv_port":27026,"stv_name":"Uncletopia | London | 2 | All Maps | STV","players":null},{"server_id":320,"name":"Uncletopia | London | 3 | All Maps","name_short":"lon-3","host":"lon-1.uk.uncletopia.com","port":27035,"enabled":true,"region":"eu","cc":"gb","latitude":51.509865,"longitude":-0.118092,"reserved":0,"last_update":"0001-01-01T00:00:00Z","name_a2s":"Uncletopia | London | 3 | All Maps","protocol":17,"map":"cp_mountainlab","folder":"tf","game":"Team Fortress","app_id":440,"player_count":0,"max_players":24,"Bots":0,"server_type":"Dedicated","server_os":"Linux","password":true,"vac":true,"version":"7961495","steam_id":85568392924510192,"keywords":["cp","nocrits","nodmgspread","uncletopia"],"game_id":440,"stv_port":27036,"stv_name":"Uncletopia | London | 3 | All Maps | STV","players":null},{"server_id":321,"name":"Uncletopia | London | 4 | All Maps","name_short":"lon-4","host":"lon-1.uk.uncletopia.com","port":27045,"enabled":true,"region":"eu","cc":"gb","latitude":51.509865,"longitude":-0.118092,"reserved":0,"last_update":"0001-01-01T00:00:00Z","name_a2s":"Uncletopia | London | 4 | All Maps","protocol":17,"map":"pl_borneo","folder":"tf","game":"Team Fortress","app_id":440,"player_count":0,"max_players":24,"Bots":0,"server_type":"Dedicated","server_os":"Linux","password":true,"vac":true,"version":"7961495","steam_id":85568392924510193,"keywords":["nocrits","nodmgspread","payload","uncletopia"],"game_id":440,"stv_port":27046,"stv_name":"Uncletopia | London | 4 | All Maps | STV","players":null},{"server_id":21,"name":"Uncletopia | London | 5 | All Maps","name_short":"lon-5","host":"lon-1.uk.uncletopia.com","port":27055,"enabled":true,"region":"eu","cc":"gb","latitude":51.509865,"longitude":-0.118092,"reserved":0,"last_update":"0001-01-01T00:00:00Z","name_a2s":"Uncletopia | London | 5 | All Maps","protocol":17,"map":"koth_viaduct","folder":"tf","game":"Team Fortress","app_id":440,"player_count":0,"max_players":24,"Bots":0,"server_type":"Dedicated","server_os":"Linux","password":true,"vac":true,"version":"7961495","steam_id":85568392924742829,"keywords":["cp","nocrits","nodmgspread","uncletopia"],"game_id":440,"stv_port":27056,"stv_name":"Uncletopia | London | 5 | All Maps | STV","players":null},{"server_id":22,"name":"Uncletopia | London | 6 | All Maps","name_short":"lon-6","host":"lon-1.uk.uncletopia.com","port":27065,"enabled":true,"region":"eu","cc":"gb","latitude":51.509865,"longitude":-0.118092,"reserved":0,"last_update":"0001-01-01T00:00:00Z","name_a2s":"Uncletopia | London | 6 | All Maps","protocol":17,"map":"pl_frontier_final","folder":"tf","game":"Team Fortress","app_id":440,"player_count":0,"max_players":24,"Bots":0,"server_type":"Dedicated","server_os":"Linux","password":true,"vac":true,"version":"7961495","steam_id":85568392924742830,"keywords":["nocrits","nodmgspread","payload","uncletopia"],"game_id":440,"stv_port":27066,"stv_name":"Uncletopia | London | 6 | All Maps | STV","players":null},{"server_id":40,"name":"Uncletopia | London | 7 | Stopwatch","name_short":"lon-7","host":"lon-1.uk.uncletopia.com","port":27075,"enabled":true,"region":"eu","cc":"gb","latitude":51.509865,"longitude":-0.118092,"reserved":0,"last_update":"0001-01-01T00:00:00Z","name_a2s":"Uncletopia | London | 7 | Stopwatch","protocol":17,"map":"pl_swiftwater_final1","folder":"tf","game":"Team Fortress","app_id":440,"player_count":0,"max_players":24,"Bots":0,"server_type":"Dedicated","server_os":"Linux","password":true,"vac":true,"version":"7961495","steam_id":85568392924964314,"keywords":["nocrits","nodmgspread","payload","uncletopia"],"game_id":440,"stv_port":27076,"stv_name":"Uncletopia | London | 7 | Stopwatch | STV","players":null},{"server_id":41,"name":"Uncletopia | London | 8 | Community","name_short":"lon-8","host":"lon-1.uk.uncletopia.com","port":27085,"enabled":true,"region":"eu","cc":"gb","latitude":51.509865,"longitude":-0.118092,"reserved":0,"last_update":"0001-01-01T00:00:00Z","name_a2s":"Uncletopia | London | 8 | Community","protocol":17,"map":"workshop/cp_propaganda_b18.ugc1603743849","folder":"tf","game":"Team Fortress","app_id":440,"player_count":0,"max_players":24,"Bots":0,"server_type":"Dedicated","server_os":"Linux","password":true,"vac":true,"version":"7961495","steam_id":85568392924964315,"keywords":["cp","nocrits","nodmgspread","uncletopia"],"game_id":440,"stv_port":27086,"stv_name":"Uncletopia | London | 8 | Community | STV","players":null},{"server_id":300,"name":"Uncletopia | Montr√©al | 1 | One Thousand Uncles","name_short":"mtl-1","host":"mtl-1.ca.uncletopia.com","port":27015,"enabled":true,"region":"us-east","cc":"ca","latitude":45.50889,"longitude":-73.56167,"reserved":0,"last_update":"0001-01-01T00:00:00Z","name_a2s":"Uncletopia | Montr√©al | 1 | One Thousand Uncles","protocol":17,"map":"pl_thundermountain","folder":"tf","game":"Team Fortress","app_id":440,"player_count":0,"max_players":32,"Bots":0,"server_type":"Dedicated","server_os":"Linux","password":true,"vac":true,"version":"7961495","steam_id":85568392924500087,"keywords":["alltalk","danepve","increased_maxplayers","norespawntime","payload","uncletopia"],"game_id":440,"stv_port":0,"stv_name":"","players":null},{"server_id":301,"name":"Uncletopia | Montr√©al | 2 | One Thousand Uncles","name_short":"mtl-2","host":"mtl-1.ca.uncletopia.com","port":27025,"enabled":true,"region":"us-east","cc":"ca","latitude":45.50889,"longitude":-73.56167,"reserved":0,"last_update":"0001-01-01T00:00:00Z","name_a2s":"Uncletopia | Montr√©al | 2 | One Thousand Uncles","protocol":17,"map":"cp_dustbowl","folder":"tf","game":"Team Fortress","app_id":440,"player_count":0,"max_players":32,"Bots":0,"server_type":"Dedicated","server_os":"Linux","password":true,"vac":true,"version":"7961495","steam_id":85568392924500088,"keywords":["alltalk","cp","danepve","increased_maxplayers","norespawntime","uncletopia"],"game_id":440,"stv_port":0,"stv_name":"","players":null},{"server_id":302,"name":"Uncletopia | Montr√©al | 3 | One Thousand Uncles","name_short":"mtl-3","host":"mtl-1.ca.uncletopia.com","port":27035,"enabled":true,"region":"us-east","cc":"ca","latitude":45.50889,"longitude":-73.56167,"reserved":0,"last_update":"0001-01-01T00:00:00Z","name_a2s":"Uncletopia | Montr√©al | 3 | One Thousand Uncles","protocol":17,"map":"pl_swiftwater_final1","folder":"tf","game":"Team Fortress","app_id":440,"player_count":0,"max_players":32,"Bots":0,"server_type":"Dedicated","server_os":"Linux","password":true,"vac":true,"version":"7961495","steam_id":85568392924500089,"keywords":["alltalk","danepve","increased_maxplayers","norespawntime","payload","uncletopia"],"game_id":440,"stv_port":0,"stv_name":"","players":null},{"server_id":13,"name":"Uncletopia | New York City | 1 | All Maps","name_short":"nyc-1","host":"nyc-1.us.uncletopia.com","port":27015,"enabled":true,"region":"us-east","cc":"us","latitude":40.73061,"longitude":-73.93524,"reserved":0,"last_update":"0001-01-01T00:00:00Z","name_a2s":"Uncletopia | New York City | 1 | All Maps","protocol":17,"map":"koth_cascade","folder":"tf","game":"Team Fortress","app_id":440,"player_count":0,"max_players":24,"Bots":0,"server_type":"Dedicated","server_os":"Linux","password":true,"vac":true,"version":"7961495","steam_id":85568392924469993,"keywords":["cp","nocrits","nodmgspread","uncletopia"],"game_id":440,"stv_port":27016,"stv_name":"Uncletopia | New York City | 1 | All Maps | STV","players":null},{"server_id":14,"name":"Uncletopia | New York City | 2 | All Maps","name_short":"nyc-2","host":"nyc-1.us.uncletopia.com","port":27025,"enabled":true,"region":"us-east","cc":"us","latitude":40.73061,"longitude":-73.93524,"reserved":0,"last_update":"0001-01-01T00:00:00Z","name_a2s":"Uncletopia | New York City | 2 | All Maps","protocol":17,"map":"koth_viaduct","folder":"tf","game":"Team Fortress","app_id":440,"player_count":0,"max_players":24,"Bots":0,"server_type":"Dedicated","server_os":"Linux","password":true,"vac":true,"version":"7961495","steam_id":85568392924469994,"keywords":["cp","nocrits","nodmgspread","uncletopia"],"game_id":440,"stv_port":27026,"stv_name":"Uncletopia | New York City | 2 | All Maps | STV","players":null},{"server_id":15,"name":"Uncletopia | New York City | 3 | Stopwatch","name_short":"nyc-3","host":"nyc-1.us.uncletopia.com","port":27035,"enabled":true,"region":"us-east","cc":"us","latitude":40.73061,"longitude":-73.93524,"reserved":0,"last_update":"0001-01-01T00:00:00Z","name_a2s":"Uncletopia | New York City | 3 | Stopwatch","protocol":17,"map":"workshop/pl_vigil_rc10.ugc1266210012","folder":"tf","game":"Team Fortress","app_id":440,"player_count":0,"max_players":24,"Bots":0,"server_type":"Dedicated","server_os":"Linux","password":true,"vac":true,"version":"7961495","steam_id":85568392924742820,"keywords":["nocrits","nodmgspread","payload","uncletopia"],"game_id":440,"stv_port":27036,"stv_name":"Uncletopia | New York City | 3 | Stopwatch | STV","players":null},{"server_id":16,"name":"Uncletopia | New York City | 4 | Community","name_short":"nyc-4","host":"nyc-1.us.uncletopia.com","port":27045,"enabled":true,"region":"us-east","cc":"us","latitude":40.73061,"longitude":-73.93524,"reserved":0,"last_update":"0001-01-01T00:00:00Z","name_a2s":"Uncletopia | New York City | 4 | Community","protocol":17,"map":"workshop/cp_brew_b4.ugc2962755338","folder":"tf","game":"Team Fortress","app_id":440,"player_count":0,"max_players":24,"Bots":0,"server_type":"Dedicated","server_os":"Linux","password":true,"vac":true,"version":"7961495","steam_id":85568392924742821,"keywords":["cp","nocrits","nodmgspread","uncletopia"],"game_id":440,"stv_port":27046,"stv_name":"Uncletopia | New York City | 4 | Community | STV","players":null},{"server_id":142,"name":"Uncletopia | S√£o Paulo | 1 | All Maps","name_short":"sao-1","host":"sao-1.br.uncletopia.com","port":27015,"enabled":true,"region":"sa","cc":"br","latitude":-23.533773,"longitude":-46.62529,"reserved":0,"last_update":"0001-01-01T00:00:00Z","name_a2s":"Uncletopia | S√£o Paulo | 1 | All Maps","protocol":17,"map":"koth_lakeside_final","folder":"tf","game":"Team Fortress","app_id":440,"player_count":0,"max_players":24,"Bots":0,"server_type":"Dedicated","server_os":"Linux","password":true,"vac":true,"version":"7961495","steam_id":85568392924469996,"keywords":["cp","nocrits","nodmgspread","uncletopia"],"game_id":440,"stv_port":27016,"stv_name":"Uncletopia | S√£o Paulo | 1 | All Maps | STV","players":null},{"server_id":143,"name":"Uncletopia | S√£o Paulo | 2 | Community","name_short":"sao-2","host":"sao-2.br.uncletopia.com","port":27015,"enabled":true,"region":"sa","cc":"br","latitude":-23.533773,"longitude":-46.62529,"reserved":0,"last_update":"0001-01-01T00:00:00Z","name_a2s":"Uncletopia | S√£o Paulo | 2 | Community","protocol":17,"map":"workshop/koth_slaughter_rc1.ugc1712845210","folder":"tf","game":"Team Fortress","app_id":440,"player_count":0,"max_players":24,"Bots":0,"server_type":"Dedicated","server_os":"Linux","password":true,"vac":true,"version":"7961495","steam_id":85568392924485349,"keywords":["cp","nocrits","nodmgspread","uncletopia"],"game_id":440,"stv_port":27016,"stv_name":"Uncletopia | S√£o Paulo | 2 | Community | STV","players":null},{"server_id":7,"name":"Uncletopia | Seattle | 1 | All Maps","name_short":"sea-1","host":"sea-1.us.uncletopia.com","port":27015,"enabled":true,"region":"us-west","cc":"us","latitude":47.608013,"longitude":-122.33517,"reserved":0,"last_update":"0001-01-01T00:00:00Z","name_a2s":"Uncletopia | Seattle | 1 | All Maps","protocol":17,"map":"pl_barnblitz","folder":"tf","game":"Team Fortress","app_id":440,"player_count":24,"max_players":24,"Bots":0,"server_type":"Dedicated","server_os":"Linux","password":true,"vac":true,"version":"7961495","steam_id":85568392924469997,"keywords":["nocrits","nodmgspread","payload","uncletopia"],"game_id":440,"stv_port":27016,"stv_name":"Uncletopia | Seattle | 1 | All Maps | STV","players":[{"user_id":774,"name":"[TrC] Dackstrus","steam_id":76561197973518509,"connected_time":385000000000,"state":"active","ping":60},{"user_id":516,"name":"Level 99 Mudcrab","steam_id":76561198077452771,"connected_time":17195000000000,"state":"active","ping":65},{"user_id":712,"name":"[TrC] Nosy","steam_id":76561197978859310,"connected_time":4879000000000,"state":"active","ping":55},{"user_id":759,"name":"paws :3","steam_id":76561199371694361,"connected_time":1428000000000,"state":"active","ping":78},{"user_id":735,"name":"Flagellant","steam_id":76561198152149679,"connected_time":2940000000000,"state":"active","ping":32},{"user_id":750,"name":"Petrivus","steam_id":76561198202152453,"connected_time":2155000000000,"state":"active","ping":53},{"user_id":764,"name":"Toad","steam_id":76561198304137354,"connected_time":761000000000,"state":"active","ping":88},{"user_id":772,"name":"seahomebear","steam_id":76561198136548349,"connected_time":570000000000,"state":"active","ping":93},{"user_id":763,"name":"DrScotthew","steam_id":76561198250558482,"connected_time":984000000000,"state":"active","ping":129},{"user_id":745,"name":"silly goose","steam_id":76561198844648825,"connected_time":2471000000000,"state":"active","ping":69},{"user_id":740,"name":"wugmup","steam_id":76561199096287734,"connected_time":2629000000000,"state":"active","ping":92},{"user_id":769,"name":"ena - d","steam_id":76561198072329335,"connected_time":626000000000,"state":"active","ping":144},{"user_id":762,"name":"Strawberry Milk :3","steam_id":76561198401725755,"connected_time":1116000000000,"state":"active","ping":105},{"user_id":761,"name":"Dragon Mommy from Caelid","steam_id":76561198338424715,"connected_time":1122000000000,"state":"active","ping":55},{"user_id":775,"name":"Aero","steam_id":76561198856462128,"connected_time":348000000000,"state":"active","ping":84},{"user_id":768,"name":"TOASTER IN A RAIN COAT","steam_id":76561199090392905,"connected_time":629000000000,"state":"active","ping":95},{"user_id":767,"name":"Abraham Tank","steam_id":76561199029201184,"connected_time":631000000000,"state":"active","ping":65},{"user_id":770,"name":"hewwo im fwom cowumbia!! :3c","steam_id":76561199433913176,"connected_time":622000000000,"state":"active","ping":88},{"user_id":776,"name":"The Caretaker","steam_id":76561198125241411,"connected_time":280000000000,"state":"active","ping":127},{"user_id":716,"name":"The Foolish Samurai","steam_id":76561198094494945,"connected_time":4665000000000,"state":"active","ping":104},{"user_id":773,"name":"Meowdy","steam_id":76561198858189009,"connected_time":524000000000,"state":"active","ping":135},{"user_id":778,"name":"Themlgplant","steam_id":76561199446887943,"connected_time":7000000000,"state":"spawning","ping":255},{"user_id":777,"name":"r0biN","steam_id":76561198097861434,"connected_time":254000000000,"state":"active","ping":91},{"user_id":760,"name":"eminixx!","steam_id":76561198962857708,"connected_time":1272000000000,"state":"active","ping":123}]},{"server_id":119,"name":"Uncletopia | Seattle | 2 | All Maps","name_short":"sea-2","host":"sea-1.us.uncletopia.com","port":27025,"enabled":true,"region":"us-west","cc":"us","latitude":47.608013,"longitude":-122.33517,"reserved":0,"last_update":"0001-01-01T00:00:00Z","name_a2s":"Uncletopia | Seattle | 2 | All Maps","protocol":17,"map":"cp_gorge","folder":"tf","game":"Team Fortress","app_id":440,"player_count":0,"max_players":24,"Bots":0,"server_type":"Dedicated","server_os":"Linux","password":true,"vac":true,"version":"7961495","steam_id":85568392924469998,"keywords":["cp","nocrits","nodmgspread","uncletopia"],"game_id":440,"stv_port":27026,"stv_name":"Uncletopia | Seattle | 2 | All Maps | STV","players":null},{"server_id":406,"name":"Uncletopia | Seattle | 3 | Stopwatch","name_short":"sea-3","host":"sea-1.us.uncletopia.com","port":27035,"enabled":true,"region":"us-west","cc":"us","latitude":47.608013,"longitude":-122.33517,"reserved":0,"last_update":"0001-01-01T00:00:00Z","name_a2s":"Uncletopia | Seattle | 3 | Stopwatch","protocol":17,"map":"workshop/koth_jamram_rc1a.ugc2964065613","folder":"tf","game":"Team Fortress","app_id":440,"player_count":0,"max_players":24,"Bots":0,"server_type":"Dedicated","server_os":"Linux","password":true,"vac":true,"version":"7961495","steam_id":85568392924515217,"keywords":["cp","nocrits","nodmgspread","uncletopia"],"game_id":440,"stv_port":27036,"stv_name":"Uncletopia | Seattle | 3 | Stopwatch | STV","players":null},{"server_id":17,"name":"Uncletopia | San Francisco | 1 | All Maps","name_short":"sfo-1","host":"sfo-1.us.uncletopia.com","port":27015,"enabled":true,"region":"us-west","cc":"us","latitude":37.77397,"longitude":-122.4313,"reserved":0,"last_update":"0001-01-01T00:00:00Z","name_a2s":"Uncletopia | San Francisco | 1 | All Maps","protocol":17,"map":"koth_cascade","folder":"tf","game":"Team Fortress","app_id":440,"player_count":0,"max_players":24,"Bots":0,"server_type":"Dedicated","server_os":"Linux","password":true,"vac":true,"version":"7961495","steam_id":85568392924469999,"keywords":["cp","nocrits","nodmgspread","uncletopia"],"game_id":440,"stv_port":27016,"stv_name":"Uncletopia | San Francisco | 1 | All Maps | STV","players":null},{"server_id":18,"name":"Uncletopia | San Francisco | 2 | All Maps","name_short":"sfo-2","host":"sfo-1.us.uncletopia.com","port":27025,"enabled":true,"region":"us-west","cc":"us","latitude":37.77397,"longitude":-122.4313,"reserved":0,"last_update":"0001-01-01T00:00:00Z","name_a2s":"Uncletopia | San Francisco | 2 | All Maps","protocol":17,"map":"pl_snowycoast","folder":"tf","game":"Team Fortress","app_id":440,"player_count":0,"max_players":24,"Bots":0,"server_type":"Dedicated","server_os":"Linux","password":true,"vac":true,"version":"7961495","steam_id":85568392924470000,"keywords":["nocrits","nodmgspread","payload","uncletopia"],"game_id":440,"stv_port":27026,"stv_name":"Uncletopia | San Francisco | 2 | All Maps | STV","players":null},{"server_id":19,"name":"Uncletopia | San Francisco | 3 | Stopwatch","name_short":"sfo-3","host":"sfo-1.us.uncletopia.com","port":27035,"enabled":true,"region":"us-west","cc":"us","latitude":37.77397,"longitude":-122.4313,"reserved":0,"last_update":"0001-01-01T00:00:00Z","name_a2s":"Uncletopia | San Francisco | 3 | Stopwatch","protocol":17,"map":"workshop/cp_reckoner_rc6.ugc674719999","folder":"tf","game":"Team Fortress","app_id":440,"player_count":0,"max_players":24,"Bots":0,"server_type":"Dedicated","server_os":"Linux","password":true,"vac":true,"version":"7961495","steam_id":85568392924742824,"keywords":["cp","nocrits","nodmgspread","uncletopia"],"game_id":440,"stv_port":27036,"stv_name":"Uncletopia | San Francisco | 3 | Stopwatch | STV","players":null},{"server_id":20,"name":"Uncletopia | San Francisco | 4 | Community","name_short":"sfo-4","host":"sfo-1.us.uncletopia.com","port":27045,"enabled":true,"region":"us-west","cc":"us","latitude":37.77397,"longitude":-122.4313,"reserved":0,"last_update":"0001-01-01T00:00:00Z","name_a2s":"Uncletopia | San Francisco | 4 | Community","protocol":17,"map":"workshop/koth_trenchfoot_ab1.ugc731436616","folder":"tf","game":"Team Fortress","app_id":440,"player_count":0,"max_players":24,"Bots":0,"server_type":"Dedicated","server_os":"Linux","password":true,"vac":true,"version":"7961495","steam_id":85568392924742826,"keywords":["cp","nocrits","nodmgspread","uncletopia"],"game_id":440,"stv_port":27046,"stv_name":"Uncletopia | San Francisco | 4 | Community | STV","players":null},{"server_id":141,"name":"Uncletopia | Sydney | 1 | All Maps","name_short":"syd-1","host":"syd-1.au.uncletopia.com","port":27015,"enabled":true,"region":"au","cc":"au","latitude":-33.865143,"longitude":151.2099,"reserved":0,"last_update":"0001-01-01T00:00:00Z","name_a2s":"Uncletopia | Sydney | 1 | All Maps","protocol":17,"map":"cp_sunshine","folder":"tf","game":"Team Fortress","app_id":440,"player_count":24,"max_players":24,"Bots":0,"server_type":"Dedicated","server_os":"Linux","password":true,"vac":true,"version":"7961495","steam_id":85568392924470001,"keywords":["cp","nocrits","nodmgspread","uncletopia"],"game_id":440,"stv_port":27016,"stv_name":"Uncletopia | Sydney | 1 | All Maps | STV","players":[{"user_id":130,"name":"A Burnt Cheeseburger","steam_id":76561198044178223,"connected_time":3615000000000,"state":"active","ping":60},{"user_id":165,"name":"Dot","steam_id":76561198064534661,"connected_time":516000000000,"state":"active","ping":54},{"user_id":167,"name":"robor","steam_id":76561198084686835,"connected_time":505000000000,"state":"active","ping":54},{"user_id":53,"name":"GOOD GUY NICK","steam_id":76561198145598622,"connected_time":10136000000000,"state":"active","ping":79},{"user_id":123,"name":"BigmanJoel-_-","steam_id":76561198947336285,"connected_time":4215000000000,"state":"active","ping":43},{"user_id":170,"name":"michael","steam_id":76561198052848358,"connected_time":293000000000,"state":"active","ping":57},{"user_id":163,"name":"entradinkgle","steam_id":76561198137562689,"connected_time":528000000000,"state":"active","ping":56},{"user_id":138,"name":"tetrix","steam_id":76561197996427098,"connected_time":2816000000000,"state":"active","ping":89},{"user_id":142,"name":"Burillion","steam_id":76561197975918525,"connected_time":2191000000000,"state":"active","ping":50},{"user_id":143,"name":"Stubborn Sheepcow","steam_id":76561198065334258,"connected_time":2170000000000,"state":"active","ping":86},{"user_id":139,"name":"Poo Consumer","steam_id":76561198967034272,"connected_time":2442000000000,"state":"active","ping":101},{"user_id":161,"name":"helton1","steam_id":76561198841855657,"connected_time":1167000000000,"state":"active","ping":51},{"user_id":122,"name":"Plushie","steam_id":76561198043226890,"connected_time":4280000000000,"state":"active","ping":54},{"user_id":134,"name":"...","steam_id":76561198309750355,"connected_time":3248000000000,"state":"active","ping":48},{"user_id":140,"name":"osborn","steam_id":76561198033663866,"connected_time":2303000000000,"state":"active","ping":38},{"user_id":168,"name":"Jerome Powell","steam_id":76561198059701670,"connected_time":505000000000,"state":"active","ping":46},{"user_id":171,"name":"ANDY64","steam_id":76561198049447026,"connected_time":171000000000,"state":"active","ping":65},{"user_id":146,"name":"Marzell","steam_id":76561198151276153,"connected_time":2020000000000,"state":"active","ping":92},{"user_id":75,"name":"Nyda","steam_id":76561198152311904,"connected_time":8408000000000,"state":"active","ping":63},{"user_id":112,"name":"sav","steam_id":76561198058760041,"connected_time":5097000000000,"state":"active","ping":70},{"user_id":156,"name":"CypressFluff (she/her)","steam_id":76561198174667818,"connected_time":1704000000000,"state":"active","ping":48},{"user_id":141,"name":"nurf","steam_id":76561198019391327,"connected_time":2219000000000,"state":"active","ping":72},{"user_id":148,"name":"MAYHEM","steam_id":76561199323730865,"connected_time":1981000000000,"state":"active","ping":45},{"user_id":159,"name":"Egg","steam_id":76561198067095618,"connected_time":1373000000000,"state":"active","ping":44}]},{"server_id":123,"name":"Uncletopia | Sydney | 2 | All Maps","name_short":"syd-2","host":"syd-1.au.uncletopia.com","port":27025,"enabled":true,"region":"au","cc":"au","latitude":-33.865143,"longitude":151.2099,"reserved":0,"last_update":"0001-01-01T00:00:00Z","name_a2s":"Uncletopia | Sydney | 2 | All Maps","protocol":17,"map":"koth_highpass","folder":"tf","game":"Team Fortress","app_id":440,"player_count":9,"max_players":24,"Bots":0,"server_type":"Dedicated","server_os":"Linux","password":true,"vac":true,"version":"7961495","steam_id":85568392924470002,"keywords":["cp","nocrits","nodmgspread","uncletopia"],"game_id":440,"stv_port":27026,"stv_name":"Uncletopia | Sydney | 2 | All Maps | STV","players":[{"user_id":50,"name":"SaltierThanYou","steam_id":76561198444395188,"connected_time":1340000000000,"state":"active","ping":84},{"user_id":46,"name":"Abject Suffering","steam_id":76561198256416570,"connected_time":2374000000000,"state":"active","ping":60},{"user_id":52,"name":"his wife","steam_id":76561198172504926,"connected_time":1079000000000,"state":"active","ping":42},{"user_id":54,"name":"Tipsy Tanuki","steam_id":76561198156169381,"connected_time":890000000000,"state":"active","ping":64},{"user_id":60,"name":"HSmileyFace","steam_id":76561198062385882,"connected_time":597000000000,"state":"active","ping":98},{"user_id":57,"name":"Steve","steam_id":76561198429235506,"connected_time":738000000000,"state":"active","ping":46},{"user_id":59,"name":"Wombon","steam_id":76561198071323879,"connected_time":726000000000,"state":"active","ping":75},{"user_id":62,"name":"optive","steam_id":76561198131756192,"connected_time":534000000000,"state":"active","ping":75},{"user_id":65,"name":"Finios","steam_id":76561198209013071,"connected_time":394000000000,"state":"active","ping":58}]},{"server_id":395,"name":"Uncletopia | Sydney | 3 | All Maps","name_short":"syd-3","host":"syd-1.au.uncletopia.com","port":27035,"enabled":true,"region":"au","cc":"au","latitude":-33.865143,"longitude":151.2099,"reserved":0,"last_update":"0001-01-01T00:00:00Z","name_a2s":"Uncletopia | Sydney | 3 | All Maps","protocol":17,"map":"koth_brazil","folder":"tf","game":"Team Fortress","app_id":440,"player_count":0,"max_players":24,"Bots":0,"server_type":"Dedicated","server_os":"Linux","password":true,"vac":true,"version":"7961495","steam_id":85568392925194467,"keywords":["cp","nocrits","nodmgspread","uncletopia"],"game_id":440,"stv_port":27036,"stv_name":"Uncletopia | Sydney | 3 | All Maps | STV","players":null},{"server_id":396,"name":"Uncletopia | Sydney | 4 | All Maps","name_short":"syd-4","host":"syd-1.au.uncletopia.com","port":27045,"enabled":true,"region":"au","cc":"au","latitude":-33.865143,"longitude":151.2099,"reserved":0,"last_update":"0001-01-01T00:00:00Z","name_a2s":"Uncletopia | Sydney | 4 | All Maps","protocol":17,"map":"pl_swiftwater_final1","folder":"tf","game":"Team Fortress","app_id":440,"player_count":9,"max_players":24,"Bots":0,"server_type":"Dedicated","server_os":"Linux","password":true,"vac":true,"version":"7961495","steam_id":85568392925397958,"keywords":["nocrits","nodmgspread","payload","uncletopia"],"game_id":440,"stv_port":27046,"stv_name":"Uncletopia | Sydney | 4 | All Maps | STV","players":[{"user_id":4,"name":"–ø—É–∞–Ω—Å–æ–Ω","steam_id":76561198171506195,"connected_time":285000000000,"state":"active","ping":71},{"user_id":6,"name":"Rednose","steam_id":76561198135053560,"connected_time":267000000000,"state":"active","ping":61},{"user_id":7,"name":"troze","steam_id":76561198163570075,"connected_time":262000000000,"state":"active","ping":51},{"user_id":8,"name":"Machina Man from a Machina Land","steam_id":76561199121866910,"connected_time":255000000000,"state":"active","ping":65},{"user_id":9,"name":"EveCitrus","steam_id":76561198255332560,"connected_time":252000000000,"state":"active","ping":62},{"user_id":10,"name":"electrician","steam_id":76561198256803290,"connected_time":242000000000,"state":"active","ping":60},{"user_id":11,"name":"Big_Bird_Priest","steam_id":76561198338668911,"connected_time":222000000000,"state":"active","ping":82},{"user_id":12,"name":"morphine","steam_id":76561198257117132,"connected_time":149000000000,"state":"active","ping":59},{"user_id":13,"name":"good morning","steam_id":76561198895690844,"connected_time":149000000000,"state":"active","ping":58}]},{"server_id":58,"name":"Uncletopia | Sydney | 5 | Stopwatch","name_short":"syd-5","host":"syd-1.au.uncletopia.com","port":27055,"enabled":true,"region":"au","cc":"au","latitude":-33.865143,"longitude":151.2099,"reserved":0,"last_update":"0001-01-01T00:00:00Z","name_a2s":"Uncletopia | Sydney | 5 | Stopwatch","protocol":17,"map":"koth_highpass","folder":"tf","game":"Team Fortress","app_id":440,"player_count":0,"max_players":24,"Bots":0,"server_type":"Dedicated","server_os":"Linux","password":true,"vac":true,"version":"7961495","steam_id":85568392925397959,"keywords":["cp","nocrits","nodmgspread","uncletopia"],"game_id":440,"stv_port":27056,"stv_name":"Uncletopia | Sydney | 5 | Stopwatch | STV","players":null},{"server_id":59,"name":"Uncletopia | Sydney | 6 | Community","name_short":"syd-6","host":"syd-1.au.uncletopia.com","port":27065,"enabled":true,"region":"au","cc":"au","latitude":-33.865143,"longitude":151.2099,"reserved":0,"last_update":"0001-01-01T00:00:00Z","name_a2s":"Uncletopia | Sydney | 6 | Community","protocol":17,"map":"workshop/koth_soot_final1.ugc2969540689","folder":"tf","game":"Team Fortress","app_id":440,"player_count":0,"max_players":24,"Bots":0,"server_type":"Dedicated","server_os":"Linux","password":true,"vac":true,"version":"7961495","steam_id":85568392925397960,"keywords":["cp","nocrits","nodmgspread","uncletopia"],"game_id":440,"stv_port":27066,"stv_name":"Uncletopia | Sydney | 6 | Community | STV","players":null},{"server_id":49,"name":"Uncletopia | Warsaw | 1 | One Thousand Uncles","name_short":"waw-1","host":"waw-1.pl.uncletopia.com","port":27015,"enabled":true,"region":"eu","cc":"pl","latitude":52.2297,"longitude":21.017532,"reserved":0,"last_update":"0001-01-01T00:00:00Z","name_a2s":"Uncletopia | Warsaw | 1 | One Thousand Uncles","protocol":17,"map":"cp_egypt_final","folder":"tf","game":"Team Fortress","app_id":440,"player_count":0,"max_players":32,"Bots":0,"server_type":"Dedicated","server_os":"Linux","password":true,"vac":true,"version":"7961495","steam_id":85568392925397850,"keywords":["alltalk","cp","danepve","increased_maxplayers","norespawntime","uncletopia"],"game_id":440,"stv_port":0,"stv_name":"","players":null},{"server_id":50,"name":"Uncletopia | Warsaw | 2 | One Thousand Uncles","name_short":"waw-2","host":"waw-1.pl.uncletopia.com","port":27025,"enabled":true,"region":"eu","cc":"pl","latitude":52.2297,"longitude":21.017532,"reserved":0,"last_update":"0001-01-01T00:00:00Z","name_a2s":"Uncletopia | Warsaw | 2 | One Thousand Uncles","protocol":17,"map":"pl_hoodoo_final","folder":"tf","game":"Team Fortress","app_id":440,"player_count":29,"max_players":32,"Bots":20,"server_type":"Dedicated","server_os":"Linux","password":true,"vac":true,"version":"7961495","steam_id":85568392925397851,"keywords":["alltalk","bots","danepve","increased_maxplayers","norespawntime","payload","uncletopia"],"game_id":440,"stv_port":0,"stv_name":"","players":[{"user_id":63,"name":"Punishment","steam_id":76561199488819530,"connected_time":4046000000000,"state":"active","ping":161},{"user_id":70,"name":"Mo–ªeku–ªa","steam_id":76561199086099268,"connected_time":2149000000000,"state":"active","ping":169},{"user_id":41,"name":"The Deputy_Rook [HCSD]","steam_id":76561198831109346,"connected_time":6519000000000,"state":"active","ping":46},{"user_id":66,"name":"deth_cd","steam_id":76561198311004531,"connected_time":3320000000000,"state":"active","ping":58},{"user_id":69,"name":"night.s","steam_id":76561198326287823,"connected_time":2566000000000,"state":"active","ping":102},{"user_id":77,"name":"ErikLDM","steam_id":76561198014666626,"connected_time":877000000000,"state":"active","ping":101},{"user_id":78,"name":"Sicronici","steam_id":76561199054534566,"connected_time":607000000000,"state":"active","ping":97},{"user_id":73,"name":"BadMorty.Jr","steam_id":76561199471381922,"connected_time":1916000000000,"state":"active","ping":63},{"user_id":75,"name":"pavel_mkd","steam_id":76561199088118112,"connected_time":1482000000000,"state":"active","ping":98}]},{"server_id":51,"name":"Uncletopia | Warsaw | 3 | All Maps","name_short":"waw-3","host":"waw-1.pl.uncletopia.com","port":27035,"enabled":true,"region":"eu","cc":"pl","latitude":52.2297,"longitude":21.017532,"reserved":0,"last_update":"0001-01-01T00:00:00Z","name_a2s":"Uncletopia | Warsaw | 3 | All Maps","protocol":17,"map":"pl_frontier_final","folder":"tf","game":"Team Fortress","app_id":440,"player_count":0,"max_players":24,"Bots":0,"server_type":"Dedicated","server_os":"Linux","password":true,"vac":true,"version":"7961495","steam_id":85568392925397852,"keywords":["nocrits","nodmgspread","payload","uncletopia"],"game_id":440,"stv_port":27036,"stv_name":"Uncletopia | Warsaw | 3 | All Maps | STV","players":null},{"server_id":52,"name":"Uncletopia | Warsaw | 4 | All Maps","name_short":"waw-4","host":"waw-1.pl.uncletopia.com","port":27045,"enabled":true,"region":"eu","cc":"pl","latitude":52.2297,"longitude":21.017532,"reserved":0,"last_update":"0001-01-01T00:00:00Z","name_a2s":"Uncletopia | Warsaw | 4 | All Maps","protocol":17,"map":"ctf_turbine","folder":"tf","game":"Team Fortress","app_id":440,"player_count":0,"max_players":24,"Bots":0,"server_type":"Dedicated","server_os":"Linux","password":true,"vac":true,"version":"7961495","steam_id":85568392925397853,"keywords":["ctf","nocrits","nodmgspread","uncletopia"],"game_id":440,"stv_port":27046,"stv_name":"Uncletopia | Warsaw | 4 | All Maps | STV","players":null},{"server_id":53,"name":"Uncletopia | Warsaw | 5 | Stopwatch","name_short":"waw-5","host":"waw-1.pl.uncletopia.com","port":27055,"enabled":true,"region":"eu","cc":"pl","latitude":52.2297,"longitude":21.017532,"reserved":0,"last_update":"0001-01-01T00:00:00Z","name_a2s":"Uncletopia | Warsaw | 5 | Stopwatch","protocol":17,"map":"workshop/koth_clearcut_b15.ugc2107050255","folder":"tf","game":"Team Fortress","app_id":440,"player_count":0,"max_players":24,"Bots":0,"server_type":"Dedicated","server_os":"Linux","password":true,"vac":true,"version":"7961495","steam_id":85568392925397854,"keywords":["cp","nocrits","nodmgspread","uncletopia"],"game_id":440,"stv_port":27056,"stv_name":"Uncletopia | Warsaw | 5 | Stopwatch | STV","players":null},{"server_id":54,"name":"Uncletopia | Warsaw | 6 | Community","name_short":"waw-6","host":"waw-1.pl.uncletopia.com","port":27065,"enabled":true,"region":"eu","cc":"pl","latitude":52.2297,"longitude":21.017532,"reserved":0,"last_update":"0001-01-01T00:00:00Z","name_a2s":"Uncletopia | Warsaw | 6 | Community","protocol":17,"map":"workshop/pl_highwood_b19.ugc1769496557","folder":"tf","game":"Team Fortress","app_id":440,"player_count":0,"max_players":24,"Bots":0,"server_type":"Dedicated","server_os":"Linux","password":true,"vac":true,"version":"7961495","steam_id":85568392925397856,"keywords":["nocrits","nodmgspread","payload","uncletopia"],"game_id":440,"stv_port":27066,"stv_name":"Uncletopia | Warsaw | 6 | Community | STV","players":null}]}