{"status":true,"message":"","result":[{"server_id":9,"name":"Uncletopia | Atlanta | 1 | All Maps","name_short":"atl-1","host":"atl-1.us.uncletopia.com","port":27015,"enabled":true,"region":"us-east","cc":"us","latitude":33.753746,"longitude":-84.38633,"reserved":0,"last_update":"0001-01-01T00:00:00Z","name_a2s":"Uncletopia | Atlanta | 1 | All Maps","protocol":17,"map":"koth_cascade","folder":"tf","game":"Team Fortress","app_id":440,"player_count":17,"max_players":24,"Bots":0,"server_type":"Dedicated","server_os":"Linux","password":true,"vac":true,"version":"7961495","steam_id":85568392924469982,"keywords":["cp","nocrits","nodmgspread","uncletopia"],"game_id":440,"stv_port":27016,"stv_name":"Uncletopia | Atlanta | 1 | All Maps | STV","players":[{"user_id":339,"name":"Team Fortress","steam_id":76561198058722801,"connected_time":29000000000,"state":"active","ping":141},{"user_id":333,"name":"Draco6257","steam_id":76561199147322448,"connected_time":886000000000,"state":"active","ping":53},{"user_id":336,"name":"Pango","steam_id":76561198069811545,"connected_time":144000000000,"state":"active","ping":54},{"user_id":338,"name":"Jnlaw","steam_id":76561198009307069,"connected_time":66000000000,"state":"active","ping":104},{"user_id":322,"name":"Chaotic Rushu","steam_id":76561198170054407,"connected_time":2521000000000,"state":"spawning","ping":55},{"user_id":304,"name":"Alejandro","steam_id":76561198051965170,"connected_time":3451000000000,"state":"active","ping":55},{"user_id":335,"name":"z","steam_id":76561198377478982,"connected_time":238000000000,"state":"active","ping":69},{"user_id":299,"name":"Pharaxer‚Ñ¢","steam_id":76561198051236069,"connected_time":3921000000000,"state":"active","ping":150},{"user_id":340,"name":"RekTek249","steam_id":76561198118901719,"connected_time":20000000000,"state":"active","ping":85},{"user_id":320,"name":"HEY!","steam_id":76561198930820841,"connected_time":2990000000000,"state":"active","ping":65},{"user_id":341,"name":"Least Lucky Loose Cannon Lover","steam_id":76561199090831782,"connected_time":14000000000,"state":"active","ping":69},{"user_id":326,"name":"squaggles!","steam_id":76561197994995011,"connected_time":1684000000000,"state":"active","ping":30},{"user_id":337,"name":"eish","steam_id":76561198089463603,"connected_time":89000000000,"state":"active","ping":118},{"user_id":301,"name":"Onyx","steam_id":76561198275349640,"connected_time":3584000000000,"state":"active","ping":72},{"user_id":327,"name":"sucrose stan","steam_id":76561198163403972,"connected_time":1649000000000,"state":"active","ping":105},{"user_id":330,"name":"Jin Gulilo","steam_id":76561198065151242,"connected_time":1153000000000,"state":"active","ping":70},{"user_id":324,"name":"ATL1 | Uganda #NEOTOKYO¬∞","steam_id":76561199121276474,"connected_time":2116000000000,"state":"active","ping":74}]},{"server_id":104,"name":"Uncletopia | Atlanta | 2 | All Maps","name_short":"atl-2","host":"atl-1.us.uncletopia.com","port":27025,"enabled":true,"region":"us-east","cc":"us","latitude":33.753746,"longitude":-84.38633,"reserved":0,"last_update":"0001-01-01T00:00:00Z","name_a2s":"Uncletopia | Atlanta | 2 | All Maps","protocol":17,"map":"ctf_2fort","folder":"tf","game":"Team Fortress","app_id":440,"player_count":23,"max_players":24,"Bots":0,"server_type":"Dedicated","server_os":"Linux","password":true,"vac":true,"version":"7961495","steam_id":85568392924469983,"keywords":["ctf","nocrits","nodmgspread","uncletopia"],"game_id":440,"stv_port":27026,"stv_name":"Uncletopia | Atlanta | 2 | All Maps | STV","players":[{"user_id":379,"name":"Monte","steam_id":76561198097499917,"connected_time":4524000000000,"state":"active","ping":90},{"user_id":487,"name":"Typh","steam_id":76561198315344079,"connected_time":1770000000000,"state":"active","ping":59},{"user_id":513,"name":"Juno","steam_id":76561198042417277,"connected_time":161000000000,"state":"active","ping":76},{"user_id":491,"name":"Kay ‚ò≠","steam_id":76561198353432576,"connected_time":1567000000000,"state":"active","ping":47},{"user_id":489,"name":"bookreader","steam_id":76561198978568007,"connected_time":1679000000000,"state":"active","ping":54},{"user_id":514,"name":"Pissless Pissmass Pissman","steam_id":76561198409907417,"connected_time":152000000000,"state":"active","ping":106},{"user_id":248,"name":"Lemonty","steam_id":76561198163812778,"connected_time":9277000000000,"state":"active","ping":71},{"user_id":490,"name":"carbuzz","steam_id":76561198129361580,"connected_time":1580000000000,"state":"active","ping":136},{"user_id":520,"name":"Vonx Crane","steam_id":76561198205069715,"connected_time":76000000000,"state":"active","ping":77},{"user_id":502,"name":"‚óΩSpoo‚óæ","steam_id":76561198188021354,"connected_time":1140000000000,"state":"active","ping":73},{"user_id":512,"name":"JoJoJo","steam_id":76561198067153390,"connected_time":174000000000,"state":"active","ping":73},{"user_id":515,"name":"Roberto Del Fuego","steam_id":76561198043458554,"connected_time":138000000000,"state":"active","ping":57},{"user_id":518,"name":"Propaniac Gaming ‚òë","steam_id":76561198133963270,"connected_time":121000000000,"state":"active","ping":40},{"user_id":521,"name":"R10queen","steam_id":76561198262363935,"connected_time":63000000000,"state":"active","ping":90},{"user_id":519,"name":"Ginger Jesus","steam_id":76561198052386458,"connected_time":97000000000,"state":"active","ping":70},{"user_id":501,"name":"cumgoblin","steam_id":76561198113270138,"connected_time":1169000000000,"state":"active","ping":75},{"user_id":500,"name":"Max_Attack","steam_id":76561198944028607,"connected_time":1180000000000,"state":"active","ping":88},{"user_id":511,"name":"Phantaxal","steam_id":76561199257316028,"connected_time":221000000000,"state":"active","ping":74},{"user_id":329,"name":"Agent Escoteiro","steam_id":76561198050994994,"connected_time":5692000000000,"state":"active","ping":120},{"user_id":522,"name":"Radio_Troll","steam_id":76561199223701309,"connected_time":22000000000,"state":"spawning","ping":63},{"user_id":505,"name":"blazevicaziz","steam_id":76561199413017544,"connected_time":1123000000000,"state":"active","ping":177},{"user_id":523,"name":"Gregory","steam_id":76561199070901945,"connected_time":7000000000,"state":"active","ping":211},{"user_id":286,"name":"Hey","steam_id":76561198447517893,"connected_time":6721000000000,"state":"active","ping":54}]},{"server_id":400,"name":"Uncletopia | Atlanta | 3 | Stopwatch","name_short":"atl-3","host":"atl-1.us.uncletopia.com","port":27035,"enabled":true,"region":"us-east","cc":"us","latitude":33.753746,"longitude":-84.38633,"reserved":0,"last_update":"0001-01-01T00:00:00Z","name_a2s":"Uncletopia | Atlanta | 3 | Stopwatch","protocol":17,"map":"cp_snakewater_final1","folder":"tf","game":"Team Fortress","app_id":440,"player_count":1,"max_players":24,"Bots":0,"server_type":"Dedicated","server_os":"Linux","password":true,"vac":true,"version":"7961495","steam_id":85568392924515187,"keywords":["cp","nocrits","nodmgspread","uncletopia"],"game_id":440,"stv_port":27036,"stv_name":"Uncletopia | Atlanta | 3 | Stopwatch | STV","players":[{"user_id":10,"name":"Humanbean37","steam_id":76561199232932739,"connected_time":98000000000,"state":"active","ping":78}]},{"server_id":401,"name":"Uncletopia | Atlanta | 4 | Community","name_short":"atl-4","host":"atl-1.us.uncletopia.com","port":27045,"enabled":true,"region":"us-east","cc":"us","latitude":33.753746,"longitude":-84.38633,"reserved":0,"last_update":"0001-01-01T00:00:00Z","name_a2s":"Uncletopia | Atlanta | 4 | Community","protocol":17,"map":"workshop/cp_coilblaze_rc7.ugc1272700588","folder":"tf","game":"Team Fortress","app_id":440,"player_count":22,"max_players":24,"Bots":0,"server_type":"Dedicated","server_os":"Linux","password":true,"vac":true,"version":"7961495","steam_id":85568392924515188,"keywords":["cp","nocrits","nodmgspread","uncletopia"],"game_id":440,"stv_port":27046,"stv_name":"Uncletopia | Atlanta | 4 | Community | STV","players":[{"user_id":71,"name":"lucin","steam_id":76561198258062078,"connected_time":952000000000,"state":"active","ping":61},{"user_id":65,"name":"CombustibleToast","steam_id":76561198051358882,"connected_time":1111000000000,"state":"active","ping":46},{"user_id":59,"name":"Rex","steam_id":76561198138365053,"connected_time":1460000000000,"state":"active","ping":116},{"user_id":66,"name":"Sleepy Brady","steam_id":76561198867378129,"connected_time":1083000000000,"state":"active","ping":93},{"user_id":82,"name":"FIRESTARTER","steam_id":76561198088529360,"connected_time":82000000000,"state":"active","ping":74},{"user_id":72,"name":"simonjohna646","steam_id":76561199403481880,"connected_time":924000000000,"state":"active","ping":76},{"user_id":53,"name":"he suckin on my rick til i mort","steam_id":76561198310711692,"connected_time":1776000000000,"state":"active","ping":172},{"user_id":36,"name":"De_Bones","steam_id":76561198064459088,"connected_time":2153000000000,"state":"active","ping":59},{"user_id":74,"name":"Killua","steam_id":76561198405299137,"connected_time":895000000000,"state":"active","ping":54},{"user_id":75,"name":"prism!","steam_id":76561199070576107,"connected_time":873000000000,"state":"active","ping":39},{"user_id":54,"name":"‚ú® Rarity ‚ú®","steam_id":76561199172206856,"connected_time":1731000000000,"state":"active","ping":73},{"user_id":46,"name":"Tanker6115","steam_id":76561198354085983,"connected_time":1975000000000,"state":"active","ping":73},{"user_id":45,"name":"Possum","steam_id":76561198093433576,"connected_time":1987000000000,"state":"active","ping":55},{"user_id":80,"name":"LOFILE","steam_id":76561198083798918,"connected_time":410000000000,"state":"active","ping":66},{"user_id":77,"name":"Catscr","steam_id":76561198076589280,"connected_time":804000000000,"state":"active","ping":59},{"user_id":79,"name":"Artificial Taco Intelligence","steam_id":76561199431280503,"connected_time":635000000000,"state":"active","ping":88},{"user_id":47,"name":"CrySmore","steam_id":76561198346713088,"connected_time":1948000000000,"state":"active","ping":112},{"user_id":48,"name":"Sharp","steam_id":76561198335250560,"connected_time":1915000000000,"state":"active","ping":93},{"user_id":49,"name":"AMistake","steam_id":76561199379196708,"connected_time":1878000000000,"state":"active","ping":46},{"user_id":56,"name":"who is gavin?","steam_id":76561198069415057,"connected_time":1520000000000,"state":"active","ping":71},{"user_id":51,"name":"Mango","steam_id":76561198182082274,"connected_time":1855000000000,"state":"active","ping":52},{"user_id":64,"name":"dog","steam_id":76561198263873491,"connected_time":1307000000000,"state":"active","ping":58}]},{"server_id":2,"name":"Uncletopia | Chicago | 1 | All Maps","name_short":"chi-1","host":"chi-1.us.uncletopia.com","port":27015,"enabled":true,"region":"us-central","cc":"us","latitude":41.881832,"longitude":-87.62318,"reserved":0,"last_update":"0001-01-01T00:00:00Z","name_a2s":"Uncletopia | Chicago | 1 | All Maps","protocol":17,"map":"pl_frontier_final","folder":"tf","game":"Team Fortress","app_id":440,"player_count":24,"max_players":24,"Bots":0,"server_type":"Dedicated","server_os":"Linux","password":true,"vac":true,"version":"7961495","steam_id":85568392924469984,"keywords":["nocrits","nodmgspread","payload","uncletopia"],"game_id":440,"stv_port":27016,"stv_name":"Uncletopia | Chicago | 1 | All Maps | STV","players":[{"user_id":332,"name":"Digresser","steam_id":76561198016426367,"connected_time":2725000000000,"state":"active","ping":59},{"user_id":363,"name":"Helmet Hands","steam_id":76561197961141994,"connected_time":336000000000,"state":"active","ping":100},{"user_id":355,"name":"Milkmur","steam_id":76561198210043821,"connected_time":873000000000,"state":"active","ping":68},{"user_id":352,"name":"Yummy Kabobz","steam_id":76561198067661705,"connected_time":1438000000000,"state":"active","ping":65},{"user_id":318,"name":"TittyBoii69","steam_id":76561198096412234,"connected_time":3592000000000,"state":"active","ping":91},{"user_id":256,"name":"Rambly Dambly","steam_id":76561198844496567,"connected_time":8899000000000,"state":"active","ping":56},{"user_id":346,"name":"HANNAH1","steam_id":76561198094801861,"connected_time":1918000000000,"state":"active","ping":60},{"user_id":361,"name":"Oh, it's Zach","steam_id":76561198103309672,"connected_time":538000000000,"state":"active","ping":58},{"user_id":328,"name":"TheGhostThatWas","steam_id":76561198055836483,"connected_time":3178000000000,"state":"active","ping":66},{"user_id":347,"name":"se√±ora","steam_id":76561199353185652,"connected_time":1895000000000,"state":"active","ping":117},{"user_id":342,"name":"Dreszerg","steam_id":76561198838757422,"connected_time":2051000000000,"state":"active","ping":83},{"user_id":339,"name":"Tommy Pickles (Very Cool)","steam_id":76561198391261463,"connected_time":2126000000000,"state":"active","ping":69},{"user_id":350,"name":"Girl Liker","steam_id":76561198022302843,"connected_time":1791000000000,"state":"active","ping":86},{"user_id":314,"name":"drift","steam_id":76561198093781093,"connected_time":4001000000000,"state":"active","ping":59},{"user_id":333,"name":"Black Rose Oncore","steam_id":76561198040489960,"connected_time":2527000000000,"state":"active","ping":98},{"user_id":344,"name":"SomeScuffedKid","steam_id":76561198086113234,"connected_time":1993000000000,"state":"active","ping":68},{"user_id":362,"name":"Dan!","steam_id":76561199126958455,"connected_time":412000000000,"state":"active","ping":114},{"user_id":358,"name":"Kazul","steam_id":76561198014925555,"connected_time":589000000000,"state":"active","ping":53},{"user_id":327,"name":"Shooter of Walls","steam_id":76561197988105207,"connected_time":3334000000000,"state":"active","ping":79},{"user_id":351,"name":"opium*poophead","steam_id":76561198045781230,"connected_time":1775000000000,"state":"active","ping":60},{"user_id":349,"name":"jojobinks613","steam_id":76561198841293111,"connected_time":1854000000000,"state":"active","ping":60},{"user_id":331,"name":"Baka!‚ë®‚ë®‚ë®‚ë®","steam_id":76561198152948254,"connected_time":2793000000000,"state":"active","ping":67},{"user_id":267,"name":"Lapis","steam_id":76561198042677899,"connected_time":8111000000000,"state":"active","ping":59},{"user_id":229,"name":"Lia_Rein","steam_id":76561198151569597,"connected_time":9808000000000,"state":"active","ping":141}]},{"server_id":106,"name":"Uncletopia | Chicago | 2 | All Maps","name_short":"chi-2","host":"chi-1.us.uncletopia.com","port":27025,"enabled":true,"region":"us-central","cc":"us","latitude":41.881832,"longitude":-87.62318,"reserved":0,"last_update":"0001-01-01T00:00:00Z","name_a2s":"Uncletopia | Chicago | 2 | All Maps","protocol":17,"map":"koth_viaduct","folder":"tf","game":"Team Fortress","app_id":440,"player_count":0,"max_players":24,"Bots":0,"server_type":"Dedicated","server_os":"Linux","password":true,"vac":true,"version":"7961495","steam_id":85568392924469985,"keywords":["cp","nocrits","nodmgspread","uncletopia"],"game_id":440,"stv_port":27026,"stv_name":"Uncletopia | Chicago | 2 | All Maps | STV","players":null},{"server_id":402,"name":"Uncletopia | Chicago | 3 | All Maps","name_short":"chi-3","host":"chi-1.us.uncletopia.com","port":27035,"enabled":true,"region":"us-central","cc":"us","latitude":41.881832,"longitude":-87.62318,"reserved":0,"last_update":"0001-01-01T00:00:00Z","name_a2s":"Uncletopia | Chicago | 3 | All Maps","protocol":17,"map":"pl_upward","folder":"tf","game":"Team Fortress","app_id":440,"player_count":22,"max_players":24,"Bots":0,"server_type":"Dedicated","server_os":"Linux","password":true,"vac":true,"version":"7961495","steam_id":85568392924515191,"keywords":["nocrits","nodmgspread","payload","uncletopia"],"game_id":440,"stv_port":27036,"stv_name":"Uncletopia | Chicago | 3 | All Maps | STV","players":[{"user_id":137,"name":"Thau'sau","steam_id":76561198046611923,"connected_time":514000000000,"state":"active","ping":71},{"user_id":119,"name":"Yam Jazzy Jim","steam_id":76561198000788950,"connected_time":1766000000000,"state":"active","ping":69},{"user_id":74,"name":"xFactr","steam_id":76561198129007422,"connected_time":4607000000000,"state":"active","ping":49},{"user_id":121,"name":"eggo","steam_id":76561198028147388,"connected_time":1690000000000,"state":"active","ping":73},{"user_id":110,"name":"THORNFIELDGAMER","steam_id":76561199087167473,"connected_time":2605000000000,"state":"active","ping":86},{"user_id":140,"name":"Olitude","steam_id":76561199238964574,"connected_time":393000000000,"state":"active","ping":73},{"user_id":87,"name":"SpongedSocks","steam_id":76561198374009086,"connected_time":3631000000000,"state":"active","ping":70},{"user_id":127,"name":"FemboyNero","steam_id":76561198449565973,"connected_time":1182000000000,"state":"active","ping":77},{"user_id":143,"name":"IlikeChowMien","steam_id":76561199466131782,"connected_time":319000000000,"state":"active","ping":83},{"user_id":54,"name":"D(b) Hell","steam_id":76561198067869016,"connected_time":5554000000000,"state":"active","ping":45},{"user_id":88,"name":"Q47","steam_id":76561198087128341,"connected_time":3612000000000,"state":"active","ping":139},{"user_id":136,"name":"Mr. Sandman","steam_id":76561198065870487,"connected_time":546000000000,"state":"active","ping":60},{"user_id":141,"name":"Alfredo from gayshit infact","steam_id":76561198079005845,"connected_time":384000000000,"state":"active","ping":57},{"user_id":142,"name":"yomo","steam_id":76561198063175935,"connected_time":375000000000,"state":"active","ping":72},{"user_id":131,"name":"Beef Wellington","steam_id":76561198049837377,"connected_time":813000000000,"state":"active","ping":49},{"user_id":128,"name":"photon","steam_id":76561198046548039,"connected_time":1004000000000,"state":"active","ping":69},{"user_id":53,"name":"og biden pack cart","steam_id":76561198253731826,"connected_time":5807000000000,"state":"active","ping":63},{"user_id":132,"name":"Cherry Salad","steam_id":76561197993402051,"connected_time":693000000000,"state":"active","ping":49},{"user_id":123,"name":"dansci","steam_id":76561198269530717,"connected_time":1637000000000,"state":"active","ping":81},{"user_id":134,"name":"MrGManWatch","steam_id":76561197996226329,"connected_time":648000000000,"state":"active","ping":58},{"user_id":73,"name":"Strange Diplomat","steam_id":76561198428191920,"connected_time":4628000000000,"state":"active","ping":65},{"user_id":125,"name":"Saul Goodman","steam_id":76561198958881101,"connected_time":1599000000000,"state":"active","ping":86}]},{"server_id":403,"name":"Uncletopia | Chicago | 4 | All Maps","name_short":"chi-4","host":"chi-1.us.uncletopia.com","port":27045,"enabled":true,"region":"us-central","cc":"us","latitude":41.881832,"longitude":-87.62318,"reserved":0,"last_update":"0001-01-01T00:00:00Z","name_a2s":"Uncletopia | Chicago | 4 | All Maps","protocol":17,"map":"koth_harvest_final","folder":"tf","game":"Team Fortress","app_id":440,"player_count":24,"max_players":24,"Bots":0,"server_type":"Dedicated","server_os":"Linux","password":true,"vac":true,"version":"7961495","steam_id":85568392924515193,"keywords":["cp","nocrits","nodmgspread","uncletopia"],"game_id":440,"stv_port":27046,"stv_name":"Uncletopia | Chicago | 4 | All Maps | STV","players":[{"user_id":296,"name":"lucim","steam_id":76561198064755514,"connected_time":789000000000,"state":"active","ping":76},{"user_id":187,"name":"Blargh","steam_id":76561198044095816,"connected_time":10708000000000,"state":"active","ping":57},{"user_id":273,"name":"fish (2:3)","steam_id":76561198134331073,"connected_time":2436000000000,"state":"active","ping":109},{"user_id":284,"name":"Joe Biden","steam_id":76561198056170906,"connected_time":1700000000000,"state":"active","ping":62},{"user_id":254,"name":"fresco","steam_id":76561199101199477,"connected_time":4761000000000,"state":"active","ping":63},{"user_id":278,"name":"your moms car","steam_id":76561199389283507,"connected_time":2267000000000,"state":"active","ping":86},{"user_id":260,"name":"barry dylan","steam_id":76561198253172399,"connected_time":4031000000000,"state":"active","ping":73},{"user_id":305,"name":"Xlander","steam_id":76561199345823430,"connected_time":79000000000,"state":"active","ping":85},{"user_id":262,"name":"shitass | troutsupply.net","steam_id":76561198210572481,"connected_time":3905000000000,"state":"active","ping":90},{"user_id":304,"name":"Gordon Ramsay *****ed Hams","steam_id":76561198363617387,"connected_time":175000000000,"state":"active","ping":73},{"user_id":283,"name":"Fostrel","steam_id":76561198152160601,"connected_time":1831000000000,"state":"active","ping":73},{"user_id":285,"name":"Rattman","steam_id":76561198059893447,"connected_time":1692000000000,"state":"active","ping":94},{"user_id":297,"name":"TacoLeShanty","steam_id":76561198821490321,"connected_time":785000000000,"state":"active","ping":76},{"user_id":288,"name":"Hot Cheese Sundae","steam_id":76561198061189527,"connected_time":1533000000000,"state":"active","ping":71},{"user_id":301,"name":"RC","steam_id":76561198048127881,"connected_time":404000000000,"state":"active","ping":76},{"user_id":256,"name":"Brandino!","steam_id":76561198000446932,"connected_time":4507000000000,"state":"active","ping":83},{"user_id":276,"name":"Dob16","steam_id":76561198176738623,"connected_time":2358000000000,"state":"active","ping":74},{"user_id":302,"name":"Breakaway","steam_id":76561198089308523,"connected_time":403000000000,"state":"active","ping":90},{"user_id":234,"name":"ViserOfOrder","steam_id":76561198137222506,"connected_time":6082000000000,"state":"active","ping":124},{"user_id":261,"name":"gus","steam_id":76561198209316492,"connected_time":4031000000000,"state":"active","ping":75},{"user_id":294,"name":"MALWARE9000","steam_id":76561198065238093,"connected_time":809000000000,"state":"active","ping":87},{"user_id":303,"name":"P.C. Baby","steam_id":76561198067011379,"connected_time":395000000000,"state":"active","ping":118},{"user_id":300,"name":"BIG LION","steam_id":76561198091880358,"connected_time":474000000000,"state":"active","ping":45},{"user_id":293,"name":"thecal","steam_id":76561198307893384,"connected_time":1169000000000,"state":"active","ping":61}]},{"server_id":36,"name":"Uncletopia | Chicago | 5 | All Maps","name_short":"chi-5","host":"chi-2.us.uncletopia.com","port":27015,"enabled":true,"region":"us-central","cc":"us","latitude":41.881832,"longitude":-87.62318,"reserved":0,"last_update":"0001-01-01T00:00:00Z","name_a2s":"Uncletopia | Chicago | 5 | All Maps","protocol":17,"map":"pl_upward","folder":"tf","game":"Team Fortress","app_id":440,"player_count":24,"max_players":24,"Bots":0,"server_type":"Dedicated","server_os":"Linux","password":true,"vac":true,"version":"7961495","steam_id":85568392924866362,"keywords":["nocrits","nodmgspread","payload","uncletopia"],"game_id":440,"stv_port":27016,"stv_name":"Uncletopia | Chicago | 5 | All Maps | STV","players":[{"user_id":38,"name":"poopybutt420","steam_id":76561199000805315,"connected_time":3997000000000,"state":"active","ping":103},{"user_id":94,"name":"Kage Templar","steam_id":76561198099057046,"connected_time":331000000000,"state":"active","ping":97},{"user_id":84,"name":"Duck","steam_id":76561198045287701,"connected_time":790000000000,"state":"active","ping":90},{"user_id":90,"name":"GH578","steam_id":76561199493262585,"connected_time":369000000000,"state":"active","ping":93},{"user_id":86,"name":"Lumberjack Wharfie","steam_id":76561198023400820,"connected_time":505000000000,"state":"active","ping":53},{"user_id":81,"name":"Smiles","steam_id":76561198107197973,"connected_time":1634000000000,"state":"active","ping":58},{"user_id":100,"name":"Thneed","steam_id":76561199267535506,"connected_time":22000000000,"state":"active","ping":75},{"user_id":76,"name":"brains","steam_id":76561198197388678,"connected_time":1975000000000,"state":"active","ping":60},{"user_id":88,"name":"Screwball","steam_id":76561198142102141,"connected_time":441000000000,"state":"active","ping":47},{"user_id":89,"name":"Ejaculation Zach","steam_id":76561198203765200,"connected_time":429000000000,"state":"active","ping":60},{"user_id":80,"name":"Jim the Fish","steam_id":76561199135784419,"connected_time":1656000000000,"state":"active","ping":85},{"user_id":69,"name":"anonion","steam_id":76561198056477584,"connected_time":2279000000000,"state":"active","ping":86},{"user_id":78,"name":"MTGbigdog","steam_id":76561198838760637,"connected_time":1753000000000,"state":"active","ping":87},{"user_id":97,"name":"HeavyMettleDick","steam_id":76561198001925087,"connected_time":193000000000,"state":"active","ping":76},{"user_id":99,"name":"Chickenhalf21","steam_id":76561198966588372,"connected_time":29000000000,"state":"active","ping":65},{"user_id":26,"name":"get scrongled, idiot","steam_id":76561198115874625,"connected_time":4442000000000,"state":"active","ping":89},{"user_id":92,"name":"wheresgeorge","steam_id":76561198986281248,"connected_time":355000000000,"state":"active","ping":86},{"user_id":72,"name":"reis","steam_id":76561199232952016,"connected_time":2139000000000,"state":"active","ping":180},{"user_id":75,"name":"obi-wan kenobi","steam_id":76561199064050951,"connected_time":2007000000000,"state":"active","ping":95},{"user_id":93,"name":"Eiss","steam_id":76561198343183806,"connected_time":339000000000,"state":"active","ping":65},{"user_id":46,"name":"FROYO cina_red","steam_id":76561198070266530,"connected_time":3496000000000,"state":"active","ping":104},{"user_id":85,"name":"what a fukkin","steam_id":76561198298442983,"connected_time":755000000000,"state":"active","ping":96},{"user_id":101,"name":"graham crackr","steam_id":76561199072720886,"connected_time":21000000000,"state":"active","ping":62},{"user_id":65,"name":"1920","steam_id":76561198111669774,"connected_time":2487000000000,"state":"active","ping":55}]},{"server_id":37,"name":"Uncletopia | Chicago | 6 | All Maps","name_short":"chi-6","host":"chi-2.us.uncletopia.com","port":27025,"enabled":true,"region":"us-central","cc":"us","latitude":41.881832,"longitude":-87.62318,"reserved":0,"last_update":"0001-01-01T00:00:00Z","name_a2s":"Uncletopia | Chicago | 6 | All Maps","protocol":17,"map":"koth_highpass","folder":"tf","game":"Team Fortress","app_id":440,"player_count":0,"max_players":24,"Bots":0,"server_type":"Dedicated","server_os":"Linux","password":true,"vac":true,"version":"7961495","steam_id":85568392924866363,"keywords":["cp","nocrits","nodmgspread","uncletopia"],"game_id":440,"stv_port":27026,"stv_name":"Uncletopia | Chicago | 6 | All Maps | STV","players":null},{"server_id":38,"name":"Uncletopia | Chicago | 7 | Stopwatch","name_short":"chi-7","host":"chi-2.us.uncletopia.com","port":27035,"enabled":true,"region":"us-central","cc":"us","latitude":41.881832,"longitude":-87.62318,"reserved":0,"last_update":"0001-01-01T00:00:00Z","name_a2s":"Uncletopia | Chicago | 7 | Stopwatch","protocol":17,"map":"pl_badwater","folder":"tf","game":"Team Fortress","app_id":440,"player_count":0,"max_players":24,"Bots":0,"server_type":"Dedicated","server_os":"Linux","password":true,"vac":true,"version":"7961495","steam_id":85568392924866364,"keywords":["nocrits","nodmgspread","payload","uncletopia"],"game_id":440,"stv_port":27036,"stv_name":"Uncletopia | Chicago | 7 | Stopwatch | STV","players":null},{"server_id":39,"name":"Uncletopia | Chicago | 8 | Community","name_short":"chi-8","host":"chi-2.us.uncletopia.com","port":27045,"enabled":true,"region":"us-central","cc":"us","latitude":41.881832,"longitude":-87.62318,"reserved":0,"last_update":"0001-01-01T00:00:00Z","name_a2s":"Uncletopia | Chicago | 8 | Community","protocol":17,"map":"workshop/koth_trenchfoot_ab1.ugc731436616","folder":"tf","game":"Team Fortress","app_id":440,"player_count":0,"max_players":24,"Bots":0,"server_type":"Dedicated","server_os":"Linux","password":true,"vac":true,"version":"7961495","steam_id":85568392924866365,"keywords":["cp","nocrits","nodmgspread","uncletopia"],"game_id":440,"stv_port":27046,"stv_name":"Uncletopia | Chicago | 8 | Community | STV","players":null},{"server_id":8,"name":"Uncletopia | Dallas | 1 | All Maps","name_short":"dal-1","host":"dal-1.us.uncletopia.com","port":27015,"enabled":true,"region":"us-central","cc":"us","latitude":32.779167,"longitude":-96.80889,"reserved":0,"last_update":"0001-01-01T00:00:00Z","name_a2s":"Uncletopia | Dallas | 1 | All Maps","protocol":17,"map":"pl_upward","folder":"tf","game":"Team Fortress","app_id":440,"player_count":24,"max_players":24,"Bots":0,"server_type":"Dedicated","server_os":"Linux","password":true,"vac":true,"version":"7961495","steam_id":85568392924469986,"keywords":["nocrits","nodmgspread","payload","uncletopia"],"game_id":440,"stv_port":27016,"stv_name":"Uncletopia | Dallas | 1 | All Maps | STV","players":[{"user_id":240,"name":"the pizza","steam_id":76561198221331476,"connected_time":870000000000,"state":"active","ping":74},{"user_id":237,"name":"Slimey","steam_id":76561199200969139,"connected_time":1312000000000,"state":"active","ping":124},{"user_id":207,"name":"Zetta","steam_id":76561198045710113,"connected_time":3429000000000,"state":"active","ping":81},{"user_id":236,"name":"Novu","steam_id":76561198886997024,"connected_time":1333000000000,"state":"active","ping":100},{"user_id":232,"name":"femboy =Ôºæ‚óè ‚ãè ‚óèÔºæ=","steam_id":76561199052450127,"connected_time":1815000000000,"state":"active","ping":76},{"user_id":241,"name":"Emmagination","steam_id":76561198107217884,"connected_time":864000000000,"state":"active","ping":77},{"user_id":221,"name":"Pickles","steam_id":76561198010609340,"connected_time":2451000000000,"state":"active","ping":75},{"user_id":242,"name":"Dr. W0lv","steam_id":76561198129237487,"connected_time":861000000000,"state":"active","ping":56},{"user_id":212,"name":"greenpeace","steam_id":76561197983221708,"connected_time":3088000000000,"state":"active","ping":89},{"user_id":251,"name":"Gotta Move That Gear Up","steam_id":76561197993467034,"connected_time":583000000000,"state":"active","ping":63},{"user_id":186,"name":"Nortgron","steam_id":76561198126734499,"connected_time":5029000000000,"state":"active","ping":102},{"user_id":180,"name":"Juanelo","steam_id":76561199096390505,"connected_time":5952000000000,"state":"active","ping":57},{"user_id":244,"name":"mp4 ?","steam_id":76561198826820952,"connected_time":849000000000,"state":"active","ping":89},{"user_id":245,"name":"Dad is gone for milk","steam_id":76561198799648962,"connected_time":839000000000,"state":"active","ping":60},{"user_id":253,"name":"LeRoy42","steam_id":76561198035591428,"connected_time":279000000000,"state":"active","ping":99},{"user_id":239,"name":"banana gaming","steam_id":76561198334907218,"connected_time":952000000000,"state":"active","ping":52},{"user_id":246,"name":"FanaticSalt","steam_id":76561199380123059,"connected_time":829000000000,"state":"active","ping":52},{"user_id":247,"name":"nefarious criminal","steam_id":76561198077506415,"connected_time":828000000000,"state":"active","ping":70},{"user_id":184,"name":"Cad","steam_id":76561198312145232,"connected_time":5118000000000,"state":"active","ping":99},{"user_id":248,"name":"Colonel Salt","steam_id":76561198207009563,"connected_time":817000000000,"state":"active","ping":58},{"user_id":203,"name":"Bestmaster202","steam_id":76561198235282680,"connected_time":3640000000000,"state":"active","ping":95},{"user_id":252,"name":"ChocoMcFudgeCake","steam_id":76561197994591295,"connected_time":548000000000,"state":"active","ping":64},{"user_id":250,"name":"Tethered","steam_id":76561199237582239,"connected_time":710000000000,"state":"active","ping":113},{"user_id":190,"name":"W.B. Mason","steam_id":76561198082039789,"connected_time":4536000000000,"state":"active","ping":94}]},{"server_id":108,"name":"Uncletopia | Dallas | 2 | All Maps","name_short":"dal-2","host":"dal-1.us.uncletopia.com","port":27025,"enabled":true,"region":"us-central","cc":"us","latitude":32.779167,"longitude":-96.80889,"reserved":0,"last_update":"0001-01-01T00:00:00Z","name_a2s":"Uncletopia | Dallas | 2 | All Maps","protocol":17,"map":"pl_snowycoast","folder":"tf","game":"Team Fortress","app_id":440,"player_count":23,"max_players":24,"Bots":0,"server_type":"Dedicated","server_os":"Linux","password":true,"vac":true,"version":"7961495","steam_id":85568392924469988,"keywords":["nocrits","nodmgspread","payload","uncletopia"],"game_id":440,"stv_port":27026,"stv_name":"Uncletopia | Dallas | 2 | All Maps | STV","players":[{"user_id":355,"name":"ItsAChadKing","steam_id":76561199499464350,"connected_time":328000000000,"state":"active","ping":91},{"user_id":314,"name":"Drakon","steam_id":76561198078210822,"connected_time":3144000000000,"state":"active","ping":94},{"user_id":338,"name":"Zaid","steam_id":76561199142840666,"connected_time":1183000000000,"state":"active","ping":155},{"user_id":361,"name":"Tan_Rat","steam_id":76561198313629344,"connected_time":154000000000,"state":"active","ping":70},{"user_id":360,"name":"Chhaam","steam_id":76561198058508132,"connected_time":192000000000,"state":"active","ping":75},{"user_id":293,"name":"NFL.com","steam_id":76561198113405376,"connected_time":4051000000000,"state":"active","ping":75},{"user_id":317,"name":"Kuyumiester","steam_id":76561198126835302,"connected_time":3099000000000,"state":"active","ping":60},{"user_id":322,"name":"artichoke","steam_id":76561198980994364,"connected_time":2657000000000,"state":"active","ping":101},{"user_id":349,"name":"Rhutebeer","steam_id":76561198018302761,"connected_time":603000000000,"state":"active","ping":78},{"user_id":347,"name":"Iron Argus","steam_id":76561198181088245,"connected_time":693000000000,"state":"active","ping":90},{"user_id":348,"name":"Lancaster","steam_id":76561198066321016,"connected_time":686000000000,"state":"active","ping":80},{"user_id":365,"name":"An Engineer","steam_id":76561198110381643,"connected_time":11000000000,"state":"spawning","ping":44},{"user_id":327,"name":"errant","steam_id":76561197961758410,"connected_time":2357000000000,"state":"active","ping":42},{"user_id":337,"name":"Meet The Taunt","steam_id":76561198253927199,"connected_time":1193000000000,"state":"active","ping":167},{"user_id":359,"name":"Pringles","steam_id":76561198170085170,"connected_time":283000000000,"state":"active","ping":64},{"user_id":328,"name":"CanadianEgg","steam_id":76561198041680099,"connected_time":2357000000000,"state":"active","ping":113},{"user_id":364,"name":"Rexosaur","steam_id":76561198172900177,"connected_time":68000000000,"state":"active","ping":91},{"user_id":343,"name":"Kanye Asada","steam_id":76561198186678831,"connected_time":941000000000,"state":"active","ping":85},{"user_id":354,"name":"JtsRes","steam_id":76561197994809241,"connected_time":490000000000,"state":"active","ping":61},{"user_id":269,"name":"REEEEEEEEEEEEEEEEEEEE","steam_id":76561199411565786,"connected_time":5504000000000,"state":"active","ping":66},{"user_id":300,"name":"Verily","steam_id":76561198200558318,"connected_time":3648000000000,"state":"active","ping":81},{"user_id":329,"name":"rickyrickyricky","steam_id":76561198041765918,"connected_time":2338000000000,"state":"active","ping":80},{"user_id":333,"name":"Digit","steam_id":76561198156589157,"connected_time":1672000000000,"state":"active","ping":91}]},{"server_id":404,"name":"Uncletopia | Dallas | 3 | All Maps","name_short":"dal-3","host":"dal-1.us.uncletopia.com","port":27035,"enabled":true,"region":"us-central","cc":"us","latitude":32.779167,"longitude":-96.80889,"reserved":0,"last_update":"0001-01-01T00:00:00Z","name_a2s":"Uncletopia | Dallas | 3 | All Maps","protocol":17,"map":"koth_lakeside_final","folder":"tf","game":"Team Fortress","app_id":440,"player_count":0,"max_players":24,"Bots":0,"server_type":"Dedicated","server_os":"Linux","password":true,"vac":true,"version":"7961495","steam_id":85568392924515219,"keywords":["cp","nocrits","nodmgspread","uncletopia"],"game_id":440,"stv_port":27036,"stv_name":"Uncletopia | Dallas | 3 | All Maps | STV","players":null},{"server_id":405,"name":"Uncletopia | Dallas | 4 | Community","name_short":"dal-4","host":"dal-1.us.uncletopia.com","port":27045,"enabled":true,"region":"us-central","cc":"us","latitude":32.779167,"longitude":-96.80889,"reserved":0,"last_update":"0001-01-01T00:00:00Z","name_a2s":"Uncletopia | Dallas | 4 | Community","protocol":17,"map":"workshop/koth_product_final.ugc454272353","folder":"tf","game":"Team Fortress","app_id":440,"player_count":0,"max_players":24,"Bots":0,"server_type":"Dedicated","server_os":"Linux","password":true,"vac":true,"version":"7961495","steam_id":85568392924515220,"keywords":["cp","nocrits","nodmgspread","uncletopia"],"game_id":440,"stv_port":27046,"stv_name":"Uncletopia | Dallas | 4 | Community | STV","players":null},{"server_id":5,"name":"Uncletopia | Frankfurt | 1 | All Maps","name_short":"frk-1","host":"frk-1.de.uncletopia.com","port":27015,"enabled":true,"region":"eu","cc":"de","latitude":50.110924,"longitude":8.682127,"reserved":0,"last_update":"0001-01-01T00:00:00Z","name_a2s":"Uncletopia | Frankfurt | 1 | All Maps","protocol":17,"map":"pl_snowycoast","folder":"tf","game":"Team Fortress","app_id":440,"player_count":24,"max_players":24,"Bots":0,"server_type":"Dedicated","server_os":"Linux","password":true,"vac":true,"version":"7961495","steam_id":85568392924469989,"keywords":["nocrits","nodmgspread","payload","uncletopia"],"game_id":440,"stv_port":27016,"stv_name":"Uncletopia | Frankfurt | 1 | All Maps | STV","players":[{"user_id":841,"name":"randompixel","steam_id":76561198003941207,"connected_time":446000000000,"state":"active","ping":68},{"user_id":777,"name":"frank","steam_id":76561198137710815,"connected_time":4269000000000,"state":"active","ping":50},{"user_id":843,"name":"Joejee","steam_id":76561199122423976,"connected_time":342000000000,"state":"active","ping":81},{"user_id":842,"name":"shr1mple","steam_id":76561198173537027,"connected_time":425000000000,"state":"active","ping":36},{"user_id":824,"name":"pey wet pete","steam_id":76561198353096483,"connected_time":1483000000000,"state":"active","ping":58},{"user_id":831,"name":"leeloo","steam_id":76561199256962353,"connected_time":716000000000,"state":"active","ping":61},{"user_id":833,"name":"chachiply","steam_id":76561198316355509,"connected_time":678000000000,"state":"active","ping":66},{"user_id":814,"name":"Mortis","steam_id":76561198160658223,"connected_time":2280000000000,"state":"active","ping":59},{"user_id":835,"name":"cherrypowder","steam_id":76561199006915718,"connected_time":675000000000,"state":"active","ping":60},{"user_id":836,"name":"vekk","steam_id":76561198214848887,"connected_time":667000000000,"state":"active","ping":60},{"user_id":788,"name":"BoPoe","steam_id":76561198093333882,"connected_time":3467000000000,"state":"active","ping":97},{"user_id":815,"name":"StaigerDuck","steam_id":76561199190706582,"connected_time":2219000000000,"state":"active","ping":155},{"user_id":837,"name":"üò°üòÇ","steam_id":76561198126595103,"connected_time":662000000000,"state":"active","ping":56},{"user_id":838,"name":"tm`","steam_id":76561197993580412,"connected_time":661000000000,"state":"active","ping":52},{"user_id":827,"name":"Snowy","steam_id":76561198169992461,"connected_time":1295000000000,"state":"active","ping":52},{"user_id":828,"name":"pepper","steam_id":76561198059782462,"connected_time":1055000000000,"state":"active","ping":48},{"user_id":845,"name":"SlikeDollar","steam_id":76561199092295526,"connected_time":15000000000,"state":"active","ping":59},{"user_id":800,"name":"professor bum","steam_id":76561199403298146,"connected_time":2960000000000,"state":"active","ping":87},{"user_id":819,"name":"tone","steam_id":76561197975301462,"connected_time":1731000000000,"state":"active","ping":75},{"user_id":820,"name":"Skelet","steam_id":76561198051685232,"connected_time":1676000000000,"state":"active","ping":44},{"user_id":839,"name":"ilovebabo","steam_id":76561199506233173,"connected_time":660000000000,"state":"active","ping":63},{"user_id":840,"name":"Valen","steam_id":76561198049614521,"connected_time":635000000000,"state":"active","ping":60},{"user_id":829,"name":"George W Bush","steam_id":76561198846784757,"connected_time":1048000000000,"state":"active","ping":71},{"user_id":826,"name":"Suetolog","steam_id":76561199053090212,"connected_time":1360000000000,"state":"active","ping":54}]},{"server_id":110,"name":"Uncletopia | Frankfurt | 2 | All Maps","name_short":"frk-2","host":"frk-1.de.uncletopia.com","port":27025,"enabled":true,"region":"eu","cc":"de","latitude":50.110924,"longitude":8.682127,"reserved":0,"last_update":"0001-01-01T00:00:00Z","name_a2s":"Uncletopia | Frankfurt | 2 | All Maps","protocol":17,"map":"koth_lakeside_final","folder":"tf","game":"Team Fortress","app_id":440,"player_count":0,"max_players":24,"Bots":0,"server_type":"Dedicated","server_os":"Linux","password":true,"vac":true,"version":"7961495","steam_id":85568392924469990,"keywords":["cp","nocrits","nodmgspread","uncletopia"],"game_id":440,"stv_port":27026,"stv_name":"Uncletopia | Frankfurt | 2 | All Maps | STV","players":null},{"server_id":308,"name":"Uncletopia | Frankfurt | 3 | All Maps","name_short":"frk-3","host":"frk-1.de.uncletopia.com","port":27035,"enabled":true,"region":"eu","cc":"de","latitude":50.110924,"longitude":8.682127,"reserved":0,"last_update":"0001-01-01T00:00:00Z","name_a2s":"Uncletopia | Frankfurt | 3 | All Maps","protocol":17,"map":"koth_cascade","folder":"tf","game":"Team Fortress","app_id":440,"player_count":0,"max_players":24,"Bots":0,"server_type":"Dedicated","server_os":"Linux","password":true,"vac":true,"version":"7961495","steam_id":85568392924504274,"keywords":["cp","nocrits","nodmgspread","uncletopia"],"game_id":440,"stv_port":27036,"stv_name":"Uncletopia | Frankfurt | 3 | All Maps | STV","players":null},{"server_id":309,"name":"Uncletopia | Frankfurt | 4 | All Maps","name_short":"frk-4","host":"frk-1.de.uncletopia.com","port":27045,"enabled":true,"region":"eu","cc":"de","latitude":50.110924,"longitude":8.682127,"reserved":0,"last_update":"0001-01-01T00:00:00Z","name_a2s":"Uncletopia | Frankfurt | 4 | All Maps","protocol":17,"map":"koth_viaduct","folder":"tf","game":"Team Fortress","app_id":440,"player_count":22,"max_players":24,"Bots":0,"server_type":"Dedicated","server_os":"Linux","password":true,"vac":true,"version":"7961495","steam_id":85568392924504275,"keywords":["cp","nocrits","nodmgspread","uncletopia"],"game_id":440,"stv_port":27046,"stv_name":"Uncletopia | Frankfurt | 4 | All Maps | STV","players":[{"user_id":376,"name":"No Further Appeasement","steam_id":76561198050737972,"connected_time":4404000000000,"state":"active","ping":70},{"user_id":371,"name":"Atomix","steam_id":76561198127352880,"connected_time":5355000000000,"state":"active","ping":70},{"user_id":414,"name":"it was goku","steam_id":76561198147668373,"connected_time":1029000000000,"state":"active","ping":55},{"user_id":398,"name":"Galzra87","steam_id":76561198063414443,"connected_time":2902000000000,"state":"active","ping":63},{"user_id":426,"name":"Siegmeyer","steam_id":76561198328543549,"connected_time":747000000000,"state":"active","ping":81},{"user_id":417,"name":"PrinzAnalFaust","steam_id":76561198136407626,"connected_time":1001000000000,"state":"active","ping":71},{"user_id":375,"name":"Fer De Lancer","steam_id":76561198091367098,"connected_time":4567000000000,"state":"active","ping":72},{"user_id":409,"name":"Cold Heart","steam_id":76561198109838745,"connected_time":2090000000000,"state":"active","ping":51},{"user_id":424,"name":"Gazprom Fan","steam_id":76561198003190907,"connected_time":939000000000,"state":"active","ping":60},{"user_id":422,"name":"Darth Griefious","steam_id":76561198970347460,"connected_time":980000000000,"state":"active","ping":65},{"user_id":423,"name":"Jeff","steam_id":76561198074722832,"connected_time":971000000000,"state":"active","ping":53},{"user_id":347,"name":"nosreve","steam_id":76561198257229812,"connected_time":7208000000000,"state":"active","ping":66},{"user_id":427,"name":"Doctor Rudy G. Numpad","steam_id":76561198440881106,"connected_time":448000000000,"state":"active","ping":76},{"user_id":405,"name":"cansado","steam_id":76561198003898089,"connected_time":2592000000000,"state":"active","ping":76},{"user_id":400,"name":"Lorenzo Lovers","steam_id":76561198073973581,"connected_time":2825000000000,"state":"active","ping":78},{"user_id":413,"name":"Neko","steam_id":76561198075690128,"connected_time":1058000000000,"state":"active","ping":55},{"user_id":403,"name":"rummy","steam_id":76561197997573379,"connected_time":2778000000000,"state":"active","ping":56},{"user_id":418,"name":"smiley","steam_id":76561198042245117,"connected_time":998000000000,"state":"active","ping":87},{"user_id":419,"name":"Devaron","steam_id":76561198072545397,"connected_time":996000000000,"state":"active","ping":71},{"user_id":412,"name":"Summer ‚ô•","steam_id":76561198047723907,"connected_time":1104000000000,"state":"active","ping":47},{"user_id":421,"name":"mash","steam_id":76561198367669395,"connected_time":995000000000,"state":"active","ping":57}]},{"server_id":310,"name":"Uncletopia | Frankfurt | 5 | All Maps","name_short":"frk-5","host":"frk-1.de.uncletopia.com","port":27055,"enabled":true,"region":"eu","cc":"de","latitude":50.110924,"longitude":8.682127,"reserved":0,"last_update":"0001-01-01T00:00:00Z","name_a2s":"Uncletopia | Frankfurt | 5 | All Maps","protocol":17,"map":"cp_sunshine","folder":"tf","game":"Team Fortress","app_id":440,"player_count":0,"max_players":24,"Bots":0,"server_type":"Dedicated","server_os":"Linux","password":true,"vac":true,"version":"7961495","steam_id":85568392924504277,"keywords":["cp","nocrits","nodmgspread","uncletopia"],"game_id":440,"stv_port":27056,"stv_name":"Uncletopia | Frankfurt | 5 | All Maps | STV","players":null},{"server_id":311,"name":"Uncletopia | Frankfurt | 6 | All Maps","name_short":"frk-6","host":"frk-1.de.uncletopia.com","port":27065,"enabled":true,"region":"eu","cc":"de","latitude":50.110924,"longitude":8.682127,"reserved":0,"last_update":"0001-01-01T00:00:00Z","name_a2s":"Uncletopia | Frankfurt | 6 | All Maps","protocol":17,"map":"cp_snakewater_final1","folder":"tf","game":"Team Fortress","app_id":440,"player_count":0,"max_players":24,"Bots":0,"server_type":"Dedicated","server_os":"Linux","password":true,"vac":true,"version":"7961495","steam_id":85568392924504278,"keywords":["cp","nocrits","nodmgspread","uncletopia"],"game_id":440,"stv_port":27066,"stv_name":"Uncletopia | Frankfurt | 6 | All Maps | STV","players":null},{"server_id":23,"name":"Uncletopia | Frankfurt | 7 | Stopwatch","name_short":"frk-7","host":"frk-1.de.uncletopia.com","port":27075,"enabled":true,"region":"eu","cc":"de","latitude":50.110924,"longitude":8.682127,"reserved":0,"last_update":"0001-01-01T00:00:00Z","name_a2s":"Uncletopia | Frankfurt | 7 | Stopwatch","protocol":17,"map":"workshop/koth_ramjam_rc1.ugc459778887","folder":"tf","game":"Team Fortress","app_id":440,"player_count":0,"max_players":24,"Bots":0,"server_type":"Dedicated","server_os":"Linux","password":true,"vac":true,"version":"7961495","steam_id":85568392924742827,"keywords":["cp","nocrits","nodmgspread","uncletopia"],"game_id":440,"stv_port":27076,"stv_name":"Uncletopia | Frankfurt | 7 | Stopwatch | STV","players":null},{"server_id":24,"name":"Uncletopia | Frankfurt | 8 | Community","name_short":"frk-8","host":"frk-1.de.uncletopia.com","port":27085,"enabled":true,"region":"eu","cc":"de","latitude":50.110924,"longitude":8.682127,"reserved":0,"last_update":"0001-01-01T00:00:00Z","name_a2s":"Uncletopia | Frankfurt | 8 | Community","protocol":17,"map":"workshop/koth_ramjam_rc1.ugc459778887","folder":"tf","game":"Team Fortress","app_id":440,"player_count":0,"max_players":24,"Bots":0,"server_type":"Dedicated","server_os":"Linux","password":true,"vac":true,"version":"7961495","steam_id":85568392924742828,"keywords":["cp","nocrits","nodmgspread","uncletopia"],"game_id":440,"stv_port":27086,"stv_name":"Uncletopia | Frankfurt | 8 | Community | STV","players":null},{"server_id":202,"name":"Uncletopia | Hong Kong | 1 | All Maps","name_short":"hgk-1","host":"hgk-1.hk.uncletopia.com","port":27015,"enabled":true,"region":"asia","cc":"hk","latitude":22.302711,"longitude":114.177216,"reserved":0,"last_update":"0001-01-01T00:00:00Z","name_a2s":"Uncletopia | Hong Kong | 1 | All Maps","protocol":17,"map":"pl_frontier_final","folder":"tf","game":"Team Fortress","app_id":440,"player_count":0,"max_players":24,"Bots":0,"server_type":"Dedicated","server_os":"Linux","password":true,"vac":true,"version":"7961495","steam_id":85568392924494504,"keywords":["nocrits","nodmgspread","payload","uncletopia"],"game_id":440,"stv_port":27016,"stv_name":"Uncletopia | Hong Kong | 1 | All Maps | STV","players":null},{"server_id":1,"name":"Uncletopia | Los Angeles | 1 | All Maps","name_short":"lax-1","host":"lax-1.us.uncletopia.com","port":27015,"enabled":true,"region":"us-west","cc":"us","latitude":33.94279,"longitude":-118.41004,"reserved":0,"last_update":"0001-01-01T00:00:00Z","name_a2s":"Uncletopia | Los Angeles | 1 | All Maps","protocol":17,"map":"koth_viaduct","folder":"tf","game":"Team Fortress","app_id":440,"player_count":0,"max_players":24,"Bots":0,"server_type":"Dedicated","server_os":"Linux","password":true,"vac":true,"version":"7961495","steam_id":85568392924469991,"keywords":["cp","nocrits","nodmgspread","uncletopia"],"game_id":440,"stv_port":27016,"stv_name":"Uncletopia | Los Angeles | 1 | All Maps | STV","players":null},{"server_id":112,"name":"Uncletopia | Los Angeles | 2 | All Maps","name_short":"lax-2","host":"lax-1.us.uncletopia.com","port":27025,"enabled":true,"region":"us-west","cc":"us","latitude":33.94279,"longitude":-118.41004,"reserved":0,"last_update":"0001-01-01T00:00:00Z","name_a2s":"Uncletopia | Los Angeles | 2 | All Maps","protocol":17,"map":"koth_viaduct","folder":"tf","game":"Team Fortress","app_id":440,"player_count":0,"max_players":24,"Bots":0,"server_type":"Dedicated","server_os":"Linux","password":true,"vac":true,"version":"7961495","steam_id":85568392924469992,"keywords":["cp","nocrits","nodmgspread","uncletopia"],"game_id":440,"stv_port":27026,"stv_name":"Uncletopia | Los Angeles | 2 | All Maps | STV","players":null},{"server_id":324,"name":"Uncletopia | Los Angeles | 3 | All Maps","name_short":"lax-3","host":"lax-1.us.uncletopia.com","port":27035,"enabled":true,"region":"us-west","cc":"us","latitude":33.94279,"longitude":-118.41004,"reserved":0,"last_update":"0001-01-01T00:00:00Z","name_a2s":"Uncletopia | Los Angeles | 3 | All Maps","protocol":17,"map":"pl_barnblitz","folder":"tf","game":"Team Fortress","app_id":440,"player_count":0,"max_players":24,"Bots":0,"server_type":"Dedicated","server_os":"Linux","password":true,"vac":true,"version":"7961495","steam_id":85568392924510198,"keywords":["nocrits","nodmgspread","payload","uncletopia"],"game_id":440,"stv_port":27036,"stv_name":"Uncletopia | Los Angeles | 3 | All Maps | STV","players":null},{"server_id":25,"name":"Uncletopia | Los Angeles | 4 | Stopwatch","name_short":"lax-4","host":"lax-1.us.uncletopia.com","port":27045,"enabled":true,"region":"us-west","cc":"us","latitude":33.94279,"longitude":-118.41004,"reserved":0,"last_update":"0001-01-01T00:00:00Z","name_a2s":"Uncletopia | Los Angeles | 4 | Stopwatch","protocol":17,"map":"pl_barnblitz","folder":"tf","game":"Team Fortress","app_id":440,"player_count":0,"max_players":24,"Bots":0,"server_type":"Dedicated","server_os":"Linux","password":true,"vac":true,"version":"7961495","steam_id":85568392924510199,"keywords":["nocrits","nodmgspread","payload","uncletopia"],"game_id":440,"stv_port":27046,"stv_name":"Uncletopia | Los Angeles | 4 | Stopwatch | STV","players":null},{"server_id":11,"name":"Uncletopia | London | 1 | All Maps","name_short":"lon-1","host":"lon-1.uk.uncletopia.com","port":27015,"enabled":true,"region":"eu","cc":"gb","latitude":51.509865,"longitude":-0.118092,"reserved":0,"last_update":"0001-01-01T00:00:00Z","name_a2s":"Uncletopia | London | 1 | All Maps","protocol":17,"map":"cp_process_final","folder":"tf","game":"Team Fortress","app_id":440,"player_count":24,"max_players":24,"Bots":0,"server_type":"Dedicated","server_os":"Linux","password":true,"vac":true,"version":"7961495","steam_id":85568392924367362,"keywords":["cp","nocrits","nodmgspread","uncletopia"],"game_id":440,"stv_port":27016,"stv_name":"Uncletopia | London | 1 | All Maps | STV","players":[{"user_id":901,"name":"kelpie (undead arc)","steam_id":76561198128327529,"connected_time":1825000000000,"state":"active","ping":47},{"user_id":880,"name":"Citrus","steam_id":76561198090650837,"connected_time":4068000000000,"state":"active","ping":58},{"user_id":920,"name":"owo","steam_id":76561198158209651,"connected_time":603000000000,"state":"active","ping":60},{"user_id":913,"name":"xva","steam_id":76561198969286813,"connected_time":827000000000,"state":"active","ping":72},{"user_id":848,"name":"sora (live :3)","steam_id":76561198096547662,"connected_time":7277000000000,"state":"active","ping":52},{"user_id":873,"name":"b-ang (ÔΩ°‚úß‚Äø‚Äø‚úßÔΩ°)","steam_id":76561198143972906,"connected_time":5207000000000,"state":"active","ping":88},{"user_id":891,"name":"BOT Jeremus","steam_id":76561198072981684,"connected_time":3287000000000,"state":"active","ping":44},{"user_id":902,"name":"Jeryx","steam_id":76561197995602803,"connected_time":1820000000000,"state":"active","ping":91},{"user_id":917,"name":"Wils","steam_id":76561198325853689,"connected_time":781000000000,"state":"active","ping":166},{"user_id":876,"name":"Barry Burtons no. 1 fan","steam_id":76561198101451654,"connected_time":4818000000000,"state":"active","ping":47},{"user_id":923,"name":"‚ößaura‚öß","steam_id":76561198066258544,"connected_time":79000000000,"state":"active","ping":61},{"user_id":879,"name":"shooer!","steam_id":76561198110531281,"connected_time":4279000000000,"state":"active","ping":69},{"user_id":874,"name":"BreadBubbles","steam_id":76561198174332826,"connected_time":5192000000000,"state":"active","ping":58},{"user_id":905,"name":"SOPHIIAA","steam_id":76561198443798981,"connected_time":1803000000000,"state":"active","ping":80},{"user_id":907,"name":"H","steam_id":76561198158608309,"connected_time":1746000000000,"state":"active","ping":53},{"user_id":884,"name":"Minimi","steam_id":76561198873850443,"connected_time":3837000000000,"state":"active","ping":38},{"user_id":912,"name":"goff","steam_id":76561198118989010,"connected_time":850000000000,"state":"active","ping":46},{"user_id":830,"name":"silversteellady (#1 abi fan)","steam_id":76561198166953966,"connected_time":9294000000000,"state":"active","ping":72},{"user_id":924,"name":"albert","steam_id":76561198353496134,"connected_time":77000000000,"state":"active","ping":53},{"user_id":878,"name":"LILY-CHAN","steam_id":76561198035085893,"connected_time":4798000000000,"state":"active","ping":101},{"user_id":919,"name":"Clown :o)","steam_id":76561198074657015,"connected_time":695000000000,"state":"active","ping":56},{"user_id":872,"name":"charlotte","steam_id":76561198075129898,"connected_time":5327000000000,"state":"active","ping":30},{"user_id":899,"name":"beebo","steam_id":76561199120277007,"connected_time":2611000000000,"state":"active","ping":50}]},{"server_id":114,"name":"Uncletopia | London | 2 | All Maps","name_short":"lon-2","host":"lon-1.uk.uncletopia.com","port":27025,"enabled":true,"region":"eu","cc":"gb","latitude":51.509865,"longitude":-0.118092,"reserved":0,"last_update":"0001-01-01T00:00:00Z","name_a2s":"Uncletopia | London | 2 | All Maps","protocol":17,"map":"koth_highpass","folder":"tf","game":"Team Fortress","app_id":440,"player_count":0,"max_players":24,"Bots":0,"server_type":"Dedicated","server_os":"Linux","password":true,"vac":true,"version":"7961495","steam_id":85568392924470941,"keywords":["cp","nocrits","nodmgspread","uncletopia"],"game_id":440,"stv_port":27026,"stv_name":"Uncletopia | London | 2 | All Maps | STV","players":null},{"server_id":320,"name":"Uncletopia | London | 3 | All Maps","name_short":"lon-3","host":"lon-1.uk.uncletopia.com","port":27035,"enabled":true,"region":"eu","cc":"gb","latitude":51.509865,"longitude":-0.118092,"reserved":0,"last_update":"0001-01-01T00:00:00Z","name_a2s":"Uncletopia | London | 3 | All Maps","protocol":17,"map":"pl_upward","folder":"tf","game":"Team Fortress","app_id":440,"player_count":0,"max_players":24,"Bots":0,"server_type":"Dedicated","server_os":"Linux","password":true,"vac":true,"version":"7961495","steam_id":85568392924510192,"keywords":["nocrits","nodmgspread","payload","uncletopia"],"game_id":440,"stv_port":27036,"stv_name":"Uncletopia | London | 3 | All Maps | STV","players":null},{"server_id":321,"name":"Uncletopia | London | 4 | All Maps","name_short":"lon-4","host":"lon-1.uk.uncletopia.com","port":27045,"enabled":true,"region":"eu","cc":"gb","latitude":51.509865,"longitude":-0.118092,"reserved":0,"last_update":"0001-01-01T00:00:00Z","name_a2s":"Uncletopia | London | 4 | All Maps","protocol":17,"map":"pl_upward","folder":"tf","game":"Team Fortress","app_id":440,"player_count":24,"max_players":24,"Bots":0,"server_type":"Dedicated","server_os":"Linux","password":true,"vac":true,"version":"7961495","steam_id":85568392924510193,"keywords":["nocrits","nodmgspread","payload","uncletopia"],"game_id":440,"stv_port":27046,"stv_name":"Uncletopia | London | 4 | All Maps | STV","players":[{"user_id":232,"name":"etc","steam_id":76561197998394797,"connected_time":674000000000,"state":"active","ping":46},{"user_id":242,"name":"ThornDrayton","steam_id":76561198141985675,"connected_time":123000000000,"state":"active","ping":54},{"user_id":236,"name":"joachym","steam_id":76561198428579761,"connected_time":394000000000,"state":"active","ping":69},{"user_id":237,"name":"three rats in a trenchcoat","steam_id":76561197983889333,"connected_time":385000000000,"state":"active","ping":63},{"user_id":233,"name":"Finn","steam_id":76561198112456809,"connected_time":584000000000,"state":"active","ping":69},{"user_id":213,"name":"Toast On Cheese","steam_id":76561198078766475,"connected_time":1868000000000,"state":"active","ping":54},{"user_id":202,"name":"Hazo","steam_id":76561198137686270,"connected_time":2110000000000,"state":"active","ping":53},{"user_id":210,"name":"Blockster 9","steam_id":76561198337495949,"connected_time":1953000000000,"state":"active","ping":56},{"user_id":203,"name":"meatballsander","steam_id":76561199067337555,"connected_time":2084000000000,"state":"active","ping":70},{"user_id":219,"name":"JayJay","steam_id":76561198296557044,"connected_time":1585000000000,"state":"active","ping":58},{"user_id":228,"name":"Ekk0","steam_id":76561198063968951,"connected_time":900000000000,"state":"active","ping":68},{"user_id":238,"name":"Pestilence","steam_id":76561198140938904,"connected_time":384000000000,"state":"active","ping":120},{"user_id":241,"name":"Snowmotion","steam_id":76561198075022454,"connected_time":225000000000,"state":"active","ping":69},{"user_id":155,"name":"A Succulent Chinese Meal","steam_id":76561198069472440,"connected_time":4997000000000,"state":"active","ping":50},{"user_id":240,"name":"Splarvis","steam_id":76561198007792525,"connected_time":277000000000,"state":"active","ping":36},{"user_id":244,"name":"M2rtRa","steam_id":76561198111036466,"connected_time":78000000000,"state":"active","ping":75},{"user_id":141,"name":"Farao Ramses II","steam_id":76561198078722712,"connected_time":5999000000000,"state":"active","ping":48},{"user_id":231,"name":"goblin","steam_id":76561198170334258,"connected_time":786000000000,"state":"active","ping":60},{"user_id":220,"name":"meistjr","steam_id":76561198077240093,"connected_time":1547000000000,"state":"active","ping":54},{"user_id":222,"name":"lilbigman","steam_id":76561199094216585,"connected_time":1447000000000,"state":"active","ping":145},{"user_id":226,"name":"Jonny J","steam_id":76561198027710849,"connected_time":1043000000000,"state":"active","ping":82},{"user_id":245,"name":"Marquis de Hoto","steam_id":76561198080687708,"connected_time":49000000000,"state":"active","ping":78},{"user_id":230,"name":"install gentoo","steam_id":76561198185257982,"connected_time":863000000000,"state":"active","ping":71},{"user_id":235,"name":"AsianPersuasion","steam_id":76561198202112536,"connected_time":528000000000,"state":"active","ping":47}]},{"server_id":21,"name":"Uncletopia | London | 5 | All Maps","name_short":"lon-5","host":"lon-1.uk.uncletopia.com","port":27055,"enabled":true,"region":"eu","cc":"gb","latitude":51.509865,"longitude":-0.118092,"reserved":0,"last_update":"0001-01-01T00:00:00Z","name_a2s":"Uncletopia | London | 5 | All Maps","protocol":17,"map":"plr_bananabay","folder":"tf","game":"Team Fortress","app_id":440,"player_count":0,"max_players":24,"Bots":0,"server_type":"Dedicated","server_os":"Linux","password":true,"vac":true,"version":"7961495","steam_id":85568392924742829,"keywords":["nocrits","nodmgspread","payload","uncletopia"],"game_id":440,"stv_port":27056,"stv_name":"Uncletopia | London | 5 | All Maps | STV","players":null},{"server_id":22,"name":"Uncletopia | London | 6 | All Maps","name_short":"lon-6","host":"lon-1.uk.uncletopia.com","port":27065,"enabled":true,"region":"eu","cc":"gb","latitude":51.509865,"longitude":-0.118092,"reserved":0,"last_update":"0001-01-01T00:00:00Z","name_a2s":"Uncletopia | London | 6 | All Maps","protocol":17,"map":"pl_frontier_final","folder":"tf","game":"Team Fortress","app_id":440,"player_count":22,"max_players":24,"Bots":0,"server_type":"Dedicated","server_os":"Linux","password":true,"vac":true,"version":"7961495","steam_id":85568392924742830,"keywords":["nocrits","nodmgspread","payload","uncletopia"],"game_id":440,"stv_port":27066,"stv_name":"Uncletopia | London | 6 | All Maps | STV","players":[{"user_id":240,"name":"Pain in a Box","steam_id":76561197990777173,"connected_time":775000000000,"state":"active","ping":110},{"user_id":206,"name":"Vershal Smershal","steam_id":76561198116223995,"connected_time":3857000000000,"state":"active","ping":55},{"user_id":215,"name":"Ryan Gosling (Literally me)","steam_id":76561198438150893,"connected_time":2617000000000,"state":"active","ping":99},{"user_id":143,"name":"legalize glue","steam_id":76561198191369066,"connected_time":7703000000000,"state":"active","ping":130},{"user_id":246,"name":"BIG TOBACCO.MD","steam_id":76561198052261111,"connected_time":256000000000,"state":"active","ping":38},{"user_id":233,"name":"jeremy","steam_id":76561199062586342,"connected_time":1432000000000,"state":"active","ping":62},{"user_id":229,"name":"zayd","steam_id":76561198895235231,"connected_time":1583000000000,"state":"active","ping":51},{"user_id":232,"name":"Yinsoo","steam_id":76561198127697875,"connected_time":1521000000000,"state":"active","ping":74},{"user_id":247,"name":"≈†tƒõp√°n","steam_id":76561198275742101,"connected_time":246000000000,"state":"active","ping":73},{"user_id":248,"name":"LucyLime","steam_id":76561198262258698,"connected_time":219000000000,"state":"active","ping":48},{"user_id":250,"name":"Albon","steam_id":76561198060378881,"connected_time":129000000000,"state":"active","ping":69},{"user_id":208,"name":"agent youppii","steam_id":76561198055264447,"connected_time":3835000000000,"state":"active","ping":50},{"user_id":236,"name":"Jombus Quan","steam_id":76561198240560666,"connected_time":1285000000000,"state":"active","ping":48},{"user_id":251,"name":"Huskai","steam_id":76561198141512362,"connected_time":27000000000,"state":"active","ping":41},{"user_id":249,"name":"Piss Man","steam_id":76561198089957950,"connected_time":209000000000,"state":"active","ping":62},{"user_id":224,"name":"vegetable_lover_45","steam_id":76561198361621766,"connected_time":2254000000000,"state":"active","ping":44},{"user_id":204,"name":"Valfezant","steam_id":76561199063983797,"connected_time":4247000000000,"state":"active","ping":65},{"user_id":237,"name":"Omyskull","steam_id":76561198131711758,"connected_time":1237000000000,"state":"active","ping":71},{"user_id":222,"name":"MrToX","steam_id":76561198219219313,"connected_time":2441000000000,"state":"active","ping":55},{"user_id":244,"name":"Zedifo","steam_id":76561198044032070,"connected_time":503000000000,"state":"active","ping":46},{"user_id":225,"name":"DaisyTheCat","steam_id":76561198241732704,"connected_time":2236000000000,"state":"active","ping":47},{"user_id":91,"name":"Marcel","steam_id":76561198348686648,"connected_time":11098000000000,"state":"active","ping":45}]},{"server_id":40,"name":"Uncletopia | London | 7 | Stopwatch","name_short":"lon-7","host":"lon-1.uk.uncletopia.com","port":27075,"enabled":true,"region":"eu","cc":"gb","latitude":51.509865,"longitude":-0.118092,"reserved":0,"last_update":"0001-01-01T00:00:00Z","name_a2s":"Uncletopia | London | 7 | Stopwatch","protocol":17,"map":"workshop/pl_vigil_rc10.ugc1266210012","folder":"tf","game":"Team Fortress","app_id":440,"player_count":0,"max_players":24,"Bots":0,"server_type":"Dedicated","server_os":"Linux","password":true,"vac":true,"version":"7961495","steam_id":85568392924964314,"keywords":["nocrits","nodmgspread","payload","uncletopia"],"game_id":440,"stv_port":27076,"stv_name":"Uncletopia | London | 7 | Stopwatch | STV","players":null},{"server_id":41,"name":"Uncletopia | London | 8 | Community","name_short":"lon-8","host":"lon-1.uk.uncletopia.com","port":27085,"enabled":true,"region":"eu","cc":"gb","latitude":51.509865,"longitude":-0.118092,"reserved":0,"last_update":"0001-01-01T00:00:00Z","name_a2s":"Uncletopia | London | 8 | Community","protocol":17,"map":"workshop/pl_cactuscanyon_redux_final2.ugc2579644293","folder":"tf","game":"Team Fortress","app_id":440,"player_count":0,"max_players":24,"Bots":0,"server_type":"Dedicated","server_os":"Linux","password":true,"vac":true,"version":"7961495","steam_id":85568392924964315,"keywords":["nocrits","nodmgspread","payload","uncletopia"],"game_id":440,"stv_port":27086,"stv_name":"Uncletopia | London | 8 | Community | STV","players":null},{"server_id":300,"name":"Uncletopia | Montr√©al | 1 | One Thousand Uncles","name_short":"mtl-1","host":"mtl-1.ca.uncletopia.com","port":27015,"enabled":true,"region":"us-east","cc":"ca","latitude":45.50889,"longitude":-73.56167,"reserved":0,"last_update":"0001-01-01T00:00:00Z","name_a2s":"","protocol":0,"map":"","folder":"","game":"","app_id":0,"player_count":1,"max_players":0,"Bots":0,"server_type":"","server_os":"","password":false,"vac":false,"version":"","steam_id":0,"keywords":null,"game_id":0,"stv_port":0,"stv_name":"","players":[{"user_id":220,"name":"Why not Zoidberg?","steam_id":76561197982207556,"connected_time":319000000000,"state":"active","ping":81}]},{"server_id":301,"name":"Uncletopia | Montr√©al | 2 | One Thousand Uncles","name_short":"mtl-2","host":"mtl-1.ca.uncletopia.com","port":27025,"enabled":true,"region":"us-east","cc":"ca","latitude":45.50889,"longitude":-73.56167,"reserved":0,"last_update":"0001-01-01T00:00:00Z","name_a2s":"","protocol":0,"map":"","folder":"","game":"","app_id":0,"player_count":0,"max_players":0,"Bots":0,"server_type":"","server_os":"","password":false,"vac":false,"version":"","steam_id":0,"keywords":null,"game_id":0,"stv_port":0,"stv_name":"","players":null},{"server_id":302,"name":"Uncletopia | Montr√©al | 3 | One Thousand Uncles","name_short":"mtl-3","host":"mtl-1.ca.uncletopia.com","port":27035,"enabled":true,"region":"us-east","cc":"ca","latitude":45.50889,"longitude":-73.56167,"reserved":0,"last_update":"0001-01-01T00:00:00Z","name_a2s":"","protocol":0,"map":"","folder":"","game":"","app_id":0,"player_count":0,"max_players":0,"Bots":0,"server_type":"","server_os":"","password":false,"vac":false,"version":"","steam_id":0,"keywords":null,"game_id":0,"stv_port":0,"stv_name":"","players":null},{"server_id":13,"name":"Uncletopia | New York City | 1 | All Maps","name_short":"nyc-1","host":"nyc-1.us.uncletopia.com","port":27015,"enabled":true,"region":"us-east","cc":"us","latitude":40.73061,"longitude":-73.93524,"reserved":0,"last_update":"0001-01-01T00:00:00Z","name_a2s":"Uncletopia | New York City | 1 | All Maps","protocol":17,"map":"pl_pier","folder":"tf","game":"Team Fortress","app_id":440,"player_count":24,"max_players":24,"Bots":0,"server_type":"Dedicated","server_os":"Linux","password":true,"vac":true,"version":"7961495","steam_id":85568392924469993,"keywords":["nocrits","nodmgspread","payload","uncletopia"],"game_id":440,"stv_port":27016,"stv_name":"Uncletopia | New York City | 1 | All Maps | STV","players":[{"user_id":189,"name":"Andrew's Taint","steam_id":76561198131400543,"connected_time":1094000000000,"state":"active","ping":91},{"user_id":182,"name":"Windup Monkey in a Human Suit","steam_id":76561198119501444,"connected_time":1667000000000,"state":"active","ping":85},{"user_id":180,"name":"DoUFart","steam_id":76561198093422623,"connected_time":1904000000000,"state":"active","ping":68},{"user_id":181,"name":"Jango","steam_id":76561198084589742,"connected_time":1830000000000,"state":"active","ping":78},{"user_id":186,"name":"Fredrick","steam_id":76561197981419964,"connected_time":1111000000000,"state":"active","ping":53},{"user_id":176,"name":"Mixed Up","steam_id":76561198042570322,"connected_time":2226000000000,"state":"active","ping":76},{"user_id":129,"name":"theaudacity","steam_id":76561198104001760,"connected_time":4540000000000,"state":"active","ping":137},{"user_id":197,"name":"diip","steam_id":76561198345828288,"connected_time":661000000000,"state":"active","ping":75},{"user_id":164,"name":"JxyGREED","steam_id":76561198345026653,"connected_time":3273000000000,"state":"active","ping":45},{"user_id":190,"name":"Bagel","steam_id":76561198167747447,"connected_time":1086000000000,"state":"active","ping":68},{"user_id":155,"name":"PointyCactus","steam_id":76561199377064707,"connected_time":3688000000000,"state":"active","ping":51},{"user_id":169,"name":"fried rice","steam_id":76561198928939100,"connected_time":2649000000000,"state":"active","ping":97},{"user_id":173,"name":"BumpofNight","steam_id":76561198011581312,"connected_time":2451000000000,"state":"active","ping":91},{"user_id":171,"name":"jose.gonzales.2003","steam_id":76561199217620385,"connected_time":2511000000000,"state":"active","ping":55},{"user_id":183,"name":"randomusername","steam_id":76561199078214700,"connected_time":1592000000000,"state":"active","ping":74},{"user_id":148,"name":"jinxxedbyu2","steam_id":76561198341045051,"connected_time":3840000000000,"state":"active","ping":71},{"user_id":179,"name":"breathingtrees","steam_id":76561198118931690,"connected_time":2110000000000,"state":"active","ping":56},{"user_id":196,"name":"Nansral26","steam_id":76561198886650496,"connected_time":680000000000,"state":"active","ping":58},{"user_id":192,"name":"HalfDead","steam_id":76561198049700226,"connected_time":1051000000000,"state":"active","ping":69},{"user_id":177,"name":"Top Frog","steam_id":76561198072793446,"connected_time":2205000000000,"state":"active","ping":71},{"user_id":167,"name":"Oneal","steam_id":76561198026564095,"connected_time":2747000000000,"state":"active","ping":60},{"user_id":193,"name":"Remix.SMG","steam_id":76561198052895933,"connected_time":863000000000,"state":"active","ping":71},{"user_id":175,"name":"UwU","steam_id":76561198971629959,"connected_time":2235000000000,"state":"active","ping":133},{"user_id":201,"name":"Bunglue","steam_id":76561198200675321,"connected_time":607000000000,"state":"active","ping":48}]},{"server_id":14,"name":"Uncletopia | New York City | 2 | All Maps","name_short":"nyc-2","host":"nyc-1.us.uncletopia.com","port":27025,"enabled":true,"region":"us-east","cc":"us","latitude":40.73061,"longitude":-73.93524,"reserved":0,"last_update":"0001-01-01T00:00:00Z","name_a2s":"Uncletopia | New York City | 2 | All Maps","protocol":17,"map":"cp_mountainlab","folder":"tf","game":"Team Fortress","app_id":440,"player_count":24,"max_players":24,"Bots":0,"server_type":"Dedicated","server_os":"Linux","password":true,"vac":true,"version":"7961495","steam_id":85568392924469994,"keywords":["cp","nocrits","nodmgspread","uncletopia"],"game_id":440,"stv_port":27026,"stv_name":"Uncletopia | New York City | 2 | All Maps | STV","players":[{"user_id":187,"name":"Haveltherock27","steam_id":76561199219844391,"connected_time":4948000000000,"state":"active","ping":72},{"user_id":173,"name":"MooMoo ( ^ ≈µ ^ ‚úø)","steam_id":76561198009150851,"connected_time":6110000000000,"state":"active","ping":70},{"user_id":232,"name":"krill issue","steam_id":76561198088201976,"connected_time":1695000000000,"state":"active","ping":105},{"user_id":182,"name":"cube","steam_id":76561197991759721,"connected_time":5499000000000,"state":"active","ping":45},{"user_id":108,"name":"The Sorrow of Dandy","steam_id":76561198005551894,"connected_time":9725000000000,"state":"active","ping":86},{"user_id":221,"name":"swan","steam_id":76561198012569200,"connected_time":2852000000000,"state":"active","ping":59},{"user_id":230,"name":"YummerBummer","steam_id":76561198094773987,"connected_time":1723000000000,"state":"active","ping":54},{"user_id":223,"name":"H0wlr","steam_id":76561198012332824,"connected_time":2707000000000,"state":"active","ping":55},{"user_id":231,"name":"Sicko Mode (Chris Pratt Cover)","steam_id":76561198315786174,"connected_time":1705000000000,"state":"active","ping":76},{"user_id":180,"name":"BradB.","steam_id":76561199163905036,"connected_time":5624000000000,"state":"active","ping":84},{"user_id":207,"name":"LeGamingProPlays","steam_id":76561198121304032,"connected_time":3821000000000,"state":"active","ping":89},{"user_id":217,"name":"Tokyo_Timeshift_","steam_id":76561198048677523,"connected_time":2902000000000,"state":"active","ping":73},{"user_id":212,"name":"Trouser Snivy","steam_id":76561198073788829,"connected_time":3508000000000,"state":"active","ping":122},{"user_id":229,"name":"Rummy the Blargh-gineer","steam_id":76561197997192800,"connected_time":1776000000000,"state":"active","ping":60},{"user_id":233,"name":"Mr Bootylicious","steam_id":76561199075353403,"connected_time":1693000000000,"state":"active","ping":38},{"user_id":238,"name":"{FITH}‚Ñ¢ SmittyWun {FM}","steam_id":76561198079531938,"connected_time":1405000000000,"state":"active","ping":74},{"user_id":227,"name":"you forgot the sauce","steam_id":76561198387016713,"connected_time":1884000000000,"state":"active","ping":60},{"user_id":219,"name":"the pest","steam_id":76561198826298849,"connected_time":2900000000000,"state":"active","ping":92},{"user_id":226,"name":"Sagoogoo","steam_id":76561198176061614,"connected_time":2271000000000,"state":"active","ping":127},{"user_id":239,"name":"majorbobfunction","steam_id":76561198042464632,"connected_time":1351000000000,"state":"active","ping":72},{"user_id":178,"name":"Grazzunk","steam_id":76561198290227691,"connected_time":5853000000000,"state":"active","ping":59},{"user_id":228,"name":"Riley The lol","steam_id":76561198196153110,"connected_time":1793000000000,"state":"active","ping":67},{"user_id":222,"name":"Junk","steam_id":76561198024382753,"connected_time":2850000000000,"state":"active","ping":63},{"user_id":241,"name":"Random Shonen Smear","steam_id":76561198397873029,"connected_time":191000000000,"state":"active","ping":67}]},{"server_id":15,"name":"Uncletopia | New York City | 3 | Stopwatch","name_short":"nyc-3","host":"nyc-1.us.uncletopia.com","port":27035,"enabled":true,"region":"us-east","cc":"us","latitude":40.73061,"longitude":-73.93524,"reserved":0,"last_update":"0001-01-01T00:00:00Z","name_a2s":"Uncletopia | New York City | 3 | Stopwatch","protocol":17,"map":"workshop/koth_product_final.ugc454272353","folder":"tf","game":"Team Fortress","app_id":440,"player_count":2,"max_players":24,"Bots":0,"server_type":"Dedicated","server_os":"Linux","password":true,"vac":true,"version":"7961495","steam_id":85568392924742820,"keywords":["cp","nocrits","nodmgspread","uncletopia"],"game_id":440,"stv_port":27036,"stv_name":"Uncletopia | New York City | 3 | Stopwatch | STV","players":[{"user_id":20,"name":"amaricantanker#574","steam_id":76561198343584037,"connected_time":889000000000,"state":"active","ping":116},{"user_id":21,"name":"Bee_Pirate","steam_id":76561199000599111,"connected_time":388000000000,"state":"active","ping":60}]},{"server_id":16,"name":"Uncletopia | New York City | 4 | Community","name_short":"nyc-4","host":"nyc-1.us.uncletopia.com","port":27045,"enabled":true,"region":"us-east","cc":"us","latitude":40.73061,"longitude":-73.93524,"reserved":0,"last_update":"0001-01-01T00:00:00Z","name_a2s":"Uncletopia | New York City | 4 | Community","protocol":17,"map":"workshop/koth_product_final.ugc454272353","folder":"tf","game":"Team Fortress","app_id":440,"player_count":1,"max_players":24,"Bots":0,"server_type":"Dedicated","server_os":"Linux","password":true,"vac":true,"version":"7961495","steam_id":85568392924742821,"keywords":["cp","nocrits","nodmgspread","uncletopia"],"game_id":440,"stv_port":27046,"stv_name":"Uncletopia | New York City | 4 | Community | STV","players":[{"user_id":9,"name":"Jitters","steam_id":76561198078898336,"connected_time":1110000000000,"state":"active","ping":60}]},{"server_id":142,"name":"Uncletopia | S√£o Paulo | 1 | All Maps","name_short":"sao-1","host":"sao-1.br.uncletopia.com","port":27015,"enabled":true,"region":"sa","cc":"br","latitude":-23.533773,"longitude":-46.62529,"reserved":0,"last_update":"0001-01-01T00:00:00Z","name_a2s":"Uncletopia | S√£o Paulo | 1 | All Maps","protocol":17,"map":"koth_lakeside_final","folder":"tf","game":"Team Fortress","app_id":440,"player_count":0,"max_players":24,"Bots":0,"server_type":"Dedicated","server_os":"Linux","password":true,"vac":true,"version":"7961495","steam_id":85568392924469996,"keywords":["cp","nocrits","nodmgspread","uncletopia"],"game_id":440,"stv_port":27016,"stv_name":"Uncletopia | S√£o Paulo | 1 | All Maps | STV","players":null},{"server_id":143,"name":"Uncletopia | S√£o Paulo | 2 | Community","name_short":"sao-2","host":"sao-2.br.uncletopia.com","port":27015,"enabled":true,"region":"sa","cc":"br","latitude":-23.533773,"longitude":-46.62529,"reserved":0,"last_update":"0001-01-01T00:00:00Z","name_a2s":"Uncletopia | S√£o Paulo | 2 | Community","protocol":17,"map":"workshop/koth_product_final.ugc454272353","folder":"tf","game":"Team Fortress","app_id":440,"player_count":0,"max_players":24,"Bots":0,"server_type":"Dedicated","server_os":"Linux","password":true,"vac":true,"version":"7961495","steam_id":85568392924485349,"keywords":["cp","nocrits","nodmgspread","uncletopia"],"game_id":440,"stv_port":27016,"stv_name":"Uncletopia | S√£o Paulo | 2 | Community | STV","players":null},{"server_id":7,"name":"Uncletopia | Seattle | 1 | All Maps","name_short":"sea-1","host":"sea-1.us.uncletopia.com","port":27015,"enabled":true,"region":"us-west","cc":"us","latitude":47.608013,"longitude":-122.33517,"reserved":0,"last_update":"0001-01-01T00:00:00Z","name_a2s":"Uncletopia | Seattle | 1 | All Maps","protocol":17,"map":"cp_process_final","folder":"tf","game":"Team Fortress","app_id":440,"player_count":18,"max_players":24,"Bots":0,"server_type":"Dedicated","server_os":"Linux","password":true,"vac":true,"version":"7961495","steam_id":85568392924469997,"keywords":["cp","nocrits","nodmgspread","uncletopia"],"game_id":440,"stv_port":27016,"stv_name":"Uncletopia | Seattle | 1 | All Maps | STV","players":[{"user_id":220,"name":"dave strider","steam_id":76561198065112186,"connected_time":43000000000,"state":"active","ping":61},{"user_id":221,"name":"Fishtacollahma","steam_id":76561198060115913,"connected_time":31000000000,"state":"active","ping":45},{"user_id":215,"name":"imsobad1254","steam_id":76561199405307184,"connected_time":172000000000,"state":"active","ping":99},{"user_id":126,"name":"you just got dyked on","steam_id":76561198018977723,"connected_time":6804000000000,"state":"active","ping":50},{"user_id":198,"name":"LAB8","steam_id":76561198047743526,"connected_time":873000000000,"state":"active","ping":32},{"user_id":216,"name":"Yoshimelon","steam_id":76561198253054325,"connected_time":104000000000,"state":"active","ping":89},{"user_id":190,"name":"Classy Crow","steam_id":76561198208586049,"connected_time":1485000000000,"state":"active","ping":53},{"user_id":222,"name":"z57","steam_id":76561198973095464,"connected_time":27000000000,"state":"active","ping":119},{"user_id":169,"name":"¬´D·µÉ ≥·µè.,,.T·µâ·µê·µñ¬ª","steam_id":76561198018185884,"connected_time":3462000000000,"state":"active","ping":42},{"user_id":182,"name":"The Population of Sweden","steam_id":76561198202201644,"connected_time":2060000000000,"state":"active","ping":38},{"user_id":217,"name":"vfa","steam_id":76561198055729118,"connected_time":99000000000,"state":"active","ping":49},{"user_id":223,"name":"Vey_Corn","steam_id":76561198245051740,"connected_time":23000000000,"state":"active","ping":90},{"user_id":191,"name":"bark","steam_id":76561197992287250,"connected_time":1463000000000,"state":"active","ping":84},{"user_id":218,"name":"Brastion","steam_id":76561198257707303,"connected_time":81000000000,"state":"active","ping":78},{"user_id":219,"name":"Hakuyer","steam_id":76561198098618247,"connected_time":68000000000,"state":"active","ping":29},{"user_id":187,"name":"squart guy","steam_id":76561199411560141,"connected_time":1597000000000,"state":"active","ping":33},{"user_id":165,"name":"aBigPoo","steam_id":76561198425027856,"connected_time":3630000000000,"state":"active","ping":59},{"user_id":179,"name":"SkobeBeef","steam_id":76561198078638948,"connected_time":2280000000000,"state":"active","ping":56}]},{"server_id":119,"name":"Uncletopia | Seattle | 2 | All Maps","name_short":"sea-2","host":"sea-1.us.uncletopia.com","port":27025,"enabled":true,"region":"us-west","cc":"us","latitude":47.608013,"longitude":-122.33517,"reserved":0,"last_update":"0001-01-01T00:00:00Z","name_a2s":"Uncletopia | Seattle | 2 | All Maps","protocol":17,"map":"cp_process_final","folder":"tf","game":"Team Fortress","app_id":440,"player_count":0,"max_players":24,"Bots":0,"server_type":"Dedicated","server_os":"Linux","password":true,"vac":true,"version":"7961495","steam_id":85568392924469998,"keywords":["cp","nocrits","nodmgspread","uncletopia"],"game_id":440,"stv_port":27026,"stv_name":"Uncletopia | Seattle | 2 | All Maps | STV","players":null},{"server_id":406,"name":"Uncletopia | Seattle | 3 | Stopwatch","name_short":"sea-3","host":"sea-1.us.uncletopia.com","port":27035,"enabled":true,"region":"us-west","cc":"us","latitude":47.608013,"longitude":-122.33517,"reserved":0,"last_update":"0001-01-01T00:00:00Z","name_a2s":"Uncletopia | Seattle | 3 | Stopwatch","protocol":17,"map":"pl_upward","folder":"tf","game":"Team Fortress","app_id":440,"player_count":4,"max_players":24,"Bots":0,"server_type":"Dedicated","server_os":"Linux","password":true,"vac":true,"version":"7961495","steam_id":85568392924515217,"keywords":["nocrits","nodmgspread","payload","uncletopia"],"game_id":440,"stv_port":27036,"stv_name":"Uncletopia | Seattle | 3 | Stopwatch | STV","players":[{"user_id":4,"name":"Smg065","steam_id":76561198073042003,"connected_time":4743000000000,"state":"active","ping":94},{"user_id":5,"name":"NekoNoka","steam_id":76561199010902537,"connected_time":4726000000000,"state":"active","ping":82},{"user_id":18,"name":"Mr. Skully","steam_id":76561199040190981,"connected_time":423000000000,"state":"active","ping":72},{"user_id":17,"name":"funkeymonkey15","steam_id":76561198930961042,"connected_time":727000000000,"state":"active","ping":104}]},{"server_id":17,"name":"Uncletopia | San Francisco | 1 | All Maps","name_short":"sfo-1","host":"sfo-1.us.uncletopia.com","port":27015,"enabled":true,"region":"us-west","cc":"us","latitude":37.77397,"longitude":-122.4313,"reserved":0,"last_update":"0001-01-01T00:00:00Z","name_a2s":"Uncletopia | San Francisco | 1 | All Maps","protocol":17,"map":"koth_cascade","folder":"tf","game":"Team Fortress","app_id":440,"player_count":0,"max_players":24,"Bots":0,"server_type":"Dedicated","server_os":"Linux","password":true,"vac":true,"version":"7961495","steam_id":85568392924469999,"keywords":["cp","nocrits","nodmgspread","uncletopia"],"game_id":440,"stv_port":27016,"stv_name":"Uncletopia | San Francisco | 1 | All Maps | STV","players":null},{"server_id":18,"name":"Uncletopia | San Francisco | 2 | All Maps","name_short":"sfo-2","host":"sfo-1.us.uncletopia.com","port":27025,"enabled":true,"region":"us-west","cc":"us","latitude":37.77397,"longitude":-122.4313,"reserved":0,"last_update":"0001-01-01T00:00:00Z","name_a2s":"Uncletopia | San Francisco | 2 | All Maps","protocol":17,"map":"pl_borneo","folder":"tf","game":"Team Fortress","app_id":440,"player_count":24,"max_players":24,"Bots":0,"server_type":"Dedicated","server_os":"Linux","password":true,"vac":true,"version":"7961495","steam_id":85568392924470000,"keywords":["nocrits","nodmgspread","payload","uncletopia"],"game_id":440,"stv_port":27026,"stv_name":"Uncletopia | San Francisco | 2 | All Maps | STV","players":[{"user_id":286,"name":"Greskrendtregk","steam_id":76561197969553142,"connected_time":680000000000,"state":"active","ping":73},{"user_id":288,"name":"SeaDeez","steam_id":76561198171637283,"connected_time":592000000000,"state":"active","ping":131},{"user_id":244,"name":"FunnyGoomba","steam_id":76561198279865229,"connected_time":3310000000000,"state":"active","ping":62},{"user_id":287,"name":"zxenon","steam_id":76561198133606851,"connected_time":659000000000,"state":"active","ping":62},{"user_id":294,"name":"Delsym Sipper","steam_id":76561198206177593,"connected_time":369000000000,"state":"active","ping":46},{"user_id":281,"name":"Eden","steam_id":76561198081284664,"connected_time":976000000000,"state":"active","ping":60},{"user_id":289,"name":"Keamy","steam_id":76561199471434875,"connected_time":488000000000,"state":"active","ping":58},{"user_id":297,"name":"Reed the Flame Shadow","steam_id":76561198348354629,"connected_time":204000000000,"state":"active","ping":55},{"user_id":290,"name":"jujual65","steam_id":76561199456281542,"connected_time":483000000000,"state":"active","ping":88},{"user_id":268,"name":"shmeushmeu ttv","steam_id":76561198168064595,"connected_time":1771000000000,"state":"active","ping":78},{"user_id":276,"name":"roach :3","steam_id":76561198354811369,"connected_time":1156000000000,"state":"active","ping":57},{"user_id":256,"name":"Lunarthrope","steam_id":76561198292132147,"connected_time":2794000000000,"state":"active","ping":70},{"user_id":264,"name":"spoc13","steam_id":76561198091808119,"connected_time":2384000000000,"state":"active","ping":52},{"user_id":298,"name":"JOHN WICK","steam_id":76561198091877422,"connected_time":166000000000,"state":"active","ping":95},{"user_id":153,"name":"Bandit","steam_id":76561199087543553,"connected_time":8451000000000,"state":"active","ping":70},{"user_id":285,"name":"dewey","steam_id":76561198132791511,"connected_time":727000000000,"state":"active","ping":67},{"user_id":275,"name":"mycoolcucumber","steam_id":76561198177586211,"connected_time":1380000000000,"state":"active","ping":107},{"user_id":295,"name":"ATATDRIVER","steam_id":76561198262816771,"connected_time":344000000000,"state":"active","ping":70},{"user_id":231,"name":"ronald_stackerusa55","steam_id":76561198150406851,"connected_time":3951000000000,"state":"active","ping":46},{"user_id":216,"name":"Chimp Peen's Revunge","steam_id":76561198165778514,"connected_time":4693000000000,"state":"active","ping":86},{"user_id":296,"name":"Yamnich2","steam_id":76561198160364724,"connected_time":342000000000,"state":"active","ping":70},{"user_id":293,"name":"SolarusD","steam_id":76561198029279861,"connected_time":436000000000,"state":"active","ping":47},{"user_id":267,"name":"scringo","steam_id":76561198169969030,"connected_time":1784000000000,"state":"active","ping":66},{"user_id":277,"name":"SneekiCheekiQbone","steam_id":76561198045077980,"connected_time":1156000000000,"state":"active","ping":52}]},{"server_id":19,"name":"Uncletopia | San Francisco | 3 | Stopwatch","name_short":"sfo-3","host":"sfo-1.us.uncletopia.com","port":27035,"enabled":true,"region":"us-west","cc":"us","latitude":37.77397,"longitude":-122.4313,"reserved":0,"last_update":"0001-01-01T00:00:00Z","name_a2s":"Uncletopia | San Francisco | 3 | Stopwatch","protocol":17,"map":"pl_pier","folder":"tf","game":"Team Fortress","app_id":440,"player_count":0,"max_players":24,"Bots":0,"server_type":"Dedicated","server_os":"Linux","password":true,"vac":true,"version":"7961495","steam_id":85568392924742824,"keywords":["nocrits","nodmgspread","payload","uncletopia"],"game_id":440,"stv_port":27036,"stv_name":"Uncletopia | San Francisco | 3 | Stopwatch | STV","players":null},{"server_id":20,"name":"Uncletopia | San Francisco | 4 | Community","name_short":"sfo-4","host":"sfo-1.us.uncletopia.com","port":27045,"enabled":true,"region":"us-west","cc":"us","latitude":37.77397,"longitude":-122.4313,"reserved":0,"last_update":"0001-01-01T00:00:00Z","name_a2s":"Uncletopia | San Francisco | 4 | Community","protocol":17,"map":"pl_pier","folder":"tf","game":"Team Fortress","app_id":440,"player_count":0,"max_players":24,"Bots":0,"server_type":"Dedicated","server_os":"Linux","password":true,"vac":true,"version":"7961495","steam_id":85568392924742826,"keywords":["nocrits","nodmgspread","payload","uncletopia"],"game_id":440,"stv_port":27046,"stv_name":"Uncletopia | San Francisco | 4 | Community | STV","players":null},{"server_id":141,"name":"Uncletopia | Sydney | 1 | All Maps","name_short":"syd-1","host":"syd-1.au.uncletopia.com","port":27015,"enabled":true,"region":"au","cc":"au","latitude":-33.865143,"longitude":151.2099,"reserved":0,"last_update":"0001-01-01T00:00:00Z","name_a2s":"Uncletopia | Sydney | 1 | All Maps","protocol":17,"map":"koth_viaduct","folder":"tf","game":"Team Fortress","app_id":440,"player_count":0,"max_players":24,"Bots":0,"server_type":"Dedicated","server_os":"Linux","password":true,"vac":true,"version":"7961495","steam_id":85568392924470001,"keywords":["cp","nocrits","nodmgspread","uncletopia"],"game_id":440,"stv_port":27016,"stv_name":"Uncletopia | Sydney | 1 | All Maps | STV","players":null},{"server_id":123,"name":"Uncletopia | Sydney | 2 | All Maps","name_short":"syd-2","host":"syd-1.au.uncletopia.com","port":27025,"enabled":true,"region":"au","cc":"au","latitude":-33.865143,"longitude":151.2099,"reserved":0,"last_update":"0001-01-01T00:00:00Z","name_a2s":"Uncletopia | Sydney | 2 | All Maps","protocol":17,"map":"koth_lakeside_final","folder":"tf","game":"Team Fortress","app_id":440,"player_count":0,"max_players":24,"Bots":0,"server_type":"Dedicated","server_os":"Linux","password":true,"vac":true,"version":"7961495","steam_id":85568392924470002,"keywords":["cp","nocrits","nodmgspread","uncletopia"],"game_id":440,"stv_port":27026,"stv_name":"Uncletopia | Sydney | 2 | All Maps | STV","players":null},{"server_id":395,"name":"Uncletopia | Sydney | 3 | All Maps","name_short":"syd-3","host":"syd-1.au.uncletopia.com","port":27035,"enabled":true,"region":"au","cc":"au","latitude":-33.865143,"longitude":151.2099,"reserved":0,"last_update":"0001-01-01T00:00:00Z","name_a2s":"Uncletopia | Sydney | 3 | All Maps","protocol":17,"map":"pl_frontier_final","folder":"tf","game":"Team Fortress","app_id":440,"player_count":0,"max_players":24,"Bots":0,"server_type":"Dedicated","server_os":"Linux","password":true,"vac":true,"version":"7961495","steam_id":85568392925194467,"keywords":["nocrits","nodmgspread","payload","uncletopia"],"game_id":440,"stv_port":27036,"stv_name":"Uncletopia | Sydney | 3 | All Maps | STV","players":null},{"server_id":396,"name":"Uncletopia | Sydney | 4 | All Maps","name_short":"syd-4","host":"syd-1.au.uncletopia.com","port":27045,"enabled":true,"region":"au","cc":"au","latitude":-33.865143,"longitude":151.2099,"reserved":0,"last_update":"0001-01-01T00:00:00Z","name_a2s":"Uncletopia | Sydney | 4 | All Maps","protocol":17,"map":"cp_process_final","folder":"tf","game":"Team Fortress","app_id":440,"player_count":0,"max_players":24,"Bots":0,"server_type":"Dedicated","server_os":"Linux","password":true,"vac":true,"version":"7961495","steam_id":85568392925397958,"keywords":["cp","nocrits","nodmgspread","uncletopia"],"game_id":440,"stv_port":27046,"stv_name":"Uncletopia | Sydney | 4 | All Maps | STV","players":null},{"server_id":58,"name":"Uncletopia | Sydney | 5 | Stopwatch","name_short":"syd-5","host":"syd-1.au.uncletopia.com","port":27055,"enabled":true,"region":"au","cc":"au","latitude":-33.865143,"longitude":151.2099,"reserved":0,"last_update":"0001-01-01T00:00:00Z","name_a2s":"Uncletopia | Sydney | 5 | Stopwatch","protocol":17,"map":"pl_frontier_final","folder":"tf","game":"Team Fortress","app_id":440,"player_count":0,"max_players":24,"Bots":0,"server_type":"Dedicated","server_os":"Linux","password":true,"vac":true,"version":"7961495","steam_id":85568392925397959,"keywords":["nocrits","nodmgspread","payload","uncletopia"],"game_id":440,"stv_port":27056,"stv_name":"Uncletopia | Sydney | 5 | Stopwatch | STV","players":null},{"server_id":59,"name":"Uncletopia | Sydney | 6 | Community","name_short":"syd-6","host":"syd-1.au.uncletopia.com","port":27065,"enabled":true,"region":"au","cc":"au","latitude":-33.865143,"longitude":151.2099,"reserved":0,"last_update":"0001-01-01T00:00:00Z","name_a2s":"Uncletopia | Sydney | 6 | Community","protocol":17,"map":"cp_sunshine","folder":"tf","game":"Team Fortress","app_id":440,"player_count":0,"max_players":24,"Bots":0,"server_type":"Dedicated","server_os":"Linux","password":true,"vac":true,"version":"7961495","steam_id":85568392925397960,"keywords":["cp","nocrits","nodmgspread","uncletopia"],"game_id":440,"stv_port":27066,"stv_name":"Uncletopia | Sydney | 6 | Community | STV","players":null},{"server_id":49,"name":"Uncletopia | Warsaw | 1 | One Thousand Uncles","name_short":"waw-1","host":"waw-1.pl.uncletopia.com","port":27015,"enabled":true,"region":"eu","cc":"pl","latitude":52.2297,"longitude":21.017532,"reserved":0,"last_update":"0001-01-01T00:00:00Z","name_a2s":"Uncletopia | Warsaw | 1 | One Thousand Uncles","protocol":17,"map":"cp_mercenarypark","folder":"tf","game":"Team Fortress","app_id":440,"player_count":23,"max_players":32,"Bots":16,"server_type":"Dedicated","server_os":"Linux","password":true,"vac":true,"version":"7961495","steam_id":85568392925397850,"keywords":["alltalk","bots","cp","danepve","increased_maxplayers","nocrits","norespawntime","uncletopia"],"game_id":440,"stv_port":0,"stv_name":"","players":[{"user_id":674,"name":"Random_guy","steam_id":76561199093486348,"connected_time":3060000000000,"state":"active","ping":210},{"user_id":675,"name":"starboydec2000","steam_id":76561199437969450,"connected_time":3057000000000,"state":"active","ping":220},{"user_id":692,"name":"radbroi","steam_id":76561199215472309,"connected_time":2997000000000,"state":"active","ping":221},{"user_id":694,"name":"JSX","steam_id":76561198039097662,"connected_time":931000000000,"state":"active","ping":89},{"user_id":695,"name":"MistrzPalc√≥wa","steam_id":76561199044887226,"connected_time":923000000000,"state":"active","ping":45},{"user_id":696,"name":"smol","steam_id":76561199199407775,"connected_time":798000000000,"state":"active","ping":152},{"user_id":698,"name":"demo flower","steam_id":76561199401272759,"connected_time":415000000000,"state":"active","ping":74}]},{"server_id":50,"name":"Uncletopia | Warsaw | 2 | One Thousand Uncles","name_short":"waw-2","host":"waw-1.pl.uncletopia.com","port":27025,"enabled":true,"region":"eu","cc":"pl","latitude":52.2297,"longitude":21.017532,"reserved":0,"last_update":"0001-01-01T00:00:00Z","name_a2s":"Uncletopia | Warsaw | 2 | One Thousand Uncles","protocol":17,"map":"cp_egypt_final","folder":"tf","game":"Team Fortress","app_id":440,"player_count":0,"max_players":32,"Bots":0,"server_type":"Dedicated","server_os":"Linux","password":true,"vac":true,"version":"7961495","steam_id":85568392925397851,"keywords":["alltalk","cp","danepve","increased_maxplayers","nocrits","norespawntime","uncletopia"],"game_id":440,"stv_port":0,"stv_name":"","players":null},{"server_id":51,"name":"Uncletopia | Warsaw | 3 | All Maps","name_short":"waw-3","host":"waw-1.pl.uncletopia.com","port":27035,"enabled":true,"region":"eu","cc":"pl","latitude":52.2297,"longitude":21.017532,"reserved":0,"last_update":"0001-01-01T00:00:00Z","name_a2s":"Uncletopia | Warsaw | 3 | All Maps","protocol":17,"map":"pl_swiftwater_final1","folder":"tf","game":"Team Fortress","app_id":440,"player_count":0,"max_players":24,"Bots":0,"server_type":"Dedicated","server_os":"Linux","password":true,"vac":true,"version":"7961495","steam_id":85568392925397852,"keywords":["nocrits","nodmgspread","payload","uncletopia"],"game_id":440,"stv_port":27036,"stv_name":"Uncletopia | Warsaw | 3 | All Maps | STV","players":null},{"server_id":52,"name":"Uncletopia | Warsaw | 4 | All Maps","name_short":"waw-4","host":"waw-1.pl.uncletopia.com","port":27045,"enabled":true,"region":"eu","cc":"pl","latitude":52.2297,"longitude":21.017532,"reserved":0,"last_update":"0001-01-01T00:00:00Z","name_a2s":"Uncletopia | Warsaw | 4 | All Maps","protocol":17,"map":"koth_cascade","folder":"tf","game":"Team Fortress","app_id":440,"player_count":0,"max_players":24,"Bots":0,"server_type":"Dedicated","server_os":"Linux","password":true,"vac":true,"version":"7961495","steam_id":85568392925397853,"keywords":["cp","nocrits","nodmgspread","uncletopia"],"game_id":440,"stv_port":27046,"stv_name":"Uncletopia | Warsaw | 4 | All Maps | STV","players":null},{"server_id":53,"name":"Uncletopia | Warsaw | 5 | Stopwatch","name_short":"waw-5","host":"waw-1.pl.uncletopia.com","port":27055,"enabled":true,"region":"eu","cc":"pl","latitude":52.2297,"longitude":21.017532,"reserved":0,"last_update":"0001-01-01T00:00:00Z","name_a2s":"Uncletopia | Warsaw | 5 | Stopwatch","protocol":17,"map":"cp_sunshine","folder":"tf","game":"Team Fortress","app_id":440,"player_count":0,"max_players":24,"Bots":0,"server_type":"Dedicated","server_os":"Linux","password":true,"vac":true,"version":"7961495","steam_id":85568392925397854,"keywords":["cp","nocrits","nodmgspread","uncletopia"],"game_id":440,"stv_port":27056,"stv_name":"Uncletopia | Warsaw | 5 | Stopwatch | STV","players":null},{"server_id":54,"name":"Uncletopia | Warsaw | 6 | Community","name_short":"waw-6","host":"waw-1.pl.uncletopia.com","port":27065,"enabled":true,"region":"eu","cc":"pl","latitude":52.2297,"longitude":21.017532,"reserved":0,"last_update":"0001-01-01T00:00:00Z","name_a2s":"Uncletopia | Warsaw | 6 | Community","protocol":17,"map":"workshop/cp_indulge.ugc528106646","folder":"tf","game":"Team Fortress","app_id":440,"player_count":0,"max_players":24,"Bots":0,"server_type":"Dedicated","server_os":"Linux","password":true,"vac":true,"version":"7961495","steam_id":85568392925397856,"keywords":["cp","nocrits","nodmgspread","uncletopia"],"game_id":440,"stv_port":27066,"stv_name":"Uncletopia | Warsaw | 6 | Community | STV","players":null}]}