{"status":true,"message":"","result":[{"server_id":9,"name":"Uncletopia | Atlanta | 1 | All Maps","name_short":"atl-1","host":"atl-1.us.uncletopia.com","port":27015,"enabled":true,"region":"us-east","cc":"us","latitude":33.753746,"longitude":-84.38633,"reserved":0,"last_update":"0001-01-01T00:00:00Z","name_a2s":"Uncletopia | Atlanta | 1 | All Maps","protocol":17,"map":"pl_borneo","folder":"tf","game":"Team Fortress","app_id":440,"player_count":24,"max_players":24,"Bots":0,"server_type":"Dedicated","server_os":"Linux","password":true,"vac":true,"version":"7961495","steam_id":85568392924469982,"keywords":["nocrits","nodmgspread","payload","uncletopia"],"game_id":440,"stv_port":27016,"stv_name":"Uncletopia | Atlanta | 1 | All Maps | STV","players":null},{"server_id":104,"name":"Uncletopia | Atlanta | 2 | All Maps","name_short":"atl-2","host":"atl-1.us.uncletopia.com","port":27025,"enabled":true,"region":"us-east","cc":"us","latitude":33.753746,"longitude":-84.38633,"reserved":0,"last_update":"0001-01-01T00:00:00Z","name_a2s":"Uncletopia | Atlanta | 2 | All Maps","protocol":17,"map":"pl_borneo","folder":"tf","game":"Team Fortress","app_id":440,"player_count":24,"max_players":24,"Bots":0,"server_type":"Dedicated","server_os":"Linux","password":true,"vac":true,"version":"7961495","steam_id":85568392924469983,"keywords":["nocrits","nodmgspread","payload","uncletopia"],"game_id":440,"stv_port":27026,"stv_name":"Uncletopia | Atlanta | 2 | All Maps | STV","players":null},{"server_id":400,"name":"Uncletopia | Atlanta | 3 | Stopwatch","name_short":"atl-3","host":"atl-1.us.uncletopia.com","port":27035,"enabled":true,"region":"us-east","cc":"us","latitude":33.753746,"longitude":-84.38633,"reserved":0,"last_update":"0001-01-01T00:00:00Z","name_a2s":"Uncletopia | Atlanta | 3 | Stopwatch","protocol":17,"map":"koth_highpass","folder":"tf","game":"Team Fortress","app_id":440,"player_count":0,"max_players":24,"Bots":0,"server_type":"Dedicated","server_os":"Linux","password":true,"vac":true,"version":"7961495","steam_id":85568392924515187,"keywords":["cp","nocrits","nodmgspread","uncletopia"],"game_id":440,"stv_port":27036,"stv_name":"Uncletopia | Atlanta | 3 | Stopwatch | STV","players":null},{"server_id":401,"name":"Uncletopia | Atlanta | 4 | Community","name_short":"atl-4","host":"atl-1.us.uncletopia.com","port":27045,"enabled":true,"region":"us-east","cc":"us","latitude":33.753746,"longitude":-84.38633,"reserved":0,"last_update":"0001-01-01T00:00:00Z","name_a2s":"Uncletopia | Atlanta | 4 | Community","protocol":17,"map":"koth_product_final","folder":"tf","game":"Team Fortress","app_id":440,"player_count":0,"max_players":24,"Bots":0,"server_type":"Dedicated","server_os":"Linux","password":true,"vac":true,"version":"7961495","steam_id":85568392924515188,"keywords":["cp","nocrits","nodmgspread","uncletopia"],"game_id":440,"stv_port":27046,"stv_name":"Uncletopia | Atlanta | 4 | Community | STV","players":null},{"server_id":2,"name":"Uncletopia | Chicago | 1 | All Maps","name_short":"chi-1","host":"chi-1.us.uncletopia.com","port":27015,"enabled":true,"region":"us-central","cc":"us","latitude":41.881832,"longitude":-87.62318,"reserved":0,"last_update":"0001-01-01T00:00:00Z","name_a2s":"Uncletopia | Chicago | 1 | All Maps","protocol":17,"map":"pl_thundermountain","folder":"tf","game":"Team Fortress","app_id":440,"player_count":22,"max_players":24,"Bots":0,"server_type":"Dedicated","server_os":"Linux","password":true,"vac":true,"version":"7961495","steam_id":85568392924469984,"keywords":["nocrits","nodmgspread","payload","uncletopia"],"game_id":440,"stv_port":27016,"stv_name":"Uncletopia | Chicago | 1 | All Maps | STV","players":[{"user_id":555,"name":"Eomy","steam_id":76561198297783627,"connected_time":3363000000000,"state":"active","ping":84},{"user_id":610,"name":"Laogh Marbh","steam_id":76561198115240256,"connected_time":8000000000,"state":"spawning","ping":61},{"user_id":606,"name":"jxh300","steam_id":76561199196579894,"connected_time":64000000000,"state":"active","ping":73},{"user_id":602,"name":"Chilihuahua","steam_id":76561198004929152,"connected_time":249000000000,"state":"active","ping":109},{"user_id":586,"name":"Heathcliff","steam_id":76561198044288534,"connected_time":1457000000000,"state":"active","ping":89},{"user_id":607,"name":"GamingJuice42","steam_id":76561198110469437,"connected_time":56000000000,"state":"active","ping":60},{"user_id":583,"name":"Papahemmy","steam_id":76561198155470810,"connected_time":1716000000000,"state":"active","ping":63},{"user_id":556,"name":"thecal","steam_id":76561198307893384,"connected_time":3351000000000,"state":"active","ping":53},{"user_id":608,"name":"NFinET (Owa)","steam_id":76561197989137269,"connected_time":29000000000,"state":"active","ping":60},{"user_id":587,"name":"Space Lizard","steam_id":76561198056798193,"connected_time":1420000000000,"state":"active","ping":73},{"user_id":592,"name":"Moss","steam_id":76561199122200727,"connected_time":769000000000,"state":"active","ping":65},{"user_id":609,"name":"Monkey D. Management","steam_id":76561198400603422,"connected_time":16000000000,"state":"spawning","ping":58},{"user_id":605,"name":"Bee","steam_id":76561198074681324,"connected_time":140000000000,"state":"active","ping":62},{"user_id":540,"name":"SPIRE_FAN","steam_id":76561198001486573,"connected_time":5622000000000,"state":"active","ping":69},{"user_id":611,"name":"Iron Argus","steam_id":76561198181088245,"connected_time":6000000000,"state":"spawning","ping":59},{"user_id":604,"name":"Ellis McGruber","steam_id":76561198060739536,"connected_time":178000000000,"state":"active","ping":70},{"user_id":577,"name":"Minus 8","steam_id":76561198812090491,"connected_time":2086000000000,"state":"active","ping":120},{"user_id":601,"name":"Beepleton The 3rd","steam_id":76561198081466207,"connected_time":325000000000,"state":"active","ping":85},{"user_id":477,"name":"VisibleForce","steam_id":76561198104178938,"connected_time":9397000000000,"state":"active","ping":79},{"user_id":545,"name":"Swiftmend","steam_id":76561197995595692,"connected_time":3999000000000,"state":"active","ping":75},{"user_id":589,"name":"Hobo Ninja","steam_id":76561198029755261,"connected_time":1301000000000,"state":"active","ping":45},{"user_id":575,"name":"Catherine","steam_id":76561198125233120,"connected_time":2182000000000,"state":"active","ping":95}]},{"server_id":106,"name":"Uncletopia | Chicago | 2 | All Maps","name_short":"chi-2","host":"chi-1.us.uncletopia.com","port":27025,"enabled":true,"region":"us-central","cc":"us","latitude":41.881832,"longitude":-87.62318,"reserved":0,"last_update":"0001-01-01T00:00:00Z","name_a2s":"Uncletopia | Chicago | 2 | All Maps","protocol":17,"map":"cp_mountainlab","folder":"tf","game":"Team Fortress","app_id":440,"player_count":24,"max_players":24,"Bots":0,"server_type":"Dedicated","server_os":"Linux","password":true,"vac":true,"version":"7961495","steam_id":85568392924469985,"keywords":["cp","nocrits","nodmgspread","uncletopia"],"game_id":440,"stv_port":27026,"stv_name":"Uncletopia | Chicago | 2 | All Maps | STV","players":[{"user_id":458,"name":"kefkja","steam_id":76561198283963218,"connected_time":1387000000000,"state":"active","ping":45},{"user_id":476,"name":"your local forecast","steam_id":76561198042243083,"connected_time":129000000000,"state":"active","ping":60},{"user_id":470,"name":"ElephantHydrogen4277882","steam_id":76561198175741741,"connected_time":1006000000000,"state":"active","ping":75},{"user_id":410,"name":"Deathpill","steam_id":76561197994404793,"connected_time":4440000000000,"state":"active","ping":71},{"user_id":461,"name":"Deathor","steam_id":76561198072960817,"connected_time":1192000000000,"state":"active","ping":71},{"user_id":457,"name":"soof","steam_id":76561198043762955,"connected_time":1608000000000,"state":"active","ping":62},{"user_id":385,"name":"KBoneski ♡","steam_id":76561198307409065,"connected_time":7113000000000,"state":"active","ping":88},{"user_id":462,"name":"jimmz","steam_id":76561199076776118,"connected_time":1191000000000,"state":"active","ping":79},{"user_id":463,"name":"cheeser","steam_id":76561198281772700,"connected_time":1186000000000,"state":"active","ping":61},{"user_id":474,"name":"3/4'' x 18'' industrial pipe","steam_id":76561198094042613,"connected_time":190000000000,"state":"active","ping":406},{"user_id":460,"name":"P.C. Baby","steam_id":76561198067011379,"connected_time":1209000000000,"state":"active","ping":119},{"user_id":448,"name":"gendermutt","steam_id":76561198152857317,"connected_time":2058000000000,"state":"active","ping":43},{"user_id":478,"name":"Uplego13","steam_id":76561198135415659,"connected_time":99000000000,"state":"active","ping":93},{"user_id":459,"name":"๖ۣۜMagic","steam_id":76561199272962550,"connected_time":1220000000000,"state":"active","ping":67},{"user_id":455,"name":"igotmail","steam_id":76561198070631899,"connected_time":1694000000000,"state":"active","ping":61},{"user_id":466,"name":"WitheringLeo","steam_id":76561198046722918,"connected_time":1142000000000,"state":"active","ping":73},{"user_id":480,"name":"CJDGuy","steam_id":76561198213009545,"connected_time":67000000000,"state":"active","ping":70},{"user_id":443,"name":"CherriKat","steam_id":76561198821297512,"connected_time":2755000000000,"state":"active","ping":100},{"user_id":465,"name":"19th Cowboy","steam_id":76561198166454148,"connected_time":1167000000000,"state":"active","ping":91},{"user_id":444,"name":"Sanuary","steam_id":76561198075597588,"connected_time":2680000000000,"state":"active","ping":59},{"user_id":467,"name":"Daksuki","steam_id":76561198084127751,"connected_time":1137000000000,"state":"active","ping":83},{"user_id":395,"name":"Sneerful","steam_id":76561198032663494,"connected_time":6293000000000,"state":"active","ping":66},{"user_id":468,"name":"ThePopularLoner3334","steam_id":76561198202436474,"connected_time":1131000000000,"state":"active","ping":59},{"user_id":481,"name":"Shuu","steam_id":76561199199180558,"connected_time":42000000000,"state":"active","ping":49}]},{"server_id":402,"name":"Uncletopia | Chicago | 3 | All Maps","name_short":"chi-3","host":"chi-1.us.uncletopia.com","port":27035,"enabled":true,"region":"us-central","cc":"us","latitude":41.881832,"longitude":-87.62318,"reserved":0,"last_update":"0001-01-01T00:00:00Z","name_a2s":"Uncletopia | Chicago | 3 | All Maps","protocol":17,"map":"pl_snowycoast","folder":"tf","game":"Team Fortress","app_id":440,"player_count":24,"max_players":24,"Bots":0,"server_type":"Dedicated","server_os":"Linux","password":true,"vac":true,"version":"7961495","steam_id":85568392924515191,"keywords":["nocrits","nodmgspread","payload","uncletopia"],"game_id":440,"stv_port":27036,"stv_name":"Uncletopia | Chicago | 3 | All Maps | STV","players":[{"user_id":608,"name":"my kneecap cartilage is eroding","steam_id":76561198012126625,"connected_time":3083000000000,"state":"active","ping":64},{"user_id":625,"name":"nomis","steam_id":76561198115367704,"connected_time":1364000000000,"state":"active","ping":84},{"user_id":629,"name":"Pluto","steam_id":76561198338593690,"connected_time":908000000000,"state":"active","ping":77},{"user_id":630,"name":"Lorberry","steam_id":76561198023706058,"connected_time":907000000000,"state":"active","ping":35},{"user_id":632,"name":"[DATS➡] Sugar Meowth","steam_id":76561197995251793,"connected_time":828000000000,"state":"active","ping":90},{"user_id":613,"name":"Puke Skyfucker","steam_id":76561198012846213,"connected_time":2230000000000,"state":"active","ping":71},{"user_id":631,"name":"Hunt0rb","steam_id":76561198120527608,"connected_time":857000000000,"state":"active","ping":62},{"user_id":633,"name":"chikmslaad","steam_id":76561198871478705,"connected_time":822000000000,"state":"active","ping":74},{"user_id":628,"name":"NukaTheRabbit {Fur}","steam_id":76561198058692928,"connected_time":962000000000,"state":"active","ping":51},{"user_id":634,"name":"Jousty","steam_id":76561199162677853,"connected_time":817000000000,"state":"active","ping":94},{"user_id":637,"name":"samb0","steam_id":76561198055876337,"connected_time":751000000000,"state":"active","ping":83},{"user_id":635,"name":"OrionKid","steam_id":76561198359094901,"connected_time":811000000000,"state":"active","ping":74},{"user_id":645,"name":"Shitsack the Indomitable","steam_id":76561198408159536,"connected_time":211000000000,"state":"active","ping":52},{"user_id":643,"name":"mrappledumb","steam_id":76561199133590774,"connected_time":605000000000,"state":"active","ping":77},{"user_id":612,"name":"Misterwipeout","steam_id":76561198068900320,"connected_time":2486000000000,"state":"active","ping":103},{"user_id":565,"name":"cart","steam_id":76561198253731826,"connected_time":6332000000000,"state":"active","ping":61},{"user_id":639,"name":"Booty Woyer","steam_id":76561198168852050,"connected_time":741000000000,"state":"active","ping":78},{"user_id":640,"name":"StormyBoyo","steam_id":76561198273482774,"connected_time":725000000000,"state":"active","ping":92},{"user_id":607,"name":"Jesse","steam_id":76561198157305426,"connected_time":3093000000000,"state":"active","ping":60},{"user_id":641,"name":"[BU773T\u003e","steam_id":76561197991671942,"connected_time":708000000000,"state":"active","ping":95},{"user_id":644,"name":"bengineer","steam_id":76561198171912174,"connected_time":375000000000,"state":"active","ping":102},{"user_id":616,"name":"Mom","steam_id":76561198207936000,"connected_time":2210000000000,"state":"active","ping":90},{"user_id":609,"name":"Shorty","steam_id":76561198044873248,"connected_time":2643000000000,"state":"active","ping":46},{"user_id":624,"name":"pilot914","steam_id":76561199146198862,"connected_time":1670000000000,"state":"active","ping":81}]},{"server_id":403,"name":"Uncletopia | Chicago | 4 | All Maps","name_short":"chi-4","host":"chi-1.us.uncletopia.com","port":27045,"enabled":true,"region":"us-central","cc":"us","latitude":41.881832,"longitude":-87.62318,"reserved":0,"last_update":"0001-01-01T00:00:00Z","name_a2s":"Uncletopia | Chicago | 4 | All Maps","protocol":17,"map":"pl_badwater","folder":"tf","game":"Team Fortress","app_id":440,"player_count":24,"max_players":24,"Bots":0,"server_type":"Dedicated","server_os":"Linux","password":true,"vac":true,"version":"7961495","steam_id":85568392924515193,"keywords":["nocrits","nodmgspread","payload","uncletopia"],"game_id":440,"stv_port":27046,"stv_name":"Uncletopia | Chicago | 4 | All Maps | STV","players":[{"user_id":609,"name":"stupid ape","steam_id":76561198350027075,"connected_time":2915000000000,"state":"active","ping":55},{"user_id":615,"name":"Saikou!!!","steam_id":76561198044045406,"connected_time":2495000000000,"state":"active","ping":74},{"user_id":601,"name":"Amoxicilina","steam_id":76561198168486429,"connected_time":3835000000000,"state":"active","ping":119},{"user_id":593,"name":"Calryan","steam_id":76561198060080966,"connected_time":4070000000000,"state":"active","ping":86},{"user_id":595,"name":"Space⭐Taffy","steam_id":76561198002271720,"connected_time":4050000000000,"state":"active","ping":67},{"user_id":568,"name":"Omega Move","steam_id":76561198031577205,"connected_time":5305000000000,"state":"active","ping":77},{"user_id":594,"name":"¿skitt1eS?","steam_id":76561198330093211,"connected_time":4057000000000,"state":"active","ping":64},{"user_id":613,"name":"drugger. (makster implant)","steam_id":76561198353463585,"connected_time":2703000000000,"state":"active","ping":68},{"user_id":620,"name":"EpicNGamerz","steam_id":76561198304292582,"connected_time":2075000000000,"state":"active","ping":100},{"user_id":617,"name":"InstantOzone","steam_id":76561198067556825,"connected_time":2374000000000,"state":"active","ping":69},{"user_id":588,"name":"Tibalt Nyahuma","steam_id":76561198034779431,"connected_time":4271000000000,"state":"active","ping":76},{"user_id":621,"name":"Carbonated McDonalds Sweet Tea","steam_id":76561198169500112,"connected_time":1810000000000,"state":"active","ping":86},{"user_id":575,"name":"Cosmic sR","steam_id":76561198081738675,"connected_time":5010000000000,"state":"active","ping":83},{"user_id":623,"name":"bog","steam_id":76561198070975491,"connected_time":1779000000000,"state":"active","ping":71},{"user_id":626,"name":"Mayan","steam_id":76561198087915957,"connected_time":856000000000,"state":"active","ping":45},{"user_id":624,"name":"SiltyStar85","steam_id":76561198309175923,"connected_time":1769000000000,"state":"active","ping":91},{"user_id":627,"name":"sonikro","steam_id":76561197989428692,"connected_time":783000000000,"state":"active","ping":60},{"user_id":607,"name":"isucktoomuch****","steam_id":76561198075165369,"connected_time":3061000000000,"state":"active","ping":115},{"user_id":628,"name":"could you care less?","steam_id":76561199122183697,"connected_time":12000000000,"state":"spawning","ping":93},{"user_id":576,"name":"Paddy","steam_id":76561198037001457,"connected_time":4908000000000,"state":"active","ping":73},{"user_id":605,"name":"jimmyfnaf172198yay","steam_id":76561198311446636,"connected_time":3586000000000,"state":"active","ping":59},{"user_id":548,"name":"Ace Chromatica","steam_id":76561198042211131,"connected_time":6504000000000,"state":"active","ping":60},{"user_id":618,"name":"Boof","steam_id":76561198054806250,"connected_time":2299000000000,"state":"active","ping":86},{"user_id":606,"name":"epix","steam_id":76561198354108114,"connected_time":3469000000000,"state":"active","ping":78}]},{"server_id":36,"name":"Uncletopia | Chicago | 5 | All Maps","name_short":"chi-5","host":"chi-2.us.uncletopia.com","port":27015,"enabled":true,"region":"us-central","cc":"us","latitude":41.881832,"longitude":-87.62318,"reserved":0,"last_update":"0001-01-01T00:00:00Z","name_a2s":"Uncletopia | Chicago | 5 | All Maps","protocol":17,"map":"pl_borneo","folder":"tf","game":"Team Fortress","app_id":440,"player_count":24,"max_players":24,"Bots":0,"server_type":"Dedicated","server_os":"Linux","password":true,"vac":true,"version":"7961495","steam_id":85568392924866362,"keywords":["nocrits","nodmgspread","payload","uncletopia"],"game_id":440,"stv_port":27016,"stv_name":"Uncletopia | Chicago | 5 | All Maps | STV","players":[{"user_id":267,"name":"Ludcmorais","steam_id":76561198359217809,"connected_time":6391000000000,"state":"active","ping":186},{"user_id":331,"name":"Toaster","steam_id":76561199275830628,"connected_time":890000000000,"state":"active","ping":96},{"user_id":332,"name":"-W3E- grim10465","steam_id":76561198045698581,"connected_time":865000000000,"state":"active","ping":53},{"user_id":322,"name":"Paris Hilton's McLaren SLR","steam_id":76561198045599872,"connected_time":2370000000000,"state":"active","ping":83},{"user_id":310,"name":"Ghost","steam_id":76561198110914180,"connected_time":2589000000000,"state":"active","ping":188},{"user_id":345,"name":"Froot Loop box","steam_id":76561198298583060,"connected_time":320000000000,"state":"active","ping":88},{"user_id":329,"name":"sweaver","steam_id":76561199156551835,"connected_time":916000000000,"state":"active","ping":45},{"user_id":343,"name":"pl_chicago","steam_id":76561198055626638,"connected_time":404000000000,"state":"active","ping":92},{"user_id":320,"name":"the gerogerigegege","steam_id":76561198057116531,"connected_time":2451000000000,"state":"active","ping":56},{"user_id":321,"name":"EvilMrPotoo ｡◕‿◕｡","steam_id":76561198012566870,"connected_time":2409000000000,"state":"active","ping":76},{"user_id":344,"name":"CMahaff","steam_id":76561198017229519,"connected_time":388000000000,"state":"active","ping":78},{"user_id":325,"name":"caca sniffer","steam_id":76561199099914725,"connected_time":2277000000000,"state":"active","ping":94},{"user_id":347,"name":"Shorts","steam_id":76561198025009692,"connected_time":140000000000,"state":"active","ping":81},{"user_id":290,"name":"Shagbark","steam_id":76561198173447342,"connected_time":4967000000000,"state":"active","ping":84},{"user_id":346,"name":"N00SE","steam_id":76561198211473307,"connected_time":187000000000,"state":"active","ping":108},{"user_id":352,"name":"MrStealYoSquirrel","steam_id":76561198027776872,"connected_time":4000000000,"state":"spawning","ping":45},{"user_id":350,"name":"Reality Loser","steam_id":76561198001541433,"connected_time":52000000000,"state":"active","ping":62},{"user_id":302,"name":"ignoble","steam_id":76561198040084437,"connected_time":3846000000000,"state":"active","ping":46},{"user_id":341,"name":"Lain","steam_id":76561198029303534,"connected_time":659000000000,"state":"active","ping":61},{"user_id":336,"name":"Ninjoth","steam_id":76561198038611753,"connected_time":789000000000,"state":"active","ping":90},{"user_id":328,"name":"Fuzzy","steam_id":76561198113445043,"connected_time":1334000000000,"state":"active","ping":71},{"user_id":337,"name":"YellowJello","steam_id":76561198165626677,"connected_time":786000000000,"state":"active","ping":61},{"user_id":338,"name":"inshallah","steam_id":76561198165212575,"connected_time":761000000000,"state":"active","ping":71},{"user_id":351,"name":"aaron","steam_id":76561198113364714,"connected_time":52000000000,"state":"active","ping":64}]},{"server_id":37,"name":"Uncletopia | Chicago | 6 | All Maps","name_short":"chi-6","host":"chi-2.us.uncletopia.com","port":27025,"enabled":true,"region":"us-central","cc":"us","latitude":41.881832,"longitude":-87.62318,"reserved":0,"last_update":"0001-01-01T00:00:00Z","name_a2s":"Uncletopia | Chicago | 6 | All Maps","protocol":17,"map":"pl_swiftwater_final1","folder":"tf","game":"Team Fortress","app_id":440,"player_count":24,"max_players":24,"Bots":0,"server_type":"Dedicated","server_os":"Linux","password":true,"vac":true,"version":"7961495","steam_id":85568392924866363,"keywords":["nocrits","nodmgspread","payload","uncletopia"],"game_id":440,"stv_port":27026,"stv_name":"Uncletopia | Chicago | 6 | All Maps | STV","players":[{"user_id":560,"name":"zeplinnn","steam_id":76561198301300987,"connected_time":1118000000000,"state":"active","ping":96},{"user_id":561,"name":"Shmebulock","steam_id":76561198046941925,"connected_time":1077000000000,"state":"active","ping":100},{"user_id":574,"name":"gagobears","steam_id":76561198086008437,"connected_time":482000000000,"state":"active","ping":72},{"user_id":556,"name":"Ibrahim","steam_id":76561198028320625,"connected_time":2030000000000,"state":"active","ping":68},{"user_id":563,"name":"KingSteve42","steam_id":76561198409455888,"connected_time":1054000000000,"state":"active","ping":111},{"user_id":458,"name":"Punkin","steam_id":76561198334301755,"connected_time":8230000000000,"state":"active","ping":70},{"user_id":564,"name":"Pontifex","steam_id":76561198013016489,"connected_time":1053000000000,"state":"active","ping":86},{"user_id":571,"name":"Blocknight","steam_id":76561198039700915,"connected_time":754000000000,"state":"active","ping":103},{"user_id":555,"name":"KeyMaster28150","steam_id":76561199482024428,"connected_time":2069000000000,"state":"active","ping":71},{"user_id":441,"name":"cheesebro","steam_id":76561198002072852,"connected_time":9235000000000,"state":"active","ping":101},{"user_id":511,"name":"kirbo","steam_id":76561199404157971,"connected_time":4783000000000,"state":"active","ping":86},{"user_id":549,"name":"substance","steam_id":76561198050103868,"connected_time":3035000000000,"state":"active","ping":104},{"user_id":552,"name":"c0wmanglr","steam_id":76561198025342064,"connected_time":2541000000000,"state":"active","ping":90},{"user_id":547,"name":"Spegg","steam_id":76561198146618007,"connected_time":3089000000000,"state":"active","ping":64},{"user_id":575,"name":"Mr. Fluffy Penguins","steam_id":76561198172538149,"connected_time":448000000000,"state":"active","ping":91},{"user_id":566,"name":"corntent","steam_id":76561198824847948,"connected_time":1037000000000,"state":"active","ping":64},{"user_id":559,"name":"SirEverything","steam_id":76561199152393848,"connected_time":1439000000000,"state":"active","ping":75},{"user_id":567,"name":"DigitalWizard","steam_id":76561198085936715,"connected_time":1034000000000,"state":"active","ping":76},{"user_id":466,"name":"StraySheep","steam_id":76561198256003811,"connected_time":8046000000000,"state":"active","ping":73},{"user_id":578,"name":"melun","steam_id":76561198006648124,"connected_time":240000000000,"state":"active","ping":85},{"user_id":569,"name":"G-MANN","steam_id":76561199479405537,"connected_time":991000000000,"state":"active","ping":92},{"user_id":570,"name":"legendarypotatoe","steam_id":76561198264515423,"connected_time":952000000000,"state":"active","ping":76},{"user_id":577,"name":"stick","steam_id":76561198049489094,"connected_time":431000000000,"state":"active","ping":59},{"user_id":522,"name":"GreekGoat_Coffee","steam_id":76561198129331088,"connected_time":4543000000000,"state":"active","ping":45}]},{"server_id":38,"name":"Uncletopia | Chicago | 7 | Stopwatch","name_short":"chi-7","host":"chi-2.us.uncletopia.com","port":27035,"enabled":true,"region":"us-central","cc":"us","latitude":41.881832,"longitude":-87.62318,"reserved":0,"last_update":"0001-01-01T00:00:00Z","name_a2s":"Uncletopia | Chicago | 7 | Stopwatch","protocol":17,"map":"cp_metalworks","folder":"tf","game":"Team Fortress","app_id":440,"player_count":23,"max_players":24,"Bots":0,"server_type":"Dedicated","server_os":"Linux","password":true,"vac":true,"version":"7961495","steam_id":85568392924866364,"keywords":["cp","nocrits","nodmgspread","uncletopia"],"game_id":440,"stv_port":27036,"stv_name":"Uncletopia | Chicago | 7 | Stopwatch | STV","players":[{"user_id":228,"name":"Jinkus Johnson","steam_id":76561198181678541,"connected_time":1528000000000,"state":"active","ping":89},{"user_id":234,"name":"Capt.Swag","steam_id":76561198088340994,"connected_time":981000000000,"state":"active","ping":73},{"user_id":184,"name":"nav","steam_id":76561198872608266,"connected_time":4149000000000,"state":"active","ping":75},{"user_id":246,"name":"N-A-X is like","steam_id":76561198010708247,"connected_time":205000000000,"state":"active","ping":76},{"user_id":247,"name":"beckeon","steam_id":76561198056474975,"connected_time":139000000000,"state":"active","ping":71},{"user_id":213,"name":"Beezos","steam_id":76561198370692549,"connected_time":2372000000000,"state":"active","ping":71},{"user_id":192,"name":"Colin102004","steam_id":76561198202384334,"connected_time":3792000000000,"state":"active","ping":59},{"user_id":239,"name":"Store Runner","steam_id":76561198156282541,"connected_time":886000000000,"state":"active","ping":45},{"user_id":226,"name":"big kahoona","steam_id":76561198337072111,"connected_time":1790000000000,"state":"active","ping":87},{"user_id":186,"name":"Ferret","steam_id":76561198060416458,"connected_time":3897000000000,"state":"active","ping":100},{"user_id":220,"name":"Ken","steam_id":76561198233988068,"connected_time":1929000000000,"state":"active","ping":73},{"user_id":229,"name":"Fasted9","steam_id":76561198115425962,"connected_time":1389000000000,"state":"active","ping":45},{"user_id":236,"name":"Inevitable","steam_id":76561198210050169,"connected_time":949000000000,"state":"active","ping":62},{"user_id":221,"name":"Post-It Paige","steam_id":76561198294059159,"connected_time":1927000000000,"state":"active","ping":85},{"user_id":222,"name":"195x195jpegofbaldman","steam_id":76561198178351279,"connected_time":1927000000000,"state":"active","ping":82},{"user_id":223,"name":"Acuzik","steam_id":76561198045453400,"connected_time":1921000000000,"state":"active","ping":42},{"user_id":224,"name":"Braingoo Hex","steam_id":76561198083094783,"connected_time":1912000000000,"state":"active","ping":100},{"user_id":244,"name":"checkswing","steam_id":76561198999816132,"connected_time":348000000000,"state":"active","ping":82},{"user_id":245,"name":"Burks","steam_id":76561198134813531,"connected_time":327000000000,"state":"active","ping":65},{"user_id":248,"name":"suco de boneco","steam_id":76561198379380768,"connected_time":95000000000,"state":"active","ping":180},{"user_id":230,"name":"cran","steam_id":76561198178840075,"connected_time":1348000000000,"state":"active","ping":80},{"user_id":241,"name":"Lord Scrubling","steam_id":76561198263744445,"connected_time":794000000000,"state":"active","ping":77},{"user_id":242,"name":"Gamingtime","steam_id":76561198339856746,"connected_time":726000000000,"state":"active","ping":81}]},{"server_id":39,"name":"Uncletopia | Chicago | 8 | Community","name_short":"chi-8","host":"chi-2.us.uncletopia.com","port":27045,"enabled":true,"region":"us-central","cc":"us","latitude":41.881832,"longitude":-87.62318,"reserved":0,"last_update":"0001-01-01T00:00:00Z","name_a2s":"Uncletopia | Chicago | 8 | Community","protocol":17,"map":"workshop/cp_caldera_rc2.ugc2834196889","folder":"tf","game":"Team Fortress","app_id":440,"player_count":24,"max_players":24,"Bots":0,"server_type":"Dedicated","server_os":"Linux","password":true,"vac":true,"version":"7961495","steam_id":85568392924866365,"keywords":["cp","nocrits","nodmgspread","uncletopia"],"game_id":440,"stv_port":27046,"stv_name":"Uncletopia | Chicago | 8 | Community | STV","players":[{"user_id":107,"name":"Theo","steam_id":76561198000991724,"connected_time":576000000000,"state":"active","ping":75},{"user_id":103,"name":"stoppit","steam_id":76561198353292787,"connected_time":760000000000,"state":"active","ping":75},{"user_id":94,"name":"KrylonHeretic","steam_id":76561198139811459,"connected_time":1411000000000,"state":"active","ping":114},{"user_id":90,"name":"new york city pizza rat","steam_id":76561198202589758,"connected_time":1660000000000,"state":"active","ping":73},{"user_id":114,"name":"A Big Rat","steam_id":76561197990853987,"connected_time":129000000000,"state":"active","ping":60},{"user_id":43,"name":"Hamz","steam_id":76561199287459211,"connected_time":4234000000000,"state":"active","ping":78},{"user_id":105,"name":"name","steam_id":76561199218194540,"connected_time":663000000000,"state":"active","ping":79},{"user_id":44,"name":"Plot Armor Blacksmith","steam_id":76561198083345384,"connected_time":4156000000000,"state":"active","ping":86},{"user_id":45,"name":"Bob the Minion","steam_id":76561197972389354,"connected_time":4152000000000,"state":"active","ping":72},{"user_id":106,"name":"Rodrick Knee","steam_id":76561198283021062,"connected_time":661000000000,"state":"active","ping":87},{"user_id":47,"name":"Pug_9492","steam_id":76561199078217640,"connected_time":4127000000000,"state":"active","ping":137},{"user_id":93,"name":"he suckin on my rick til i mort","steam_id":76561198310711692,"connected_time":1536000000000,"state":"active","ping":178},{"user_id":111,"name":"Danmar33","steam_id":76561198056453091,"connected_time":197000000000,"state":"active","ping":60},{"user_id":68,"name":"Predicta","steam_id":76561198017630616,"connected_time":3541000000000,"state":"active","ping":48},{"user_id":102,"name":"Obama F. Kennedy","steam_id":76561198282499318,"connected_time":1013000000000,"state":"active","ping":70},{"user_id":92,"name":"Psionara","steam_id":76561198211684263,"connected_time":1613000000000,"state":"active","ping":109},{"user_id":80,"name":"Xyverle","steam_id":76561198799726415,"connected_time":2878000000000,"state":"active","ping":60},{"user_id":56,"name":"Meh","steam_id":76561198078187920,"connected_time":3934000000000,"state":"active","ping":82},{"user_id":109,"name":"smuffy","steam_id":76561198091459506,"connected_time":528000000000,"state":"active","ping":67},{"user_id":113,"name":"Mossy","steam_id":76561198156401277,"connected_time":159000000000,"state":"active","ping":80},{"user_id":97,"name":"yamme","steam_id":76561198117849124,"connected_time":1278000000000,"state":"active","ping":105},{"user_id":65,"name":"frank","steam_id":76561198137777483,"connected_time":3690000000000,"state":"active","ping":74},{"user_id":98,"name":"thepokeyen","steam_id":76561198236847572,"connected_time":1257000000000,"state":"active","ping":74},{"user_id":69,"name":"Clumsy","steam_id":76561198056345245,"connected_time":3526000000000,"state":"active","ping":74}]},{"server_id":8,"name":"Uncletopia | Dallas | 1 | All Maps","name_short":"dal-1","host":"dal-1.us.uncletopia.com","port":27015,"enabled":true,"region":"us-central","cc":"us","latitude":32.779167,"longitude":-96.80889,"reserved":0,"last_update":"0001-01-01T00:00:00Z","name_a2s":"Uncletopia | Dallas | 1 | All Maps","protocol":17,"map":"pl_barnblitz","folder":"tf","game":"Team Fortress","app_id":440,"player_count":24,"max_players":24,"Bots":0,"server_type":"Dedicated","server_os":"Linux","password":true,"vac":true,"version":"7961495","steam_id":85568392924469986,"keywords":["nocrits","nodmgspread","payload","uncletopia"],"game_id":440,"stv_port":27016,"stv_name":"Uncletopia | Dallas | 1 | All Maps | STV","players":[{"user_id":657,"name":"techdeck","steam_id":76561199022751661,"connected_time":4365000000000,"state":"active","ping":59},{"user_id":694,"name":"Phantom Thief","steam_id":76561198254482947,"connected_time":969000000000,"state":"active","ping":81},{"user_id":700,"name":"HeroOfTime","steam_id":76561199096218001,"connected_time":232000000000,"state":"active","ping":84},{"user_id":678,"name":"NoLights!","steam_id":76561197981106761,"connected_time":2428000000000,"state":"active","ping":89},{"user_id":701,"name":"Kipados","steam_id":76561197997147319,"connected_time":219000000000,"state":"active","ping":90},{"user_id":697,"name":"KevilPo","steam_id":76561199244507267,"connected_time":936000000000,"state":"active","ping":93},{"user_id":638,"name":"plink","steam_id":76561198057829889,"connected_time":5436000000000,"state":"active","ping":56},{"user_id":672,"name":"A Straw","steam_id":76561199367935846,"connected_time":3250000000000,"state":"active","ping":78},{"user_id":668,"name":"Siev","steam_id":76561198000518937,"connected_time":3527000000000,"state":"active","ping":58},{"user_id":676,"name":"Moonflower ✦","steam_id":76561198191782483,"connected_time":2806000000000,"state":"active","ping":54},{"user_id":693,"name":"Smittywerbenjager-manjenson","steam_id":76561198067060742,"connected_time":1275000000000,"state":"active","ping":60},{"user_id":702,"name":"men kissing","steam_id":76561199442299675,"connected_time":184000000000,"state":"active","ping":76},{"user_id":680,"name":"TOKENLIZARD","steam_id":76561198218765205,"connected_time":2329000000000,"state":"active","ping":64},{"user_id":699,"name":"Bigfoot ate my ass","steam_id":76561198071605190,"connected_time":253000000000,"state":"active","ping":78},{"user_id":687,"name":"Bacon","steam_id":76561199078407152,"connected_time":1847000000000,"state":"active","ping":84},{"user_id":703,"name":"Hidden Phantom","steam_id":76561198115531799,"connected_time":115000000000,"state":"active","ping":101},{"user_id":704,"name":"Biscipline","steam_id":76561198019206178,"connected_time":114000000000,"state":"active","ping":91},{"user_id":696,"name":"Charles","steam_id":76561199124935140,"connected_time":961000000000,"state":"active","ping":73},{"user_id":669,"name":"i love men","steam_id":76561199026721822,"connected_time":3525000000000,"state":"active","ping":88},{"user_id":625,"name":"Big Yoshi","steam_id":76561199160576376,"connected_time":6436000000000,"state":"active","ping":101},{"user_id":692,"name":"Hobbes","steam_id":76561197967448497,"connected_time":1393000000000,"state":"active","ping":84},{"user_id":665,"name":"Motreir","steam_id":76561198151717946,"connected_time":3539000000000,"state":"active","ping":89},{"user_id":705,"name":"rf","steam_id":76561198195359229,"connected_time":111000000000,"state":"active","ping":98},{"user_id":689,"name":"cc","steam_id":76561199215821942,"connected_time":1756000000000,"state":"active","ping":54}]},{"server_id":108,"name":"Uncletopia | Dallas | 2 | All Maps","name_short":"dal-2","host":"dal-1.us.uncletopia.com","port":27025,"enabled":true,"region":"us-central","cc":"us","latitude":32.779167,"longitude":-96.80889,"reserved":0,"last_update":"0001-01-01T00:00:00Z","name_a2s":"Uncletopia | Dallas | 2 | All Maps","protocol":17,"map":"pl_upward","folder":"tf","game":"Team Fortress","app_id":440,"player_count":23,"max_players":24,"Bots":0,"server_type":"Dedicated","server_os":"Linux","password":true,"vac":true,"version":"7961495","steam_id":85568392924469988,"keywords":["nocrits","nodmgspread","payload","uncletopia"],"game_id":440,"stv_port":27026,"stv_name":"Uncletopia | Dallas | 2 | All Maps | STV","players":[{"user_id":472,"name":"Boingo","steam_id":76561199086931535,"connected_time":402000000000,"state":"active","ping":57},{"user_id":435,"name":"Engideer","steam_id":76561198145733164,"connected_time":3467000000000,"state":"active","ping":45},{"user_id":461,"name":"TrashPanda (she/her)","steam_id":76561198447864095,"connected_time":2056000000000,"state":"active","ping":68},{"user_id":430,"name":"Ember The Femboy","steam_id":76561198139630565,"connected_time":3606000000000,"state":"active","ping":166},{"user_id":473,"name":"milk then cereal","steam_id":76561198047168548,"connected_time":401000000000,"state":"active","ping":90},{"user_id":474,"name":"FizzTom","steam_id":76561199200953916,"connected_time":376000000000,"state":"active","ping":111},{"user_id":471,"name":"Fatal","steam_id":76561198061407587,"connected_time":424000000000,"state":"active","ping":62},{"user_id":475,"name":"Panda Loser","steam_id":76561198828745176,"connected_time":354000000000,"state":"active","ping":102},{"user_id":476,"name":"BigPimpin","steam_id":76561198119549348,"connected_time":352000000000,"state":"active","ping":50},{"user_id":452,"name":"Sex","steam_id":76561198818620540,"connected_time":2586000000000,"state":"active","ping":62},{"user_id":477,"name":"Blade Racer","steam_id":76561198155896703,"connected_time":343000000000,"state":"active","ping":77},{"user_id":478,"name":"CBreezyyyyBaby","steam_id":76561199093523987,"connected_time":333000000000,"state":"active","ping":72},{"user_id":468,"name":"Tacobellknight","steam_id":76561198334159798,"connected_time":861000000000,"state":"active","ping":69},{"user_id":464,"name":"Karubi","steam_id":76561197984788751,"connected_time":1660000000000,"state":"active","ping":117},{"user_id":470,"name":"OwningTundra2","steam_id":76561198936893224,"connected_time":458000000000,"state":"active","ping":63},{"user_id":480,"name":"V!CT!M","steam_id":76561198962721502,"connected_time":301000000000,"state":"active","ping":100},{"user_id":463,"name":"Kenku","steam_id":76561199086762926,"connected_time":1725000000000,"state":"active","ping":69},{"user_id":481,"name":"small meth pouch","steam_id":76561198130412963,"connected_time":280000000000,"state":"active","ping":69},{"user_id":410,"name":"skegeton","steam_id":76561198095581099,"connected_time":6120000000000,"state":"active","ping":58},{"user_id":482,"name":"0","steam_id":76561198046065237,"connected_time":276000000000,"state":"active","ping":91},{"user_id":466,"name":"Translucent૮₍ • ᴥ •","steam_id":76561199212057076,"connected_time":1605000000000,"state":"active","ping":79},{"user_id":485,"name":"Antzen","steam_id":76561198041343470,"connected_time":44000000000,"state":"active","ping":101},{"user_id":451,"name":"Rayzen","steam_id":76561199468796639,"connected_time":2634000000000,"state":"active","ping":76}]},{"server_id":404,"name":"Uncletopia | Dallas | 3 | All Maps","name_short":"dal-3","host":"dal-1.us.uncletopia.com","port":27035,"enabled":true,"region":"us-central","cc":"us","latitude":32.779167,"longitude":-96.80889,"reserved":0,"last_update":"0001-01-01T00:00:00Z","name_a2s":"Uncletopia | Dallas | 3 | All Maps","protocol":17,"map":"pl_borneo","folder":"tf","game":"Team Fortress","app_id":440,"player_count":24,"max_players":24,"Bots":0,"server_type":"Dedicated","server_os":"Linux","password":true,"vac":true,"version":"7961495","steam_id":85568392924515219,"keywords":["nocrits","nodmgspread","payload","uncletopia"],"game_id":440,"stv_port":27036,"stv_name":"Uncletopia | Dallas | 3 | All Maps | STV","players":[{"user_id":449,"name":"HiddenWenis","steam_id":76561198055459784,"connected_time":1913000000000,"state":"active","ping":118},{"user_id":404,"name":"Texas guy","steam_id":76561198082315370,"connected_time":5161000000000,"state":"active","ping":84},{"user_id":410,"name":"Pippermint","steam_id":76561198292091925,"connected_time":4827000000000,"state":"active","ping":71},{"user_id":452,"name":"Soupcan","steam_id":76561198012807915,"connected_time":1831000000000,"state":"active","ping":67},{"user_id":433,"name":"Nammu","steam_id":76561198067778161,"connected_time":2839000000000,"state":"active","ping":92},{"user_id":435,"name":"Omniash","steam_id":76561198091994987,"connected_time":2770000000000,"state":"active","ping":88},{"user_id":456,"name":"haisel","steam_id":76561199001918194,"connected_time":1765000000000,"state":"active","ping":96},{"user_id":477,"name":"Delle PC","steam_id":76561199079655568,"connected_time":211000000000,"state":"active","ping":87},{"user_id":465,"name":"Streetwise","steam_id":76561197971684268,"connected_time":1493000000000,"state":"active","ping":123},{"user_id":454,"name":"Lavender","steam_id":76561198142770666,"connected_time":1796000000000,"state":"active","ping":65},{"user_id":467,"name":"Rusty_Cheech","steam_id":76561198808236778,"connected_time":1369000000000,"state":"active","ping":104},{"user_id":457,"name":"intek","steam_id":76561198052705291,"connected_time":1760000000000,"state":"active","ping":96},{"user_id":429,"name":"SilverLife25","steam_id":76561198392015722,"connected_time":2968000000000,"state":"active","ping":60},{"user_id":471,"name":"Prof. Shittington","steam_id":76561198135137213,"connected_time":1168000000000,"state":"active","ping":54},{"user_id":476,"name":"Kopfjager","steam_id":76561198086397482,"connected_time":787000000000,"state":"active","ping":130},{"user_id":450,"name":"Dark Lord","steam_id":76561198044199150,"connected_time":1898000000000,"state":"active","ping":106},{"user_id":460,"name":"mrthugpug1732","steam_id":76561198881200768,"connected_time":1737000000000,"state":"active","ping":93},{"user_id":473,"name":"HeHedron","steam_id":76561199199667164,"connected_time":1096000000000,"state":"active","ping":84},{"user_id":461,"name":"Shitty Pilot","steam_id":76561198042723469,"connected_time":1731000000000,"state":"active","ping":57},{"user_id":469,"name":"Thequirka (regular trackpad use","steam_id":76561198968058652,"connected_time":1355000000000,"state":"active","ping":100},{"user_id":431,"name":"JtsRes","steam_id":76561197994809241,"connected_time":2882000000000,"state":"active","ping":61},{"user_id":463,"name":"rAnch","steam_id":76561198024562587,"connected_time":1528000000000,"state":"active","ping":35},{"user_id":441,"name":"TheGirthquake","steam_id":76561198238895056,"connected_time":2556000000000,"state":"active","ping":123},{"user_id":479,"name":"Aurora_Ranger101","steam_id":76561198212436504,"connected_time":62000000000,"state":"spawning","ping":3450}]},{"server_id":405,"name":"Uncletopia | Dallas | 4 | Community","name_short":"dal-4","host":"dal-1.us.uncletopia.com","port":27045,"enabled":true,"region":"us-central","cc":"us","latitude":32.779167,"longitude":-96.80889,"reserved":0,"last_update":"0001-01-01T00:00:00Z","name_a2s":"Uncletopia | Dallas | 4 | Community","protocol":17,"map":"workshop/cp_bruhstbowl_b6.ugc2878604990","folder":"tf","game":"Team Fortress","app_id":440,"player_count":24,"max_players":24,"Bots":0,"server_type":"Dedicated","server_os":"Linux","password":true,"vac":true,"version":"7961495","steam_id":85568392924515220,"keywords":["cp","nocrits","nodmgspread","uncletopia"],"game_id":440,"stv_port":27046,"stv_name":"Uncletopia | Dallas | 4 | Community | STV","players":[{"user_id":362,"name":"Dog Goggles","steam_id":76561197995233692,"connected_time":1482000000000,"state":"active","ping":109},{"user_id":344,"name":"remanedur","steam_id":76561198059459507,"connected_time":3225000000000,"state":"active","ping":107},{"user_id":369,"name":"Goose","steam_id":76561198245716618,"connected_time":1222000000000,"state":"active","ping":101},{"user_id":342,"name":"atlas","steam_id":76561198116768948,"connected_time":3304000000000,"state":"active","ping":90},{"user_id":371,"name":"JsLo64V","steam_id":76561199076233876,"connected_time":1016000000000,"state":"active","ping":126},{"user_id":333,"name":"thai","steam_id":76561198052462287,"connected_time":4148000000000,"state":"active","ping":99},{"user_id":378,"name":"walter white (hiesenburg 3000)","steam_id":76561199198551935,"connected_time":66000000000,"state":"active","ping":106},{"user_id":373,"name":"Bleat","steam_id":76561198138678917,"connected_time":770000000000,"state":"active","ping":135},{"user_id":317,"name":"mattack374","steam_id":76561199497083665,"connected_time":4622000000000,"state":"active","ping":109},{"user_id":334,"name":"Toilet Slave Tournament","steam_id":76561197997915494,"connected_time":4132000000000,"state":"active","ping":75},{"user_id":366,"name":"Halo CE Elite","steam_id":76561198181208478,"connected_time":1335000000000,"state":"active","ping":60},{"user_id":356,"name":"nrj1998pelma.six","steam_id":76561198425503395,"connected_time":1641000000000,"state":"active","ping":44},{"user_id":354,"name":"Raz","steam_id":76561198002426150,"connected_time":1766000000000,"state":"active","ping":46},{"user_id":291,"name":"cycoone","steam_id":76561198059745285,"connected_time":6901000000000,"state":"active","ping":82},{"user_id":359,"name":"MantisToboggan","steam_id":76561197969447887,"connected_time":1576000000000,"state":"active","ping":157},{"user_id":360,"name":"Monsteh","steam_id":76561198325898181,"connected_time":1561000000000,"state":"active","ping":177},{"user_id":370,"name":"Pal","steam_id":76561198079657093,"connected_time":1199000000000,"state":"active","ping":44},{"user_id":343,"name":"fucking idiot","steam_id":76561198158152966,"connected_time":3298000000000,"state":"active","ping":185},{"user_id":377,"name":"TikoTF2","steam_id":76561199066864469,"connected_time":431000000000,"state":"active","ping":71},{"user_id":335,"name":"Viennetta","steam_id":76561198044088335,"connected_time":4080000000000,"state":"active","ping":85},{"user_id":315,"name":"Stultus","steam_id":76561198115116367,"connected_time":4782000000000,"state":"active","ping":95},{"user_id":375,"name":"carp","steam_id":76561198042865147,"connected_time":682000000000,"state":"active","ping":77},{"user_id":368,"name":"Force Nature","steam_id":76561198390522839,"connected_time":1306000000000,"state":"active","ping":112},{"user_id":219,"name":"joachym","steam_id":76561198428579761,"connected_time":12253000000000,"state":"active","ping":188}]},{"server_id":5,"name":"Uncletopia | Frankfurt | 1 | All Maps","name_short":"frk-1","host":"frk-1.de.uncletopia.com","port":27015,"enabled":true,"region":"eu","cc":"de","latitude":50.110924,"longitude":8.682127,"reserved":0,"last_update":"0001-01-01T00:00:00Z","name_a2s":"Uncletopia | Frankfurt | 1 | All Maps","protocol":17,"map":"koth_badlands","folder":"tf","game":"Team Fortress","app_id":440,"player_count":0,"max_players":24,"Bots":0,"server_type":"Dedicated","server_os":"Linux","password":true,"vac":true,"version":"7961495","steam_id":85568392924469989,"keywords":["cp","nocrits","nodmgspread","uncletopia"],"game_id":440,"stv_port":27016,"stv_name":"Uncletopia | Frankfurt | 1 | All Maps | STV","players":null},{"server_id":110,"name":"Uncletopia | Frankfurt | 2 | All Maps","name_short":"frk-2","host":"frk-1.de.uncletopia.com","port":27025,"enabled":true,"region":"eu","cc":"de","latitude":50.110924,"longitude":8.682127,"reserved":0,"last_update":"0001-01-01T00:00:00Z","name_a2s":"Uncletopia | Frankfurt | 2 | All Maps","protocol":17,"map":"pl_frontier_final","folder":"tf","game":"Team Fortress","app_id":440,"player_count":0,"max_players":24,"Bots":0,"server_type":"Dedicated","server_os":"Linux","password":true,"vac":true,"version":"7961495","steam_id":85568392924469990,"keywords":["nocrits","nodmgspread","payload","uncletopia"],"game_id":440,"stv_port":27026,"stv_name":"Uncletopia | Frankfurt | 2 | All Maps | STV","players":null},{"server_id":308,"name":"Uncletopia | Frankfurt | 3 | All Maps","name_short":"frk-3","host":"frk-1.de.uncletopia.com","port":27035,"enabled":true,"region":"eu","cc":"de","latitude":50.110924,"longitude":8.682127,"reserved":0,"last_update":"0001-01-01T00:00:00Z","name_a2s":"Uncletopia | Frankfurt | 3 | All Maps","protocol":17,"map":"cp_well","folder":"tf","game":"Team Fortress","app_id":440,"player_count":0,"max_players":24,"Bots":0,"server_type":"Dedicated","server_os":"Linux","password":true,"vac":true,"version":"7961495","steam_id":85568392924504274,"keywords":["cp","nocrits","nodmgspread","uncletopia"],"game_id":440,"stv_port":27036,"stv_name":"Uncletopia | Frankfurt | 3 | All Maps | STV","players":null},{"server_id":309,"name":"Uncletopia | Frankfurt | 4 | All Maps","name_short":"frk-4","host":"frk-1.de.uncletopia.com","port":27045,"enabled":true,"region":"eu","cc":"de","latitude":50.110924,"longitude":8.682127,"reserved":0,"last_update":"0001-01-01T00:00:00Z","name_a2s":"Uncletopia | Frankfurt | 4 | All Maps","protocol":17,"map":"pl_upward","folder":"tf","game":"Team Fortress","app_id":440,"player_count":0,"max_players":24,"Bots":0,"server_type":"Dedicated","server_os":"Linux","password":true,"vac":true,"version":"7961495","steam_id":85568392924504275,"keywords":["nocrits","nodmgspread","payload","uncletopia"],"game_id":440,"stv_port":27046,"stv_name":"Uncletopia | Frankfurt | 4 | All Maps | STV","players":null},{"server_id":310,"name":"Uncletopia | Frankfurt | 5 | All Maps","name_short":"frk-5","host":"frk-1.de.uncletopia.com","port":27055,"enabled":true,"region":"eu","cc":"de","latitude":50.110924,"longitude":8.682127,"reserved":0,"last_update":"0001-01-01T00:00:00Z","name_a2s":"Uncletopia | Frankfurt | 5 | All Maps","protocol":17,"map":"koth_cascade","folder":"tf","game":"Team Fortress","app_id":440,"player_count":0,"max_players":24,"Bots":0,"server_type":"Dedicated","server_os":"Linux","password":true,"vac":true,"version":"7961495","steam_id":85568392924504277,"keywords":["cp","nocrits","nodmgspread","uncletopia"],"game_id":440,"stv_port":27056,"stv_name":"Uncletopia | Frankfurt | 5 | All Maps | STV","players":null},{"server_id":311,"name":"Uncletopia | Frankfurt | 6 | All Maps","name_short":"frk-6","host":"frk-1.de.uncletopia.com","port":27065,"enabled":true,"region":"eu","cc":"de","latitude":50.110924,"longitude":8.682127,"reserved":0,"last_update":"0001-01-01T00:00:00Z","name_a2s":"Uncletopia | Frankfurt | 6 | All Maps","protocol":17,"map":"cp_snakewater_final1","folder":"tf","game":"Team Fortress","app_id":440,"player_count":0,"max_players":24,"Bots":0,"server_type":"Dedicated","server_os":"Linux","password":true,"vac":true,"version":"7961495","steam_id":85568392924504278,"keywords":["cp","nocrits","nodmgspread","uncletopia"],"game_id":440,"stv_port":27066,"stv_name":"Uncletopia | Frankfurt | 6 | All Maps | STV","players":null},{"server_id":23,"name":"Uncletopia | Frankfurt | 7 | Stopwatch","name_short":"frk-7","host":"frk-1.de.uncletopia.com","port":27075,"enabled":true,"region":"eu","cc":"de","latitude":50.110924,"longitude":8.682127,"reserved":0,"last_update":"0001-01-01T00:00:00Z","name_a2s":"Uncletopia | Frankfurt | 7 | Stopwatch","protocol":17,"map":"workshop/pl_summercoast_rc8e.ugc1761528829","folder":"tf","game":"Team Fortress","app_id":440,"player_count":0,"max_players":24,"Bots":0,"server_type":"Dedicated","server_os":"Linux","password":true,"vac":true,"version":"7961495","steam_id":85568392924742827,"keywords":["nocrits","nodmgspread","payload","uncletopia"],"game_id":440,"stv_port":27076,"stv_name":"Uncletopia | Frankfurt | 7 | Stopwatch | STV","players":null},{"server_id":24,"name":"Uncletopia | Frankfurt | 8 | Community","name_short":"frk-8","host":"frk-1.de.uncletopia.com","port":27085,"enabled":true,"region":"eu","cc":"de","latitude":50.110924,"longitude":8.682127,"reserved":0,"last_update":"0001-01-01T00:00:00Z","name_a2s":"Uncletopia | Frankfurt | 8 | Community","protocol":17,"map":"workshop/pl_emerge_rc2.ugc888027758","folder":"tf","game":"Team Fortress","app_id":440,"player_count":0,"max_players":24,"Bots":0,"server_type":"Dedicated","server_os":"Linux","password":true,"vac":true,"version":"7961495","steam_id":85568392924742828,"keywords":["nocrits","nodmgspread","payload","uncletopia"],"game_id":440,"stv_port":27086,"stv_name":"Uncletopia | Frankfurt | 8 | Community | STV","players":null},{"server_id":202,"name":"Uncletopia | Hong Kong | 1 | All Maps","name_short":"hgk-1","host":"hgk-1.hk.uncletopia.com","port":27015,"enabled":true,"region":"asia","cc":"hk","latitude":22.302711,"longitude":114.177216,"reserved":0,"last_update":"0001-01-01T00:00:00Z","name_a2s":"Uncletopia | Hong Kong | 1 | All Maps","protocol":17,"map":"pl_upward","folder":"tf","game":"Team Fortress","app_id":440,"player_count":0,"max_players":24,"Bots":0,"server_type":"Dedicated","server_os":"Linux","password":true,"vac":true,"version":"7961495","steam_id":85568392924494504,"keywords":["nocrits","nodmgspread","payload","uncletopia"],"game_id":440,"stv_port":27016,"stv_name":"Uncletopia | Hong Kong | 1 | All Maps | STV","players":null},{"server_id":1,"name":"Uncletopia | Los Angeles | 1 | All Maps","name_short":"lax-1","host":"lax-1.us.uncletopia.com","port":27015,"enabled":true,"region":"us-west","cc":"us","latitude":33.94279,"longitude":-118.41004,"reserved":0,"last_update":"0001-01-01T00:00:00Z","name_a2s":"Uncletopia | Los Angeles | 1 | All Maps","protocol":17,"map":"pl_frontier_final","folder":"tf","game":"Team Fortress","app_id":440,"player_count":24,"max_players":24,"Bots":0,"server_type":"Dedicated","server_os":"Linux","password":true,"vac":true,"version":"7961495","steam_id":85568392924469991,"keywords":["nocrits","nodmgspread","payload","uncletopia"],"game_id":440,"stv_port":27016,"stv_name":"Uncletopia | Los Angeles | 1 | All Maps | STV","players":[{"user_id":500,"name":"Verult (doesn't)Trade","steam_id":76561199018000017,"connected_time":951000000000,"state":"active","ping":45},{"user_id":507,"name":"doghouse","steam_id":76561198000319035,"connected_time":481000000000,"state":"active","ping":66},{"user_id":506,"name":"azureglxy","steam_id":76561198861388315,"connected_time":487000000000,"state":"active","ping":32},{"user_id":488,"name":"Jimmy","steam_id":76561198857959855,"connected_time":1945000000000,"state":"active","ping":48},{"user_id":512,"name":"Link_Starr","steam_id":76561198133884015,"connected_time":24000000000,"state":"active","ping":58},{"user_id":486,"name":"Wumpus Grumpus","steam_id":76561198045214707,"connected_time":2046000000000,"state":"active","ping":91},{"user_id":426,"name":"Frebresio","steam_id":76561198353493333,"connected_time":5881000000000,"state":"active","ping":51},{"user_id":484,"name":"Real Kenny G","steam_id":76561198360620446,"connected_time":2502000000000,"state":"active","ping":50},{"user_id":494,"name":"Chad the Sex Haver","steam_id":76561198058236528,"connected_time":1352000000000,"state":"active","ping":46},{"user_id":503,"name":"AAAAAAAAAAAAAAAAAAAAAAAAAAAAAAA","steam_id":76561198125467937,"connected_time":595000000000,"state":"active","ping":69},{"user_id":477,"name":"yeeeeety_boi","steam_id":76561199202351631,"connected_time":2955000000000,"state":"active","ping":102},{"user_id":496,"name":"Delta-Metto 01","steam_id":76561198971167660,"connected_time":1265000000000,"state":"active","ping":114},{"user_id":508,"name":"Dongus","steam_id":76561197979056451,"connected_time":474000000000,"state":"active","ping":81},{"user_id":509,"name":"Seskova","steam_id":76561198090207032,"connected_time":450000000000,"state":"active","ping":81},{"user_id":513,"name":"DarkMewMew","steam_id":76561199471715552,"connected_time":16000000000,"state":"active","ping":78},{"user_id":510,"name":"Cactus™ ♥","steam_id":76561198036441270,"connected_time":418000000000,"state":"active","ping":72},{"user_id":416,"name":"self sufficient kitten","steam_id":76561197960592612,"connected_time":6044000000000,"state":"active","ping":75},{"user_id":511,"name":"JACK BRUNO","steam_id":76561198027957690,"connected_time":402000000000,"state":"active","ping":71},{"user_id":415,"name":"❤ Ashley ❤","steam_id":76561198056428303,"connected_time":6081000000000,"state":"active","ping":45},{"user_id":482,"name":"Medical Maiden","steam_id":76561199110836055,"connected_time":2590000000000,"state":"active","ping":72},{"user_id":480,"name":"can of Heinz Beans","steam_id":76561198806423231,"connected_time":2704000000000,"state":"active","ping":85},{"user_id":433,"name":"Spread Joy, Not Hate","steam_id":76561198053117503,"connected_time":5577000000000,"state":"active","ping":82},{"user_id":471,"name":"luigineer tf2 (real)","steam_id":76561198864531992,"connected_time":3491000000000,"state":"active","ping":89},{"user_id":502,"name":"werolat","steam_id":76561197960544784,"connected_time":856000000000,"state":"active","ping":66}]},{"server_id":112,"name":"Uncletopia | Los Angeles | 2 | All Maps","name_short":"lax-2","host":"lax-1.us.uncletopia.com","port":27025,"enabled":true,"region":"us-west","cc":"us","latitude":33.94279,"longitude":-118.41004,"reserved":0,"last_update":"0001-01-01T00:00:00Z","name_a2s":"Uncletopia | Los Angeles | 2 | All Maps","protocol":17,"map":"koth_lakeside_final","folder":"tf","game":"Team Fortress","app_id":440,"player_count":0,"max_players":24,"Bots":0,"server_type":"Dedicated","server_os":"Linux","password":true,"vac":true,"version":"7961495","steam_id":85568392924469992,"keywords":["cp","nocrits","nodmgspread","uncletopia"],"game_id":440,"stv_port":27026,"stv_name":"Uncletopia | Los Angeles | 2 | All Maps | STV","players":null},{"server_id":324,"name":"Uncletopia | Los Angeles | 3 | All Maps","name_short":"lax-3","host":"lax-1.us.uncletopia.com","port":27035,"enabled":true,"region":"us-west","cc":"us","latitude":33.94279,"longitude":-118.41004,"reserved":0,"last_update":"0001-01-01T00:00:00Z","name_a2s":"Uncletopia | Los Angeles | 3 | All Maps","protocol":17,"map":"pl_upward","folder":"tf","game":"Team Fortress","app_id":440,"player_count":24,"max_players":24,"Bots":0,"server_type":"Dedicated","server_os":"Linux","password":true,"vac":true,"version":"7961495","steam_id":85568392924510198,"keywords":["nocrits","nodmgspread","payload","uncletopia"],"game_id":440,"stv_port":27036,"stv_name":"Uncletopia | Los Angeles | 3 | All Maps | STV","players":[{"user_id":362,"name":"schneiderkid8","steam_id":76561198374005899,"connected_time":3722000000000,"state":"active","ping":64},{"user_id":414,"name":"Simonator","steam_id":76561198242718444,"connected_time":421000000000,"state":"active","ping":66},{"user_id":388,"name":"GLXy","steam_id":76561198207551544,"connected_time":2287000000000,"state":"active","ping":66},{"user_id":408,"name":"sneed","steam_id":76561198118010424,"connected_time":1019000000000,"state":"active","ping":83},{"user_id":376,"name":"Velgrauder","steam_id":76561198848526938,"connected_time":2844000000000,"state":"active","ping":84},{"user_id":387,"name":"Alchemist","steam_id":76561198094238189,"connected_time":2435000000000,"state":"active","ping":59},{"user_id":397,"name":"manbearswineflu","steam_id":76561198083945137,"connected_time":1435000000000,"state":"active","ping":115},{"user_id":396,"name":"brotalium","steam_id":76561198055439054,"connected_time":1624000000000,"state":"active","ping":113},{"user_id":413,"name":"Jimbobmeboy","steam_id":76561198148317197,"connected_time":460000000000,"state":"active","ping":80},{"user_id":393,"name":"BrickDiggity","steam_id":76561198297548684,"connected_time":2028000000000,"state":"active","ping":118},{"user_id":350,"name":"hightierhuman","steam_id":76561198361999761,"connected_time":4529000000000,"state":"active","ping":48},{"user_id":379,"name":"Ralph Kramden (Slim Charles)","steam_id":76561197981687895,"connected_time":2770000000000,"state":"active","ping":60},{"user_id":417,"name":"Pemalon","steam_id":76561198389661782,"connected_time":174000000000,"state":"active","ping":51},{"user_id":352,"name":"lasagnalarry12","steam_id":76561198162688146,"connected_time":4508000000000,"state":"active","ping":47},{"user_id":395,"name":"[UW] BobbyZimmerman","steam_id":76561197993835647,"connected_time":1660000000000,"state":"active","ping":91},{"user_id":389,"name":"[☯] randomshagz*","steam_id":76561197968666646,"connected_time":2133000000000,"state":"active","ping":70},{"user_id":409,"name":"Bubba Rios","steam_id":76561198098540654,"connected_time":820000000000,"state":"active","ping":117},{"user_id":382,"name":"supatrip","steam_id":76561198131030886,"connected_time":2630000000000,"state":"active","ping":58},{"user_id":400,"name":"Abobo","steam_id":76561198161817421,"connected_time":1197000000000,"state":"active","ping":70},{"user_id":383,"name":"dab","steam_id":76561197997990613,"connected_time":2619000000000,"state":"active","ping":66},{"user_id":384,"name":"fuzzorino","steam_id":76561198093146293,"connected_time":2611000000000,"state":"active","ping":53},{"user_id":416,"name":"Owl_eyes","steam_id":76561198066199203,"connected_time":305000000000,"state":"active","ping":56},{"user_id":407,"name":"Nova Academy of Salmon Action","steam_id":76561198021842526,"connected_time":1037000000000,"state":"active","ping":70},{"user_id":415,"name":"gold","steam_id":76561199085827238,"connected_time":328000000000,"state":"active","ping":84}]},{"server_id":25,"name":"Uncletopia | Los Angeles | 4 | Stopwatch","name_short":"lax-4","host":"lax-1.us.uncletopia.com","port":27045,"enabled":true,"region":"us-west","cc":"us","latitude":33.94279,"longitude":-118.41004,"reserved":0,"last_update":"0001-01-01T00:00:00Z","name_a2s":"Uncletopia | Los Angeles | 4 | Stopwatch","protocol":17,"map":"pl_barnblitz","folder":"tf","game":"Team Fortress","app_id":440,"player_count":0,"max_players":24,"Bots":0,"server_type":"Dedicated","server_os":"Linux","password":true,"vac":true,"version":"7961495","steam_id":85568392924510199,"keywords":["nocrits","nodmgspread","payload","uncletopia"],"game_id":440,"stv_port":27046,"stv_name":"Uncletopia | Los Angeles | 4 | Stopwatch | STV","players":null},{"server_id":11,"name":"Uncletopia | London | 1 | All Maps","name_short":"lon-1","host":"lon-1.uk.uncletopia.com","port":27015,"enabled":true,"region":"eu","cc":"gb","latitude":51.509865,"longitude":-0.118092,"reserved":0,"last_update":"0001-01-01T00:00:00Z","name_a2s":"Uncletopia | London | 1 | All Maps","protocol":17,"map":"koth_king","folder":"tf","game":"Team Fortress","app_id":440,"player_count":19,"max_players":24,"Bots":0,"server_type":"Dedicated","server_os":"Linux","password":true,"vac":true,"version":"7961495","steam_id":85568392924367362,"keywords":["cp","nocrits","nodmgspread","uncletopia"],"game_id":440,"stv_port":27016,"stv_name":"Uncletopia | London | 1 | All Maps | STV","players":[{"user_id":959,"name":"Ganasti","steam_id":76561198382925185,"connected_time":26000000000,"state":"active","ping":94},{"user_id":956,"name":"DDUUCCKK","steam_id":76561198141953050,"connected_time":423000000000,"state":"active","ping":50},{"user_id":927,"name":"Ch4bby","steam_id":76561198058792875,"connected_time":1698000000000,"state":"active","ping":53},{"user_id":926,"name":"Tummy","steam_id":76561198045654910,"connected_time":1698000000000,"state":"active","ping":44},{"user_id":951,"name":"incoming","steam_id":76561199138214818,"connected_time":986000000000,"state":"active","ping":90},{"user_id":952,"name":"Zedifo","steam_id":76561198044032070,"connected_time":761000000000,"state":"active","ping":48},{"user_id":929,"name":"noseb","steam_id":76561199480942903,"connected_time":1698000000000,"state":"active","ping":71},{"user_id":957,"name":"t.tv/Hildreth","steam_id":76561197995254867,"connected_time":207000000000,"state":"active","ping":45},{"user_id":932,"name":"Grander","steam_id":76561198011492179,"connected_time":1698000000000,"state":"active","ping":85},{"user_id":949,"name":"Cornmac","steam_id":76561198104780569,"connected_time":1401000000000,"state":"active","ping":65},{"user_id":958,"name":"vietnamese dong","steam_id":76561198083505031,"connected_time":177000000000,"state":"active","ping":45},{"user_id":938,"name":"heuji","steam_id":76561197971067828,"connected_time":1698000000000,"state":"active","ping":57},{"user_id":939,"name":"HIGH CULTIST VARNU","steam_id":76561198104896547,"connected_time":1698000000000,"state":"active","ping":75},{"user_id":941,"name":"NIGHTMARE freddy","steam_id":76561198799538040,"connected_time":1697000000000,"state":"active","ping":152},{"user_id":942,"name":"chools","steam_id":76561198030101579,"connected_time":1697000000000,"state":"active","ping":90},{"user_id":943,"name":"Aspartus","steam_id":76561198101385763,"connected_time":1695000000000,"state":"active","ping":39},{"user_id":944,"name":"Weakest Sniper Enjoyer","steam_id":76561198133597860,"connected_time":1695000000000,"state":"active","ping":78},{"user_id":955,"name":"SolidSalt","steam_id":76561198334789026,"connected_time":596000000000,"state":"active","ping":31},{"user_id":947,"name":"♥ marc 愛","steam_id":76561198018694332,"connected_time":1693000000000,"state":"active","ping":67}]},{"server_id":114,"name":"Uncletopia | London | 2 | All Maps","name_short":"lon-2","host":"lon-1.uk.uncletopia.com","port":27025,"enabled":true,"region":"eu","cc":"gb","latitude":51.509865,"longitude":-0.118092,"reserved":0,"last_update":"0001-01-01T00:00:00Z","name_a2s":"Uncletopia | London | 2 | All Maps","protocol":17,"map":"cp_altitude","folder":"tf","game":"Team Fortress","app_id":440,"player_count":0,"max_players":24,"Bots":0,"server_type":"Dedicated","server_os":"Linux","password":true,"vac":true,"version":"7961495","steam_id":85568392924470941,"keywords":["cp","nocrits","nodmgspread","uncletopia"],"game_id":440,"stv_port":27026,"stv_name":"Uncletopia | London | 2 | All Maps | STV","players":null},{"server_id":320,"name":"Uncletopia | London | 3 | All Maps","name_short":"lon-3","host":"lon-1.uk.uncletopia.com","port":27035,"enabled":true,"region":"eu","cc":"gb","latitude":51.509865,"longitude":-0.118092,"reserved":0,"last_update":"0001-01-01T00:00:00Z","name_a2s":"Uncletopia | London | 3 | All Maps","protocol":17,"map":"pl_swiftwater_final1","folder":"tf","game":"Team Fortress","app_id":440,"player_count":0,"max_players":24,"Bots":0,"server_type":"Dedicated","server_os":"Linux","password":true,"vac":true,"version":"7961495","steam_id":85568392924510192,"keywords":["nocrits","nodmgspread","payload","uncletopia"],"game_id":440,"stv_port":27036,"stv_name":"Uncletopia | London | 3 | All Maps | STV","players":null},{"server_id":321,"name":"Uncletopia | London | 4 | All Maps","name_short":"lon-4","host":"lon-1.uk.uncletopia.com","port":27045,"enabled":true,"region":"eu","cc":"gb","latitude":51.509865,"longitude":-0.118092,"reserved":0,"last_update":"0001-01-01T00:00:00Z","name_a2s":"Uncletopia | London | 4 | All Maps","protocol":17,"map":"pl_pier","folder":"tf","game":"Team Fortress","app_id":440,"player_count":0,"max_players":24,"Bots":0,"server_type":"Dedicated","server_os":"Linux","password":true,"vac":true,"version":"7961495","steam_id":85568392924510193,"keywords":["nocrits","nodmgspread","payload","uncletopia"],"game_id":440,"stv_port":27046,"stv_name":"Uncletopia | London | 4 | All Maps | STV","players":null},{"server_id":21,"name":"Uncletopia | London | 5 | All Maps","name_short":"lon-5","host":"lon-1.uk.uncletopia.com","port":27055,"enabled":true,"region":"eu","cc":"gb","latitude":51.509865,"longitude":-0.118092,"reserved":0,"last_update":"0001-01-01T00:00:00Z","name_a2s":"Uncletopia | London | 5 | All Maps","protocol":17,"map":"pl_frontier_final","folder":"tf","game":"Team Fortress","app_id":440,"player_count":3,"max_players":24,"Bots":0,"server_type":"Dedicated","server_os":"Linux","password":true,"vac":true,"version":"7961495","steam_id":85568392924742829,"keywords":["nocrits","nodmgspread","payload","uncletopia"],"game_id":440,"stv_port":27056,"stv_name":"Uncletopia | London | 5 | All Maps | STV","players":[{"user_id":666,"name":"hammertime","steam_id":76561199097714393,"connected_time":376000000000,"state":"active","ping":147},{"user_id":658,"name":"Zhe Spy","steam_id":76561198380309147,"connected_time":3918000000000,"state":"active","ping":167},{"user_id":589,"name":"Collisto","steam_id":76561198023609460,"connected_time":8650000000000,"state":"active","ping":74}]},{"server_id":22,"name":"Uncletopia | London | 6 | All Maps","name_short":"lon-6","host":"lon-1.uk.uncletopia.com","port":27065,"enabled":true,"region":"eu","cc":"gb","latitude":51.509865,"longitude":-0.118092,"reserved":0,"last_update":"0001-01-01T00:00:00Z","name_a2s":"Uncletopia | London | 6 | All Maps","protocol":17,"map":"cp_altitude","folder":"tf","game":"Team Fortress","app_id":440,"player_count":0,"max_players":24,"Bots":0,"server_type":"Dedicated","server_os":"Linux","password":true,"vac":true,"version":"7961495","steam_id":85568392924742830,"keywords":["cp","nocrits","nodmgspread","uncletopia"],"game_id":440,"stv_port":27066,"stv_name":"Uncletopia | London | 6 | All Maps | STV","players":null},{"server_id":40,"name":"Uncletopia | London | 7 | Stopwatch","name_short":"lon-7","host":"lon-1.uk.uncletopia.com","port":27075,"enabled":true,"region":"eu","cc":"gb","latitude":51.509865,"longitude":-0.118092,"reserved":0,"last_update":"0001-01-01T00:00:00Z","name_a2s":"Uncletopia | London | 7 | Stopwatch","protocol":17,"map":"workshop/pl_badwater_pro_v12.ugc2142942074","folder":"tf","game":"Team Fortress","app_id":440,"player_count":0,"max_players":24,"Bots":0,"server_type":"Dedicated","server_os":"Linux","password":true,"vac":true,"version":"7961495","steam_id":85568392924964314,"keywords":["nocrits","nodmgspread","payload","uncletopia"],"game_id":440,"stv_port":27076,"stv_name":"Uncletopia | London | 7 | Stopwatch | STV","players":null},{"server_id":41,"name":"Uncletopia | London | 8 | Community","name_short":"lon-8","host":"lon-1.uk.uncletopia.com","port":27085,"enabled":true,"region":"eu","cc":"gb","latitude":51.509865,"longitude":-0.118092,"reserved":0,"last_update":"0001-01-01T00:00:00Z","name_a2s":"Uncletopia | London | 8 | Community","protocol":17,"map":"workshop/koth_synthetic_rc6a.ugc1549817316","folder":"tf","game":"Team Fortress","app_id":440,"player_count":0,"max_players":24,"Bots":0,"server_type":"Dedicated","server_os":"Linux","password":true,"vac":true,"version":"7961495","steam_id":85568392924964315,"keywords":["cp","nocrits","nodmgspread","uncletopia"],"game_id":440,"stv_port":27086,"stv_name":"Uncletopia | London | 8 | Community | STV","players":null},{"server_id":300,"name":"Uncletopia | Montréal | 1 | All Maps","name_short":"mtl-1","host":"mtl-1.ca.uncletopia.com","port":27015,"enabled":true,"region":"us-east","cc":"ca","latitude":45.50889,"longitude":-73.56167,"reserved":0,"last_update":"0001-01-01T00:00:00Z","name_a2s":"","protocol":0,"map":"","folder":"","game":"","app_id":0,"player_count":24,"max_players":0,"Bots":0,"server_type":"","server_os":"","password":false,"vac":false,"version":"","steam_id":0,"keywords":null,"game_id":0,"stv_port":0,"stv_name":"","players":[{"user_id":402,"name":"He Who Dared Say \"SuS\"","steam_id":76561198123441203,"connected_time":3909000000000,"state":"active","ping":59},{"user_id":436,"name":"some tree","steam_id":76561198166093346,"connected_time":1774000000000,"state":"active","ping":44},{"user_id":403,"name":"Seek \u0026 Destroy","steam_id":76561199153776236,"connected_time":3904000000000,"state":"active","ping":74},{"user_id":426,"name":"Christophe","steam_id":76561198116640007,"connected_time":3139000000000,"state":"active","ping":148},{"user_id":376,"name":"vanta","steam_id":76561198084317504,"connected_time":6689000000000,"state":"active","ping":45},{"user_id":449,"name":"Tuff","steam_id":76561198038521103,"connected_time":540000000000,"state":"active","ping":62},{"user_id":437,"name":"St. Bobson Q Dugnutt III Esq Sr","steam_id":76561197993459985,"connected_time":1646000000000,"state":"active","ping":48},{"user_id":450,"name":"eipi","steam_id":76561199084492097,"connected_time":319000000000,"state":"active","ping":46},{"user_id":445,"name":"[12V] Marv","steam_id":76561198158638384,"connected_time":937000000000,"state":"active","ping":57},{"user_id":451,"name":"SoundKitKiller","steam_id":76561198053535873,"connected_time":288000000000,"state":"active","ping":60},{"user_id":443,"name":"Grundle Thunder","steam_id":76561197960790338,"connected_time":1092000000000,"state":"active","ping":59},{"user_id":432,"name":"LevelRaisin","steam_id":76561198082924440,"connected_time":2195000000000,"state":"active","ping":46},{"user_id":410,"name":"canakblasteran","steam_id":76561199472518822,"connected_time":3712000000000,"state":"active","ping":135},{"user_id":411,"name":"Zidjit","steam_id":76561199072950598,"connected_time":3700000000000,"state":"active","ping":126},{"user_id":433,"name":"screaming internally","steam_id":76561198838223023,"connected_time":2167000000000,"state":"active","ping":45},{"user_id":448,"name":"Jdulton","steam_id":76561198116243617,"connected_time":697000000000,"state":"active","ping":75},{"user_id":412,"name":"Hollow gamer","steam_id":76561198426798913,"connected_time":3700000000000,"state":"active","ping":130},{"user_id":447,"name":"luigi","steam_id":76561198056261066,"connected_time":786000000000,"state":"active","ping":47},{"user_id":385,"name":"mazlli","steam_id":76561198040531861,"connected_time":5796000000000,"state":"active","ping":89},{"user_id":452,"name":"BeansFan1997","steam_id":76561198045754085,"connected_time":256000000000,"state":"active","ping":57},{"user_id":453,"name":"gravygravyjosh","steam_id":76561197999902920,"connected_time":233000000000,"state":"active","ping":140},{"user_id":389,"name":"Yep","steam_id":76561198041437251,"connected_time":5673000000000,"state":"active","ping":60},{"user_id":440,"name":"Dr. Professor PJ, Ph.D","steam_id":76561198004429398,"connected_time":1448000000000,"state":"active","ping":60},{"user_id":425,"name":"Dr. Pl0x","steam_id":76561198040785401,"connected_time":3181000000000,"state":"active","ping":107}]},{"server_id":301,"name":"Uncletopia | Montréal | 2 | ???","name_short":"mtl-2","host":"mtl-1.ca.uncletopia.com","port":27025,"enabled":true,"region":"us-east","cc":"ca","latitude":45.50889,"longitude":-73.56167,"reserved":0,"last_update":"0001-01-01T00:00:00Z","name_a2s":"","protocol":0,"map":"","folder":"","game":"","app_id":0,"player_count":0,"max_players":0,"Bots":0,"server_type":"","server_os":"","password":false,"vac":false,"version":"","steam_id":0,"keywords":null,"game_id":0,"stv_port":0,"stv_name":"","players":null},{"server_id":13,"name":"Uncletopia | New York City | 1 | All Maps","name_short":"nyc-1","host":"nyc-1.us.uncletopia.com","port":27015,"enabled":true,"region":"us-east","cc":"us","latitude":40.73061,"longitude":-73.93524,"reserved":0,"last_update":"0001-01-01T00:00:00Z","name_a2s":"Uncletopia | New York City | 1 | All Maps","protocol":17,"map":"pl_barnblitz","folder":"tf","game":"Team Fortress","app_id":440,"player_count":24,"max_players":24,"Bots":0,"server_type":"Dedicated","server_os":"Linux","password":true,"vac":true,"version":"7961495","steam_id":85568392924469993,"keywords":["nocrits","nodmgspread","payload","uncletopia"],"game_id":440,"stv_port":27016,"stv_name":"Uncletopia | New York City | 1 | All Maps | STV","players":[{"user_id":624,"name":"Dr. Feelgood (Ph.D, MD)","steam_id":76561198040611061,"connected_time":248000000000,"state":"active","ping":51},{"user_id":623,"name":"ned #RustyPot","steam_id":76561198061593196,"connected_time":670000000000,"state":"active","ping":55},{"user_id":620,"name":"Truffleoil","steam_id":76561198114689041,"connected_time":853000000000,"state":"active","ping":59},{"user_id":625,"name":"Shanks","steam_id":76561199038321449,"connected_time":211000000000,"state":"active","ping":177},{"user_id":586,"name":"dad playing in between naps","steam_id":76561198009425458,"connected_time":4113000000000,"state":"active","ping":82},{"user_id":615,"name":"popfulmail","steam_id":76561198865971290,"connected_time":1218000000000,"state":"active","ping":86},{"user_id":618,"name":"retinz","steam_id":76561198135563495,"connected_time":919000000000,"state":"active","ping":57},{"user_id":626,"name":"Herdez Hot Salsa","steam_id":76561197991740906,"connected_time":172000000000,"state":"active","ping":69},{"user_id":617,"name":"lfty","steam_id":76561198283841707,"connected_time":1049000000000,"state":"active","ping":62},{"user_id":622,"name":"guy","steam_id":76561198079925551,"connected_time":796000000000,"state":"active","ping":59},{"user_id":601,"name":"PieSpie","steam_id":76561198054531169,"connected_time":2897000000000,"state":"active","ping":94},{"user_id":627,"name":"plutonium isotope","steam_id":76561198319442494,"connected_time":168000000000,"state":"active","ping":120},{"user_id":619,"name":"Broadway Rose","steam_id":76561198046083342,"connected_time":915000000000,"state":"active","ping":45},{"user_id":576,"name":"Berb","steam_id":76561198193911899,"connected_time":4413000000000,"state":"active","ping":85},{"user_id":621,"name":"bert","steam_id":76561198167927756,"connected_time":852000000000,"state":"active","ping":76},{"user_id":574,"name":"Dankchicn","steam_id":76561199288196207,"connected_time":4442000000000,"state":"active","ping":103},{"user_id":567,"name":"Nepped Hazama","steam_id":76561198166822675,"connected_time":5010000000000,"state":"active","ping":74},{"user_id":604,"name":"ndvr","steam_id":76561199379200102,"connected_time":1984000000000,"state":"active","ping":55},{"user_id":575,"name":"Riltreks","steam_id":76561198800482183,"connected_time":4437000000000,"state":"active","ping":105},{"user_id":605,"name":"Yuzu","steam_id":76561198417913035,"connected_time":1499000000000,"state":"active","ping":76},{"user_id":525,"name":"Erebus","steam_id":76561199061956673,"connected_time":7815000000000,"state":"active","ping":68},{"user_id":603,"name":"Bee_Pirate","steam_id":76561199000599111,"connected_time":2855000000000,"state":"active","ping":65},{"user_id":613,"name":"Lt. Hindsight","steam_id":76561198197744967,"connected_time":1417000000000,"state":"active","ping":60},{"user_id":602,"name":"[NAME-REDACTED]","steam_id":76561198035682975,"connected_time":2880000000000,"state":"active","ping":57}]},{"server_id":14,"name":"Uncletopia | New York City | 2 | All Maps","name_short":"nyc-2","host":"nyc-1.us.uncletopia.com","port":27025,"enabled":true,"region":"us-east","cc":"us","latitude":40.73061,"longitude":-73.93524,"reserved":0,"last_update":"0001-01-01T00:00:00Z","name_a2s":"Uncletopia | New York City | 2 | All Maps","protocol":17,"map":"pl_badwater","folder":"tf","game":"Team Fortress","app_id":440,"player_count":20,"max_players":24,"Bots":0,"server_type":"Dedicated","server_os":"Linux","password":true,"vac":true,"version":"7961495","steam_id":85568392924469994,"keywords":["nocrits","nodmgspread","payload","uncletopia"],"game_id":440,"stv_port":27026,"stv_name":"Uncletopia | New York City | 2 | All Maps | STV","players":[{"user_id":568,"name":"Braamklauw","steam_id":76561198283287697,"connected_time":6289000000000,"state":"active","ping":131},{"user_id":659,"name":"hashmap","steam_id":76561198043794014,"connected_time":54000000000,"state":"active","ping":61},{"user_id":626,"name":"Peepster","steam_id":76561198297854733,"connected_time":2795000000000,"state":"active","ping":85},{"user_id":603,"name":"Pozyomka","steam_id":76561198086331015,"connected_time":4099000000000,"state":"active","ping":30},{"user_id":602,"name":"milk","steam_id":76561198813251405,"connected_time":4111000000000,"state":"active","ping":45},{"user_id":653,"name":"Synell","steam_id":76561198053232523,"connected_time":610000000000,"state":"active","ping":63},{"user_id":654,"name":"Dot.","steam_id":76561198149463984,"connected_time":588000000000,"state":"active","ping":42},{"user_id":651,"name":"rocketspires","steam_id":76561198800386026,"connected_time":1305000000000,"state":"active","ping":139},{"user_id":652,"name":"Lumi","steam_id":76561198089978036,"connected_time":949000000000,"state":"active","ping":49},{"user_id":660,"name":"fazecumshot69","steam_id":76561199248475270,"connected_time":41000000000,"state":"active","ping":61},{"user_id":650,"name":"space man","steam_id":76561198066333670,"connected_time":1354000000000,"state":"active","ping":58},{"user_id":661,"name":"menonamed","steam_id":76561198199564382,"connected_time":23000000000,"state":"active","ping":55},{"user_id":616,"name":"Snu Meesur","steam_id":76561198087733205,"connected_time":3309000000000,"state":"active","ping":55},{"user_id":629,"name":"rattlin' bog","steam_id":76561198224551028,"connected_time":2772000000000,"state":"active","ping":47},{"user_id":636,"name":"flappyflap2","steam_id":76561198285048973,"connected_time":2332000000000,"state":"active","ping":45},{"user_id":644,"name":"she","steam_id":76561197994492154,"connected_time":1715000000000,"state":"active","ping":145},{"user_id":657,"name":"saurhead","steam_id":76561198132937722,"connected_time":519000000000,"state":"active","ping":45},{"user_id":640,"name":"Coop","steam_id":76561198042839356,"connected_time":2220000000000,"state":"active","ping":61},{"user_id":643,"name":"Sir Quacksalot","steam_id":76561198048942777,"connected_time":1757000000000,"state":"active","ping":85},{"user_id":637,"name":"Terry Bogard's beefin 12 inch","steam_id":76561198371133385,"connected_time":2294000000000,"state":"active","ping":108}]},{"server_id":15,"name":"Uncletopia | New York City | 3 | Stopwatch","name_short":"nyc-3","host":"nyc-1.us.uncletopia.com","port":27035,"enabled":true,"region":"us-east","cc":"us","latitude":40.73061,"longitude":-73.93524,"reserved":0,"last_update":"0001-01-01T00:00:00Z","name_a2s":"Uncletopia | New York City | 3 | Stopwatch","protocol":17,"map":"pl_swiftwater_final1","folder":"tf","game":"Team Fortress","app_id":440,"player_count":24,"max_players":24,"Bots":0,"server_type":"Dedicated","server_os":"Linux","password":true,"vac":true,"version":"7961495","steam_id":85568392924742820,"keywords":["nocrits","nodmgspread","payload","uncletopia"],"game_id":440,"stv_port":27036,"stv_name":"Uncletopia | New York City | 3 | Stopwatch | STV","players":[{"user_id":665,"name":"Skink","steam_id":76561198343428818,"connected_time":923000000000,"state":"active","ping":69},{"user_id":685,"name":"count tokeula","steam_id":76561198305796131,"connected_time":36000000000,"state":"active","ping":62},{"user_id":670,"name":"♥ mastercoms ♥","steam_id":76561198046110893,"connected_time":614000000000,"state":"active","ping":60},{"user_id":654,"name":"Bruh Moment Gaming","steam_id":76561198158181764,"connected_time":2185000000000,"state":"active","ping":46},{"user_id":671,"name":"♥ alixei! ♥","steam_id":76561198014557455,"connected_time":610000000000,"state":"active","ping":78},{"user_id":660,"name":"ДаноРти","steam_id":76561198084780060,"connected_time":1757000000000,"state":"active","ping":63},{"user_id":628,"name":"Dwarfo","steam_id":76561198119220289,"connected_time":3508000000000,"state":"active","ping":61},{"user_id":683,"name":"AutisticMOFO","steam_id":76561198428723559,"connected_time":192000000000,"state":"active","ping":50},{"user_id":686,"name":"zcqyqcz","steam_id":76561198358006442,"connected_time":16000000000,"state":"active","ping":144},{"user_id":556,"name":"Bob Th","steam_id":76561198856284930,"connected_time":8189000000000,"state":"active","ping":59},{"user_id":678,"name":"400mg or more","steam_id":76561198083091076,"connected_time":396000000000,"state":"active","ping":105},{"user_id":672,"name":"Tyranitar9999","steam_id":76561198071637331,"connected_time":579000000000,"state":"active","ping":64},{"user_id":647,"name":"Primitive","steam_id":76561198060500671,"connected_time":2558000000000,"state":"active","ping":39},{"user_id":594,"name":"pnut","steam_id":76561198043862737,"connected_time":5527000000000,"state":"active","ping":42},{"user_id":673,"name":"Spicey","steam_id":76561198039548756,"connected_time":574000000000,"state":"active","ping":64},{"user_id":674,"name":"Good Soup","steam_id":76561198118884545,"connected_time":568000000000,"state":"active","ping":61},{"user_id":617,"name":"9AM | Lunean LFP","steam_id":76561198106546230,"connected_time":4373000000000,"state":"active","ping":58},{"user_id":687,"name":"mini","steam_id":76561198064214000,"connected_time":0,"state":"spawning","ping":0},{"user_id":688,"name":"Tohru","steam_id":76561198139393876,"connected_time":0,"state":"spawning","ping":0},{"user_id":650,"name":"D","steam_id":76561198292908619,"connected_time":2511000000000,"state":"active","ping":77},{"user_id":680,"name":"Vaude","steam_id":76561198369187511,"connected_time":376000000000,"state":"active","ping":61},{"user_id":681,"name":"oyster221","steam_id":76561198057571414,"connected_time":336000000000,"state":"active","ping":63},{"user_id":663,"name":"DistantJragon","steam_id":76561198117563641,"connected_time":1369000000000,"state":"active","ping":80},{"user_id":682,"name":"I Am Alpharius","steam_id":76561198033100226,"connected_time":311000000000,"state":"active","ping":80}]},{"server_id":16,"name":"Uncletopia | New York City | 4 | Community","name_short":"nyc-4","host":"nyc-1.us.uncletopia.com","port":27045,"enabled":true,"region":"us-east","cc":"us","latitude":40.73061,"longitude":-73.93524,"reserved":0,"last_update":"0001-01-01T00:00:00Z","name_a2s":"Uncletopia | New York City | 4 | Community","protocol":17,"map":"workshop/koth_bagel_rc6.ugc2514036946","folder":"tf","game":"Team Fortress","app_id":440,"player_count":4,"max_players":24,"Bots":0,"server_type":"Dedicated","server_os":"Linux","password":true,"vac":true,"version":"7961495","steam_id":85568392924742821,"keywords":["cp","nocrits","nodmgspread","uncletopia"],"game_id":440,"stv_port":27046,"stv_name":"Uncletopia | New York City | 4 | Community | STV","players":[{"user_id":53,"name":"jyp","steam_id":76561198208382525,"connected_time":301000000000,"state":"active","ping":70},{"user_id":54,"name":"doku","steam_id":76561199186072324,"connected_time":264000000000,"state":"active","ping":84},{"user_id":55,"name":"Heroman","steam_id":76561199093371976,"connected_time":186000000000,"state":"active","ping":54},{"user_id":56,"name":"3nd1ess","steam_id":76561198201909950,"connected_time":11000000000,"state":"spawning","ping":462}]},{"server_id":142,"name":"Uncletopia | São Paulo | 1 | All Maps","name_short":"sao-1","host":"sao-1.br.uncletopia.com","port":27015,"enabled":true,"region":"sa","cc":"br","latitude":-23.533773,"longitude":-46.62529,"reserved":0,"last_update":"0001-01-01T00:00:00Z","name_a2s":"Uncletopia | São Paulo | 1 | All Maps","protocol":17,"map":"pl_badwater","folder":"tf","game":"Team Fortress","app_id":440,"player_count":0,"max_players":24,"Bots":0,"server_type":"Dedicated","server_os":"Linux","password":true,"vac":true,"version":"7961495","steam_id":85568392924469996,"keywords":["nocrits","nodmgspread","payload","uncletopia"],"game_id":440,"stv_port":27016,"stv_name":"Uncletopia | São Paulo | 1 | All Maps | STV","players":null},{"server_id":143,"name":"Uncletopia | São Paulo | 2 | Community","name_short":"sao-2","host":"sao-2.br.uncletopia.com","port":27015,"enabled":true,"region":"sa","cc":"br","latitude":-23.533773,"longitude":-46.62529,"reserved":0,"last_update":"0001-01-01T00:00:00Z","name_a2s":"Uncletopia | São Paulo | 2 | Community","protocol":17,"map":"workshop/koth_product_final.ugc454272353","folder":"tf","game":"Team Fortress","app_id":440,"player_count":0,"max_players":24,"Bots":0,"server_type":"Dedicated","server_os":"Linux","password":true,"vac":true,"version":"7961495","steam_id":85568392924485349,"keywords":["cp","nocrits","nodmgspread","uncletopia"],"game_id":440,"stv_port":27016,"stv_name":"Uncletopia | São Paulo | 2 | Community | STV","players":null},{"server_id":7,"name":"Uncletopia | Seattle | 1 | All Maps","name_short":"sea-1","host":"sea-1.us.uncletopia.com","port":27015,"enabled":true,"region":"us-west","cc":"us","latitude":47.608013,"longitude":-122.33517,"reserved":0,"last_update":"0001-01-01T00:00:00Z","name_a2s":"Uncletopia | Seattle | 1 | All Maps","protocol":17,"map":"pl_badwater","folder":"tf","game":"Team Fortress","app_id":440,"player_count":24,"max_players":24,"Bots":0,"server_type":"Dedicated","server_os":"Linux","password":true,"vac":true,"version":"7961495","steam_id":85568392924469997,"keywords":["nocrits","nodmgspread","payload","uncletopia"],"game_id":440,"stv_port":27016,"stv_name":"Uncletopia | Seattle | 1 | All Maps | STV","players":[{"user_id":638,"name":"Gm_Trash","steam_id":76561199445091548,"connected_time":2604000000000,"state":"active","ping":47},{"user_id":663,"name":"DORK","steam_id":76561198037384555,"connected_time":215000000000,"state":"active","ping":70},{"user_id":666,"name":"Blanke","steam_id":76561198064100364,"connected_time":120000000000,"state":"active","ping":98},{"user_id":667,"name":"ms. anthrope","steam_id":76561198063533082,"connected_time":90000000000,"state":"active","ping":36},{"user_id":630,"name":"Ayayayayayahuasca","steam_id":76561199002906056,"connected_time":3707000000000,"state":"active","ping":51},{"user_id":658,"name":"pl_dustbowl","steam_id":76561198857237473,"connected_time":641000000000,"state":"active","ping":57},{"user_id":646,"name":"Sacrificial Wormy","steam_id":76561198054539200,"connected_time":1944000000000,"state":"active","ping":45},{"user_id":648,"name":"Neophyte","steam_id":76561198027183394,"connected_time":1890000000000,"state":"active","ping":84},{"user_id":654,"name":"slushy :))","steam_id":76561198135281802,"connected_time":1119000000000,"state":"active","ping":32},{"user_id":668,"name":"bmx bike","steam_id":76561198207881077,"connected_time":85000000000,"state":"active","ping":71},{"user_id":652,"name":"Lili","steam_id":76561199391478575,"connected_time":1474000000000,"state":"active","ping":55},{"user_id":664,"name":"Xain35","steam_id":76561198121834307,"connected_time":138000000000,"state":"active","ping":52},{"user_id":621,"name":"thunderous prophet","steam_id":76561198131166135,"connected_time":4313000000000,"state":"active","ping":42},{"user_id":669,"name":"Ben-Riley_","steam_id":76561198073169199,"connected_time":81000000000,"state":"active","ping":95},{"user_id":623,"name":"6 1/2 cups of A1 steak sauce","steam_id":76561198866629645,"connected_time":4059000000000,"state":"active","ping":59},{"user_id":645,"name":"jole","steam_id":76561198037292232,"connected_time":1955000000000,"state":"active","ping":120},{"user_id":671,"name":"smokin that shit again","steam_id":76561198095480838,"connected_time":18000000000,"state":"active","ping":46},{"user_id":653,"name":"soup","steam_id":76561198043209046,"connected_time":1319000000000,"state":"active","ping":72},{"user_id":651,"name":"sillypilled","steam_id":76561198093883448,"connected_time":1633000000000,"state":"active","ping":46},{"user_id":661,"name":"porfer","steam_id":76561199118049168,"connected_time":505000000000,"state":"active","ping":79},{"user_id":468,"name":"Drone #0432 (they/it)","steam_id":76561198027321950,"connected_time":16106000000000,"state":"active","ping":42},{"user_id":635,"name":"RainboomCrash","steam_id":76561198065612273,"connected_time":3089000000000,"state":"active","ping":45},{"user_id":642,"name":"Crake","steam_id":76561198001959071,"connected_time":2035000000000,"state":"active","ping":48},{"user_id":640,"name":"ed","steam_id":76561198080475712,"connected_time":2400000000000,"state":"active","ping":75}]},{"server_id":119,"name":"Uncletopia | Seattle | 2 | All Maps","name_short":"sea-2","host":"sea-1.us.uncletopia.com","port":27025,"enabled":true,"region":"us-west","cc":"us","latitude":47.608013,"longitude":-122.33517,"reserved":0,"last_update":"0001-01-01T00:00:00Z","name_a2s":"Uncletopia | Seattle | 2 | All Maps","protocol":17,"map":"pl_borneo","folder":"tf","game":"Team Fortress","app_id":440,"player_count":24,"max_players":24,"Bots":0,"server_type":"Dedicated","server_os":"Linux","password":true,"vac":true,"version":"7961495","steam_id":85568392924469998,"keywords":["nocrits","nodmgspread","payload","uncletopia"],"game_id":440,"stv_port":27026,"stv_name":"Uncletopia | Seattle | 2 | All Maps | STV","players":[{"user_id":358,"name":"Kenmei","steam_id":76561199221909016,"connected_time":1602000000000,"state":"active","ping":77},{"user_id":321,"name":"MonteJT","steam_id":76561198055409360,"connected_time":4254000000000,"state":"active","ping":42},{"user_id":382,"name":"juan.png","steam_id":76561199276894516,"connected_time":367000000000,"state":"active","ping":45},{"user_id":370,"name":"Irritated Duck","steam_id":76561198247792076,"connected_time":858000000000,"state":"active","ping":77},{"user_id":348,"name":"The Super Mario Bros. Movie","steam_id":76561198871692156,"connected_time":1931000000000,"state":"active","ping":53},{"user_id":371,"name":"Dog'ger","steam_id":76561198023659948,"connected_time":816000000000,"state":"active","ping":47},{"user_id":350,"name":"vacachimuela","steam_id":76561198297332421,"connected_time":1916000000000,"state":"active","ping":75},{"user_id":383,"name":"Bargain Brand Cereal","steam_id":76561198440470058,"connected_time":271000000000,"state":"active","ping":120},{"user_id":307,"name":"mine diam","steam_id":76561198119123981,"connected_time":4973000000000,"state":"active","ping":56},{"user_id":368,"name":"cyclops","steam_id":76561197970370198,"connected_time":1102000000000,"state":"active","ping":102},{"user_id":360,"name":"nucket","steam_id":76561198028658527,"connected_time":1549000000000,"state":"active","ping":72},{"user_id":376,"name":"Billy Mays","steam_id":76561197998876324,"connected_time":483000000000,"state":"active","ping":121},{"user_id":375,"name":"RexCreeper456","steam_id":76561199319578396,"connected_time":530000000000,"state":"active","ping":102},{"user_id":354,"name":"CheesyPoofs","steam_id":76561197998650617,"connected_time":1761000000000,"state":"active","ping":45},{"user_id":384,"name":"The local hobo","steam_id":76561198289650060,"connected_time":207000000000,"state":"active","ping":72},{"user_id":372,"name":"Attrition","steam_id":76561197969881916,"connected_time":805000000000,"state":"active","ping":51},{"user_id":327,"name":"Morse","steam_id":76561198039944542,"connected_time":3751000000000,"state":"active","ping":49},{"user_id":379,"name":"Urbanzpinapple","steam_id":76561198115426938,"connected_time":401000000000,"state":"active","ping":103},{"user_id":374,"name":"St. Comfy, Patron Saint of NEET","steam_id":76561199091191812,"connected_time":678000000000,"state":"active","ping":74},{"user_id":380,"name":"reko","steam_id":76561198278020887,"connected_time":395000000000,"state":"active","ping":93},{"user_id":366,"name":"rice white","steam_id":76561198320732910,"connected_time":1160000000000,"state":"active","ping":127},{"user_id":381,"name":"hoOmIN","steam_id":76561198334947079,"connected_time":394000000000,"state":"active","ping":73},{"user_id":212,"name":"greens beans","steam_id":76561198153611491,"connected_time":12202000000000,"state":"active","ping":43},{"user_id":342,"name":"SkobeBeef","steam_id":76561198078638948,"connected_time":2674000000000,"state":"active","ping":60}]},{"server_id":406,"name":"Uncletopia | Seattle | 3 | Stopwatch","name_short":"sea-3","host":"sea-1.us.uncletopia.com","port":27035,"enabled":true,"region":"us-west","cc":"us","latitude":47.608013,"longitude":-122.33517,"reserved":0,"last_update":"0001-01-01T00:00:00Z","name_a2s":"Uncletopia | Seattle | 3 | Stopwatch","protocol":17,"map":"workshop/koth_product_final.ugc454272353","folder":"tf","game":"Team Fortress","app_id":440,"player_count":0,"max_players":24,"Bots":0,"server_type":"Dedicated","server_os":"Linux","password":true,"vac":true,"version":"7961495","steam_id":85568392924515217,"keywords":["cp","nocrits","nodmgspread","uncletopia"],"game_id":440,"stv_port":27036,"stv_name":"Uncletopia | Seattle | 3 | Stopwatch | STV","players":null},{"server_id":17,"name":"Uncletopia | San Francisco | 1 | All Maps","name_short":"sfo-1","host":"sfo-1.us.uncletopia.com","port":27015,"enabled":true,"region":"us-west","cc":"us","latitude":37.77397,"longitude":-122.4313,"reserved":0,"last_update":"0001-01-01T00:00:00Z","name_a2s":"Uncletopia | San Francisco | 1 | All Maps","protocol":17,"map":"cp_gullywash_final1","folder":"tf","game":"Team Fortress","app_id":440,"player_count":24,"max_players":24,"Bots":0,"server_type":"Dedicated","server_os":"Linux","password":true,"vac":true,"version":"7961495","steam_id":85568392924469999,"keywords":["cp","nocrits","nodmgspread","uncletopia"],"game_id":440,"stv_port":27016,"stv_name":"Uncletopia | San Francisco | 1 | All Maps | STV","players":[{"user_id":437,"name":"autistic marihuano","steam_id":76561199055488028,"connected_time":792000000000,"state":"active","ping":115},{"user_id":433,"name":"bisexual male","steam_id":76561198281186490,"connected_time":878000000000,"state":"active","ping":107},{"user_id":438,"name":"BreadnDip","steam_id":76561198362635423,"connected_time":701000000000,"state":"active","ping":66},{"user_id":439,"name":"StrayGuitarist","steam_id":76561198091315714,"connected_time":684000000000,"state":"active","ping":43},{"user_id":392,"name":"Crudiety","steam_id":76561198880223365,"connected_time":3375000000000,"state":"active","ping":67},{"user_id":411,"name":"✫P∀nck∈✫","steam_id":76561198050163618,"connected_time":2694000000000,"state":"active","ping":48},{"user_id":331,"name":"Gerbias","steam_id":76561198001002427,"connected_time":8505000000000,"state":"active","ping":55},{"user_id":453,"name":"Skeleop","steam_id":76561198981106464,"connected_time":210000000000,"state":"active","ping":52},{"user_id":381,"name":"second involate","steam_id":76561198041863231,"connected_time":4377000000000,"state":"active","ping":69},{"user_id":414,"name":"umongus","steam_id":76561199366064808,"connected_time":2344000000000,"state":"active","ping":152},{"user_id":440,"name":"dramboney","steam_id":76561199068500959,"connected_time":677000000000,"state":"active","ping":86},{"user_id":449,"name":"don't get mad","steam_id":76561198064662875,"connected_time":509000000000,"state":"active","ping":48},{"user_id":441,"name":"^^","steam_id":76561198149902575,"connected_time":674000000000,"state":"active","ping":63},{"user_id":398,"name":"Sax","steam_id":76561198055425123,"connected_time":3217000000000,"state":"active","ping":81},{"user_id":442,"name":"Jean Deere","steam_id":76561198105101309,"connected_time":670000000000,"state":"active","ping":119},{"user_id":443,"name":"Oddly Flammable","steam_id":76561198347147904,"connected_time":665000000000,"state":"active","ping":82},{"user_id":320,"name":"Branta","steam_id":76561199103842843,"connected_time":9095000000000,"state":"active","ping":69},{"user_id":352,"name":"Soy King","steam_id":76561198263025614,"connected_time":7006000000000,"state":"active","ping":108},{"user_id":451,"name":"Blu","steam_id":76561198011675372,"connected_time":265000000000,"state":"active","ping":70},{"user_id":445,"name":"Perfectly Generic Object","steam_id":76561198992039900,"connected_time":641000000000,"state":"active","ping":72},{"user_id":446,"name":"shitass (Reaping and Sowing)","steam_id":76561198210572481,"connected_time":640000000000,"state":"active","ping":59},{"user_id":455,"name":"Tinygeracl","steam_id":76561199031313437,"connected_time":28000000000,"state":"active","ping":62},{"user_id":454,"name":"Mr_SoulSlasher","steam_id":76561198936267613,"connected_time":140000000000,"state":"active","ping":70},{"user_id":366,"name":"[Industrial] A_HUMBLEBUMBLED","steam_id":76561198064771878,"connected_time":5717000000000,"state":"active","ping":56}]},{"server_id":18,"name":"Uncletopia | San Francisco | 2 | All Maps","name_short":"sfo-2","host":"sfo-1.us.uncletopia.com","port":27025,"enabled":true,"region":"us-west","cc":"us","latitude":37.77397,"longitude":-122.4313,"reserved":0,"last_update":"0001-01-01T00:00:00Z","name_a2s":"Uncletopia | San Francisco | 2 | All Maps","protocol":17,"map":"koth_cascade","folder":"tf","game":"Team Fortress","app_id":440,"player_count":0,"max_players":24,"Bots":0,"server_type":"Dedicated","server_os":"Linux","password":true,"vac":true,"version":"7961495","steam_id":85568392924470000,"keywords":["cp","nocrits","nodmgspread","uncletopia"],"game_id":440,"stv_port":27026,"stv_name":"Uncletopia | San Francisco | 2 | All Maps | STV","players":null},{"server_id":19,"name":"Uncletopia | San Francisco | 3 | Stopwatch","name_short":"sfo-3","host":"sfo-1.us.uncletopia.com","port":27035,"enabled":true,"region":"us-west","cc":"us","latitude":37.77397,"longitude":-122.4313,"reserved":0,"last_update":"0001-01-01T00:00:00Z","name_a2s":"Uncletopia | San Francisco | 3 | Stopwatch","protocol":17,"map":"workshop/koth_ramjam_rc1.ugc459778887","folder":"tf","game":"Team Fortress","app_id":440,"player_count":0,"max_players":24,"Bots":0,"server_type":"Dedicated","server_os":"Linux","password":true,"vac":true,"version":"7961495","steam_id":85568392924742824,"keywords":["cp","nocrits","nodmgspread","uncletopia"],"game_id":440,"stv_port":27036,"stv_name":"Uncletopia | San Francisco | 3 | Stopwatch | STV","players":null},{"server_id":20,"name":"Uncletopia | San Francisco | 4 | Community","name_short":"sfo-4","host":"sfo-1.us.uncletopia.com","port":27045,"enabled":true,"region":"us-west","cc":"us","latitude":37.77397,"longitude":-122.4313,"reserved":0,"last_update":"0001-01-01T00:00:00Z","name_a2s":"Uncletopia | San Francisco | 4 | Community","protocol":17,"map":"workshop/cp_caldera_rc2.ugc2834196889","folder":"tf","game":"Team Fortress","app_id":440,"player_count":0,"max_players":24,"Bots":0,"server_type":"Dedicated","server_os":"Linux","password":true,"vac":true,"version":"7961495","steam_id":85568392924742826,"keywords":["cp","nocrits","nodmgspread","uncletopia"],"game_id":440,"stv_port":27046,"stv_name":"Uncletopia | San Francisco | 4 | Community | STV","players":null},{"server_id":141,"name":"Uncletopia | Sydney | 1 | All Maps","name_short":"syd-1","host":"syd-1.au.uncletopia.com","port":27015,"enabled":true,"region":"au","cc":"au","latitude":-33.865143,"longitude":151.2099,"reserved":0,"last_update":"0001-01-01T00:00:00Z","name_a2s":"Uncletopia | Sydney | 1 | All Maps","protocol":17,"map":"koth_viaduct","folder":"tf","game":"Team Fortress","app_id":440,"player_count":0,"max_players":24,"Bots":0,"server_type":"Dedicated","server_os":"Linux","password":true,"vac":true,"version":"7961495","steam_id":85568392924470001,"keywords":["cp","nocrits","nodmgspread","uncletopia"],"game_id":440,"stv_port":27016,"stv_name":"Uncletopia | Sydney | 1 | All Maps | STV","players":null},{"server_id":123,"name":"Uncletopia | Sydney | 2 | All Maps","name_short":"syd-2","host":"syd-1.au.uncletopia.com","port":27025,"enabled":true,"region":"au","cc":"au","latitude":-33.865143,"longitude":151.2099,"reserved":0,"last_update":"0001-01-01T00:00:00Z","name_a2s":"Uncletopia | Sydney | 2 | All Maps","protocol":17,"map":"koth_lakeside_final","folder":"tf","game":"Team Fortress","app_id":440,"player_count":0,"max_players":24,"Bots":0,"server_type":"Dedicated","server_os":"Linux","password":true,"vac":true,"version":"7961495","steam_id":85568392924470002,"keywords":["cp","nocrits","nodmgspread","uncletopia"],"game_id":440,"stv_port":27026,"stv_name":"Uncletopia | Sydney | 2 | All Maps | STV","players":null},{"server_id":395,"name":"Uncletopia | Sydney | 3 | All Maps","name_short":"syd-3","host":"syd-1.au.uncletopia.com","port":27035,"enabled":true,"region":"au","cc":"au","latitude":-33.865143,"longitude":151.2099,"reserved":0,"last_update":"0001-01-01T00:00:00Z","name_a2s":"Uncletopia | Sydney | 3 | All Maps","protocol":17,"map":"pl_frontier_final","folder":"tf","game":"Team Fortress","app_id":440,"player_count":0,"max_players":24,"Bots":0,"server_type":"Dedicated","server_os":"Linux","password":true,"vac":true,"version":"7961495","steam_id":85568392925194467,"keywords":["nocrits","nodmgspread","payload","uncletopia"],"game_id":440,"stv_port":27036,"stv_name":"Uncletopia | Sydney | 3 | All Maps | STV","players":null},{"server_id":396,"name":"Uncletopia | Sydney | 4 | All Maps","name_short":"syd-4","host":"syd-1.au.uncletopia.com","port":27045,"enabled":true,"region":"au","cc":"au","latitude":-33.865143,"longitude":151.2099,"reserved":0,"last_update":"0001-01-01T00:00:00Z","name_a2s":"Uncletopia | Sydney | 4 | All Maps","protocol":17,"map":"koth_lakeside_final","folder":"tf","game":"Team Fortress","app_id":440,"player_count":0,"max_players":24,"Bots":0,"server_type":"Dedicated","server_os":"Linux","password":true,"vac":true,"version":"7961495","steam_id":85568392925397958,"keywords":["cp","nocrits","nodmgspread","uncletopia"],"game_id":440,"stv_port":27046,"stv_name":"Uncletopia | Sydney | 4 | All Maps | STV","players":null},{"server_id":58,"name":"Uncletopia | Sydney | 5 | Stopwatch","name_short":"syd-5","host":"syd-1.au.uncletopia.com","port":27055,"enabled":true,"region":"au","cc":"au","latitude":-33.865143,"longitude":151.2099,"reserved":0,"last_update":"0001-01-01T00:00:00Z","name_a2s":"Uncletopia | Sydney | 5 | Stopwatch","protocol":17,"map":"workshop/pl_badwater_pro_v12.ugc2142942074","folder":"tf","game":"Team Fortress","app_id":440,"player_count":0,"max_players":24,"Bots":0,"server_type":"Dedicated","server_os":"Linux","password":true,"vac":true,"version":"7961495","steam_id":85568392925397959,"keywords":["nocrits","nodmgspread","payload","uncletopia"],"game_id":440,"stv_port":27056,"stv_name":"Uncletopia | Sydney | 5 | Stopwatch | STV","players":null},{"server_id":59,"name":"Uncletopia | Sydney | 6 | Community","name_short":"syd-6","host":"syd-1.au.uncletopia.com","port":27065,"enabled":true,"region":"au","cc":"au","latitude":-33.865143,"longitude":151.2099,"reserved":0,"last_update":"0001-01-01T00:00:00Z","name_a2s":"Uncletopia | Sydney | 6 | Community","protocol":17,"map":"workshop/koth_kemptown_rc1.ugc767410655","folder":"tf","game":"Team Fortress","app_id":440,"player_count":0,"max_players":24,"Bots":0,"server_type":"Dedicated","server_os":"Linux","password":true,"vac":true,"version":"7961495","steam_id":85568392925397960,"keywords":["cp","nocrits","nodmgspread","uncletopia"],"game_id":440,"stv_port":27066,"stv_name":"Uncletopia | Sydney | 6 | Community | STV","players":null},{"server_id":49,"name":"Uncletopia | Warsaw | 1 | All Maps","name_short":"waw-1","host":"waw-1.pl.uncletopia.com","port":27015,"enabled":true,"region":"eu","cc":"pl","latitude":52.2297,"longitude":21.017532,"reserved":0,"last_update":"0001-01-01T00:00:00Z","name_a2s":"Uncletopia | Warsaw | 1 | All Maps","protocol":17,"map":"pl_badwater","folder":"tf","game":"Team Fortress","app_id":440,"player_count":0,"max_players":24,"Bots":0,"server_type":"Dedicated","server_os":"Linux","password":true,"vac":true,"version":"7961495","steam_id":85568392925397850,"keywords":["nocrits","nodmgspread","payload","uncletopia"],"game_id":440,"stv_port":27016,"stv_name":"Uncletopia | Warsaw | 1 | All Maps | STV","players":null},{"server_id":50,"name":"Uncletopia | Warsaw | 2 | All Maps","name_short":"waw-2","host":"waw-1.pl.uncletopia.com","port":27025,"enabled":true,"region":"eu","cc":"pl","latitude":52.2297,"longitude":21.017532,"reserved":0,"last_update":"0001-01-01T00:00:00Z","name_a2s":"Uncletopia | Warsaw | 2 | All Maps","protocol":17,"map":"cp_mountainlab","folder":"tf","game":"Team Fortress","app_id":440,"player_count":0,"max_players":24,"Bots":0,"server_type":"Dedicated","server_os":"Linux","password":true,"vac":true,"version":"7961495","steam_id":85568392925397851,"keywords":["cp","nocrits","nodmgspread","uncletopia"],"game_id":440,"stv_port":27026,"stv_name":"Uncletopia | Warsaw | 2 | All Maps | STV","players":null},{"server_id":51,"name":"Uncletopia | Warsaw | 3 | All Maps","name_short":"waw-3","host":"waw-1.pl.uncletopia.com","port":27035,"enabled":true,"region":"eu","cc":"pl","latitude":52.2297,"longitude":21.017532,"reserved":0,"last_update":"0001-01-01T00:00:00Z","name_a2s":"Uncletopia | Warsaw | 3 | All Maps","protocol":17,"map":"cp_mountainlab","folder":"tf","game":"Team Fortress","app_id":440,"player_count":0,"max_players":24,"Bots":0,"server_type":"Dedicated","server_os":"Linux","password":true,"vac":true,"version":"7961495","steam_id":85568392925397852,"keywords":["cp","nocrits","nodmgspread","uncletopia"],"game_id":440,"stv_port":27036,"stv_name":"Uncletopia | Warsaw | 3 | All Maps | STV","players":null},{"server_id":52,"name":"Uncletopia | Warsaw | 4 | All Maps","name_short":"waw-4","host":"waw-1.pl.uncletopia.com","port":27045,"enabled":true,"region":"eu","cc":"pl","latitude":52.2297,"longitude":21.017532,"reserved":0,"last_update":"0001-01-01T00:00:00Z","name_a2s":"Uncletopia | Warsaw | 4 | All Maps","protocol":17,"map":"pl_barnblitz","folder":"tf","game":"Team Fortress","app_id":440,"player_count":0,"max_players":24,"Bots":0,"server_type":"Dedicated","server_os":"Linux","password":true,"vac":true,"version":"7961495","steam_id":85568392925397853,"keywords":["nocrits","nodmgspread","payload","uncletopia"],"game_id":440,"stv_port":27046,"stv_name":"Uncletopia | Warsaw | 4 | All Maps | STV","players":null},{"server_id":53,"name":"Uncletopia | Warsaw | 5 | Stopwatch","name_short":"waw-5","host":"waw-1.pl.uncletopia.com","port":27055,"enabled":true,"region":"eu","cc":"pl","latitude":52.2297,"longitude":21.017532,"reserved":0,"last_update":"0001-01-01T00:00:00Z","name_a2s":"Uncletopia | Warsaw | 5 | Stopwatch","protocol":17,"map":"workshop/cp_reckoner_rc6.ugc674719999","folder":"tf","game":"Team Fortress","app_id":440,"player_count":0,"max_players":24,"Bots":0,"server_type":"Dedicated","server_os":"Linux","password":true,"vac":true,"version":"7961495","steam_id":85568392925397854,"keywords":["cp","nocrits","nodmgspread","uncletopia"],"game_id":440,"stv_port":27056,"stv_name":"Uncletopia | Warsaw | 5 | Stopwatch | STV","players":null},{"server_id":54,"name":"Uncletopia | Warsaw | 6 | Community","name_short":"waw-6","host":"waw-1.pl.uncletopia.com","port":27065,"enabled":true,"region":"eu","cc":"pl","latitude":52.2297,"longitude":21.017532,"reserved":0,"last_update":"0001-01-01T00:00:00Z","name_a2s":"Uncletopia | Warsaw | 6 | Community","protocol":17,"map":"workshop/cp_hazyfort_rc6.ugc1365963729","folder":"tf","game":"Team Fortress","app_id":440,"player_count":0,"max_players":24,"Bots":0,"server_type":"Dedicated","server_os":"Linux","password":true,"vac":true,"version":"7961495","steam_id":85568392925397856,"keywords":["cp","nocrits","nodmgspread","uncletopia"],"game_id":440,"stv_port":27066,"stv_name":"Uncletopia | Warsaw | 6 | Community | STV","players":null}]}