{"status":true,"message":"","result":[{"server_id":9,"name":"Uncletopia | Atlanta | 1 | All Maps","name_short":"atl-1","host":"atl-1.us.uncletopia.com","port":27015,"enabled":true,"region":"us-east","cc":"us","latitude":33.753746,"longitude":-84.38633,"reserved":0,"last_update":"0001-01-01T00:00:00Z","name_a2s":"Uncletopia | Atlanta | 1 | All Maps","protocol":17,"map":"cp_altitude","folder":"tf","game":"Team Fortress","app_id":440,"player_count":0,"max_players":24,"Bots":0,"server_type":"Dedicated","server_os":"Linux","password":true,"vac":true,"version":"7961495","steam_id":85568392924469982,"keywords":["cp","nocrits","nodmgspread","uncletopia"],"game_id":440,"stv_port":27016,"stv_name":"Uncletopia | Atlanta | 1 | All Maps | STV","players":null},{"server_id":104,"name":"Uncletopia | Atlanta | 2 | All Maps","name_short":"atl-2","host":"atl-1.us.uncletopia.com","port":27025,"enabled":true,"region":"us-east","cc":"us","latitude":33.753746,"longitude":-84.38633,"reserved":0,"last_update":"0001-01-01T00:00:00Z","name_a2s":"Uncletopia | Atlanta | 2 | All Maps","protocol":17,"map":"koth_highpass","folder":"tf","game":"Team Fortress","app_id":440,"player_count":0,"max_players":24,"Bots":0,"server_type":"Dedicated","server_os":"Linux","password":true,"vac":true,"version":"7961495","steam_id":85568392924469983,"keywords":["cp","nocrits","nodmgspread","uncletopia"],"game_id":440,"stv_port":27026,"stv_name":"Uncletopia | Atlanta | 2 | All Maps | STV","players":null},{"server_id":400,"name":"Uncletopia | Atlanta | 3 | All Maps","name_short":"atl-3","host":"atl-1.us.uncletopia.com","port":27035,"enabled":true,"region":"us-east","cc":"us","latitude":33.753746,"longitude":-84.38633,"reserved":0,"last_update":"0001-01-01T00:00:00Z","name_a2s":"Uncletopia | Atlanta | 3 | All Maps","protocol":17,"map":"cp_altitude","folder":"tf","game":"Team Fortress","app_id":440,"player_count":0,"max_players":24,"Bots":0,"server_type":"Dedicated","server_os":"Linux","password":true,"vac":true,"version":"7961495","steam_id":85568392924515187,"keywords":["cp","nocrits","nodmgspread","uncletopia"],"game_id":440,"stv_port":27036,"stv_name":"Uncletopia | Atlanta | 3 | All Maps | STV","players":null},{"server_id":401,"name":"Uncletopia | Atlanta | 4 | Community","name_short":"atl-4","host":"atl-1.us.uncletopia.com","port":27045,"enabled":true,"region":"us-east","cc":"us","latitude":33.753746,"longitude":-84.38633,"reserved":0,"last_update":"0001-01-01T00:00:00Z","name_a2s":"Uncletopia | Atlanta | 4 | Community","protocol":17,"map":"cp_sunshine","folder":"tf","game":"Team Fortress","app_id":440,"player_count":0,"max_players":24,"Bots":0,"server_type":"Dedicated","server_os":"Linux","password":true,"vac":true,"version":"7961495","steam_id":85568392924515188,"keywords":["cp","nocrits","nodmgspread","uncletopia"],"game_id":440,"stv_port":27046,"stv_name":"Uncletopia | Atlanta | 4 | Community | STV","players":null},{"server_id":2,"name":"Uncletopia | Chicago | 1 | All Maps","name_short":"chi-1","host":"chi-1.us.uncletopia.com","port":27015,"enabled":true,"region":"us-central","cc":"us","latitude":41.881832,"longitude":-87.62318,"reserved":0,"last_update":"0001-01-01T00:00:00Z","name_a2s":"Uncletopia | Chicago | 1 | All Maps","protocol":17,"map":"koth_highpass","folder":"tf","game":"Team Fortress","app_id":440,"player_count":15,"max_players":24,"Bots":0,"server_type":"Dedicated","server_os":"Linux","password":true,"vac":true,"version":"7961495","steam_id":85568392924469984,"keywords":["cp","nocrits","nodmgspread","uncletopia"],"game_id":440,"stv_port":27016,"stv_name":"Uncletopia | Chicago | 1 | All Maps | STV","players":[{"user_id":12,"name":"cpg","steam_id":76561198853515541,"connected_time":1148000000000,"state":"active","ping":95},{"user_id":27,"name":"c64guy","steam_id":76561198023022744,"connected_time":117000000000,"state":"active","ping":60},{"user_id":14,"name":"5p00n","steam_id":76561199005902364,"connected_time":848000000000,"state":"active","ping":87},{"user_id":18,"name":"Smile from God","steam_id":76561198032663494,"connected_time":432000000000,"state":"active","ping":64},{"user_id":16,"name":"chum","steam_id":76561198057431789,"connected_time":667000000000,"state":"active","ping":70},{"user_id":19,"name":"....","steam_id":76561199482943969,"connected_time":291000000000,"state":"active","ping":61},{"user_id":20,"name":"Chypp","steam_id":76561198134090388,"connected_time":281000000000,"state":"active","ping":59},{"user_id":21,"name":"The Incredible Fem Boy","steam_id":76561198355754259,"connected_time":269000000000,"state":"active","ping":71},{"user_id":22,"name":"Steve","steam_id":76561198350445456,"connected_time":257000000000,"state":"active","ping":71},{"user_id":23,"name":"Majestic","steam_id":76561198018990810,"connected_time":218000000000,"state":"active","ping":69},{"user_id":25,"name":"mikey","steam_id":76561198095803763,"connected_time":155000000000,"state":"active","ping":63},{"user_id":26,"name":"Capn. Wing Ding","steam_id":76561198076068424,"connected_time":153000000000,"state":"active","ping":76},{"user_id":28,"name":"Poopisviel Von Einzbern","steam_id":76561198259260433,"connected_time":21000000000,"state":"spawning","ping":75},{"user_id":29,"name":"StormRage","steam_id":76561199435079308,"connected_time":18000000000,"state":"spawning","ping":144},{"user_id":30,"name":"Westwood","steam_id":76561199387699252,"connected_time":0,"state":"connecting","ping":0}]},{"server_id":106,"name":"Uncletopia | Chicago | 2 | All Maps","name_short":"chi-2","host":"chi-1.us.uncletopia.com","port":27025,"enabled":true,"region":"us-central","cc":"us","latitude":41.881832,"longitude":-87.62318,"reserved":0,"last_update":"0001-01-01T00:00:00Z","name_a2s":"Uncletopia | Chicago | 2 | All Maps","protocol":17,"map":"pl_barnblitz","folder":"tf","game":"Team Fortress","app_id":440,"player_count":24,"max_players":24,"Bots":0,"server_type":"Dedicated","server_os":"Linux","password":true,"vac":true,"version":"7961495","steam_id":85568392924469985,"keywords":["nocrits","nodmgspread","payload","uncletopia"],"game_id":440,"stv_port":27026,"stv_name":"Uncletopia | Chicago | 2 | All Maps | STV","players":[{"user_id":84,"name":"SwampFoot","steam_id":76561198037500278,"connected_time":926000000000,"state":"active","ping":55},{"user_id":52,"name":"A Rhino with Coronavirus","steam_id":76561197999451366,"connected_time":3719000000000,"state":"active","ping":84},{"user_id":32,"name":"MY LOVE DRIPS IN RED","steam_id":76561198072179483,"connected_time":5392000000000,"state":"active","ping":90},{"user_id":71,"name":"Mecha","steam_id":76561198014927379,"connected_time":2800000000000,"state":"active","ping":79},{"user_id":92,"name":"Idk","steam_id":76561198971629959,"connected_time":204000000000,"state":"active","ping":135},{"user_id":90,"name":"chara","steam_id":76561198356483977,"connected_time":394000000000,"state":"active","ping":123},{"user_id":53,"name":"GreatTimBones","steam_id":76561198409145748,"connected_time":3706000000000,"state":"active","ping":83},{"user_id":16,"name":"Sychke","steam_id":76561198067144055,"connected_time":5585000000000,"state":"active","ping":45},{"user_id":41,"name":"Jeff","steam_id":76561198050929005,"connected_time":5166000000000,"state":"active","ping":56},{"user_id":74,"name":"Rat God","steam_id":76561198066161598,"connected_time":2367000000000,"state":"active","ping":59},{"user_id":89,"name":"Kantamoe","steam_id":76561198046661611,"connected_time":408000000000,"state":"active","ping":92},{"user_id":66,"name":"Rick Assley","steam_id":76561198365019199,"connected_time":3149000000000,"state":"active","ping":86},{"user_id":87,"name":"fyg","steam_id":76561198027610614,"connected_time":808000000000,"state":"active","ping":56},{"user_id":88,"name":"pabloramirez1998@gmail.com","steam_id":76561198969675306,"connected_time":524000000000,"state":"active","ping":63},{"user_id":64,"name":"Spoofle","steam_id":76561199003655066,"connected_time":3294000000000,"state":"active","ping":91},{"user_id":61,"name":"Tsih \u003e:D","steam_id":76561198068209121,"connected_time":3368000000000,"state":"active","ping":93},{"user_id":25,"name":"manbearswineflu","steam_id":76561198083945137,"connected_time":5490000000000,"state":"active","ping":66},{"user_id":58,"name":"‚òÇBliffenstimmers‚òÇ","steam_id":76561198059984896,"connected_time":3557000000000,"state":"active","ping":86},{"user_id":80,"name":"blobb","steam_id":76561198950448488,"connected_time":1582000000000,"state":"active","ping":52},{"user_id":69,"name":"Olly","steam_id":76561198054273611,"connected_time":2837000000000,"state":"active","ping":62},{"user_id":85,"name":"BarrowBaron","steam_id":76561198013633236,"connected_time":820000000000,"state":"active","ping":57},{"user_id":86,"name":"Kedata","steam_id":76561198047750050,"connected_time":815000000000,"state":"active","ping":45},{"user_id":82,"name":"AudioMedic","steam_id":76561198333939032,"connected_time":1380000000000,"state":"active","ping":71},{"user_id":77,"name":"0100101101100001011100100110110","steam_id":76561198034028769,"connected_time":2047000000000,"state":"active","ping":65}]},{"server_id":402,"name":"Uncletopia | Chicago | 3 | All Maps","name_short":"chi-3","host":"chi-1.us.uncletopia.com","port":27035,"enabled":true,"region":"us-central","cc":"us","latitude":41.881832,"longitude":-87.62318,"reserved":0,"last_update":"0001-01-01T00:00:00Z","name_a2s":"Uncletopia | Chicago | 3 | All Maps","protocol":17,"map":"koth_lakeside_final","folder":"tf","game":"Team Fortress","app_id":440,"player_count":0,"max_players":24,"Bots":0,"server_type":"Dedicated","server_os":"Linux","password":true,"vac":true,"version":"7961495","steam_id":85568392924515191,"keywords":["cp","nocrits","nodmgspread","uncletopia"],"game_id":440,"stv_port":27036,"stv_name":"Uncletopia | Chicago | 3 | All Maps | STV","players":null},{"server_id":403,"name":"Uncletopia | Chicago | 4 | All Maps","name_short":"chi-4","host":"chi-1.us.uncletopia.com","port":27045,"enabled":true,"region":"us-central","cc":"us","latitude":41.881832,"longitude":-87.62318,"reserved":0,"last_update":"0001-01-01T00:00:00Z","name_a2s":"Uncletopia | Chicago | 4 | All Maps","protocol":17,"map":"pl_badwater","folder":"tf","game":"Team Fortress","app_id":440,"player_count":24,"max_players":24,"Bots":0,"server_type":"Dedicated","server_os":"Linux","password":true,"vac":true,"version":"7961495","steam_id":85568392924515193,"keywords":["nocrits","nodmgspread","payload","uncletopia"],"game_id":440,"stv_port":27046,"stv_name":"Uncletopia | Chicago | 4 | All Maps | STV","players":[{"user_id":51,"name":"king crimson fan","steam_id":76561199104829802,"connected_time":2310000000000,"state":"active","ping":110},{"user_id":52,"name":"Chiki","steam_id":76561198063590320,"connected_time":2305000000000,"state":"active","ping":76},{"user_id":62,"name":"Lucon","steam_id":76561198067147724,"connected_time":1564000000000,"state":"active","ping":58},{"user_id":68,"name":"Blind_Deuce","steam_id":76561198155697762,"connected_time":455000000000,"state":"active","ping":84},{"user_id":67,"name":"dumdummp","steam_id":76561199188535224,"connected_time":516000000000,"state":"active","ping":84},{"user_id":77,"name":"male_07","steam_id":76561198272675825,"connected_time":161000000000,"state":"active","ping":58},{"user_id":64,"name":"Motreir","steam_id":76561198151717946,"connected_time":1163000000000,"state":"active","ping":77},{"user_id":69,"name":"Lee?","steam_id":76561199060892634,"connected_time":389000000000,"state":"active","ping":76},{"user_id":57,"name":"Shush","steam_id":76561198123902813,"connected_time":1747000000000,"state":"active","ping":90},{"user_id":70,"name":"FEMBOY lumi\u003c3","steam_id":76561199100034198,"connected_time":385000000000,"state":"active","ping":71},{"user_id":71,"name":"Fard.","steam_id":76561199112053224,"connected_time":381000000000,"state":"active","ping":107},{"user_id":19,"name":"5869","steam_id":76561198799616739,"connected_time":3941000000000,"state":"active","ping":90},{"user_id":66,"name":"CherryCoke","steam_id":76561198080905697,"connected_time":824000000000,"state":"active","ping":73},{"user_id":72,"name":"Whippin Forgies","steam_id":76561198071058300,"connected_time":372000000000,"state":"active","ping":83},{"user_id":73,"name":"Ghille","steam_id":76561198027234838,"connected_time":363000000000,"state":"active","ping":52},{"user_id":58,"name":"DJ Absolute Garbage","steam_id":76561198068000747,"connected_time":1737000000000,"state":"active","ping":60},{"user_id":59,"name":"burp","steam_id":76561198090531755,"connected_time":1727000000000,"state":"active","ping":68},{"user_id":65,"name":"Zen champ","steam_id":76561199165385894,"connected_time":1003000000000,"state":"active","ping":75},{"user_id":53,"name":"Okpar","steam_id":76561199221067945,"connected_time":2203000000000,"state":"active","ping":97},{"user_id":29,"name":"Û†Å≥ ‚ÅßArgo","steam_id":76561198353725622,"connected_time":3505000000000,"state":"active","ping":83},{"user_id":74,"name":"B.","steam_id":76561198040445907,"connected_time":351000000000,"state":"active","ping":73},{"user_id":60,"name":"Hoob.egfug","steam_id":76561197980557818,"connected_time":1719000000000,"state":"active","ping":91},{"user_id":61,"name":"Sunflower","steam_id":76561198081223793,"connected_time":1681000000000,"state":"active","ping":60},{"user_id":76,"name":"Having a Panic Attack","steam_id":76561198067556825,"connected_time":282000000000,"state":"active","ping":68}]},{"server_id":36,"name":"Uncletopia | Chicago | 5 | All Maps","name_short":"chi-5","host":"chi-2.us.uncletopia.com","port":27015,"enabled":true,"region":"us-central","cc":"us","latitude":41.881832,"longitude":-87.62318,"reserved":0,"last_update":"0001-01-01T00:00:00Z","name_a2s":"Uncletopia | Chicago | 5 | All Maps","protocol":17,"map":"cp_snakewater_final1","folder":"tf","game":"Team Fortress","app_id":440,"player_count":0,"max_players":24,"Bots":0,"server_type":"Dedicated","server_os":"Linux","password":true,"vac":true,"version":"7961495","steam_id":85568392924866362,"keywords":["cp","nocrits","nodmgspread","uncletopia"],"game_id":440,"stv_port":27016,"stv_name":"Uncletopia | Chicago | 5 | All Maps | STV","players":null},{"server_id":37,"name":"Uncletopia | Chicago | 6 | All Maps","name_short":"chi-6","host":"chi-2.us.uncletopia.com","port":27025,"enabled":true,"region":"us-central","cc":"us","latitude":41.881832,"longitude":-87.62318,"reserved":0,"last_update":"0001-01-01T00:00:00Z","name_a2s":"Uncletopia | Chicago | 6 | All Maps","protocol":17,"map":"pl_borneo","folder":"tf","game":"Team Fortress","app_id":440,"player_count":0,"max_players":24,"Bots":0,"server_type":"Dedicated","server_os":"Linux","password":true,"vac":true,"version":"7961495","steam_id":85568392924866363,"keywords":["nocrits","nodmgspread","payload","uncletopia"],"game_id":440,"stv_port":27026,"stv_name":"Uncletopia | Chicago | 6 | All Maps | STV","players":null},{"server_id":38,"name":"Uncletopia | Chicago | 7 | Stopwatch Beta","name_short":"chi-7","host":"chi-2.us.uncletopia.com","port":27035,"enabled":true,"region":"us-central","cc":"us","latitude":41.881832,"longitude":-87.62318,"reserved":0,"last_update":"0001-01-01T00:00:00Z","name_a2s":"Uncletopia | Chicago | 7 | Stopwatch Beta","protocol":17,"map":"pl_badwater","folder":"tf","game":"Team Fortress","app_id":440,"player_count":0,"max_players":24,"Bots":0,"server_type":"Dedicated","server_os":"Linux","password":true,"vac":true,"version":"7961495","steam_id":85568392924866364,"keywords":["nocrits","nodmgspread","payload","uncletopia"],"game_id":440,"stv_port":27036,"stv_name":"Uncletopia | Chicago | 7 | Stopwatch Beta | STV","players":null},{"server_id":39,"name":"Uncletopia | Chicago | 8 | Community","name_short":"chi-8","host":"chi-2.us.uncletopia.com","port":27045,"enabled":true,"region":"us-central","cc":"us","latitude":41.881832,"longitude":-87.62318,"reserved":0,"last_update":"0001-01-01T00:00:00Z","name_a2s":"Uncletopia | Chicago | 8 | Community","protocol":17,"map":"koth_cascade","folder":"tf","game":"Team Fortress","app_id":440,"player_count":0,"max_players":24,"Bots":0,"server_type":"Dedicated","server_os":"Linux","password":true,"vac":true,"version":"7961495","steam_id":85568392924866365,"keywords":["cp","nocrits","nodmgspread","uncletopia"],"game_id":440,"stv_port":27046,"stv_name":"Uncletopia | Chicago | 8 | Community | STV","players":null},{"server_id":8,"name":"Uncletopia | Dallas | 1 | All Maps","name_short":"dal-1","host":"dal-1.us.uncletopia.com","port":27015,"enabled":true,"region":"us-central","cc":"us","latitude":32.779167,"longitude":-96.80889,"reserved":0,"last_update":"0001-01-01T00:00:00Z","name_a2s":"Uncletopia | Dallas | 1 | All Maps","protocol":17,"map":"cp_process_final","folder":"tf","game":"Team Fortress","app_id":440,"player_count":24,"max_players":24,"Bots":0,"server_type":"Dedicated","server_os":"Linux","password":true,"vac":true,"version":"7961495","steam_id":85568392924469986,"keywords":["cp","nocrits","nodmgspread","uncletopia"],"game_id":440,"stv_port":27016,"stv_name":"Uncletopia | Dallas | 1 | All Maps | STV","players":[{"user_id":102,"name":"Grassman (Cc)","steam_id":76561198026488532,"connected_time":4916000000000,"state":"active","ping":90},{"user_id":99,"name":"nikeshoe92","steam_id":76561197973093864,"connected_time":5124000000000,"state":"active","ping":61},{"user_id":139,"name":"Zetta","steam_id":76561198045710113,"connected_time":141000000000,"state":"active","ping":82},{"user_id":141,"name":"algebruh","steam_id":76561199379415267,"connected_time":77000000000,"state":"active","ping":96},{"user_id":89,"name":"bangs and fangs","steam_id":76561198102681457,"connected_time":6048000000000,"state":"active","ping":71},{"user_id":124,"name":"Jeremy","steam_id":76561198283977979,"connected_time":1901000000000,"state":"active","ping":92},{"user_id":136,"name":"Darling","steam_id":76561198127525888,"connected_time":772000000000,"state":"active","ping":48},{"user_id":128,"name":"leesh","steam_id":76561198079603938,"connected_time":1584000000000,"state":"active","ping":59},{"user_id":127,"name":"tsz","steam_id":76561199246231090,"connected_time":1665000000000,"state":"active","ping":79},{"user_id":131,"name":"DudeBergs","steam_id":76561198399777833,"connected_time":1548000000000,"state":"active","ping":62},{"user_id":106,"name":"Pneumo.","steam_id":76561197987911883,"connected_time":4060000000000,"state":"active","ping":109},{"user_id":125,"name":"artixes","steam_id":76561198379574232,"connected_time":1846000000000,"state":"active","ping":59},{"user_id":137,"name":"Ballista","steam_id":76561197983182562,"connected_time":689000000000,"state":"active","ping":46},{"user_id":132,"name":"The Fonz","steam_id":76561198164040707,"connected_time":1529000000000,"state":"active","ping":90},{"user_id":140,"name":"2spooky","steam_id":76561198094747637,"connected_time":136000000000,"state":"active","ping":104},{"user_id":142,"name":"pt","steam_id":76561198143023330,"connected_time":49000000000,"state":"active","ping":88},{"user_id":121,"name":"soltuno","steam_id":76561198074430565,"connected_time":2901000000000,"state":"active","ping":94},{"user_id":134,"name":"Zer0","steam_id":76561199101208621,"connected_time":1488000000000,"state":"active","ping":79},{"user_id":135,"name":"AttackCommander","steam_id":76561198111522679,"connected_time":1479000000000,"state":"active","ping":57},{"user_id":143,"name":"Fox","steam_id":76561198210081927,"connected_time":39000000000,"state":"active","ping":68},{"user_id":116,"name":"bojack from the show bojack hor","steam_id":76561198053006712,"connected_time":3399000000000,"state":"active","ping":74},{"user_id":32,"name":"Rachi","steam_id":76561198083826053,"connected_time":11228000000000,"state":"active","ping":89},{"user_id":129,"name":"Ryzema","steam_id":76561198165594229,"connected_time":1575000000000,"state":"active","ping":85},{"user_id":85,"name":"CeLeb144","steam_id":76561199089907740,"connected_time":6166000000000,"state":"active","ping":62}]},{"server_id":108,"name":"Uncletopia | Dallas | 2 | All Maps","name_short":"dal-2","host":"dal-1.us.uncletopia.com","port":27025,"enabled":true,"region":"us-central","cc":"us","latitude":32.779167,"longitude":-96.80889,"reserved":0,"last_update":"0001-01-01T00:00:00Z","name_a2s":"Uncletopia | Dallas | 2 | All Maps","protocol":17,"map":"koth_highpass","folder":"tf","game":"Team Fortress","app_id":440,"player_count":0,"max_players":24,"Bots":0,"server_type":"Dedicated","server_os":"Linux","password":true,"vac":true,"version":"7961495","steam_id":85568392924469988,"keywords":["cp","nocrits","nodmgspread","uncletopia"],"game_id":440,"stv_port":27026,"stv_name":"Uncletopia | Dallas | 2 | All Maps | STV","players":null},{"server_id":404,"name":"Uncletopia | Dallas | 3 | All Maps","name_short":"dal-3","host":"dal-1.us.uncletopia.com","port":27035,"enabled":true,"region":"us-central","cc":"us","latitude":32.779167,"longitude":-96.80889,"reserved":0,"last_update":"0001-01-01T00:00:00Z","name_a2s":"Uncletopia | Dallas | 3 | All Maps","protocol":17,"map":"cp_process_final","folder":"tf","game":"Team Fortress","app_id":440,"player_count":0,"max_players":24,"Bots":0,"server_type":"Dedicated","server_os":"Linux","password":true,"vac":true,"version":"7961495","steam_id":85568392924515219,"keywords":["cp","nocrits","nodmgspread","uncletopia"],"game_id":440,"stv_port":27036,"stv_name":"Uncletopia | Dallas | 3 | All Maps | STV","players":null},{"server_id":405,"name":"Uncletopia | Dallas | 4 | Community","name_short":"dal-4","host":"dal-1.us.uncletopia.com","port":27045,"enabled":true,"region":"us-central","cc":"us","latitude":32.779167,"longitude":-96.80889,"reserved":0,"last_update":"0001-01-01T00:00:00Z","name_a2s":"Uncletopia | Dallas | 4 | Community","protocol":17,"map":"pl_badwater","folder":"tf","game":"Team Fortress","app_id":440,"player_count":0,"max_players":24,"Bots":0,"server_type":"Dedicated","server_os":"Linux","password":true,"vac":true,"version":"7961495","steam_id":85568392924515220,"keywords":["nocrits","nodmgspread","payload","uncletopia"],"game_id":440,"stv_port":27046,"stv_name":"Uncletopia | Dallas | 4 | Community | STV","players":null},{"server_id":5,"name":"Uncletopia | Frankfurt | 1 | All Maps","name_short":"frk-1","host":"frk-1.de.uncletopia.com","port":27015,"enabled":true,"region":"eu","cc":"de","latitude":50.110924,"longitude":8.682127,"reserved":0,"last_update":"0001-01-01T00:00:00Z","name_a2s":"Uncletopia | Frankfurt | 1 | All Maps","protocol":17,"map":"pl_barnblitz","folder":"tf","game":"Team Fortress","app_id":440,"player_count":24,"max_players":24,"Bots":0,"server_type":"Dedicated","server_os":"Linux","password":true,"vac":true,"version":"7961495","steam_id":85568392924469989,"keywords":["nocrits","nodmgspread","payload","uncletopia"],"game_id":440,"stv_port":27016,"stv_name":"Uncletopia | Frankfurt | 1 | All Maps | STV","players":[{"user_id":497,"name":"asti50","steam_id":76561198092247738,"connected_time":1035000000000,"state":"active","ping":71},{"user_id":469,"name":"Jureron","steam_id":76561198097535175,"connected_time":2118000000000,"state":"active","ping":62},{"user_id":483,"name":"–•–∞—Ä–∞–∫—Ç–µ—Ä ?????????","steam_id":76561198105116279,"connected_time":1869000000000,"state":"active","ping":127},{"user_id":431,"name":"Silver","steam_id":76561198175238807,"connected_time":2954000000000,"state":"active","ping":72},{"user_id":485,"name":"Snow","steam_id":76561198246680606,"connected_time":1690000000000,"state":"active","ping":55},{"user_id":482,"name":"Hunter64","steam_id":76561199121947938,"connected_time":1913000000000,"state":"active","ping":60},{"user_id":372,"name":"MargoulGetron","steam_id":76561198020551698,"connected_time":7009000000000,"state":"active","ping":54},{"user_id":399,"name":"Stan √Ålvarez (Satan)","steam_id":76561198045538223,"connected_time":4186000000000,"state":"active","ping":54},{"user_id":500,"name":"Ducky[WADZ]","steam_id":76561198060341245,"connected_time":611000000000,"state":"active","ping":55},{"user_id":488,"name":"Adolf Potter","steam_id":76561198120554557,"connected_time":1657000000000,"state":"active","ping":47},{"user_id":502,"name":"Trustworthy_Fish","steam_id":76561198838934696,"connected_time":569000000000,"state":"active","ping":84},{"user_id":501,"name":"Deacon Dracul","steam_id":76561198046880663,"connected_time":585000000000,"state":"active","ping":92},{"user_id":470,"name":"Piss Lord Moose","steam_id":76561199027129554,"connected_time":2111000000000,"state":"active","ping":139},{"user_id":503,"name":"-blue-diamond-","steam_id":76561198870370279,"connected_time":537000000000,"state":"active","ping":73},{"user_id":492,"name":"luckyastroman","steam_id":76561199027500574,"connected_time":1541000000000,"state":"active","ping":76},{"user_id":358,"name":"Annette Ball","steam_id":76561198874956671,"connected_time":7500000000000,"state":"active","ping":129},{"user_id":508,"name":"jamkel #savetf2","steam_id":76561199088464666,"connected_time":49000000000,"state":"active","ping":86},{"user_id":496,"name":"Shark","steam_id":76561198205226501,"connected_time":1057000000000,"state":"active","ping":156},{"user_id":436,"name":"Andy","steam_id":76561198046918834,"connected_time":2774000000000,"state":"active","ping":72},{"user_id":498,"name":"Egor Pomidor","steam_id":76561199175688390,"connected_time":1002000000000,"state":"active","ping":75},{"user_id":507,"name":"Exali","steam_id":76561198305938854,"connected_time":319000000000,"state":"active","ping":59},{"user_id":504,"name":"Zwoz","steam_id":76561198221841968,"connected_time":445000000000,"state":"active","ping":68},{"user_id":506,"name":"NevaFront","steam_id":76561198177829998,"connected_time":391000000000,"state":"active","ping":100},{"user_id":413,"name":"ye haw‚ö†","steam_id":76561199180176442,"connected_time":3419000000000,"state":"active","ping":62}]},{"server_id":110,"name":"Uncletopia | Frankfurt | 2 | All Maps","name_short":"frk-2","host":"frk-1.de.uncletopia.com","port":27025,"enabled":true,"region":"eu","cc":"de","latitude":50.110924,"longitude":8.682127,"reserved":0,"last_update":"0001-01-01T00:00:00Z","name_a2s":"Uncletopia | Frankfurt | 2 | All Maps","protocol":17,"map":"pl_badwater","folder":"tf","game":"Team Fortress","app_id":440,"player_count":24,"max_players":24,"Bots":0,"server_type":"Dedicated","server_os":"Linux","password":true,"vac":true,"version":"7961495","steam_id":85568392924469990,"keywords":["nocrits","nodmgspread","payload","uncletopia"],"game_id":440,"stv_port":27026,"stv_name":"Uncletopia | Frankfurt | 2 | All Maps | STV","players":[{"user_id":403,"name":"Jone","steam_id":76561198955248352,"connected_time":2175000000000,"state":"active","ping":75},{"user_id":401,"name":"icy demons","steam_id":76561198131391052,"connected_time":2460000000000,"state":"active","ping":57},{"user_id":421,"name":"Luxotrics","steam_id":76561198053455161,"connected_time":820000000000,"state":"active","ping":77},{"user_id":408,"name":"Dead Kitten","steam_id":76561198152132092,"connected_time":1714000000000,"state":"active","ping":67},{"user_id":409,"name":"mitical uknown","steam_id":76561198844852761,"connected_time":1630000000000,"state":"active","ping":64},{"user_id":433,"name":"Tufvesson!","steam_id":76561198938904237,"connected_time":102000000000,"state":"active","ping":59},{"user_id":397,"name":"Klown Beatbox","steam_id":76561198131125058,"connected_time":2657000000000,"state":"active","ping":57},{"user_id":430,"name":"Amandus","steam_id":76561198036281079,"connected_time":229000000000,"state":"active","ping":57},{"user_id":431,"name":"KermSlinger","steam_id":76561198854027069,"connected_time":183000000000,"state":"active","ping":73},{"user_id":425,"name":"Arno","steam_id":76561198025329937,"connected_time":755000000000,"state":"active","ping":49},{"user_id":404,"name":"T–Ωunde–≥Cu–ø—Ç","steam_id":76561198135091800,"connected_time":2027000000000,"state":"active","ping":48},{"user_id":432,"name":"Zaka","steam_id":76561198148434957,"connected_time":172000000000,"state":"active","ping":102},{"user_id":426,"name":"spƒ´ca virginis-DESU","steam_id":76561198155601748,"connected_time":752000000000,"state":"active","ping":71},{"user_id":434,"name":"Sandvich","steam_id":76561199079493666,"connected_time":74000000000,"state":"active","ping":100},{"user_id":414,"name":"gabczak","steam_id":76561199104381822,"connected_time":1535000000000,"state":"active","ping":81},{"user_id":418,"name":"Tyr","steam_id":76561198301670611,"connected_time":1314000000000,"state":"active","ping":57},{"user_id":415,"name":"Revenge of the Jews in 3D","steam_id":76561199381623663,"connected_time":1530000000000,"state":"active","ping":90},{"user_id":435,"name":"Chambersite","steam_id":76561198197022399,"connected_time":74000000000,"state":"active","ping":58},{"user_id":420,"name":"jumanji","steam_id":76561199061441036,"connected_time":1106000000000,"state":"active","ping":61},{"user_id":372,"name":"XiaBit","steam_id":76561199204102465,"connected_time":4185000000000,"state":"active","ping":72},{"user_id":427,"name":"?TheEnd","steam_id":76561198055280327,"connected_time":717000000000,"state":"active","ping":47},{"user_id":428,"name":"medium rare chicken enjoyer","steam_id":76561198050214002,"connected_time":582000000000,"state":"active","ping":60},{"user_id":378,"name":"Anet1k","steam_id":76561198137123138,"connected_time":3590000000000,"state":"active","ping":66},{"user_id":405,"name":"rets","steam_id":76561198061551392,"connected_time":1907000000000,"state":"active","ping":44}]},{"server_id":308,"name":"Uncletopia | Frankfurt | 3 | All Maps","name_short":"frk-3","host":"frk-1.de.uncletopia.com","port":27035,"enabled":true,"region":"eu","cc":"de","latitude":50.110924,"longitude":8.682127,"reserved":0,"last_update":"0001-01-01T00:00:00Z","name_a2s":"Uncletopia | Frankfurt | 3 | All Maps","protocol":17,"map":"pl_borneo","folder":"tf","game":"Team Fortress","app_id":440,"player_count":24,"max_players":24,"Bots":0,"server_type":"Dedicated","server_os":"Linux","password":true,"vac":true,"version":"7961495","steam_id":85568392924504274,"keywords":["nocrits","nodmgspread","payload","uncletopia"],"game_id":440,"stv_port":27036,"stv_name":"Uncletopia | Frankfurt | 3 | All Maps | STV","players":[{"user_id":136,"name":"Tonyx","steam_id":76561198414263237,"connected_time":1056000000000,"state":"active","ping":69},{"user_id":127,"name":"–®–∞–ø–∫–∞ #TF2Center","steam_id":76561198368792603,"connected_time":1526000000000,"state":"active","ping":57},{"user_id":142,"name":"Kamanie","steam_id":76561198135448255,"connected_time":651000000000,"state":"active","ping":60},{"user_id":117,"name":"AWP Bodyshot :) ‚ù§","steam_id":76561198029928533,"connected_time":1788000000000,"state":"active","ping":40},{"user_id":79,"name":"Misa","steam_id":76561198026486017,"connected_time":4471000000000,"state":"active","ping":46},{"user_id":67,"name":"Bill_nye","steam_id":76561199216249214,"connected_time":5256000000000,"state":"active","ping":120},{"user_id":143,"name":"Milosz52","steam_id":76561199060940204,"connected_time":644000000000,"state":"active","ping":74},{"user_id":72,"name":"Popop","steam_id":76561198004793795,"connected_time":4878000000000,"state":"active","ping":54},{"user_id":128,"name":"Urfangonultasadana","steam_id":76561199389286151,"connected_time":1496000000000,"state":"active","ping":91},{"user_id":144,"name":"glorbus","steam_id":76561198969544894,"connected_time":631000000000,"state":"active","ping":54},{"user_id":123,"name":"Piox","steam_id":76561198125689157,"connected_time":1653000000000,"state":"active","ping":61},{"user_id":69,"name":"Baklava Enjoyer","steam_id":76561198990679631,"connected_time":5111000000000,"state":"active","ping":64},{"user_id":130,"name":"SovietZombie‚Ñ¢","steam_id":76561198140093751,"connected_time":1491000000000,"state":"active","ping":57},{"user_id":120,"name":"Soulman25 (FIN)","steam_id":76561198103611974,"connected_time":1747000000000,"state":"active","ping":99},{"user_id":122,"name":"Arne Armoen","steam_id":76561198104610203,"connected_time":1695000000000,"state":"active","ping":74},{"user_id":145,"name":"hhhhhh","steam_id":76561198031982574,"connected_time":626000000000,"state":"active","ping":50},{"user_id":121,"name":"bad_egg","steam_id":76561198870666753,"connected_time":1743000000000,"state":"active","ping":95},{"user_id":138,"name":"G.R.E","steam_id":76561197979806514,"connected_time":967000000000,"state":"active","ping":177},{"user_id":81,"name":"Greenmaker","steam_id":76561198060466591,"connected_time":4356000000000,"state":"active","ping":76},{"user_id":100,"name":"I.AM.THE.BOOP.WHICH.IS.APROACHI","steam_id":76561198049342507,"connected_time":3071000000000,"state":"active","ping":82},{"user_id":137,"name":"Plex","steam_id":76561198084925338,"connected_time":1051000000000,"state":"active","ping":57},{"user_id":116,"name":"Princess Fuzz","steam_id":76561198025783000,"connected_time":2008000000000,"state":"active","ping":54},{"user_id":134,"name":"anders McFlanders","steam_id":76561198022811995,"connected_time":1248000000000,"state":"active","ping":63},{"user_id":140,"name":"Nittugai","steam_id":76561198067366462,"connected_time":752000000000,"state":"active","ping":61}]},{"server_id":309,"name":"Uncletopia | Frankfurt | 4 | All Maps","name_short":"frk-4","host":"frk-1.de.uncletopia.com","port":27045,"enabled":true,"region":"eu","cc":"de","latitude":50.110924,"longitude":8.682127,"reserved":0,"last_update":"0001-01-01T00:00:00Z","name_a2s":"Uncletopia | Frankfurt | 4 | All Maps","protocol":17,"map":"pl_upward","folder":"tf","game":"Team Fortress","app_id":440,"player_count":24,"max_players":24,"Bots":0,"server_type":"Dedicated","server_os":"Linux","password":true,"vac":true,"version":"7961495","steam_id":85568392924504275,"keywords":["nocrits","nodmgspread","payload","uncletopia"],"game_id":440,"stv_port":27046,"stv_name":"Uncletopia | Frankfurt | 4 | All Maps | STV","players":[{"user_id":253,"name":"hopperthebox","steam_id":76561198053418437,"connected_time":2339000000000,"state":"active","ping":77},{"user_id":254,"name":"Littleyoshifan","steam_id":76561198445491045,"connected_time":2054000000000,"state":"active","ping":51},{"user_id":279,"name":"lazern","steam_id":76561198049983016,"connected_time":469000000000,"state":"active","ping":90},{"user_id":272,"name":"the joy of recycling","steam_id":76561198138509827,"connected_time":1120000000000,"state":"active","ping":96},{"user_id":259,"name":"Kol Engigfikod","steam_id":76561199115261187,"connected_time":1900000000000,"state":"active","ping":95},{"user_id":269,"name":"Jeffrey Harpen","steam_id":76561199073314677,"connected_time":1664000000000,"state":"active","ping":93},{"user_id":260,"name":"Garth Marenghi","steam_id":76561198009830164,"connected_time":1894000000000,"state":"active","ping":68},{"user_id":261,"name":"Aarquus","steam_id":76561198006689878,"connected_time":1892000000000,"state":"active","ping":76},{"user_id":193,"name":"bui","steam_id":76561198315371425,"connected_time":6909000000000,"state":"active","ping":59},{"user_id":268,"name":"ThunderCluckz","steam_id":76561198055066162,"connected_time":1680000000000,"state":"active","ping":78},{"user_id":270,"name":"Hrrr","steam_id":76561198106920678,"connected_time":1515000000000,"state":"active","ping":46},{"user_id":276,"name":"uNem0_","steam_id":76561198836442412,"connected_time":986000000000,"state":"active","ping":90},{"user_id":274,"name":"htraB","steam_id":76561198043122677,"connected_time":1074000000000,"state":"active","ping":55},{"user_id":231,"name":"john fortress","steam_id":76561198013237629,"connected_time":4935000000000,"state":"active","ping":104},{"user_id":252,"name":"Gooner","steam_id":76561198087035309,"connected_time":2585000000000,"state":"active","ping":50},{"user_id":263,"name":"Vischan but worse","steam_id":76561199371650805,"connected_time":1875000000000,"state":"active","ping":86},{"user_id":264,"name":"Zomg","steam_id":76561198181809393,"connected_time":1854000000000,"state":"active","ping":79},{"user_id":200,"name":"ViviSwarm","steam_id":76561198443130684,"connected_time":6715000000000,"state":"active","ping":73},{"user_id":273,"name":"gedrmtyo4p5ijyekdmrg","steam_id":76561198006254783,"connected_time":1097000000000,"state":"active","ping":83},{"user_id":255,"name":"Koli","steam_id":76561197992428783,"connected_time":1962000000000,"state":"active","ping":45},{"user_id":247,"name":"svantezch","steam_id":76561198373831657,"connected_time":3374000000000,"state":"active","ping":88},{"user_id":237,"name":"Kestrel","steam_id":76561198144033005,"connected_time":3938000000000,"state":"active","ping":58},{"user_id":265,"name":"kastanomata","steam_id":76561198271832763,"connected_time":1842000000000,"state":"active","ping":78},{"user_id":275,"name":"Firit","steam_id":76561198988590216,"connected_time":1046000000000,"state":"active","ping":78}]},{"server_id":310,"name":"Uncletopia | Frankfurt | 5 | All Maps","name_short":"frk-5","host":"frk-1.de.uncletopia.com","port":27055,"enabled":true,"region":"eu","cc":"de","latitude":50.110924,"longitude":8.682127,"reserved":0,"last_update":"0001-01-01T00:00:00Z","name_a2s":"Uncletopia | Frankfurt | 5 | All Maps","protocol":17,"map":"cp_steel","folder":"tf","game":"Team Fortress","app_id":440,"player_count":23,"max_players":24,"Bots":0,"server_type":"Dedicated","server_os":"Linux","password":true,"vac":true,"version":"7961495","steam_id":85568392924504277,"keywords":["cp","nocrits","nodmgspread","uncletopia"],"game_id":440,"stv_port":27056,"stv_name":"Uncletopia | Frankfurt | 5 | All Maps | STV","players":[{"user_id":133,"name":"Sir Warock","steam_id":76561198180468693,"connected_time":3020000000000,"state":"active","ping":82},{"user_id":160,"name":"cunnylover69","steam_id":76561198260285179,"connected_time":1476000000000,"state":"active","ping":100},{"user_id":148,"name":"Lorenzo Lovers","steam_id":76561198073973581,"connected_time":2356000000000,"state":"active","ping":77},{"user_id":98,"name":"[_sKyR3p_]","steam_id":76561198014216563,"connected_time":6258000000000,"state":"active","ping":159},{"user_id":134,"name":"mixxxa_french","steam_id":76561198085098243,"connected_time":2986000000000,"state":"active","ping":115},{"user_id":171,"name":"thekoolest88","steam_id":76561199022415672,"connected_time":1301000000000,"state":"active","ping":137},{"user_id":186,"name":"Jonathan","steam_id":76561198087988880,"connected_time":89000000000,"state":"active","ping":45},{"user_id":178,"name":"neiron3245","steam_id":76561199442622032,"connected_time":774000000000,"state":"active","ping":125},{"user_id":184,"name":"Gharth","steam_id":76561198056633551,"connected_time":519000000000,"state":"active","ping":56},{"user_id":185,"name":"Dolcelatte","steam_id":76561198038501770,"connected_time":312000000000,"state":"active","ping":59},{"user_id":182,"name":"Star in a pond","steam_id":76561198205501279,"connected_time":578000000000,"state":"active","ping":88},{"user_id":113,"name":"Certified Hood pybro (ua)","steam_id":76561198970562699,"connected_time":5067000000000,"state":"active","ping":53},{"user_id":174,"name":"Chaos the meme","steam_id":76561198069787558,"connected_time":1187000000000,"state":"active","ping":59},{"user_id":162,"name":"Amoru","steam_id":76561198798161817,"connected_time":1454000000000,"state":"active","ping":76},{"user_id":153,"name":"Hussain_144","steam_id":76561198346029208,"connected_time":1947000000000,"state":"active","ping":163},{"user_id":183,"name":"Dispenser Diet","steam_id":76561198059937616,"connected_time":546000000000,"state":"active","ping":69},{"user_id":180,"name":"Hypergonadism","steam_id":76561198294895726,"connected_time":742000000000,"state":"active","ping":90},{"user_id":169,"name":"kurage","steam_id":76561198021221288,"connected_time":1314000000000,"state":"active","ping":57},{"user_id":175,"name":"N","steam_id":76561198176593895,"connected_time":1178000000000,"state":"active","ping":71},{"user_id":187,"name":"Linus Legostein","steam_id":76561198452996233,"connected_time":81000000000,"state":"active","ping":54},{"user_id":144,"name":"HAMtastic","steam_id":76561198879769410,"connected_time":2734000000000,"state":"active","ping":71},{"user_id":154,"name":"rob","steam_id":76561198122211848,"connected_time":1751000000000,"state":"active","ping":95},{"user_id":165,"name":"Maks","steam_id":76561198315278876,"connected_time":1433000000000,"state":"active","ping":52}]},{"server_id":311,"name":"Uncletopia | Frankfurt | 6 | All Maps","name_short":"frk-6","host":"frk-1.de.uncletopia.com","port":27065,"enabled":true,"region":"eu","cc":"de","latitude":50.110924,"longitude":8.682127,"reserved":0,"last_update":"0001-01-01T00:00:00Z","name_a2s":"Uncletopia | Frankfurt | 6 | All Maps","protocol":17,"map":"pl_badwater","folder":"tf","game":"Team Fortress","app_id":440,"player_count":21,"max_players":24,"Bots":0,"server_type":"Dedicated","server_os":"Linux","password":true,"vac":true,"version":"7961495","steam_id":85568392924504278,"keywords":["nocrits","nodmgspread","payload","uncletopia"],"game_id":440,"stv_port":27066,"stv_name":"Uncletopia | Frankfurt | 6 | All Maps | STV","players":[{"user_id":62,"name":"RiX","steam_id":76561197969053733,"connected_time":2259000000000,"state":"active","ping":70},{"user_id":79,"name":"Íí∞ À∂‚Ä¢ ‡ºù ‚Ä¢À∂Íí±","steam_id":76561198054474684,"connected_time":1039000000000,"state":"active","ping":70},{"user_id":82,"name":"laza","steam_id":76561199074095198,"connected_time":406000000000,"state":"active","ping":114},{"user_id":83,"name":"Toot","steam_id":76561198267288496,"connected_time":391000000000,"state":"active","ping":60},{"user_id":84,"name":"fifrok","steam_id":76561198799267621,"connected_time":390000000000,"state":"active","ping":61},{"user_id":88,"name":"avatarvic","steam_id":76561198305931255,"connected_time":145000000000,"state":"active","ping":67},{"user_id":21,"name":"lajkm407","steam_id":76561199149058726,"connected_time":4078000000000,"state":"active","ping":72},{"user_id":85,"name":"Z.","steam_id":76561198367362266,"connected_time":300000000000,"state":"active","ping":79},{"user_id":24,"name":"The Third Degree collector","steam_id":76561199165355017,"connected_time":4008000000000,"state":"active","ping":90},{"user_id":25,"name":"TylowStar","steam_id":76561198357107806,"connected_time":4002000000000,"state":"active","ping":62},{"user_id":26,"name":"Arsonist","steam_id":76561199087953833,"connected_time":3998000000000,"state":"active","ping":102},{"user_id":64,"name":"Spicy Pepper","steam_id":76561198830616914,"connected_time":1960000000000,"state":"active","ping":66},{"user_id":81,"name":"The Builder","steam_id":76561198403959663,"connected_time":430000000000,"state":"active","ping":92},{"user_id":50,"name":"dex","steam_id":76561197972438196,"connected_time":3585000000000,"state":"active","ping":56},{"user_id":54,"name":"Ôº¨ÔΩïÔΩéÔΩÑÔΩÖÔΩíÔΩìÂÑö","steam_id":76561198001599722,"connected_time":3274000000000,"state":"active","ping":78},{"user_id":87,"name":"depressed","steam_id":76561198336523288,"connected_time":253000000000,"state":"active","ping":116},{"user_id":91,"name":"kreeekz","steam_id":76561198014431602,"connected_time":17000000000,"state":"active","ping":65},{"user_id":72,"name":"Storm's Foreshadow","steam_id":76561198098462526,"connected_time":1619000000000,"state":"active","ping":71},{"user_id":76,"name":"KrazyD","steam_id":76561198331101678,"connected_time":1436000000000,"state":"active","ping":116},{"user_id":90,"name":"teletabigamer","steam_id":76561199087217482,"connected_time":64000000000,"state":"active","ping":67},{"user_id":49,"name":"CarbonPan","steam_id":76561198072169983,"connected_time":3673000000000,"state":"active","ping":105}]},{"server_id":23,"name":"Uncletopia | Frankfurt | 7 | Stopwatch Beta","name_short":"frk-7","host":"frk-1.de.uncletopia.com","port":27075,"enabled":true,"region":"eu","cc":"de","latitude":50.110924,"longitude":8.682127,"reserved":0,"last_update":"0001-01-01T00:00:00Z","name_a2s":"Uncletopia | Frankfurt | 7 | Stopwatch Beta","protocol":17,"map":"koth_lakeside_final","folder":"tf","game":"Team Fortress","app_id":440,"player_count":0,"max_players":24,"Bots":0,"server_type":"Dedicated","server_os":"Linux","password":true,"vac":true,"version":"7961495","steam_id":85568392924742827,"keywords":["cp","nocrits","nodmgspread","uncletopia"],"game_id":440,"stv_port":27076,"stv_name":"Uncletopia | Frankfurt | 7 | Stopwatch Beta | STV","players":null},{"server_id":24,"name":"Uncletopia | Frankfurt | 8 | Community","name_short":"frk-8","host":"frk-1.de.uncletopia.com","port":27085,"enabled":true,"region":"eu","cc":"de","latitude":50.110924,"longitude":8.682127,"reserved":0,"last_update":"0001-01-01T00:00:00Z","name_a2s":"Uncletopia | Frankfurt | 8 | Community","protocol":17,"map":"workshop/cp_caldera_rc2.ugc2834196889","folder":"tf","game":"Team Fortress","app_id":440,"player_count":0,"max_players":24,"Bots":0,"server_type":"Dedicated","server_os":"Linux","password":true,"vac":true,"version":"7961495","steam_id":85568392924742828,"keywords":["cp","nocrits","nodmgspread","uncletopia"],"game_id":440,"stv_port":27086,"stv_name":"Uncletopia | Frankfurt | 8 | Community | STV","players":null},{"server_id":202,"name":"Uncletopia | Hong Kong | 1 | All Maps","name_short":"hgk-1","host":"hgk-1.hk.uncletopia.com","port":27015,"enabled":true,"region":"asia","cc":"hk","latitude":22.302711,"longitude":114.177216,"reserved":0,"last_update":"0001-01-01T00:00:00Z","name_a2s":"Uncletopia | Hong Kong | 1 | All Maps","protocol":17,"map":"pl_borneo","folder":"tf","game":"Team Fortress","app_id":440,"player_count":24,"max_players":24,"Bots":0,"server_type":"Dedicated","server_os":"Linux","password":true,"vac":true,"version":"7961495","steam_id":85568392924494504,"keywords":["nocrits","nodmgspread","payload","uncletopia"],"game_id":440,"stv_port":27016,"stv_name":"Uncletopia | Hong Kong | 1 | All Maps | STV","players":[{"user_id":659,"name":"dragon furry","steam_id":76561199146847474,"connected_time":4314000000000,"state":"active","ping":40},{"user_id":671,"name":"Stewb","steam_id":76561198131423270,"connected_time":2415000000000,"state":"active","ping":59},{"user_id":693,"name":"AmaiToxic","steam_id":76561199122491157,"connected_time":502000000000,"state":"active","ping":122},{"user_id":686,"name":"Buttman","steam_id":76561198044693388,"connected_time":1550000000000,"state":"active","ping":48},{"user_id":681,"name":"sierra","steam_id":76561197969873415,"connected_time":2167000000000,"state":"active","ping":92},{"user_id":675,"name":"Mystery cheese üßÄ","steam_id":76561198304002409,"connected_time":2409000000000,"state":"active","ping":80},{"user_id":567,"name":"nicky manage","steam_id":76561198055553140,"connected_time":10891000000000,"state":"active","ping":73},{"user_id":311,"name":"i have minor hallucinations","steam_id":76561198138187921,"connected_time":25796000000000,"state":"active","ping":48},{"user_id":683,"name":"Hajime","steam_id":76561198304000775,"connected_time":2159000000000,"state":"active","ping":85},{"user_id":664,"name":"leroy","steam_id":76561199137927625,"connected_time":3937000000000,"state":"active","ping":107},{"user_id":684,"name":"ÂÖâÂ§¥Âº∫","steam_id":76561198045255591,"connected_time":2114000000000,"state":"active","ping":120},{"user_id":435,"name":"Beef Wellington","steam_id":76561197995635241,"connected_time":17614000000000,"state":"active","ping":122},{"user_id":679,"name":"daigennki","steam_id":76561198046328609,"connected_time":2326000000000,"state":"active","ping":104},{"user_id":650,"name":"ccubes","steam_id":76561198070956426,"connected_time":4575000000000,"state":"active","ping":75},{"user_id":677,"name":"Cultist","steam_id":76561199025561672,"connected_time":2404000000000,"state":"active","ping":103},{"user_id":687,"name":"Law","steam_id":76561198136685157,"connected_time":951000000000,"state":"active","ping":63},{"user_id":673,"name":"ÊØç„ÅÆËÇâÂõ£Â≠ê@hao123.com","steam_id":76561198069561896,"connected_time":2415000000000,"state":"active","ping":41},{"user_id":678,"name":"got muted lol . . .","steam_id":76561198074339034,"connected_time":2393000000000,"state":"active","ping":76},{"user_id":636,"name":"ghuzik","steam_id":76561199107596818,"connected_time":7453000000000,"state":"active","ping":128},{"user_id":669,"name":"ÍπÄÍ¥ëÎßå","steam_id":76561198295279503,"connected_time":2422000000000,"state":"active","ping":80},{"user_id":568,"name":"Milf (The fan O'Milk)","steam_id":76561198213031155,"connected_time":10868000000000,"state":"active","ping":91},{"user_id":692,"name":"vui-f2p #savetf2","steam_id":76561199039461432,"connected_time":744000000000,"state":"active","ping":133},{"user_id":691,"name":"∆ßunny","steam_id":76561198138924373,"connected_time":746000000000,"state":"active","ping":40},{"user_id":674,"name":"corpse_cadaver","steam_id":76561199225360457,"connected_time":2414000000000,"state":"active","ping":75}]},{"server_id":1,"name":"Uncletopia | Los Angeles | 1 | All Maps","name_short":"lax-1","host":"lax-1.us.uncletopia.com","port":27015,"enabled":true,"region":"us-west","cc":"us","latitude":33.94279,"longitude":-118.41004,"reserved":0,"last_update":"0001-01-01T00:00:00Z","name_a2s":"Uncletopia | Los Angeles | 1 | All Maps","protocol":17,"map":"cp_mountainlab","folder":"tf","game":"Team Fortress","app_id":440,"player_count":0,"max_players":24,"Bots":0,"server_type":"Dedicated","server_os":"Linux","password":true,"vac":true,"version":"7961495","steam_id":85568392924469991,"keywords":["cp","nocrits","nodmgspread","uncletopia"],"game_id":440,"stv_port":27016,"stv_name":"Uncletopia | Los Angeles | 1 | All Maps | STV","players":null},{"server_id":112,"name":"Uncletopia | Los Angeles | 2 | All Maps","name_short":"lax-2","host":"lax-1.us.uncletopia.com","port":27025,"enabled":true,"region":"us-west","cc":"us","latitude":33.94279,"longitude":-118.41004,"reserved":0,"last_update":"0001-01-01T00:00:00Z","name_a2s":"Uncletopia | Los Angeles | 2 | All Maps","protocol":17,"map":"cp_sunshine","folder":"tf","game":"Team Fortress","app_id":440,"player_count":4,"max_players":24,"Bots":0,"server_type":"Dedicated","server_os":"Linux","password":true,"vac":true,"version":"7961495","steam_id":85568392924469992,"keywords":["cp","nocrits","nodmgspread","uncletopia"],"game_id":440,"stv_port":27026,"stv_name":"Uncletopia | Los Angeles | 2 | All Maps | STV","players":[{"user_id":22,"name":"RocketofPanda(It/They)","steam_id":76561198133133187,"connected_time":31000000000,"state":"active","ping":57},{"user_id":4,"name":"Ass Blaster, Disaster Master","steam_id":76561197997774469,"connected_time":2641000000000,"state":"active","ping":30},{"user_id":5,"name":"Stolas \u003c3","steam_id":76561198835430280,"connected_time":2365000000000,"state":"active","ping":68},{"user_id":19,"name":"Glass On A Shattered Plate","steam_id":76561198108654719,"connected_time":690000000000,"state":"active","ping":84}]},{"server_id":324,"name":"Uncletopia | Los Angeles | 3 | All Maps","name_short":"lax-3","host":"lax-1.us.uncletopia.com","port":27035,"enabled":true,"region":"us-west","cc":"us","latitude":33.94279,"longitude":-118.41004,"reserved":0,"last_update":"0001-01-01T00:00:00Z","name_a2s":"Uncletopia | Los Angeles | 3 | All Maps","protocol":17,"map":"cp_process_final","folder":"tf","game":"Team Fortress","app_id":440,"player_count":0,"max_players":24,"Bots":0,"server_type":"Dedicated","server_os":"Linux","password":true,"vac":true,"version":"7961495","steam_id":85568392924510198,"keywords":["cp","nocrits","nodmgspread","uncletopia"],"game_id":440,"stv_port":27036,"stv_name":"Uncletopia | Los Angeles | 3 | All Maps | STV","players":null},{"server_id":25,"name":"Uncletopia | Los Angeles | 4 | Stopwatch Beta","name_short":"lax-4","host":"lax-1.us.uncletopia.com","port":27045,"enabled":true,"region":"us-west","cc":"us","latitude":33.94279,"longitude":-118.41004,"reserved":0,"last_update":"0001-01-01T00:00:00Z","name_a2s":"Uncletopia | Los Angeles | 4 | Stopwatch Beta","protocol":17,"map":"pl_upward","folder":"tf","game":"Team Fortress","app_id":440,"player_count":0,"max_players":24,"Bots":0,"server_type":"Dedicated","server_os":"Linux","password":true,"vac":true,"version":"7961495","steam_id":85568392924510199,"keywords":["nocrits","nodmgspread","payload","uncletopia"],"game_id":440,"stv_port":27046,"stv_name":"Uncletopia | Los Angeles | 4 | Stopwatch Beta | STV","players":null},{"server_id":11,"name":"Uncletopia | London | 1 | All Maps","name_short":"lon-1","host":"lon-1.uk.uncletopia.com","port":27015,"enabled":true,"region":"eu","cc":"gb","latitude":51.509865,"longitude":-0.118092,"reserved":0,"last_update":"0001-01-01T00:00:00Z","name_a2s":"Uncletopia | London | 1 | All Maps","protocol":17,"map":"cp_steel","folder":"tf","game":"Team Fortress","app_id":440,"player_count":24,"max_players":24,"Bots":0,"server_type":"Dedicated","server_os":"Linux","password":true,"vac":true,"version":"7961495","steam_id":85568392924367362,"keywords":["cp","nocrits","nodmgspread","uncletopia"],"game_id":440,"stv_port":27016,"stv_name":"Uncletopia | London | 1 | All Maps | STV","players":[{"user_id":227,"name":"„Ç¥Mr.Büñ§„Ç¥","steam_id":76561198987456770,"connected_time":3825000000000,"state":"active","ping":57},{"user_id":240,"name":"here widdle wabbit‚Ä¶ come here","steam_id":76561198190583242,"connected_time":2555000000000,"state":"active","ping":84},{"user_id":99,"name":"hyvakii705","steam_id":76561198086630552,"connected_time":12650000000000,"state":"active","ping":82},{"user_id":132,"name":"Simon","steam_id":76561199122086348,"connected_time":10704000000000,"state":"active","ping":117},{"user_id":259,"name":"Minimi","steam_id":76561198873850443,"connected_time":296000000000,"state":"active","ping":41},{"user_id":251,"name":"Solus","steam_id":76561199486493777,"connected_time":1074000000000,"state":"active","ping":58},{"user_id":256,"name":"bryophyta","steam_id":76561197968945306,"connected_time":664000000000,"state":"active","ping":74},{"user_id":247,"name":"Lyra","steam_id":76561198043601838,"connected_time":1910000000000,"state":"active","ping":70},{"user_id":248,"name":"AWildTamim","steam_id":76561198048060652,"connected_time":1893000000000,"state":"active","ping":42},{"user_id":258,"name":"jermany","steam_id":76561198126599355,"connected_time":387000000000,"state":"active","ping":58},{"user_id":253,"name":"Enda","steam_id":76561198202980164,"connected_time":902000000000,"state":"active","ping":80},{"user_id":211,"name":"Juche Necromancer","steam_id":76561198531978435,"connected_time":5077000000000,"state":"active","ping":57},{"user_id":257,"name":"Pinochet","steam_id":76561198194042394,"connected_time":584000000000,"state":"active","ping":151},{"user_id":234,"name":"CubityFirst","steam_id":76561198107654171,"connected_time":3210000000000,"state":"active","ping":48},{"user_id":224,"name":"Slifer the Sky Dwagon","steam_id":76561198062255803,"connected_time":4071000000000,"state":"active","ping":72},{"user_id":179,"name":"GamerPanda","steam_id":76561198061454277,"connected_time":8195000000000,"state":"active","ping":72},{"user_id":193,"name":"KnugenIV","steam_id":76561198127091993,"connected_time":7083000000000,"state":"active","ping":62},{"user_id":222,"name":"Snake-chan","steam_id":76561199044755854,"connected_time":4135000000000,"state":"active","ping":71},{"user_id":242,"name":"ein","steam_id":76561198152162834,"connected_time":2555000000000,"state":"active","ping":102},{"user_id":252,"name":"86","steam_id":76561199084186097,"connected_time":1029000000000,"state":"active","ping":38},{"user_id":254,"name":"Wikk","steam_id":76561199006349076,"connected_time":727000000000,"state":"active","ping":63},{"user_id":236,"name":"Andersexe","steam_id":76561198383864449,"connected_time":3100000000000,"state":"active","ping":86},{"user_id":210,"name":"Master Of Noob","steam_id":76561198217926783,"connected_time":5136000000000,"state":"active","ping":76},{"user_id":246,"name":"yup that extream78711","steam_id":76561198106049954,"connected_time":2261000000000,"state":"active","ping":147}]},{"server_id":114,"name":"Uncletopia | London | 2 | All Maps","name_short":"lon-2","host":"lon-1.uk.uncletopia.com","port":27025,"enabled":true,"region":"eu","cc":"gb","latitude":51.509865,"longitude":-0.118092,"reserved":0,"last_update":"0001-01-01T00:00:00Z","name_a2s":"Uncletopia | London | 2 | All Maps","protocol":17,"map":"pl_barnblitz","folder":"tf","game":"Team Fortress","app_id":440,"player_count":24,"max_players":24,"Bots":0,"server_type":"Dedicated","server_os":"Linux","password":true,"vac":true,"version":"7961495","steam_id":85568392924470941,"keywords":["nocrits","nodmgspread","payload","uncletopia"],"game_id":440,"stv_port":27026,"stv_name":"Uncletopia | London | 2 | All Maps | STV","players":[{"user_id":20,"name":"Milca_11 Bow user","steam_id":76561198848650365,"connected_time":2333000000000,"state":"active","ping":75},{"user_id":41,"name":"DarthPaul8181","steam_id":76561198373050455,"connected_time":762000000000,"state":"active","ping":50},{"user_id":28,"name":"JUST","steam_id":76561198069064885,"connected_time":1157000000000,"state":"active","ping":59},{"user_id":26,"name":"Barbatruc","steam_id":76561198119019916,"connected_time":1350000000000,"state":"active","ping":63},{"user_id":24,"name":"Zero Sleep Gaming","steam_id":76561198982674420,"connected_time":1469000000000,"state":"active","ping":42},{"user_id":40,"name":"SpeedY","steam_id":76561199238207915,"connected_time":768000000000,"state":"active","ping":78},{"user_id":44,"name":"my mom","steam_id":76561199225201569,"connected_time":541000000000,"state":"active","ping":124},{"user_id":42,"name":"REN","steam_id":76561198000596385,"connected_time":733000000000,"state":"active","ping":78},{"user_id":43,"name":"Jack","steam_id":76561198209102833,"connected_time":703000000000,"state":"active","ping":94},{"user_id":32,"name":"KaZa","steam_id":76561198106106803,"connected_time":958000000000,"state":"active","ping":75},{"user_id":33,"name":"quickfast","steam_id":76561199438900919,"connected_time":906000000000,"state":"active","ping":43},{"user_id":34,"name":"Drake theduck","steam_id":76561199182279601,"connected_time":905000000000,"state":"active","ping":105},{"user_id":35,"name":"reke","steam_id":76561199149307190,"connected_time":901000000000,"state":"active","ping":89},{"user_id":45,"name":"Where's my Laptop?","steam_id":76561198860068961,"connected_time":486000000000,"state":"active","ping":111},{"user_id":37,"name":"Rockwell Retro Encabulator","steam_id":76561198420349969,"connected_time":888000000000,"state":"active","ping":105},{"user_id":38,"name":"k4rs","steam_id":76561198202409301,"connected_time":830000000000,"state":"active","ping":53},{"user_id":39,"name":"leonardini.w","steam_id":76561199097963071,"connected_time":824000000000,"state":"active","ping":93},{"user_id":47,"name":"dinorno","steam_id":76561198146276830,"connected_time":393000000000,"state":"active","ping":79},{"user_id":48,"name":"mlemdic","steam_id":76561198090001673,"connected_time":393000000000,"state":"active","ping":131},{"user_id":56,"name":"panakid","steam_id":76561198364121077,"connected_time":29000000000,"state":"active","ping":99},{"user_id":50,"name":"Yefch","steam_id":76561199375126278,"connected_time":301000000000,"state":"active","ping":83},{"user_id":51,"name":"Spawn","steam_id":76561199119237023,"connected_time":289000000000,"state":"active","ping":66},{"user_id":52,"name":"msh","steam_id":76561198367669395,"connected_time":289000000000,"state":"active","ping":33},{"user_id":55,"name":"mrbeast459875409875893503475493","steam_id":76561198806996288,"connected_time":35000000000,"state":"active","ping":67}]},{"server_id":320,"name":"Uncletopia | London | 3 | All Maps","name_short":"lon-3","host":"lon-1.uk.uncletopia.com","port":27035,"enabled":true,"region":"eu","cc":"gb","latitude":51.509865,"longitude":-0.118092,"reserved":0,"last_update":"0001-01-01T00:00:00Z","name_a2s":"Uncletopia | London | 3 | All Maps","protocol":17,"map":"koth_viaduct","folder":"tf","game":"Team Fortress","app_id":440,"player_count":0,"max_players":24,"Bots":0,"server_type":"Dedicated","server_os":"Linux","password":true,"vac":true,"version":"7961495","steam_id":85568392924510192,"keywords":["cp","nocrits","nodmgspread","uncletopia"],"game_id":440,"stv_port":27036,"stv_name":"Uncletopia | London | 3 | All Maps | STV","players":null},{"server_id":321,"name":"Uncletopia | London | 4 | All Maps","name_short":"lon-4","host":"lon-1.uk.uncletopia.com","port":27045,"enabled":true,"region":"eu","cc":"gb","latitude":51.509865,"longitude":-0.118092,"reserved":0,"last_update":"0001-01-01T00:00:00Z","name_a2s":"Uncletopia | London | 4 | All Maps","protocol":17,"map":"pl_barnblitz","folder":"tf","game":"Team Fortress","app_id":440,"player_count":19,"max_players":24,"Bots":0,"server_type":"Dedicated","server_os":"Linux","password":true,"vac":true,"version":"7961495","steam_id":85568392924510193,"keywords":["nocrits","nodmgspread","payload","uncletopia"],"game_id":440,"stv_port":27046,"stv_name":"Uncletopia | London | 4 | All Maps | STV","players":[{"user_id":258,"name":"Largo","steam_id":76561198844368927,"connected_time":3574000000000,"state":"active","ping":69},{"user_id":292,"name":"Samugay","steam_id":76561198143958569,"connected_time":1281000000000,"state":"active","ping":85},{"user_id":314,"name":"BoraY","steam_id":76561198443464667,"connected_time":39000000000,"state":"active","ping":103},{"user_id":312,"name":"Lew","steam_id":76561198076039504,"connected_time":153000000000,"state":"active","ping":72},{"user_id":235,"name":"Bottle O' Scrumpy","steam_id":76561199244250562,"connected_time":5126000000000,"state":"active","ping":88},{"user_id":315,"name":"your_local_penguin","steam_id":76561199224954346,"connected_time":39000000000,"state":"spawning","ping":100},{"user_id":261,"name":"UglyTwinYgor","steam_id":76561198132718039,"connected_time":3282000000000,"state":"active","ping":81},{"user_id":300,"name":"Craig Crusade","steam_id":76561199225918086,"connected_time":569000000000,"state":"active","ping":104},{"user_id":301,"name":"APELOR","steam_id":76561198436284444,"connected_time":569000000000,"state":"active","ping":97},{"user_id":270,"name":"Ullr","steam_id":76561198140547483,"connected_time":2947000000000,"state":"active","ping":45},{"user_id":247,"name":"lulu","steam_id":76561199147764133,"connected_time":4600000000000,"state":"active","ping":77},{"user_id":283,"name":"Nudnud9","steam_id":76561198126130242,"connected_time":1988000000000,"state":"active","ping":39},{"user_id":295,"name":"chickenoidi","steam_id":76561198449498382,"connected_time":1125000000000,"state":"active","ping":99},{"user_id":171,"name":"YourDoom","steam_id":76561198080790857,"connected_time":8010000000000,"state":"active","ping":44},{"user_id":217,"name":"MrKampfCookie","steam_id":76561198085490175,"connected_time":6525000000000,"state":"active","ping":53},{"user_id":306,"name":"j√π xiƒì","steam_id":76561198096189399,"connected_time":473000000000,"state":"active","ping":61},{"user_id":310,"name":"Wujek Cacek","steam_id":76561198010267943,"connected_time":326000000000,"state":"active","ping":78},{"user_id":286,"name":"Dr ADHD MD","steam_id":76561198025252995,"connected_time":1653000000000,"state":"active","ping":52},{"user_id":308,"name":"doctor sex","steam_id":76561198267411149,"connected_time":409000000000,"state":"active","ping":69}]},{"server_id":21,"name":"Uncletopia | London | 5 | All Maps","name_short":"lon-5","host":"lon-1.uk.uncletopia.com","port":27055,"enabled":true,"region":"eu","cc":"gb","latitude":51.509865,"longitude":-0.118092,"reserved":0,"last_update":"0001-01-01T00:00:00Z","name_a2s":"Uncletopia | London | 5 | All Maps","protocol":17,"map":"koth_viaduct","folder":"tf","game":"Team Fortress","app_id":440,"player_count":0,"max_players":24,"Bots":0,"server_type":"Dedicated","server_os":"Linux","password":true,"vac":true,"version":"7961495","steam_id":85568392924742829,"keywords":["cp","nocrits","nodmgspread","uncletopia"],"game_id":440,"stv_port":27056,"stv_name":"Uncletopia | London | 5 | All Maps | STV","players":null},{"server_id":22,"name":"Uncletopia | London | 6 | All Maps","name_short":"lon-6","host":"lon-1.uk.uncletopia.com","port":27065,"enabled":true,"region":"eu","cc":"gb","latitude":51.509865,"longitude":-0.118092,"reserved":0,"last_update":"0001-01-01T00:00:00Z","name_a2s":"Uncletopia | London | 6 | All Maps","protocol":17,"map":"pl_pier","folder":"tf","game":"Team Fortress","app_id":440,"player_count":24,"max_players":24,"Bots":0,"server_type":"Dedicated","server_os":"Linux","password":true,"vac":true,"version":"7961495","steam_id":85568392924742830,"keywords":["nocrits","nodmgspread","payload","uncletopia"],"game_id":440,"stv_port":27066,"stv_name":"Uncletopia | London | 6 | All Maps | STV","players":[{"user_id":327,"name":"silicon based life form","steam_id":76561199127121346,"connected_time":2976000000000,"state":"active","ping":54},{"user_id":341,"name":"Jinxie","steam_id":76561198008762303,"connected_time":2329000000000,"state":"active","ping":63},{"user_id":339,"name":"Not Sussy Tanuki","steam_id":76561198137289375,"connected_time":2420000000000,"state":"active","ping":108},{"user_id":283,"name":"Always Here for You","steam_id":76561198219252313,"connected_time":5185000000000,"state":"active","ping":146},{"user_id":349,"name":"jovi_","steam_id":76561198449280552,"connected_time":596000000000,"state":"active","ping":51},{"user_id":329,"name":"Moondrop","steam_id":76561199421181719,"connected_time":2765000000000,"state":"active","ping":82},{"user_id":347,"name":"Spanishman","steam_id":76561198352596749,"connected_time":833000000000,"state":"active","ping":71},{"user_id":345,"name":"gayboi farti","steam_id":76561199121999431,"connected_time":2123000000000,"state":"active","ping":44},{"user_id":237,"name":"W  A  T  E  R","steam_id":76561198069846520,"connected_time":7969000000000,"state":"active","ping":60},{"user_id":307,"name":"gr3821","steam_id":76561198091531010,"connected_time":4174000000000,"state":"active","ping":43},{"user_id":346,"name":"jumbo josh","steam_id":76561198249832770,"connected_time":1856000000000,"state":"active","ping":37},{"user_id":342,"name":"Eric Catman","steam_id":76561198802117294,"connected_time":2258000000000,"state":"active","ping":58},{"user_id":322,"name":"lidl","steam_id":76561198895235231,"connected_time":3258000000000,"state":"active","ping":68},{"user_id":293,"name":"fence_","steam_id":76561198150386379,"connected_time":4838000000000,"state":"active","ping":44},{"user_id":250,"name":"s a i","steam_id":76561197970379754,"connected_time":7662000000000,"state":"active","ping":60},{"user_id":350,"name":"Scrungo","steam_id":76561198036119802,"connected_time":403000000000,"state":"active","ping":48},{"user_id":348,"name":"Blar","steam_id":76561198042438229,"connected_time":747000000000,"state":"active","ping":56},{"user_id":352,"name":"alexable","steam_id":76561198381310350,"connected_time":36000000000,"state":"active","ping":70},{"user_id":353,"name":"unconditional love","steam_id":76561199026097466,"connected_time":28000000000,"state":"active","ping":64},{"user_id":337,"name":"Inki","steam_id":76561198120592931,"connected_time":2541000000000,"state":"active","ping":91},{"user_id":343,"name":"Andrea","steam_id":76561199487380678,"connected_time":2257000000000,"state":"active","ping":86},{"user_id":351,"name":"midlpsyzl47","steam_id":76561199475972637,"connected_time":163000000000,"state":"active","ping":65},{"user_id":319,"name":"Alos","steam_id":76561198023772457,"connected_time":3437000000000,"state":"active","ping":56},{"user_id":338,"name":"Neonlemurs","steam_id":76561198161147186,"connected_time":2536000000000,"state":"active","ping":64}]},{"server_id":40,"name":"Uncletopia | London | 7 | No Payload","name_short":"lon-7","host":"lon-1.uk.uncletopia.com","port":27075,"enabled":true,"region":"eu","cc":"gb","latitude":51.509865,"longitude":-0.118092,"reserved":0,"last_update":"0001-01-01T00:00:00Z","name_a2s":"Uncletopia | London | 7 | No Payload","protocol":17,"map":"cp_gorge","folder":"tf","game":"Team Fortress","app_id":440,"player_count":0,"max_players":24,"Bots":0,"server_type":"Dedicated","server_os":"Linux","password":true,"vac":true,"version":"7961495","steam_id":85568392924964314,"keywords":["cp","nocrits","nodmgspread","uncletopia"],"game_id":440,"stv_port":27076,"stv_name":"Uncletopia | London | 7 | No Payload | STV","players":null},{"server_id":41,"name":"Uncletopia | London | 8 | Community","name_short":"lon-8","host":"lon-1.uk.uncletopia.com","port":27085,"enabled":true,"region":"eu","cc":"gb","latitude":51.509865,"longitude":-0.118092,"reserved":0,"last_update":"0001-01-01T00:00:00Z","name_a2s":"Uncletopia | London | 8 | Community","protocol":17,"map":"workshop/pl_corrode_rc2.ugc546577989","folder":"tf","game":"Team Fortress","app_id":440,"player_count":0,"max_players":24,"Bots":0,"server_type":"Dedicated","server_os":"Linux","password":true,"vac":true,"version":"7961495","steam_id":85568392924964315,"keywords":["nocrits","nodmgspread","payload","uncletopia"],"game_id":440,"stv_port":27086,"stv_name":"Uncletopia | London | 8 | Community | STV","players":null},{"server_id":300,"name":"Uncletopia | Montr√©al | 1 | All Maps","name_short":"mtl-1","host":"mtl-1.ca.uncletopia.com","port":27015,"enabled":true,"region":"us-east","cc":"ca","latitude":45.50889,"longitude":-73.56167,"reserved":0,"last_update":"0001-01-01T00:00:00Z","name_a2s":"","protocol":0,"map":"","folder":"","game":"","app_id":0,"player_count":0,"max_players":0,"Bots":0,"server_type":"","server_os":"","password":false,"vac":false,"version":"","steam_id":0,"keywords":null,"game_id":0,"stv_port":0,"stv_name":"","players":null},{"server_id":301,"name":"Uncletopia | Montr√©al | 2 | All Maps","name_short":"mtl-2","host":"mtl-1.ca.uncletopia.com","port":27025,"enabled":true,"region":"us-east","cc":"ca","latitude":45.50889,"longitude":-73.56167,"reserved":0,"last_update":"0001-01-01T00:00:00Z","name_a2s":"","protocol":0,"map":"","folder":"","game":"","app_id":0,"player_count":0,"max_players":0,"Bots":0,"server_type":"","server_os":"","password":false,"vac":false,"version":"","steam_id":0,"keywords":null,"game_id":0,"stv_port":0,"stv_name":"","players":null},{"server_id":302,"name":"Uncletopia | Montr√©al | 3 | All Maps","name_short":"mtl-3","host":"mtl-1.ca.uncletopia.com","port":27035,"enabled":true,"region":"us-east","cc":"ca","latitude":45.50889,"longitude":-73.56167,"reserved":0,"last_update":"0001-01-01T00:00:00Z","name_a2s":"","protocol":0,"map":"","folder":"","game":"","app_id":0,"player_count":0,"max_players":0,"Bots":0,"server_type":"","server_os":"","password":false,"vac":false,"version":"","steam_id":0,"keywords":null,"game_id":0,"stv_port":0,"stv_name":"","players":null},{"server_id":303,"name":"Uncletopia | Montr√©al | 4 | No Payload","name_short":"mtl-4","host":"mtl-1.ca.uncletopia.com","port":27045,"enabled":true,"region":"us-east","cc":"ca","latitude":45.50889,"longitude":-73.56167,"reserved":0,"last_update":"0001-01-01T00:00:00Z","name_a2s":"","protocol":0,"map":"","folder":"","game":"","app_id":0,"player_count":0,"max_players":0,"Bots":0,"server_type":"","server_os":"","password":false,"vac":false,"version":"","steam_id":0,"keywords":null,"game_id":0,"stv_port":0,"stv_name":"","players":null},{"server_id":13,"name":"Uncletopia | New York City | 1 | All Maps","name_short":"nyc-1","host":"nyc-1.us.uncletopia.com","port":27015,"enabled":true,"region":"us-east","cc":"us","latitude":40.73061,"longitude":-73.93524,"reserved":0,"last_update":"0001-01-01T00:00:00Z","name_a2s":"Uncletopia | New York City | 1 | All Maps","protocol":17,"map":"pl_frontier_final","folder":"tf","game":"Team Fortress","app_id":440,"player_count":13,"max_players":24,"Bots":0,"server_type":"Dedicated","server_os":"Linux","password":true,"vac":true,"version":"7961495","steam_id":85568392924469993,"keywords":["nocrits","nodmgspread","payload","uncletopia"],"game_id":440,"stv_port":27016,"stv_name":"Uncletopia | New York City | 1 | All Maps | STV","players":[{"user_id":81,"name":"Pdawgdavis02","steam_id":76561199209633860,"connected_time":4467000000000,"state":"active","ping":74},{"user_id":111,"name":"shotgun gaming","steam_id":76561198846566474,"connected_time":47000000000,"state":"active","ping":67},{"user_id":106,"name":"Cthulwho?","steam_id":76561198165550810,"connected_time":991000000000,"state":"active","ping":42},{"user_id":96,"name":"SpaceSanctum","steam_id":76561198805242305,"connected_time":2802000000000,"state":"active","ping":43},{"user_id":57,"name":"Bibleboy","steam_id":76561198049289869,"connected_time":6277000000000,"state":"active","ping":72},{"user_id":105,"name":"1-800-GHOST-DANCE","steam_id":76561198835430429,"connected_time":1401000000000,"state":"active","ping":65},{"user_id":66,"name":"Kritzburgh","steam_id":76561198149466938,"connected_time":5573000000000,"state":"active","ping":48},{"user_id":58,"name":"Lia_Rein TTV","steam_id":76561198151569597,"connected_time":6113000000000,"state":"active","ping":122},{"user_id":109,"name":"barth","steam_id":76561198292896412,"connected_time":857000000000,"state":"active","ping":69},{"user_id":108,"name":"Manelgrinder","steam_id":76561198343449679,"connected_time":941000000000,"state":"active","ping":85},{"user_id":101,"name":"Pyuku","steam_id":76561198811554257,"connected_time":2513000000000,"state":"active","ping":76},{"user_id":46,"name":"cofi","steam_id":76561198077504898,"connected_time":6865000000000,"state":"active","ping":88},{"user_id":110,"name":"Jattiti","steam_id":76561199214217870,"connected_time":498000000000,"state":"active","ping":71}]},{"server_id":14,"name":"Uncletopia | New York City | 2 | All Maps","name_short":"nyc-2","host":"nyc-1.us.uncletopia.com","port":27025,"enabled":true,"region":"us-east","cc":"us","latitude":40.73061,"longitude":-73.93524,"reserved":0,"last_update":"0001-01-01T00:00:00Z","name_a2s":"Uncletopia | New York City | 2 | All Maps","protocol":17,"map":"cp_mountainlab","folder":"tf","game":"Team Fortress","app_id":440,"player_count":24,"max_players":24,"Bots":0,"server_type":"Dedicated","server_os":"Linux","password":true,"vac":true,"version":"7961495","steam_id":85568392924469994,"keywords":["cp","nocrits","nodmgspread","uncletopia"],"game_id":440,"stv_port":27026,"stv_name":"Uncletopia | New York City | 2 | All Maps | STV","players":[{"user_id":7,"name":"lady lionheart","steam_id":76561198300062365,"connected_time":2826000000000,"state":"active","ping":58},{"user_id":20,"name":"SkarloeyFell","steam_id":76561199183127174,"connected_time":1180000000000,"state":"active","ping":53},{"user_id":14,"name":"Nice21","steam_id":76561199427548141,"connected_time":2011000000000,"state":"active","ping":68},{"user_id":48,"name":"TruffShuff","steam_id":76561198055869160,"connected_time":316000000000,"state":"active","ping":60},{"user_id":19,"name":"LittleFieryOne","steam_id":76561198107463724,"connected_time":1300000000000,"state":"active","ping":74},{"user_id":16,"name":"cremeoner","steam_id":76561198372332251,"connected_time":1634000000000,"state":"active","ping":34},{"user_id":43,"name":"zzzPoison","steam_id":76561198302928116,"connected_time":478000000000,"state":"active","ping":74},{"user_id":18,"name":"Terra Incognita","steam_id":76561198289884500,"connected_time":1456000000000,"state":"active","ping":67},{"user_id":21,"name":"Kisune","steam_id":76561199368978007,"connected_time":1143000000000,"state":"active","ping":85},{"user_id":49,"name":"soof","steam_id":76561198043762955,"connected_time":28000000000,"state":"active","ping":45},{"user_id":23,"name":"TheAlicornARG","steam_id":76561198325667233,"connected_time":1098000000000,"state":"active","ping":76},{"user_id":47,"name":"Yummy Kabobz","steam_id":76561198067661705,"connected_time":363000000000,"state":"active","ping":50},{"user_id":39,"name":"Framed","steam_id":76561199075179507,"connected_time":628000000000,"state":"active","ping":74},{"user_id":30,"name":"Doctor Nic","steam_id":76561198035844950,"connected_time":862000000000,"state":"active","ping":69},{"user_id":40,"name":"Heathcliff","steam_id":76561198044288534,"connected_time":620000000000,"state":"active","ping":85},{"user_id":28,"name":"German Empire","steam_id":76561198809249551,"connected_time":1012000000000,"state":"active","ping":83},{"user_id":31,"name":"Graybard","steam_id":76561198045100497,"connected_time":842000000000,"state":"active","ping":74},{"user_id":32,"name":"avantime","steam_id":76561199203175541,"connected_time":816000000000,"state":"active","ping":88},{"user_id":33,"name":"Vegerot","steam_id":76561197997843710,"connected_time":793000000000,"state":"active","ping":45},{"user_id":41,"name":"sharkbyt3","steam_id":76561197985793803,"connected_time":575000000000,"state":"active","ping":59},{"user_id":35,"name":"fear_the-penguins","steam_id":76561199013292217,"connected_time":773000000000,"state":"active","ping":42},{"user_id":36,"name":"tiananmensquare1989","steam_id":76561199076837870,"connected_time":754000000000,"state":"active","ping":85},{"user_id":42,"name":"1000 Gigglebytes of clown girls","steam_id":76561198290719848,"connected_time":543000000000,"state":"active","ping":93},{"user_id":46,"name":"Muk__Tuk","steam_id":76561199122524457,"connected_time":372000000000,"state":"active","ping":100}]},{"server_id":15,"name":"Uncletopia | New York City | 3 | Stopwatch Beta","name_short":"nyc-3","host":"nyc-1.us.uncletopia.com","port":27035,"enabled":true,"region":"us-east","cc":"us","latitude":40.73061,"longitude":-73.93524,"reserved":0,"last_update":"0001-01-01T00:00:00Z","name_a2s":"Uncletopia | New York City | 3 | Stopwatch Beta","protocol":17,"map":"cp_mountainlab","folder":"tf","game":"Team Fortress","app_id":440,"player_count":0,"max_players":24,"Bots":0,"server_type":"Dedicated","server_os":"Linux","password":true,"vac":true,"version":"7961495","steam_id":85568392924742820,"keywords":["cp","nocrits","nodmgspread","uncletopia"],"game_id":440,"stv_port":27036,"stv_name":"Uncletopia | New York City | 3 | Stopwatch Beta | STV","players":null},{"server_id":16,"name":"Uncletopia | New York City | 4 | Community","name_short":"nyc-4","host":"nyc-1.us.uncletopia.com","port":27045,"enabled":true,"region":"us-east","cc":"us","latitude":40.73061,"longitude":-73.93524,"reserved":0,"last_update":"0001-01-01T00:00:00Z","name_a2s":"Uncletopia | New York City | 4 | Community","protocol":17,"map":"koth_lakeside_final","folder":"tf","game":"Team Fortress","app_id":440,"player_count":0,"max_players":24,"Bots":0,"server_type":"Dedicated","server_os":"Linux","password":true,"vac":true,"version":"7961495","steam_id":85568392924742821,"keywords":["cp","nocrits","nodmgspread","uncletopia"],"game_id":440,"stv_port":27046,"stv_name":"Uncletopia | New York City | 4 | Community | STV","players":null},{"server_id":142,"name":"Uncletopia | S√£o Paulo | 1 | All Maps","name_short":"sao-1","host":"sao-1.br.uncletopia.com","port":27015,"enabled":true,"region":"sa","cc":"br","latitude":-23.533773,"longitude":-46.62529,"reserved":0,"last_update":"0001-01-01T00:00:00Z","name_a2s":"Uncletopia | S√£o Paulo | 1 | All Maps","protocol":17,"map":"koth_highpass","folder":"tf","game":"Team Fortress","app_id":440,"player_count":0,"max_players":24,"Bots":0,"server_type":"Dedicated","server_os":"Linux","password":true,"vac":true,"version":"7961495","steam_id":85568392924469996,"keywords":["cp","nocrits","nodmgspread","uncletopia"],"game_id":440,"stv_port":27016,"stv_name":"Uncletopia | S√£o Paulo | 1 | All Maps | STV","players":null},{"server_id":143,"name":"Uncletopia | S√£o Paulo | 2 | Community","name_short":"sao-2","host":"sao-2.br.uncletopia.com","port":27015,"enabled":true,"region":"sa","cc":"br","latitude":-23.533773,"longitude":-46.62529,"reserved":0,"last_update":"0001-01-01T00:00:00Z","name_a2s":"Uncletopia | S√£o Paulo | 2 | Community","protocol":17,"map":"cp_snakewater_final1","folder":"tf","game":"Team Fortress","app_id":440,"player_count":0,"max_players":24,"Bots":0,"server_type":"Dedicated","server_os":"Linux","password":true,"vac":true,"version":"7961495","steam_id":85568392924485349,"keywords":["cp","nocrits","nodmgspread","uncletopia"],"game_id":440,"stv_port":27016,"stv_name":"Uncletopia | S√£o Paulo | 2 | Community | STV","players":null},{"server_id":7,"name":"Uncletopia | Seattle | 1 | All Maps","name_short":"sea-1","host":"sea-1.us.uncletopia.com","port":27015,"enabled":true,"region":"us-west","cc":"us","latitude":47.608013,"longitude":-122.33517,"reserved":0,"last_update":"0001-01-01T00:00:00Z","name_a2s":"Uncletopia | Seattle | 1 | All Maps","protocol":17,"map":"koth_viaduct","folder":"tf","game":"Team Fortress","app_id":440,"player_count":0,"max_players":24,"Bots":0,"server_type":"Dedicated","server_os":"Linux","password":true,"vac":true,"version":"7961495","steam_id":85568392924469997,"keywords":["cp","nocrits","nodmgspread","uncletopia"],"game_id":440,"stv_port":27016,"stv_name":"Uncletopia | Seattle | 1 | All Maps | STV","players":null},{"server_id":119,"name":"Uncletopia | Seattle | 2 | All Maps","name_short":"sea-2","host":"sea-1.us.uncletopia.com","port":27025,"enabled":true,"region":"us-west","cc":"us","latitude":47.608013,"longitude":-122.33517,"reserved":0,"last_update":"0001-01-01T00:00:00Z","name_a2s":"Uncletopia | Seattle | 2 | All Maps","protocol":17,"map":"pl_upward","folder":"tf","game":"Team Fortress","app_id":440,"player_count":0,"max_players":24,"Bots":0,"server_type":"Dedicated","server_os":"Linux","password":true,"vac":true,"version":"7961495","steam_id":85568392924469998,"keywords":["nocrits","nodmgspread","payload","uncletopia"],"game_id":440,"stv_port":27026,"stv_name":"Uncletopia | Seattle | 2 | All Maps | STV","players":null},{"server_id":406,"name":"Uncletopia | Seattle | 3 | Stopwatch Beta","name_short":"sea-3","host":"sea-1.us.uncletopia.com","port":27035,"enabled":true,"region":"us-west","cc":"us","latitude":47.608013,"longitude":-122.33517,"reserved":0,"last_update":"0001-01-01T00:00:00Z","name_a2s":"Uncletopia | Seattle | 3 | Stopwatch Beta","protocol":17,"map":"cp_altitude","folder":"tf","game":"Team Fortress","app_id":440,"player_count":0,"max_players":24,"Bots":0,"server_type":"Dedicated","server_os":"Linux","password":true,"vac":true,"version":"7961495","steam_id":85568392924515217,"keywords":["cp","nocrits","nodmgspread","uncletopia"],"game_id":440,"stv_port":27036,"stv_name":"Uncletopia | Seattle | 3 | Stopwatch Beta | STV","players":null},{"server_id":17,"name":"Uncletopia | San Francisco | 1 | All Maps","name_short":"sfo-1","host":"sfo-1.us.uncletopia.com","port":27015,"enabled":true,"region":"us-west","cc":"us","latitude":37.77397,"longitude":-122.4313,"reserved":0,"last_update":"0001-01-01T00:00:00Z","name_a2s":"Uncletopia | San Francisco | 1 | All Maps","protocol":17,"map":"pl_snowycoast","folder":"tf","game":"Team Fortress","app_id":440,"player_count":1,"max_players":24,"Bots":0,"server_type":"Dedicated","server_os":"Linux","password":true,"vac":true,"version":"7961495","steam_id":85568392924469999,"keywords":["nocrits","nodmgspread","payload","uncletopia"],"game_id":440,"stv_port":27016,"stv_name":"Uncletopia | San Francisco | 1 | All Maps | STV","players":[{"user_id":4,"name":"C.I.R.C.U.I.T","steam_id":76561199303995403,"connected_time":106000000000,"state":"active","ping":164}]},{"server_id":18,"name":"Uncletopia | San Francisco | 2 | All Maps","name_short":"sfo-2","host":"sfo-1.us.uncletopia.com","port":27025,"enabled":true,"region":"us-west","cc":"us","latitude":37.77397,"longitude":-122.4313,"reserved":0,"last_update":"0001-01-01T00:00:00Z","name_a2s":"Uncletopia | San Francisco | 2 | All Maps","protocol":17,"map":"cp_process_final","folder":"tf","game":"Team Fortress","app_id":440,"player_count":0,"max_players":24,"Bots":0,"server_type":"Dedicated","server_os":"Linux","password":true,"vac":true,"version":"7961495","steam_id":85568392924470000,"keywords":["cp","nocrits","nodmgspread","uncletopia"],"game_id":440,"stv_port":27026,"stv_name":"Uncletopia | San Francisco | 2 | All Maps | STV","players":null},{"server_id":19,"name":"Uncletopia | San Francisco | 3 | Stopwatch Beta","name_short":"sfo-3","host":"sfo-1.us.uncletopia.com","port":27035,"enabled":true,"region":"us-west","cc":"us","latitude":37.77397,"longitude":-122.4313,"reserved":0,"last_update":"0001-01-01T00:00:00Z","name_a2s":"Uncletopia | San Francisco | 3 | Stopwatch Beta","protocol":17,"map":"pl_borneo","folder":"tf","game":"Team Fortress","app_id":440,"player_count":0,"max_players":24,"Bots":0,"server_type":"Dedicated","server_os":"Linux","password":true,"vac":true,"version":"7961495","steam_id":85568392924742824,"keywords":["nocrits","nodmgspread","payload","uncletopia"],"game_id":440,"stv_port":27036,"stv_name":"Uncletopia | San Francisco | 3 | Stopwatch Beta | STV","players":null},{"server_id":20,"name":"Uncletopia | San Francisco | 4 | Community","name_short":"sfo-4","host":"sfo-1.us.uncletopia.com","port":27045,"enabled":true,"region":"us-west","cc":"us","latitude":37.77397,"longitude":-122.4313,"reserved":0,"last_update":"0001-01-01T00:00:00Z","name_a2s":"Uncletopia | San Francisco | 4 | Community","protocol":17,"map":"koth_viaduct","folder":"tf","game":"Team Fortress","app_id":440,"player_count":0,"max_players":24,"Bots":0,"server_type":"Dedicated","server_os":"Linux","password":true,"vac":true,"version":"7961495","steam_id":85568392924742826,"keywords":["cp","nocrits","nodmgspread","uncletopia"],"game_id":440,"stv_port":27046,"stv_name":"Uncletopia | San Francisco | 4 | Community | STV","players":null},{"server_id":141,"name":"Uncletopia | Sydney | 1 | All Maps","name_short":"syd-1","host":"syd-1.au.uncletopia.com","port":27015,"enabled":true,"region":"au","cc":"au","latitude":-33.865143,"longitude":151.2099,"reserved":0,"last_update":"0001-01-01T00:00:00Z","name_a2s":"Uncletopia | Sydney | 1 | All Maps","protocol":17,"map":"cp_dustbowl","folder":"tf","game":"Team Fortress","app_id":440,"player_count":0,"max_players":24,"Bots":0,"server_type":"Dedicated","server_os":"Linux","password":true,"vac":true,"version":"7961495","steam_id":85568392924470001,"keywords":["cp","nocrits","nodmgspread","uncletopia"],"game_id":440,"stv_port":27016,"stv_name":"Uncletopia | Sydney | 1 | All Maps | STV","players":null},{"server_id":123,"name":"Uncletopia | Sydney | 2 | All Maps","name_short":"syd-2","host":"syd-1.au.uncletopia.com","port":27025,"enabled":true,"region":"au","cc":"au","latitude":-33.865143,"longitude":151.2099,"reserved":0,"last_update":"0001-01-01T00:00:00Z","name_a2s":"Uncletopia | Sydney | 2 | All Maps","protocol":17,"map":"koth_cascade","folder":"tf","game":"Team Fortress","app_id":440,"player_count":24,"max_players":24,"Bots":0,"server_type":"Dedicated","server_os":"Linux","password":true,"vac":true,"version":"7961495","steam_id":85568392924470002,"keywords":["cp","nocrits","nodmgspread","uncletopia"],"game_id":440,"stv_port":27026,"stv_name":"Uncletopia | Sydney | 2 | All Maps | STV","players":[{"user_id":491,"name":"GiantBonsai","steam_id":76561198089393384,"connected_time":3201000000000,"state":"active","ping":56},{"user_id":519,"name":"miyamoto is daddy","steam_id":76561199483818230,"connected_time":378000000000,"state":"active","ping":73},{"user_id":516,"name":"covenofbats","steam_id":76561198152117315,"connected_time":685000000000,"state":"active","ping":43},{"user_id":462,"name":"Jeshƒ´","steam_id":76561198105982416,"connected_time":5039000000000,"state":"active","ping":69},{"user_id":506,"name":"Sta≈Ñczyk","steam_id":76561198074621811,"connected_time":1347000000000,"state":"active","ping":62},{"user_id":482,"name":"ravioli","steam_id":76561198001765827,"connected_time":4105000000000,"state":"active","ping":46},{"user_id":515,"name":"wom","steam_id":76561199375834537,"connected_time":702000000000,"state":"active","ping":124},{"user_id":495,"name":"Keva","steam_id":76561198200199294,"connected_time":2522000000000,"state":"active","ping":94},{"user_id":483,"name":"Calsaintski","steam_id":76561199081848498,"connected_time":3852000000000,"state":"active","ping":56},{"user_id":520,"name":"eepy","steam_id":76561198452767008,"connected_time":106000000000,"state":"active","ping":48},{"user_id":501,"name":"Editor_Billy","steam_id":76561199165608946,"connected_time":1986000000000,"state":"active","ping":59},{"user_id":498,"name":"Original Dog","steam_id":76561198046480594,"connected_time":2461000000000,"state":"active","ping":83},{"user_id":521,"name":"durcy","steam_id":76561198049037327,"connected_time":75000000000,"state":"active","ping":102},{"user_id":499,"name":"‚ô• BILL!!! ‚ô•","steam_id":76561198066726621,"connected_time":2448000000000,"state":"active","ping":45},{"user_id":510,"name":"Johngamer2418","steam_id":76561198377832282,"connected_time":1084000000000,"state":"active","ping":52},{"user_id":494,"name":"night_cold20","steam_id":76561199084601380,"connected_time":2676000000000,"state":"active","ping":161},{"user_id":514,"name":"Tofu","steam_id":76561198025637573,"connected_time":790000000000,"state":"active","ping":40},{"user_id":504,"name":"ManofWonder1","steam_id":76561198904788550,"connected_time":1745000000000,"state":"active","ping":70},{"user_id":517,"name":"chonk","steam_id":76561198002924796,"connected_time":683000000000,"state":"active","ping":57},{"user_id":505,"name":"71312n4n","steam_id":76561198044303596,"connected_time":1684000000000,"state":"active","ping":48},{"user_id":480,"name":"big chungie","steam_id":76561199109526507,"connected_time":4197000000000,"state":"active","ping":65},{"user_id":468,"name":"Big Spooky Uncle 2","steam_id":76561198051986402,"connected_time":4491000000000,"state":"active","ping":54},{"user_id":470,"name":"‚±£êåÑ≈§êåÑ“∞","steam_id":76561199140764838,"connected_time":4470000000000,"state":"active","ping":60},{"user_id":518,"name":"yuzu","steam_id":76561198083536162,"connected_time":629000000000,"state":"active","ping":46}]},{"server_id":395,"name":"Uncletopia | Sydney | 3 | All Maps","name_short":"syd-3","host":"syd-1.au.uncletopia.com","port":27035,"enabled":true,"region":"au","cc":"au","latitude":-33.865143,"longitude":151.2099,"reserved":0,"last_update":"0001-01-01T00:00:00Z","name_a2s":"Uncletopia | Sydney | 3 | All Maps","protocol":17,"map":"koth_highpass","folder":"tf","game":"Team Fortress","app_id":440,"player_count":0,"max_players":24,"Bots":0,"server_type":"Dedicated","server_os":"Linux","password":true,"vac":true,"version":"7961495","steam_id":85568392925194467,"keywords":["cp","nocrits","nodmgspread","uncletopia"],"game_id":440,"stv_port":27036,"stv_name":"Uncletopia | Sydney | 3 | All Maps | STV","players":null},{"server_id":396,"name":"Uncletopia | Sydney | 4 | All Maps","name_short":"syd-4","host":"syd-1.au.uncletopia.com","port":27045,"enabled":true,"region":"au","cc":"au","latitude":-33.865143,"longitude":151.2099,"reserved":0,"last_update":"0001-01-01T00:00:00Z","name_a2s":"Uncletopia | Sydney | 4 | All Maps","protocol":17,"map":"koth_cascade","folder":"tf","game":"Team Fortress","app_id":440,"player_count":0,"max_players":24,"Bots":0,"server_type":"Dedicated","server_os":"Linux","password":true,"vac":true,"version":"7961495","steam_id":85568392925397958,"keywords":["cp","nocrits","nodmgspread","uncletopia"],"game_id":440,"stv_port":27046,"stv_name":"Uncletopia | Sydney | 4 | All Maps | STV","players":null},{"server_id":58,"name":"Uncletopia | Sydney | 5 | Stopwatch Beta","name_short":"syd-5","host":"syd-1.au.uncletopia.com","port":27055,"enabled":true,"region":"au","cc":"au","latitude":-33.865143,"longitude":151.2099,"reserved":0,"last_update":"0001-01-01T00:00:00Z","name_a2s":"Uncletopia | Sydney | 5 | Stopwatch Beta","protocol":17,"map":"koth_viaduct","folder":"tf","game":"Team Fortress","app_id":440,"player_count":0,"max_players":24,"Bots":0,"server_type":"Dedicated","server_os":"Linux","password":true,"vac":true,"version":"7961495","steam_id":85568392925397959,"keywords":["cp","nocrits","nodmgspread","uncletopia"],"game_id":440,"stv_port":27056,"stv_name":"Uncletopia | Sydney | 5 | Stopwatch Beta | STV","players":null},{"server_id":59,"name":"Uncletopia | Sydney | 6 | Community","name_short":"syd-6","host":"syd-1.au.uncletopia.com","port":27065,"enabled":true,"region":"au","cc":"au","latitude":-33.865143,"longitude":151.2099,"reserved":0,"last_update":"0001-01-01T00:00:00Z","name_a2s":"Uncletopia | Sydney | 6 | Community","protocol":17,"map":"koth_cascade","folder":"tf","game":"Team Fortress","app_id":440,"player_count":0,"max_players":24,"Bots":0,"server_type":"Dedicated","server_os":"Linux","password":true,"vac":true,"version":"7961495","steam_id":85568392925397960,"keywords":["cp","nocrits","nodmgspread","uncletopia"],"game_id":440,"stv_port":27066,"stv_name":"Uncletopia | Sydney | 6 | Community | STV","players":null},{"server_id":49,"name":"Uncletopia | Warsaw | 1 | All Maps","name_short":"waw-1","host":"waw-1.pl.uncletopia.com","port":27015,"enabled":true,"region":"eu","cc":"pl","latitude":52.2297,"longitude":21.017532,"reserved":0,"last_update":"0001-01-01T00:00:00Z","name_a2s":"Uncletopia | Warsaw | 1 | All Maps","protocol":17,"map":"koth_viaduct","folder":"tf","game":"Team Fortress","app_id":440,"player_count":0,"max_players":24,"Bots":0,"server_type":"Dedicated","server_os":"Linux","password":true,"vac":true,"version":"7961495","steam_id":85568392925397850,"keywords":["cp","nocrits","nodmgspread","uncletopia"],"game_id":440,"stv_port":27016,"stv_name":"Uncletopia | Warsaw | 1 | All Maps | STV","players":null},{"server_id":50,"name":"Uncletopia | Warsaw | 2 | All Maps","name_short":"waw-2","host":"waw-1.pl.uncletopia.com","port":27025,"enabled":true,"region":"eu","cc":"pl","latitude":52.2297,"longitude":21.017532,"reserved":0,"last_update":"0001-01-01T00:00:00Z","name_a2s":"Uncletopia | Warsaw | 2 | All Maps","protocol":17,"map":"cp_snakewater_final1","folder":"tf","game":"Team Fortress","app_id":440,"player_count":0,"max_players":24,"Bots":0,"server_type":"Dedicated","server_os":"Linux","password":true,"vac":true,"version":"7961495","steam_id":85568392925397851,"keywords":["cp","nocrits","nodmgspread","uncletopia"],"game_id":440,"stv_port":27026,"stv_name":"Uncletopia | Warsaw | 2 | All Maps | STV","players":null},{"server_id":51,"name":"Uncletopia | Warsaw | 3 | All Maps","name_short":"waw-3","host":"waw-1.pl.uncletopia.com","port":27035,"enabled":true,"region":"eu","cc":"pl","latitude":52.2297,"longitude":21.017532,"reserved":0,"last_update":"0001-01-01T00:00:00Z","name_a2s":"Uncletopia | Warsaw | 3 | All Maps","protocol":17,"map":"koth_lakeside_final","folder":"tf","game":"Team Fortress","app_id":440,"player_count":0,"max_players":24,"Bots":0,"server_type":"Dedicated","server_os":"Linux","password":true,"vac":true,"version":"7961495","steam_id":85568392925397852,"keywords":["cp","nocrits","nodmgspread","uncletopia"],"game_id":440,"stv_port":27036,"stv_name":"Uncletopia | Warsaw | 3 | All Maps | STV","players":null},{"server_id":52,"name":"Uncletopia | Warsaw | 4 | All Maps","name_short":"waw-4","host":"waw-1.pl.uncletopia.com","port":27045,"enabled":true,"region":"eu","cc":"pl","latitude":52.2297,"longitude":21.017532,"reserved":0,"last_update":"0001-01-01T00:00:00Z","name_a2s":"Uncletopia | Warsaw | 4 | All Maps","protocol":17,"map":"koth_viaduct","folder":"tf","game":"Team Fortress","app_id":440,"player_count":0,"max_players":24,"Bots":0,"server_type":"Dedicated","server_os":"Linux","password":true,"vac":true,"version":"7961495","steam_id":85568392925397853,"keywords":["cp","nocrits","nodmgspread","uncletopia"],"game_id":440,"stv_port":27046,"stv_name":"Uncletopia | Warsaw | 4 | All Maps | STV","players":null},{"server_id":53,"name":"Uncletopia | Warsaw | 5 | Stopwatch Beta","name_short":"waw-5","host":"waw-1.pl.uncletopia.com","port":27055,"enabled":true,"region":"eu","cc":"pl","latitude":52.2297,"longitude":21.017532,"reserved":0,"last_update":"0001-01-01T00:00:00Z","name_a2s":"Uncletopia | Warsaw | 5 | Stopwatch Beta","protocol":17,"map":"workshop/koth_ramjam_rc1.ugc459778887","folder":"tf","game":"Team Fortress","app_id":440,"player_count":0,"max_players":24,"Bots":0,"server_type":"Dedicated","server_os":"Linux","password":true,"vac":true,"version":"7961495","steam_id":85568392925397854,"keywords":["cp","nocrits","nodmgspread","uncletopia"],"game_id":440,"stv_port":27056,"stv_name":"Uncletopia | Warsaw | 5 | Stopwatch Beta | STV","players":null},{"server_id":54,"name":"Uncletopia | Warsaw | 6 | Community","name_short":"waw-6","host":"waw-1.pl.uncletopia.com","port":27065,"enabled":true,"region":"eu","cc":"pl","latitude":52.2297,"longitude":21.017532,"reserved":0,"last_update":"0001-01-01T00:00:00Z","name_a2s":"Uncletopia | Warsaw | 6 | Community","protocol":17,"map":"workshop/cp_caldera_rc2.ugc2834196889","folder":"tf","game":"Team Fortress","app_id":440,"player_count":0,"max_players":24,"Bots":0,"server_type":"Dedicated","server_os":"Linux","password":true,"vac":true,"version":"7961495","steam_id":85568392925397856,"keywords":["cp","nocrits","nodmgspread","uncletopia"],"game_id":440,"stv_port":27066,"stv_name":"Uncletopia | Warsaw | 6 | Community | STV","players":null}]}