{"status":true,"message":"","result":[{"server_id":9,"name":"Uncletopia | Atlanta | 1 | All Maps","name_short":"atl-1","host":"atl-1.us.uncletopia.com","port":27015,"enabled":true,"region":"us-east","cc":"us","latitude":33.753746,"longitude":-84.38633,"reserved":0,"last_update":"0001-01-01T00:00:00Z","name_a2s":"Uncletopia | Atlanta | 1 | All Maps","protocol":17,"map":"pl_barnblitz","folder":"tf","game":"Team Fortress","app_id":440,"player_count":24,"max_players":24,"Bots":0,"server_type":"Dedicated","server_os":"Linux","password":true,"vac":true,"version":"7882260","steam_id":85568392924469982,"keywords":["nocrits","nodmgspread","payload","uncletopia"],"game_id":440,"stv_port":27016,"stv_name":"Uncletopia | Atlanta | 1 | All Maps | STV","players":[{"user_id":180,"name":"adder","steam_id":76561198292426538,"connected_time":1282000000000,"state":"active","ping":45},{"user_id":190,"name":"JestinJester","steam_id":76561198411846094,"connected_time":451000000000,"state":"active","ping":72},{"user_id":184,"name":"basil","steam_id":76561198075758026,"connected_time":1128000000000,"state":"active","ping":70},{"user_id":167,"name":"krueger","steam_id":76561198268654031,"connected_time":2464000000000,"state":"active","ping":75},{"user_id":113,"name":"zzz","steam_id":76561198143727547,"connected_time":5651000000000,"state":"active","ping":106},{"user_id":171,"name":"Fartly","steam_id":76561197987805095,"connected_time":1785000000000,"state":"active","ping":106},{"user_id":177,"name":"zik","steam_id":76561198122186802,"connected_time":1432000000000,"state":"active","ping":67},{"user_id":178,"name":"LasagneMan","steam_id":76561198971904377,"connected_time":1415000000000,"state":"active","ping":139},{"user_id":162,"name":"Oopsie Daisy ❋","steam_id":76561198042144492,"connected_time":2596000000000,"state":"active","ping":55},{"user_id":187,"name":"Inkmix(boopberrylover)","steam_id":76561198854070384,"connected_time":999000000000,"state":"active","ping":168},{"user_id":181,"name":"ChillShogun75","steam_id":76561198197321169,"connected_time":1258000000000,"state":"active","ping":54},{"user_id":129,"name":"wG deez","steam_id":76561198277163301,"connected_time":4716000000000,"state":"active","ping":86},{"user_id":175,"name":"zigby","steam_id":76561198247345278,"connected_time":1535000000000,"state":"active","ping":77},{"user_id":182,"name":"superprogamerman2009","steam_id":76561199393831863,"connected_time":1258000000000,"state":"active","ping":134},{"user_id":176,"name":"Nullman","steam_id":76561199069169835,"connected_time":1532000000000,"state":"active","ping":70},{"user_id":194,"name":"GAMBU","steam_id":76561198320866421,"connected_time":334000000000,"state":"active","ping":76},{"user_id":183,"name":"xiii","steam_id":76561198079416036,"connected_time":1200000000000,"state":"active","ping":80},{"user_id":192,"name":"lynt","steam_id":76561198988333976,"connected_time":435000000000,"state":"active","ping":45},{"user_id":185,"name":"Sudokori","steam_id":76561198125033697,"connected_time":1106000000000,"state":"active","ping":86},{"user_id":186,"name":"Amyxts36","steam_id":76561198872232094,"connected_time":1092000000000,"state":"active","ping":107},{"user_id":188,"name":"Bali","steam_id":76561198038693845,"connected_time":886000000000,"state":"active","ping":78},{"user_id":168,"name":"Sage","steam_id":76561198143101697,"connected_time":2307000000000,"state":"active","ping":107},{"user_id":189,"name":"doctor sex","steam_id":76561198039554077,"connected_time":807000000000,"state":"active","ping":80},{"user_id":193,"name":"nooblover69","steam_id":76561198249206656,"connected_time":369000000000,"state":"active","ping":86}]},{"server_id":104,"name":"Uncletopia | Atlanta | 2 | All Maps","name_short":"atl-2","host":"atl-1.us.uncletopia.com","port":27025,"enabled":true,"region":"us-east","cc":"us","latitude":33.753746,"longitude":-84.38633,"reserved":0,"last_update":"0001-01-01T00:00:00Z","name_a2s":"Uncletopia | Atlanta | 2 | All Maps","protocol":17,"map":"koth_cascade","folder":"tf","game":"Team Fortress","app_id":440,"player_count":24,"max_players":24,"Bots":0,"server_type":"Dedicated","server_os":"Linux","password":true,"vac":true,"version":"7882260","steam_id":85568392924469983,"keywords":["cp","nocrits","nodmgspread","uncletopia"],"game_id":440,"stv_port":27026,"stv_name":"Uncletopia | Atlanta | 2 | All Maps | STV","players":[{"user_id":319,"name":"Tool","steam_id":76561198055542546,"connected_time":3128000000000,"state":"active","ping":74},{"user_id":154,"name":"SHADY SWEATER SALESMAN","steam_id":76561198014616865,"connected_time":19602000000000,"state":"active","ping":87},{"user_id":332,"name":"PileofPolygons","steam_id":76561199321343460,"connected_time":1468000000000,"state":"active","ping":60},{"user_id":352,"name":"Phos","steam_id":76561198122339506,"connected_time":321000000000,"state":"active","ping":84},{"user_id":338,"name":"Yato","steam_id":76561198084100335,"connected_time":886000000000,"state":"active","ping":91},{"user_id":340,"name":"i thought you were my friend","steam_id":76561198929646112,"connected_time":692000000000,"state":"active","ping":75},{"user_id":313,"name":"Snake","steam_id":76561198817933714,"connected_time":4316000000000,"state":"active","ping":122},{"user_id":315,"name":"Gibby","steam_id":76561199336569123,"connected_time":3899000000000,"state":"active","ping":105},{"user_id":337,"name":"Notation","steam_id":76561198119509319,"connected_time":887000000000,"state":"active","ping":44},{"user_id":341,"name":"ridback","steam_id":76561198006728845,"connected_time":689000000000,"state":"active","ping":185},{"user_id":342,"name":"fruitpunch","steam_id":76561198156516161,"connected_time":669000000000,"state":"active","ping":70},{"user_id":353,"name":"ƐՌѴƳ","steam_id":76561198099470277,"connected_time":67000000000,"state":"active","ping":67},{"user_id":285,"name":"CollDragon","steam_id":76561198067534450,"connected_time":6924000000000,"state":"active","ping":62},{"user_id":350,"name":"cataconik","steam_id":76561198145530829,"connected_time":425000000000,"state":"active","ping":80},{"user_id":343,"name":"Joe","steam_id":76561198284468330,"connected_time":668000000000,"state":"active","ping":99},{"user_id":331,"name":"MILKY","steam_id":76561199261620682,"connected_time":1690000000000,"state":"active","ping":166},{"user_id":347,"name":"I Lead MLB In \"Bats Eaten\"","steam_id":76561198034079853,"connected_time":535000000000,"state":"active","ping":71},{"user_id":316,"name":"SeaBass","steam_id":76561197982949108,"connected_time":3877000000000,"state":"active","ping":56},{"user_id":345,"name":"DoubleTee","steam_id":76561198018980347,"connected_time":595000000000,"state":"active","ping":100},{"user_id":308,"name":"battle clown","steam_id":76561198045788371,"connected_time":4418000000000,"state":"active","ping":85},{"user_id":329,"name":"Mikey","steam_id":76561198074774153,"connected_time":2426000000000,"state":"active","ping":110},{"user_id":351,"name":"Dabbledornk","steam_id":76561198065241300,"connected_time":420000000000,"state":"active","ping":58},{"user_id":348,"name":"TheScootGuy","steam_id":76561198847107866,"connected_time":492000000000,"state":"active","ping":81},{"user_id":334,"name":"Cousin Daniel","steam_id":76561198416341999,"connected_time":1461000000000,"state":"active","ping":78}]},{"server_id":400,"name":"Uncletopia | Atlanta | 3 | Community","name_short":"atl-3","host":"atl-1.us.uncletopia.com","port":27035,"enabled":true,"region":"us-east","cc":"us","latitude":33.753746,"longitude":-84.38633,"reserved":0,"last_update":"0001-01-01T00:00:00Z","name_a2s":"Uncletopia | Atlanta | 3 | Community","protocol":17,"map":"workshop/cp_glassworks_rc6a.ugc454118349","folder":"tf","game":"Team Fortress","app_id":440,"player_count":0,"max_players":24,"Bots":0,"server_type":"Dedicated","server_os":"Linux","password":true,"vac":true,"version":"7882260","steam_id":85568392924515187,"keywords":["cp","nocrits","nodmgspread","uncletopia"],"game_id":440,"stv_port":27036,"stv_name":"Uncletopia | Atlanta | 3 | Community | STV","players":null},{"server_id":401,"name":"Uncletopia | Atlanta | 4 | No Payload","name_short":"atl-4","host":"atl-1.us.uncletopia.com","port":27045,"enabled":true,"region":"us-east","cc":"us","latitude":33.753746,"longitude":-84.38633,"reserved":0,"last_update":"0001-01-01T00:00:00Z","name_a2s":"","protocol":0,"map":"","folder":"","game":"","app_id":0,"player_count":0,"max_players":0,"Bots":0,"server_type":"","server_os":"","password":false,"vac":false,"version":"","steam_id":0,"keywords":null,"game_id":0,"stv_port":0,"stv_name":"","players":null},{"server_id":2,"name":"Uncletopia | Chicago | 1 | All Maps","name_short":"chi-1","host":"chi-1.us.uncletopia.com","port":27015,"enabled":true,"region":"us-central","cc":"us","latitude":41.881832,"longitude":-87.62318,"reserved":0,"last_update":"0001-01-01T00:00:00Z","name_a2s":"Uncletopia | Chicago | 1 | All Maps","protocol":17,"map":"pl_barnblitz","folder":"tf","game":"Team Fortress","app_id":440,"player_count":24,"max_players":24,"Bots":0,"server_type":"Dedicated","server_os":"Linux","password":true,"vac":true,"version":"7882260","steam_id":85568392924469984,"keywords":["nocrits","nodmgspread","payload","uncletopia"],"game_id":440,"stv_port":27016,"stv_name":"Uncletopia | Chicago | 1 | All Maps | STV","players":[{"user_id":210,"name":"Yummy Kabobz","steam_id":76561198067661705,"connected_time":2839000000000,"state":"active","ping":72},{"user_id":172,"name":"Michaelpc1","steam_id":76561198088365519,"connected_time":6139000000000,"state":"active","ping":80},{"user_id":211,"name":"Ringo x Seiran","steam_id":76561198357437908,"connected_time":2150000000000,"state":"active","ping":60},{"user_id":165,"name":"Hell's Reindeer","steam_id":76561198065310364,"connected_time":6223000000000,"state":"active","ping":59},{"user_id":221,"name":"wiiblob","steam_id":76561198109106242,"connected_time":1454000000000,"state":"active","ping":137},{"user_id":242,"name":"Mr.noob","steam_id":76561199200442395,"connected_time":632000000000,"state":"active","ping":168},{"user_id":198,"name":"CyberZayne","steam_id":76561198002351356,"connected_time":3619000000000,"state":"active","ping":87},{"user_id":163,"name":"Nigel","steam_id":76561198115574712,"connected_time":6240000000000,"state":"active","ping":87},{"user_id":199,"name":"Ren","steam_id":76561197991382431,"connected_time":3614000000000,"state":"active","ping":58},{"user_id":231,"name":"Scorpie Doodle","steam_id":76561198021845763,"connected_time":987000000000,"state":"active","ping":50},{"user_id":192,"name":"Alfonso Molestro","steam_id":76561197998677099,"connected_time":3680000000000,"state":"active","ping":77},{"user_id":246,"name":"ṽ⧉ cookie","steam_id":76561197998884823,"connected_time":225000000000,"state":"active","ping":77},{"user_id":190,"name":"WatchWill","steam_id":76561198157237945,"connected_time":4442000000000,"state":"active","ping":69},{"user_id":244,"name":"James 4:4","steam_id":76561198121933439,"connected_time":382000000000,"state":"active","ping":70},{"user_id":200,"name":"vv","steam_id":76561198134813102,"connected_time":3509000000000,"state":"active","ping":60},{"user_id":214,"name":"Cofi","steam_id":76561199026721822,"connected_time":2133000000000,"state":"active","ping":141},{"user_id":237,"name":"Chris P. Bacon","steam_id":76561198000851038,"connected_time":752000000000,"state":"active","ping":78},{"user_id":217,"name":"Acehay14","steam_id":76561198052373291,"connected_time":1665000000000,"state":"active","ping":68},{"user_id":234,"name":"Dr_Spek","steam_id":76561198128667701,"connected_time":922000000000,"state":"active","ping":73},{"user_id":243,"name":"Scrux","steam_id":76561198129763115,"connected_time":592000000000,"state":"active","ping":105},{"user_id":240,"name":"Thundeer","steam_id":76561198353425202,"connected_time":711000000000,"state":"active","ping":66},{"user_id":238,"name":"0","steam_id":76561198046055673,"connected_time":745000000000,"state":"active","ping":90},{"user_id":245,"name":"DVD Copy of Men in Black II","steam_id":76561198080067715,"connected_time":370000000000,"state":"active","ping":51},{"user_id":241,"name":"Jel1440","steam_id":76561198179045366,"connected_time":702000000000,"state":"active","ping":50}]},{"server_id":106,"name":"Uncletopia | Chicago | 2 | All Maps","name_short":"chi-2","host":"chi-1.us.uncletopia.com","port":27025,"enabled":true,"region":"us-central","cc":"us","latitude":41.881832,"longitude":-87.62318,"reserved":0,"last_update":"0001-01-01T00:00:00Z","name_a2s":"Uncletopia | Chicago | 2 | All Maps","protocol":17,"map":"koth_cascade","folder":"tf","game":"Team Fortress","app_id":440,"player_count":0,"max_players":24,"Bots":0,"server_type":"Dedicated","server_os":"Linux","password":true,"vac":true,"version":"7882260","steam_id":85568392924469985,"keywords":["cp","nocrits","nodmgspread","uncletopia"],"game_id":440,"stv_port":27026,"stv_name":"Uncletopia | Chicago | 2 | All Maps | STV","players":null},{"server_id":402,"name":"Uncletopia | Chicago | 3 | All Maps","name_short":"chi-3","host":"chi-1.us.uncletopia.com","port":27035,"enabled":true,"region":"us-central","cc":"us","latitude":41.881832,"longitude":-87.62318,"reserved":0,"last_update":"0001-01-01T00:00:00Z","name_a2s":"Uncletopia | Chicago | 3 | All Maps","protocol":17,"map":"koth_cascade","folder":"tf","game":"Team Fortress","app_id":440,"player_count":0,"max_players":24,"Bots":0,"server_type":"Dedicated","server_os":"Linux","password":true,"vac":true,"version":"7882260","steam_id":85568392924515191,"keywords":["cp","nocrits","nodmgspread","uncletopia"],"game_id":440,"stv_port":27036,"stv_name":"Uncletopia | Chicago | 3 | All Maps | STV","players":null},{"server_id":403,"name":"Uncletopia | Chicago | 4 | All Maps","name_short":"chi-4","host":"chi-1.us.uncletopia.com","port":27045,"enabled":true,"region":"us-central","cc":"us","latitude":41.881832,"longitude":-87.62318,"reserved":0,"last_update":"0001-01-01T00:00:00Z","name_a2s":"Uncletopia | Chicago | 4 | All Maps","protocol":17,"map":"koth_cascade","folder":"tf","game":"Team Fortress","app_id":440,"player_count":0,"max_players":24,"Bots":0,"server_type":"Dedicated","server_os":"Linux","password":true,"vac":true,"version":"7882260","steam_id":85568392924515193,"keywords":["cp","nocrits","nodmgspread","uncletopia"],"game_id":440,"stv_port":27046,"stv_name":"Uncletopia | Chicago | 4 | All Maps | STV","players":null},{"server_id":36,"name":"Uncletopia | Chicago | 5 | All Maps","name_short":"chi-5","host":"chi-2.us.uncletopia.com","port":27015,"enabled":true,"region":"us-central","cc":"us","latitude":41.881832,"longitude":-87.62318,"reserved":0,"last_update":"0001-01-01T00:00:00Z","name_a2s":"Uncletopia | Chicago | 5 | All Maps","protocol":17,"map":"pl_snowycoast","folder":"tf","game":"Team Fortress","app_id":440,"player_count":0,"max_players":24,"Bots":0,"server_type":"Dedicated","server_os":"Linux","password":true,"vac":true,"version":"7882260","steam_id":85568392924866362,"keywords":["nocrits","nodmgspread","payload","uncletopia"],"game_id":440,"stv_port":27016,"stv_name":"Uncletopia | Chicago | 5 | All Maps | STV","players":null},{"server_id":37,"name":"Uncletopia | Chicago | 6 | All Maps","name_short":"chi-6","host":"chi-2.us.uncletopia.com","port":27025,"enabled":true,"region":"us-central","cc":"us","latitude":41.881832,"longitude":-87.62318,"reserved":0,"last_update":"0001-01-01T00:00:00Z","name_a2s":"Uncletopia | Chicago | 6 | All Maps","protocol":17,"map":"koth_cascade","folder":"tf","game":"Team Fortress","app_id":440,"player_count":0,"max_players":24,"Bots":0,"server_type":"Dedicated","server_os":"Linux","password":true,"vac":true,"version":"7882260","steam_id":85568392924866363,"keywords":["cp","nocrits","nodmgspread","uncletopia"],"game_id":440,"stv_port":27026,"stv_name":"Uncletopia | Chicago | 6 | All Maps | STV","players":null},{"server_id":38,"name":"Uncletopia | Chicago | 7 | Stopwatch Beta","name_short":"chi-7","host":"chi-2.us.uncletopia.com","port":27035,"enabled":true,"region":"us-central","cc":"us","latitude":41.881832,"longitude":-87.62318,"reserved":0,"last_update":"0001-01-01T00:00:00Z","name_a2s":"Uncletopia | Chicago | 7 | Stopwatch Beta","protocol":17,"map":"workshop/cp_process_f12.ugc2302948105","folder":"tf","game":"Team Fortress","app_id":440,"player_count":0,"max_players":24,"Bots":0,"server_type":"Dedicated","server_os":"Linux","password":true,"vac":true,"version":"7882260","steam_id":85568392924866364,"keywords":["cp","nocrits","nodmgspread","uncletopia"],"game_id":440,"stv_port":27036,"stv_name":"Uncletopia | Chicago | 7 | Stopwatch Beta | STV","players":null},{"server_id":39,"name":"Uncletopia | Chicago | 8 | Community","name_short":"chi-8","host":"chi-2.us.uncletopia.com","port":27045,"enabled":true,"region":"us-central","cc":"us","latitude":41.881832,"longitude":-87.62318,"reserved":0,"last_update":"0001-01-01T00:00:00Z","name_a2s":"Uncletopia | Chicago | 8 | Community","protocol":17,"map":"workshop/cp_kalinka_rc6a.ugc1272700588","folder":"tf","game":"Team Fortress","app_id":440,"player_count":0,"max_players":24,"Bots":0,"server_type":"Dedicated","server_os":"Linux","password":true,"vac":true,"version":"7882260","steam_id":85568392924866365,"keywords":["cp","nocrits","nodmgspread","uncletopia"],"game_id":440,"stv_port":27046,"stv_name":"Uncletopia | Chicago | 8 | Community | STV","players":null},{"server_id":8,"name":"Uncletopia | Dallas | 1 | All Maps","name_short":"dal-1","host":"dal-1.us.uncletopia.com","port":27015,"enabled":true,"region":"us-central","cc":"us","latitude":32.779167,"longitude":-96.80889,"reserved":0,"last_update":"0001-01-01T00:00:00Z","name_a2s":"Uncletopia | Dallas | 1 | All Maps","protocol":17,"map":"pl_swiftwater_final1","folder":"tf","game":"Team Fortress","app_id":440,"player_count":23,"max_players":24,"Bots":0,"server_type":"Dedicated","server_os":"Linux","password":true,"vac":true,"version":"7882260","steam_id":85568392924469986,"keywords":["nocrits","nodmgspread","payload","uncletopia"],"game_id":440,"stv_port":27016,"stv_name":"Uncletopia | Dallas | 1 | All Maps | STV","players":[{"user_id":57,"name":"Mr. Dick™","steam_id":76561198047309044,"connected_time":920000000000,"state":"active","ping":59},{"user_id":77,"name":"reallyfriendly","steam_id":76561197996819313,"connected_time":65000000000,"state":"active","ping":74},{"user_id":48,"name":"Spag Hekki","steam_id":76561198207579353,"connected_time":1318000000000,"state":"active","ping":76},{"user_id":27,"name":"Tux","steam_id":76561199482591923,"connected_time":2088000000000,"state":"active","ping":126},{"user_id":47,"name":"minesweeper demon","steam_id":76561198414336279,"connected_time":1481000000000,"state":"active","ping":60},{"user_id":78,"name":"Conclusion E²","steam_id":76561198100017156,"connected_time":42000000000,"state":"active","ping":75},{"user_id":75,"name":"Gary Gilbert","steam_id":76561198143988056,"connected_time":252000000000,"state":"active","ping":106},{"user_id":72,"name":"BocchiTheRock From BocchiTheRoc","steam_id":76561198986388085,"connected_time":415000000000,"state":"active","ping":105},{"user_id":30,"name":"Sckroob","steam_id":76561198136568089,"connected_time":1961000000000,"state":"active","ping":84},{"user_id":79,"name":"hoowigan","steam_id":76561198004481006,"connected_time":40000000000,"state":"active","ping":79},{"user_id":76,"name":"M","steam_id":76561198255827013,"connected_time":81000000000,"state":"active","ping":114},{"user_id":66,"name":"PEPPERMAN","steam_id":76561198084849541,"connected_time":586000000000,"state":"active","ping":48},{"user_id":70,"name":"Nico The Cheese","steam_id":76561199065272792,"connected_time":440000000000,"state":"active","ping":82},{"user_id":35,"name":"A Straw","steam_id":76561199367935846,"connected_time":1855000000000,"state":"active","ping":72},{"user_id":56,"name":"unmined nitra","steam_id":76561198066566813,"connected_time":938000000000,"state":"active","ping":114},{"user_id":53,"name":"Snivy64","steam_id":76561198423445376,"connected_time":1074000000000,"state":"active","ping":69},{"user_id":38,"name":"Imyuteus","steam_id":76561198097837285,"connected_time":1809000000000,"state":"active","ping":103},{"user_id":39,"name":"escape","steam_id":76561198119689085,"connected_time":1808000000000,"state":"active","ping":60},{"user_id":67,"name":"Iman","steam_id":76561198063677510,"connected_time":552000000000,"state":"active","ping":91},{"user_id":80,"name":"FWWM","steam_id":76561198387852168,"connected_time":39000000000,"state":"active","ping":79},{"user_id":73,"name":"Victor Skull","steam_id":76561198352212864,"connected_time":267000000000,"state":"active","ping":76},{"user_id":71,"name":"Cogsworth","steam_id":76561198101859889,"connected_time":424000000000,"state":"active","ping":88},{"user_id":46,"name":"airballer E²r","steam_id":76561198165899125,"connected_time":1608000000000,"state":"active","ping":89}]},{"server_id":108,"name":"Uncletopia | Dallas | 2 | All Maps","name_short":"dal-2","host":"dal-1.us.uncletopia.com","port":27025,"enabled":true,"region":"us-central","cc":"us","latitude":32.779167,"longitude":-96.80889,"reserved":0,"last_update":"0001-01-01T00:00:00Z","name_a2s":"Uncletopia | Dallas | 2 | All Maps","protocol":17,"map":"cp_altitude","folder":"tf","game":"Team Fortress","app_id":440,"player_count":0,"max_players":24,"Bots":0,"server_type":"Dedicated","server_os":"Linux","password":true,"vac":true,"version":"7882260","steam_id":85568392924469988,"keywords":["cp","nocrits","nodmgspread","uncletopia"],"game_id":440,"stv_port":27026,"stv_name":"Uncletopia | Dallas | 2 | All Maps | STV","players":null},{"server_id":5,"name":"Uncletopia | Frankfurt | 1 | All Maps","name_short":"frk-1","host":"frk-1.de.uncletopia.com","port":27015,"enabled":true,"region":"eu","cc":"de","latitude":50.110924,"longitude":8.682127,"reserved":0,"last_update":"0001-01-01T00:00:00Z","name_a2s":"Uncletopia | Frankfurt | 1 | All Maps","protocol":17,"map":"pl_badwater","folder":"tf","game":"Team Fortress","app_id":440,"player_count":24,"max_players":24,"Bots":0,"server_type":"Dedicated","server_os":"Linux","password":true,"vac":true,"version":"7882260","steam_id":85568392924469989,"keywords":["nocrits","nodmgspread","payload","uncletopia"],"game_id":440,"stv_port":27016,"stv_name":"Uncletopia | Frankfurt | 1 | All Maps | STV","players":[{"user_id":353,"name":"Mr_Joergen","steam_id":76561198364713702,"connected_time":1008000000000,"state":"active","ping":62},{"user_id":303,"name":"Tre3","steam_id":76561198054795379,"connected_time":4828000000000,"state":"active","ping":56},{"user_id":286,"name":"svantezch","steam_id":76561198373831657,"connected_time":5346000000000,"state":"active","ping":81},{"user_id":358,"name":"Koli","steam_id":76561197992428783,"connected_time":826000000000,"state":"active","ping":45},{"user_id":339,"name":"Der Herr Doktor","steam_id":76561198119476089,"connected_time":2483000000000,"state":"active","ping":57},{"user_id":284,"name":"Tedk0n","steam_id":76561198034141061,"connected_time":5378000000000,"state":"active","ping":132},{"user_id":362,"name":"Lord Aerial","steam_id":76561198288157281,"connected_time":270000000000,"state":"active","ping":66},{"user_id":360,"name":"Vanilla","steam_id":76561198073933435,"connected_time":453000000000,"state":"active","ping":60},{"user_id":328,"name":"CarBombEnthusiast","steam_id":76561199448185434,"connected_time":3140000000000,"state":"active","ping":66},{"user_id":346,"name":"Bastard'Nick","steam_id":76561198044044651,"connected_time":1905000000000,"state":"active","ping":67},{"user_id":354,"name":"BlinkedUp","steam_id":76561198249985618,"connected_time":1007000000000,"state":"active","ping":62},{"user_id":340,"name":".::[SerafeTTiN]::.","steam_id":76561198009471724,"connected_time":2477000000000,"state":"active","ping":86},{"user_id":345,"name":"BrotherPotato","steam_id":76561198049948120,"connected_time":1986000000000,"state":"active","ping":75},{"user_id":348,"name":"Polech","steam_id":76561199187916824,"connected_time":1851000000000,"state":"active","ping":80},{"user_id":342,"name":"[SQ UA] MartianDill","steam_id":76561198405382822,"connected_time":2434000000000,"state":"active","ping":66},{"user_id":333,"name":"giclure :;","steam_id":76561197986362828,"connected_time":2792000000000,"state":"active","ping":65},{"user_id":308,"name":"Lugialf","steam_id":76561198069050794,"connected_time":4637000000000,"state":"active","ping":88},{"user_id":334,"name":"oscar","steam_id":76561198079636127,"connected_time":2737000000000,"state":"active","ping":81},{"user_id":325,"name":"Sybille Sirky","steam_id":76561198082407725,"connected_time":3226000000000,"state":"active","ping":60},{"user_id":356,"name":"gfjhsdf","steam_id":76561198136736426,"connected_time":967000000000,"state":"active","ping":59},{"user_id":351,"name":"Lord of the Cows","steam_id":76561198203140640,"connected_time":1410000000000,"state":"active","ping":70},{"user_id":323,"name":"knees","steam_id":76561198005924647,"connected_time":3329000000000,"state":"active","ping":75},{"user_id":363,"name":"Pepegi","steam_id":76561198001230113,"connected_time":29000000000,"state":"spawning","ping":134},{"user_id":310,"name":"Helon","steam_id":76561198050761682,"connected_time":4240000000000,"state":"active","ping":58}]},{"server_id":110,"name":"Uncletopia | Frankfurt | 2 | All Maps","name_short":"frk-2","host":"frk-1.de.uncletopia.com","port":27025,"enabled":true,"region":"eu","cc":"de","latitude":50.110924,"longitude":8.682127,"reserved":0,"last_update":"0001-01-01T00:00:00Z","name_a2s":"Uncletopia | Frankfurt | 2 | All Maps","protocol":17,"map":"pl_badwater","folder":"tf","game":"Team Fortress","app_id":440,"player_count":24,"max_players":24,"Bots":0,"server_type":"Dedicated","server_os":"Linux","password":true,"vac":true,"version":"7882260","steam_id":85568392924469990,"keywords":["nocrits","nodmgspread","payload","uncletopia"],"game_id":440,"stv_port":27026,"stv_name":"Uncletopia | Frankfurt | 2 | All Maps | STV","players":[{"user_id":504,"name":"cazador","steam_id":76561198123096922,"connected_time":264000000000,"state":"active","ping":92},{"user_id":473,"name":"SkillFullNinja","steam_id":76561198376246441,"connected_time":2237000000000,"state":"active","ping":126},{"user_id":475,"name":"Snd","steam_id":76561198010816408,"connected_time":2211000000000,"state":"active","ping":105},{"user_id":491,"name":"PP_master69420","steam_id":76561199019913910,"connected_time":1788000000000,"state":"active","ping":70},{"user_id":501,"name":"Gryoss","steam_id":76561197999837111,"connected_time":437000000000,"state":"active","ping":90},{"user_id":507,"name":"30.06","steam_id":76561198039531310,"connected_time":144000000000,"state":"active","ping":115},{"user_id":480,"name":"BoBunny McGlitter","steam_id":76561198057403817,"connected_time":2160000000000,"state":"active","ping":65},{"user_id":500,"name":"Tison","steam_id":76561199127635841,"connected_time":450000000000,"state":"active","ping":44},{"user_id":464,"name":"Cumgus","steam_id":76561198058492107,"connected_time":2741000000000,"state":"active","ping":56},{"user_id":407,"name":"Osmo","steam_id":76561199286764992,"connected_time":5627000000000,"state":"active","ping":75},{"user_id":481,"name":"Slifer the Sky Dragon","steam_id":76561198062255803,"connected_time":2154000000000,"state":"active","ping":63},{"user_id":482,"name":"Mental","steam_id":76561198057117092,"connected_time":2149000000000,"state":"active","ping":59},{"user_id":467,"name":"Galaxy","steam_id":76561199386322722,"connected_time":2620000000000,"state":"active","ping":99},{"user_id":483,"name":"MEGOS","steam_id":76561198172740637,"connected_time":2137000000000,"state":"active","ping":50},{"user_id":502,"name":"Carrot (woman)","steam_id":76561198139404261,"connected_time":425000000000,"state":"active","ping":55},{"user_id":484,"name":"Acanda","steam_id":76561198123246537,"connected_time":2116000000000,"state":"active","ping":55},{"user_id":298,"name":"Peanut","steam_id":76561198018865486,"connected_time":14470000000000,"state":"active","ping":73},{"user_id":497,"name":"Rat, the ungodly rat #SaveTF2","steam_id":76561199126577423,"connected_time":687000000000,"state":"active","ping":73},{"user_id":506,"name":"Falconetti","steam_id":76561198029930580,"connected_time":202000000000,"state":"active","ping":75},{"user_id":461,"name":"Jackson News","steam_id":76561198401610939,"connected_time":3085000000000,"state":"active","ping":69},{"user_id":488,"name":"Dr. Jabbinton","steam_id":76561198180007387,"connected_time":1969000000000,"state":"active","ping":52},{"user_id":503,"name":"Carrot","steam_id":76561198119340863,"connected_time":414000000000,"state":"active","ping":52},{"user_id":498,"name":"KnugenIV","steam_id":76561198127091993,"connected_time":491000000000,"state":"active","ping":58},{"user_id":493,"name":"AleXandriX","steam_id":76561198035203950,"connected_time":1747000000000,"state":"active","ping":59}]},{"server_id":308,"name":"Uncletopia | Frankfurt | 3 | All Maps","name_short":"frk-3","host":"frk-1.de.uncletopia.com","port":27035,"enabled":true,"region":"eu","cc":"de","latitude":50.110924,"longitude":8.682127,"reserved":0,"last_update":"0001-01-01T00:00:00Z","name_a2s":"Uncletopia | Frankfurt | 3 | All Maps","protocol":17,"map":"pl_frontier_final","folder":"tf","game":"Team Fortress","app_id":440,"player_count":24,"max_players":24,"Bots":0,"server_type":"Dedicated","server_os":"Linux","password":true,"vac":true,"version":"7882260","steam_id":85568392924504274,"keywords":["nocrits","nodmgspread","payload","uncletopia"],"game_id":440,"stv_port":27036,"stv_name":"Uncletopia | Frankfurt | 3 | All Maps | STV","players":[{"user_id":909,"name":"ThellanM","steam_id":76561199014222387,"connected_time":415000000000,"state":"active","ping":78},{"user_id":885,"name":"WolfmanCZ","steam_id":76561199157141414,"connected_time":1414000000000,"state":"active","ping":68},{"user_id":884,"name":"Fallen_Scholar","steam_id":76561198055468709,"connected_time":1431000000000,"state":"active","ping":76},{"user_id":910,"name":"yeldad","steam_id":76561198447264153,"connected_time":69000000000,"state":"active","ping":180},{"user_id":886,"name":"Sim","steam_id":76561198086641180,"connected_time":1414000000000,"state":"active","ping":102},{"user_id":889,"name":"oskar.collins2","steam_id":76561199092232637,"connected_time":1357000000000,"state":"active","ping":79},{"user_id":904,"name":"o2s","steam_id":76561199483292518,"connected_time":719000000000,"state":"active","ping":59},{"user_id":816,"name":"DeCypher \u003c3","steam_id":76561198171992619,"connected_time":4578000000000,"state":"active","ping":69},{"user_id":890,"name":"szipus alfonz","steam_id":76561198282160511,"connected_time":1354000000000,"state":"active","ping":55},{"user_id":907,"name":"LOBZIK","steam_id":76561198114830120,"connected_time":500000000000,"state":"active","ping":75},{"user_id":892,"name":"British Disapproval","steam_id":76561198001375260,"connected_time":1314000000000,"state":"active","ping":66},{"user_id":901,"name":"nik","steam_id":76561198210482280,"connected_time":928000000000,"state":"active","ping":55},{"user_id":750,"name":"CumbustiblePunda","steam_id":76561197974274677,"connected_time":9998000000000,"state":"active","ping":58},{"user_id":862,"name":"Loki Beaker","steam_id":76561198048086250,"connected_time":2560000000000,"state":"active","ping":52},{"user_id":876,"name":"3igen3ggy","steam_id":76561197989548015,"connected_time":1649000000000,"state":"active","ping":66},{"user_id":894,"name":"DJ-Whatchya #rEtiReD","steam_id":76561198060355298,"connected_time":1243000000000,"state":"active","ping":174},{"user_id":908,"name":"Caliban","steam_id":76561197999696839,"connected_time":477000000000,"state":"active","ping":102},{"user_id":879,"name":"Bliketod","steam_id":76561198255098671,"connected_time":1600000000000,"state":"active","ping":75},{"user_id":898,"name":"Charmedelf","steam_id":76561197993611881,"connected_time":1146000000000,"state":"active","ping":60},{"user_id":833,"name":"Piox","steam_id":76561198125689157,"connected_time":3658000000000,"state":"active","ping":83},{"user_id":900,"name":"Znoz","steam_id":76561198012093928,"connected_time":1073000000000,"state":"active","ping":86},{"user_id":899,"name":"shh... tiny carrots r sleeping","steam_id":76561198069649097,"connected_time":1142000000000,"state":"active","ping":63},{"user_id":835,"name":"Accident","steam_id":76561198115160396,"connected_time":3609000000000,"state":"active","ping":70},{"user_id":870,"name":"bonour74","steam_id":76561199089910337,"connected_time":1995000000000,"state":"active","ping":157}]},{"server_id":309,"name":"Uncletopia | Frankfurt | 4 | All Maps","name_short":"frk-4","host":"frk-1.de.uncletopia.com","port":27045,"enabled":true,"region":"eu","cc":"de","latitude":50.110924,"longitude":8.682127,"reserved":0,"last_update":"0001-01-01T00:00:00Z","name_a2s":"Uncletopia | Frankfurt | 4 | All Maps","protocol":17,"map":"cp_snakewater_final1","folder":"tf","game":"Team Fortress","app_id":440,"player_count":0,"max_players":24,"Bots":0,"server_type":"Dedicated","server_os":"Linux","password":true,"vac":true,"version":"7882260","steam_id":85568392924504275,"keywords":["cp","nocrits","nodmgspread","uncletopia"],"game_id":440,"stv_port":27046,"stv_name":"Uncletopia | Frankfurt | 4 | All Maps | STV","players":null},{"server_id":310,"name":"Uncletopia | Frankfurt | 5 | All Maps","name_short":"frk-5","host":"frk-1.de.uncletopia.com","port":27055,"enabled":true,"region":"eu","cc":"de","latitude":50.110924,"longitude":8.682127,"reserved":0,"last_update":"0001-01-01T00:00:00Z","name_a2s":"Uncletopia | Frankfurt | 5 | All Maps","protocol":17,"map":"pl_barnblitz","folder":"tf","game":"Team Fortress","app_id":440,"player_count":24,"max_players":24,"Bots":0,"server_type":"Dedicated","server_os":"Linux","password":true,"vac":true,"version":"7882260","steam_id":85568392924504277,"keywords":["nocrits","nodmgspread","payload","uncletopia"],"game_id":440,"stv_port":27056,"stv_name":"Uncletopia | Frankfurt | 5 | All Maps | STV","players":[{"user_id":142,"name":"Kildon","steam_id":76561198134661558,"connected_time":1259000000000,"state":"active","ping":90},{"user_id":146,"name":"Tonne","steam_id":76561197970856766,"connected_time":835000000000,"state":"active","ping":60},{"user_id":147,"name":"Groß","steam_id":76561198153027588,"connected_time":811000000000,"state":"active","ping":45},{"user_id":148,"name":"Oblivious","steam_id":76561198058570705,"connected_time":803000000000,"state":"active","ping":83},{"user_id":83,"name":"YuraGreek","steam_id":76561198050182252,"connected_time":6889000000000,"state":"active","ping":77},{"user_id":111,"name":"Pilaarius","steam_id":76561198120273212,"connected_time":4977000000000,"state":"active","ping":95},{"user_id":68,"name":"Mr. Mietsch","steam_id":76561198077516818,"connected_time":8386000000000,"state":"active","ping":54},{"user_id":115,"name":"Raulca25","steam_id":76561199068256964,"connected_time":4471000000000,"state":"active","ping":83},{"user_id":150,"name":"RougeAIPL","steam_id":76561199479156574,"connected_time":748000000000,"state":"active","ping":55},{"user_id":123,"name":"Rimx","steam_id":76561198053034840,"connected_time":3227000000000,"state":"active","ping":88},{"user_id":149,"name":"Lyfë","steam_id":76561197998372828,"connected_time":801000000000,"state":"active","ping":88},{"user_id":143,"name":"Lyncurion","steam_id":76561199260022725,"connected_time":1011000000000,"state":"active","ping":80},{"user_id":155,"name":"etc","steam_id":76561197998394797,"connected_time":259000000000,"state":"active","ping":59},{"user_id":157,"name":"chazza","steam_id":76561199076124858,"connected_time":22000000000,"state":"spawning","ping":53},{"user_id":154,"name":"GEP Gun","steam_id":76561197981821003,"connected_time":635000000000,"state":"active","ping":70},{"user_id":114,"name":"Toasty5050","steam_id":76561198073540881,"connected_time":4648000000000,"state":"active","ping":45},{"user_id":140,"name":"Rahu 'Siebren' Godless","steam_id":76561198276259175,"connected_time":1315000000000,"state":"active","ping":104},{"user_id":141,"name":"FJADL","steam_id":76561198237008214,"connected_time":1313000000000,"state":"active","ping":59},{"user_id":104,"name":"sareena","steam_id":76561198810194062,"connected_time":5521000000000,"state":"active","ping":76},{"user_id":156,"name":"SaltyCupcakes","steam_id":76561198256386417,"connected_time":116000000000,"state":"active","ping":57},{"user_id":124,"name":"dochris.2","steam_id":76561198026478625,"connected_time":3200000000000,"state":"active","ping":45},{"user_id":116,"name":"The Shotgun","steam_id":76561198044008976,"connected_time":4470000000000,"state":"active","ping":75},{"user_id":145,"name":"PashaVerti","steam_id":76561199013963024,"connected_time":888000000000,"state":"active","ping":90},{"user_id":117,"name":"After8","steam_id":76561198090750865,"connected_time":4468000000000,"state":"active","ping":67}]},{"server_id":311,"name":"Uncletopia | Frankfurt | 6 | All Maps","name_short":"frk-6","host":"frk-1.de.uncletopia.com","port":27065,"enabled":true,"region":"eu","cc":"de","latitude":50.110924,"longitude":8.682127,"reserved":0,"last_update":"0001-01-01T00:00:00Z","name_a2s":"Uncletopia | Frankfurt | 6 | All Maps","protocol":17,"map":"koth_viaduct","folder":"tf","game":"Team Fortress","app_id":440,"player_count":24,"max_players":24,"Bots":0,"server_type":"Dedicated","server_os":"Linux","password":true,"vac":true,"version":"7882260","steam_id":85568392924504278,"keywords":["cp","nocrits","nodmgspread","uncletopia"],"game_id":440,"stv_port":27066,"stv_name":"Uncletopia | Frankfurt | 6 | All Maps | STV","players":[{"user_id":57,"name":"THVG","steam_id":76561199156685368,"connected_time":94000000000,"state":"active","ping":75},{"user_id":21,"name":"mcjabba","steam_id":76561198019267806,"connected_time":1500000000000,"state":"active","ping":60},{"user_id":56,"name":"Kan0_","steam_id":76561198129596771,"connected_time":165000000000,"state":"active","ping":59},{"user_id":25,"name":"battle engie gaming","steam_id":76561199422959034,"connected_time":1251000000000,"state":"active","ping":76},{"user_id":23,"name":"Kirxoy","steam_id":76561198385603571,"connected_time":1474000000000,"state":"active","ping":60},{"user_id":35,"name":"VMX The Gamer BROS","steam_id":76561198083980267,"connected_time":828000000000,"state":"active","ping":83},{"user_id":49,"name":"RTS","steam_id":76561198287829500,"connected_time":403000000000,"state":"active","ping":59},{"user_id":28,"name":"Random-Soul","steam_id":76561198887698759,"connected_time":1060000000000,"state":"active","ping":89},{"user_id":55,"name":"Matael","steam_id":76561198452200894,"connected_time":193000000000,"state":"active","ping":66},{"user_id":30,"name":"mavlove","steam_id":76561198064754800,"connected_time":980000000000,"state":"active","ping":76},{"user_id":32,"name":"Little Satan","steam_id":76561198083614760,"connected_time":948000000000,"state":"active","ping":77},{"user_id":37,"name":"Falco","steam_id":76561199061187430,"connected_time":644000000000,"state":"active","ping":45},{"user_id":34,"name":"Čronos","steam_id":76561198097134908,"connected_time":936000000000,"state":"active","ping":67},{"user_id":38,"name":"Charged","steam_id":76561199127215130,"connected_time":554000000000,"state":"active","ping":98},{"user_id":54,"name":"ASAP","steam_id":76561198322078500,"connected_time":212000000000,"state":"active","ping":95},{"user_id":43,"name":"kilikia","steam_id":76561198350261670,"connected_time":449000000000,"state":"active","ping":92},{"user_id":50,"name":"Setade","steam_id":76561198161957305,"connected_time":361000000000,"state":"active","ping":56},{"user_id":42,"name":"everyone has their limits...","steam_id":76561198037810091,"connected_time":511000000000,"state":"active","ping":101},{"user_id":44,"name":"BELADIT","steam_id":76561198011911501,"connected_time":445000000000,"state":"active","ping":75},{"user_id":45,"name":"Cosmetic brain","steam_id":76561198055936410,"connected_time":439000000000,"state":"active","ping":87},{"user_id":46,"name":"Beta Probopass","steam_id":76561198140806694,"connected_time":438000000000,"state":"active","ping":92},{"user_id":58,"name":"tWx","steam_id":76561198123145824,"connected_time":80000000000,"state":"active","ping":75},{"user_id":48,"name":"someone124","steam_id":76561199200399594,"connected_time":428000000000,"state":"active","ping":129},{"user_id":51,"name":"koko","steam_id":76561198953867666,"connected_time":360000000000,"state":"active","ping":61}]},{"server_id":23,"name":"Uncletopia | Frankfurt | 7 | Stopwatch Beta","name_short":"frk-7","host":"frk-1.de.uncletopia.com","port":27075,"enabled":true,"region":"eu","cc":"de","latitude":50.110924,"longitude":8.682127,"reserved":0,"last_update":"0001-01-01T00:00:00Z","name_a2s":"Uncletopia | Frankfurt | 7 | Stopwatch Beta","protocol":17,"map":"cp_dustbowl","folder":"tf","game":"Team Fortress","app_id":440,"player_count":0,"max_players":24,"Bots":0,"server_type":"Dedicated","server_os":"Linux","password":true,"vac":true,"version":"7882260","steam_id":85568392924742827,"keywords":["cp","nocrits","nodmgspread","uncletopia"],"game_id":440,"stv_port":27076,"stv_name":"Uncletopia | Frankfurt | 7 | Stopwatch Beta | STV","players":null},{"server_id":24,"name":"Uncletopia | Frankfurt | 8 | Community","name_short":"frk-8","host":"frk-1.de.uncletopia.com","port":27085,"enabled":true,"region":"eu","cc":"de","latitude":50.110924,"longitude":8.682127,"reserved":0,"last_update":"0001-01-01T00:00:00Z","name_a2s":"Uncletopia | Frankfurt | 8 | Community","protocol":17,"map":"koth_cascade","folder":"tf","game":"Team Fortress","app_id":440,"player_count":0,"max_players":24,"Bots":0,"server_type":"Dedicated","server_os":"Linux","password":true,"vac":true,"version":"7882260","steam_id":85568392924742828,"keywords":["cp","nocrits","nodmgspread","uncletopia"],"game_id":440,"stv_port":27086,"stv_name":"Uncletopia | Frankfurt | 8 | Community | STV","players":null},{"server_id":202,"name":"Uncletopia | Hong Kong | 1 | All Maps","name_short":"hgk-1","host":"hgk-1.hk.uncletopia.com","port":27015,"enabled":true,"region":"asia","cc":"hk","latitude":22.302711,"longitude":114.177216,"reserved":0,"last_update":"0001-01-01T00:00:00Z","name_a2s":"Uncletopia | Hong Kong | 1 | All Maps","protocol":17,"map":"koth_highpass","folder":"tf","game":"Team Fortress","app_id":440,"player_count":0,"max_players":24,"Bots":0,"server_type":"Dedicated","server_os":"Linux","password":true,"vac":true,"version":"7882260","steam_id":85568392924494504,"keywords":["cp","nocrits","nodmgspread","uncletopia"],"game_id":440,"stv_port":27016,"stv_name":"Uncletopia | Hong Kong | 1 | All Maps | STV","players":null},{"server_id":1,"name":"Uncletopia | Los Angeles | 1 | All Maps","name_short":"lax-1","host":"lax-1.us.uncletopia.com","port":27015,"enabled":true,"region":"us-west","cc":"us","latitude":33.94279,"longitude":-118.41004,"reserved":0,"last_update":"0001-01-01T00:00:00Z","name_a2s":"Uncletopia | Los Angeles | 1 | All Maps","protocol":17,"map":"pl_pier","folder":"tf","game":"Team Fortress","app_id":440,"player_count":0,"max_players":24,"Bots":0,"server_type":"Dedicated","server_os":"Linux","password":true,"vac":true,"version":"7882260","steam_id":85568392924469991,"keywords":["nocrits","nodmgspread","payload","uncletopia"],"game_id":440,"stv_port":27016,"stv_name":"Uncletopia | Los Angeles | 1 | All Maps | STV","players":null},{"server_id":112,"name":"Uncletopia | Los Angeles | 2 | All Maps","name_short":"lax-2","host":"lax-1.us.uncletopia.com","port":27025,"enabled":true,"region":"us-west","cc":"us","latitude":33.94279,"longitude":-118.41004,"reserved":0,"last_update":"0001-01-01T00:00:00Z","name_a2s":"Uncletopia | Los Angeles | 2 | All Maps","protocol":17,"map":"cp_process_final","folder":"tf","game":"Team Fortress","app_id":440,"player_count":8,"max_players":24,"Bots":0,"server_type":"Dedicated","server_os":"Linux","password":true,"vac":true,"version":"7882260","steam_id":85568392924469992,"keywords":["cp","nocrits","nodmgspread","uncletopia"],"game_id":440,"stv_port":27026,"stv_name":"Uncletopia | Los Angeles | 2 | All Maps | STV","players":[{"user_id":239,"name":"name420","steam_id":76561198129374525,"connected_time":629000000000,"state":"active","ping":90},{"user_id":241,"name":"Birdman743","steam_id":76561198799636748,"connected_time":407000000000,"state":"active","ping":85},{"user_id":249,"name":"Yoinkinator","steam_id":76561198011366624,"connected_time":181000000000,"state":"active","ping":47},{"user_id":248,"name":"Orbs","steam_id":76561198075938744,"connected_time":237000000000,"state":"active","ping":46},{"user_id":244,"name":"catrinaisahuman","steam_id":76561198281355729,"connected_time":339000000000,"state":"active","ping":76},{"user_id":246,"name":"Doctor Bear ʕ •ᴥ•ʔ","steam_id":76561197968103161,"connected_time":279000000000,"state":"active","ping":105},{"user_id":236,"name":"echelon","steam_id":76561198139172979,"connected_time":1008000000000,"state":"active","ping":51},{"user_id":201,"name":"Cryonics","steam_id":76561198314197911,"connected_time":3674000000000,"state":"active","ping":109}]},{"server_id":324,"name":"Uncletopia | Los Angeles | 3 | All Maps","name_short":"lax-3","host":"lax-1.us.uncletopia.com","port":27035,"enabled":true,"region":"us-west","cc":"us","latitude":33.94279,"longitude":-118.41004,"reserved":0,"last_update":"0001-01-01T00:00:00Z","name_a2s":"Uncletopia | Los Angeles | 3 | All Maps","protocol":17,"map":"pl_barnblitz","folder":"tf","game":"Team Fortress","app_id":440,"player_count":20,"max_players":24,"Bots":0,"server_type":"Dedicated","server_os":"Linux","password":true,"vac":true,"version":"7882260","steam_id":85568392924510198,"keywords":["nocrits","nodmgspread","payload","uncletopia"],"game_id":440,"stv_port":27036,"stv_name":"Uncletopia | Los Angeles | 3 | All Maps | STV","players":[{"user_id":220,"name":"Harold","steam_id":76561198057317770,"connected_time":8000000000,"state":"spawning","ping":96},{"user_id":207,"name":"Mom","steam_id":76561198207936000,"connected_time":1037000000000,"state":"active","ping":41},{"user_id":192,"name":"BONKster","steam_id":76561198170089663,"connected_time":2816000000000,"state":"active","ping":129},{"user_id":177,"name":"Drapph","steam_id":76561199384213314,"connected_time":3474000000000,"state":"active","ping":115},{"user_id":193,"name":"TTV/ChadMorningWood","steam_id":76561198139832291,"connected_time":2639000000000,"state":"active","ping":45},{"user_id":217,"name":"Sqilluy","steam_id":76561198130993466,"connected_time":187000000000,"state":"active","ping":90},{"user_id":100,"name":"RED","steam_id":76561198030282308,"connected_time":10359000000000,"state":"active","ping":61},{"user_id":181,"name":"Tort boi","steam_id":76561198125327110,"connected_time":3164000000000,"state":"active","ping":79},{"user_id":199,"name":"A Shiny Meat Bicycle","steam_id":76561198358757709,"connected_time":2209000000000,"state":"active","ping":115},{"user_id":209,"name":"xbox record that","steam_id":76561198150117455,"connected_time":834000000000,"state":"active","ping":59},{"user_id":219,"name":"Nesster","steam_id":76561198071688242,"connected_time":21000000000,"state":"active","ping":109},{"user_id":187,"name":"Temujin","steam_id":76561198030936583,"connected_time":2932000000000,"state":"active","ping":90},{"user_id":210,"name":"subway fanpage #transrights","steam_id":76561199057369742,"connected_time":715000000000,"state":"active","ping":35},{"user_id":204,"name":"boof","steam_id":76561198053901968,"connected_time":1456000000000,"state":"active","ping":84},{"user_id":211,"name":"Market.","steam_id":76561198196219378,"connected_time":711000000000,"state":"active","ping":45},{"user_id":206,"name":"The Krusty Krab Massacre (2012)","steam_id":76561198153092724,"connected_time":1268000000000,"state":"active","ping":100},{"user_id":170,"name":"Tangerine","steam_id":76561198373668488,"connected_time":4799000000000,"state":"active","ping":115},{"user_id":218,"name":"Trizo","steam_id":76561198191534666,"connected_time":108000000000,"state":"active","ping":75},{"user_id":203,"name":"Expendez","steam_id":76561198049484556,"connected_time":1747000000000,"state":"active","ping":96},{"user_id":202,"name":"Lightning Bolt 1O1","steam_id":76561199099630600,"connected_time":2091000000000,"state":"active","ping":71}]},{"server_id":25,"name":"Uncletopia | Los Angeles | 4 | Stopwatch Beta","name_short":"lax-4","host":"lax-1.us.uncletopia.com","port":27045,"enabled":true,"region":"us-west","cc":"us","latitude":33.94279,"longitude":-118.41004,"reserved":0,"last_update":"0001-01-01T00:00:00Z","name_a2s":"Uncletopia | Los Angeles | 4 | Stopwatch Beta","protocol":17,"map":"cp_snakewater_final1","folder":"tf","game":"Team Fortress","app_id":440,"player_count":0,"max_players":24,"Bots":0,"server_type":"Dedicated","server_os":"Linux","password":true,"vac":true,"version":"7882260","steam_id":85568392924510199,"keywords":["cp","nocrits","nodmgspread","uncletopia"],"game_id":440,"stv_port":27046,"stv_name":"Uncletopia | Los Angeles | 4 | Stopwatch Beta | STV","players":null},{"server_id":11,"name":"Uncletopia | London | 1 | All Maps","name_short":"lon-1","host":"lon-1.uk.uncletopia.com","port":27015,"enabled":true,"region":"eu","cc":"gb","latitude":51.509865,"longitude":-0.118092,"reserved":0,"last_update":"0001-01-01T00:00:00Z","name_a2s":"Uncletopia | London | 1 | All Maps","protocol":17,"map":"pl_upward","folder":"tf","game":"Team Fortress","app_id":440,"player_count":24,"max_players":24,"Bots":0,"server_type":"Dedicated","server_os":"Linux","password":true,"vac":true,"version":"7882260","steam_id":85568392924367362,"keywords":["nocrits","nodmgspread","payload","uncletopia"],"game_id":440,"stv_port":27016,"stv_name":"Uncletopia | London | 1 | All Maps | STV","players":[{"user_id":567,"name":"me and jesus the pimp in a '79 ","steam_id":76561198060105180,"connected_time":3306000000000,"state":"active","ping":60},{"user_id":585,"name":"rex110","steam_id":76561198159631448,"connected_time":1192000000000,"state":"active","ping":83},{"user_id":598,"name":"cute face, violent heart","steam_id":76561198043836847,"connected_time":655000000000,"state":"active","ping":74},{"user_id":552,"name":"ayadam","steam_id":76561198161515769,"connected_time":4832000000000,"state":"active","ping":117},{"user_id":589,"name":"Rex Z'Beq","steam_id":76561199300590000,"connected_time":914000000000,"state":"active","ping":83},{"user_id":565,"name":"Aaron","steam_id":76561197990046953,"connected_time":3487000000000,"state":"active","ping":64},{"user_id":578,"name":"Xerisin","steam_id":76561198862628065,"connected_time":1611000000000,"state":"active","ping":100},{"user_id":548,"name":"Son Goku","steam_id":76561199383437138,"connected_time":5067000000000,"state":"active","ping":121},{"user_id":541,"name":"1 toke 4 mars bars","steam_id":76561198056460000,"connected_time":5259000000000,"state":"active","ping":46},{"user_id":588,"name":"InvaderAlex","steam_id":76561198039232451,"connected_time":941000000000,"state":"active","ping":166},{"user_id":569,"name":"twitch.tv/vision515","steam_id":76561198065293729,"connected_time":3044000000000,"state":"active","ping":164},{"user_id":604,"name":"trite","steam_id":76561197983765323,"connected_time":361000000000,"state":"active","ping":52},{"user_id":605,"name":"NukacolaCherry","steam_id":76561198947678014,"connected_time":38000000000,"state":"active","ping":52},{"user_id":574,"name":"Gubbly Bubbins","steam_id":76561198101451654,"connected_time":2458000000000,"state":"active","ping":45},{"user_id":601,"name":"Sylvanas","steam_id":76561198154904165,"connected_time":451000000000,"state":"active","ping":105},{"user_id":591,"name":"holykyckling","steam_id":76561198040661615,"connected_time":863000000000,"state":"active","ping":78},{"user_id":600,"name":"Bambi","steam_id":76561198166972711,"connected_time":546000000000,"state":"active","ping":54},{"user_id":572,"name":"BreadBubbles","steam_id":76561198174332826,"connected_time":2639000000000,"state":"active","ping":59},{"user_id":596,"name":"Cotton Eye Joe","steam_id":76561198080594207,"connected_time":695000000000,"state":"active","ping":58},{"user_id":571,"name":"Real photograph of me","steam_id":76561198236015392,"connected_time":2815000000000,"state":"active","ping":118},{"user_id":606,"name":"A Dumbass","steam_id":76561198819665089,"connected_time":35000000000,"state":"active","ping":95},{"user_id":599,"name":"fénix","steam_id":76561198083199151,"connected_time":608000000000,"state":"active","ping":57},{"user_id":595,"name":"zuz","steam_id":76561199479080253,"connected_time":713000000000,"state":"active","ping":75},{"user_id":603,"name":"P.A.J","steam_id":76561198064104531,"connected_time":395000000000,"state":"active","ping":86}]},{"server_id":114,"name":"Uncletopia | London | 2 | All Maps","name_short":"lon-2","host":"lon-1.uk.uncletopia.com","port":27025,"enabled":true,"region":"eu","cc":"gb","latitude":51.509865,"longitude":-0.118092,"reserved":0,"last_update":"0001-01-01T00:00:00Z","name_a2s":"Uncletopia | London | 2 | All Maps","protocol":17,"map":"pl_borneo","folder":"tf","game":"Team Fortress","app_id":440,"player_count":3,"max_players":24,"Bots":0,"server_type":"Dedicated","server_os":"Linux","password":true,"vac":true,"version":"7882260","steam_id":85568392924470941,"keywords":["nocrits","nodmgspread","payload","uncletopia"],"game_id":440,"stv_port":27026,"stv_name":"Uncletopia | London | 2 | All Maps | STV","players":[{"user_id":124,"name":"Rez","steam_id":76561198410598772,"connected_time":123000000000,"state":"active","ping":50},{"user_id":121,"name":"Milosz52","steam_id":76561199060940204,"connected_time":403000000000,"state":"active","ping":82},{"user_id":123,"name":"Salih","steam_id":76561198287934839,"connected_time":311000000000,"state":"active","ping":66}]},{"server_id":320,"name":"Uncletopia | London | 3 | All Maps","name_short":"lon-3","host":"lon-1.uk.uncletopia.com","port":27035,"enabled":true,"region":"eu","cc":"gb","latitude":51.509865,"longitude":-0.118092,"reserved":0,"last_update":"0001-01-01T00:00:00Z","name_a2s":"Uncletopia | London | 3 | All Maps","protocol":17,"map":"koth_harvest_final","folder":"tf","game":"Team Fortress","app_id":440,"player_count":24,"max_players":24,"Bots":0,"server_type":"Dedicated","server_os":"Linux","password":true,"vac":true,"version":"7882260","steam_id":85568392924510192,"keywords":["cp","nocrits","nodmgspread","uncletopia"],"game_id":440,"stv_port":27036,"stv_name":"Uncletopia | London | 3 | All Maps | STV","players":[{"user_id":77,"name":"Svilar","steam_id":76561198828348612,"connected_time":1402000000000,"state":"active","ping":87},{"user_id":95,"name":"Chikapu_Xek","steam_id":76561198428023493,"connected_time":285000000000,"state":"active","ping":66},{"user_id":96,"name":"Ohad","steam_id":76561198067989324,"connected_time":252000000000,"state":"active","ping":109},{"user_id":75,"name":"quickfast","steam_id":76561199438900919,"connected_time":1528000000000,"state":"active","ping":46},{"user_id":61,"name":"Dr. Funkenstein","steam_id":76561197977816210,"connected_time":2610000000000,"state":"active","ping":62},{"user_id":99,"name":"Qui-Gon Jinn","steam_id":76561198853214333,"connected_time":128000000000,"state":"active","ping":57},{"user_id":103,"name":"Muppburg","steam_id":76561198031070682,"connected_time":83000000000,"state":"active","ping":60},{"user_id":58,"name":"the least schizo med main","steam_id":76561198048530109,"connected_time":3073000000000,"state":"active","ping":74},{"user_id":44,"name":"Littleyoshifan","steam_id":76561198445491045,"connected_time":3777000000000,"state":"active","ping":44},{"user_id":100,"name":"arizona ranger","steam_id":76561199061893308,"connected_time":128000000000,"state":"active","ping":92},{"user_id":92,"name":"aftvfrost","steam_id":76561198196853610,"connected_time":468000000000,"state":"active","ping":43},{"user_id":76,"name":"Kamikrazy","steam_id":76561198044254918,"connected_time":1437000000000,"state":"active","ping":60},{"user_id":87,"name":"silicon based life form","steam_id":76561199127121346,"connected_time":517000000000,"state":"active","ping":58},{"user_id":66,"name":"dorthyhy","steam_id":76561198062578399,"connected_time":2309000000000,"state":"active","ping":55},{"user_id":90,"name":"Favi","steam_id":76561198013236935,"connected_time":478000000000,"state":"active","ping":75},{"user_id":101,"name":"Shark45977","steam_id":76561198449042871,"connected_time":103000000000,"state":"active","ping":123},{"user_id":102,"name":"Sir Aku","steam_id":76561198007451594,"connected_time":103000000000,"state":"active","ping":32},{"user_id":88,"name":"UltraCoolKiddo","steam_id":76561198102025290,"connected_time":512000000000,"state":"active","ping":64},{"user_id":59,"name":"intestine baalism","steam_id":76561198406814499,"connected_time":3032000000000,"state":"active","ping":92},{"user_id":73,"name":"Calmedy","steam_id":76561198295310457,"connected_time":2046000000000,"state":"active","ping":55},{"user_id":47,"name":"esoteric thug hunter","steam_id":76561198367337443,"connected_time":3675000000000,"state":"active","ping":90},{"user_id":48,"name":"Eith__","steam_id":76561198164775785,"connected_time":3674000000000,"state":"active","ping":62},{"user_id":93,"name":"Loz405 (YouTube)","steam_id":76561198799315884,"connected_time":463000000000,"state":"active","ping":57},{"user_id":94,"name":"tube","steam_id":76561198188642265,"connected_time":450000000000,"state":"active","ping":88}]},{"server_id":321,"name":"Uncletopia | London | 4 | All Maps","name_short":"lon-4","host":"lon-1.uk.uncletopia.com","port":27045,"enabled":true,"region":"eu","cc":"gb","latitude":51.509865,"longitude":-0.118092,"reserved":0,"last_update":"0001-01-01T00:00:00Z","name_a2s":"Uncletopia | London | 4 | All Maps","protocol":17,"map":"pl_borneo","folder":"tf","game":"Team Fortress","app_id":440,"player_count":24,"max_players":24,"Bots":0,"server_type":"Dedicated","server_os":"Linux","password":true,"vac":true,"version":"7882260","steam_id":85568392924510193,"keywords":["nocrits","nodmgspread","payload","uncletopia"],"game_id":440,"stv_port":27046,"stv_name":"Uncletopia | London | 4 | All Maps | STV","players":[{"user_id":564,"name":"mineblast99","steam_id":76561199065648954,"connected_time":386000000000,"state":"active","ping":146},{"user_id":560,"name":"ramirez","steam_id":76561198117060048,"connected_time":418000000000,"state":"active","ping":62},{"user_id":548,"name":"Largo","steam_id":76561198844368927,"connected_time":1069000000000,"state":"active","ping":74},{"user_id":552,"name":"Itai","steam_id":76561198804555329,"connected_time":832000000000,"state":"active","ping":101},{"user_id":529,"name":"too much tf2 not enough sanity","steam_id":76561198977420882,"connected_time":2181000000000,"state":"active","ping":67},{"user_id":547,"name":"my poosy","steam_id":76561198170609049,"connected_time":1479000000000,"state":"active","ping":61},{"user_id":565,"name":"lulu","steam_id":76561199147764133,"connected_time":380000000000,"state":"active","ping":75},{"user_id":561,"name":"69 ME 2NITE","steam_id":76561199124261801,"connected_time":413000000000,"state":"active","ping":103},{"user_id":531,"name":"The SEX Master","steam_id":76561198812424933,"connected_time":2133000000000,"state":"active","ping":59},{"user_id":545,"name":"Los Trollos Hermanos","steam_id":76561198106587395,"connected_time":1551000000000,"state":"active","ping":77},{"user_id":562,"name":"combat collin","steam_id":76561198011450253,"connected_time":411000000000,"state":"active","ping":44},{"user_id":542,"name":"Noosie","steam_id":76561198108612349,"connected_time":1596000000000,"state":"active","ping":68},{"user_id":480,"name":"senior pomidor","steam_id":76561198123659806,"connected_time":4928000000000,"state":"active","ping":101},{"user_id":540,"name":"Egor Pomidor","steam_id":76561199175688390,"connected_time":1783000000000,"state":"active","ping":90},{"user_id":537,"name":"s a i","steam_id":76561197970379754,"connected_time":1978000000000,"state":"active","ping":62},{"user_id":533,"name":"Chambersite","steam_id":76561198197022399,"connected_time":2111000000000,"state":"active","ping":76},{"user_id":563,"name":"randompixel","steam_id":76561198003941207,"connected_time":410000000000,"state":"active","ping":58},{"user_id":523,"name":"Obama Turtle","steam_id":76561199125473062,"connected_time":2345000000000,"state":"active","ping":115},{"user_id":546,"name":"pizzaboob","steam_id":76561198097507847,"connected_time":1547000000000,"state":"active","ping":83},{"user_id":567,"name":"Doctor Rudy G. Numpad","steam_id":76561198440881106,"connected_time":170000000000,"state":"active","ping":90},{"user_id":470,"name":"differential 1-form","steam_id":76561198152138707,"connected_time":5453000000000,"state":"active","ping":55},{"user_id":550,"name":"sethlington14","steam_id":76561199438357690,"connected_time":999000000000,"state":"active","ping":61},{"user_id":555,"name":"Baked Beans","steam_id":76561198070629471,"connected_time":740000000000,"state":"active","ping":135},{"user_id":475,"name":"nagle","steam_id":76561198080379805,"connected_time":5259000000000,"state":"active","ping":52}]},{"server_id":21,"name":"Uncletopia | London | 5 | All Maps","name_short":"lon-5","host":"lon-1.uk.uncletopia.com","port":27055,"enabled":true,"region":"eu","cc":"gb","latitude":51.509865,"longitude":-0.118092,"reserved":0,"last_update":"0001-01-01T00:00:00Z","name_a2s":"Uncletopia | London | 5 | All Maps","protocol":17,"map":"koth_lakeside_final","folder":"tf","game":"Team Fortress","app_id":440,"player_count":24,"max_players":24,"Bots":0,"server_type":"Dedicated","server_os":"Linux","password":true,"vac":true,"version":"7882260","steam_id":85568392924742829,"keywords":["cp","nocrits","nodmgspread","uncletopia"],"game_id":440,"stv_port":27056,"stv_name":"Uncletopia | London | 5 | All Maps | STV","players":[{"user_id":13,"name":"EddieTheBear","steam_id":76561197962698753,"connected_time":3302000000000,"state":"active","ping":76},{"user_id":81,"name":"rev up the bugatti wahey","steam_id":76561198079589665,"connected_time":684000000000,"state":"active","ping":47},{"user_id":14,"name":"DOODL","steam_id":76561198358378176,"connected_time":3290000000000,"state":"active","ping":101},{"user_id":15,"name":"Gardvord","steam_id":76561198120715753,"connected_time":3286000000000,"state":"active","ping":76},{"user_id":16,"name":"Vitgone","steam_id":76561198322880238,"connected_time":3270000000000,"state":"active","ping":79},{"user_id":64,"name":"celt","steam_id":76561198406083426,"connected_time":1702000000000,"state":"active","ping":76},{"user_id":18,"name":"copium addict","steam_id":76561199401665282,"connected_time":3228000000000,"state":"active","ping":104},{"user_id":19,"name":"Tortoise01Swe","steam_id":76561198118673227,"connected_time":3194000000000,"state":"active","ping":85},{"user_id":84,"name":"SpyCrab  Erik Twice","steam_id":76561198009710309,"connected_time":483000000000,"state":"active","ping":60},{"user_id":77,"name":"Yanniki","steam_id":76561197986058110,"connected_time":757000000000,"state":"active","ping":62},{"user_id":82,"name":"Krefa12","steam_id":76561198268375393,"connected_time":613000000000,"state":"active","ping":101},{"user_id":91,"name":"Fridge","steam_id":76561198071665589,"connected_time":23000000000,"state":"active","ping":95},{"user_id":61,"name":"muZ","steam_id":76561198060145190,"connected_time":2105000000000,"state":"active","ping":63},{"user_id":35,"name":"saint","steam_id":76561198171260641,"connected_time":2803000000000,"state":"active","ping":77},{"user_id":26,"name":"Commander Slem","steam_id":76561198064900840,"connected_time":3061000000000,"state":"active","ping":85},{"user_id":54,"name":"Raspberry","steam_id":76561198799259569,"connected_time":2270000000000,"state":"active","ping":45},{"user_id":74,"name":"strohkopf9","steam_id":76561198059349860,"connected_time":982000000000,"state":"active","ping":69},{"user_id":88,"name":"Wyodu","steam_id":76561198406237593,"connected_time":224000000000,"state":"active","ping":72},{"user_id":66,"name":"flub_","steam_id":76561198337519315,"connected_time":1594000000000,"state":"active","ping":42},{"user_id":63,"name":"milk coke","steam_id":76561198122814249,"connected_time":2029000000000,"state":"active","ping":45},{"user_id":90,"name":"dollar foot long","steam_id":76561199250808808,"connected_time":124000000000,"state":"active","ping":82},{"user_id":80,"name":"Ross from F.R.I.E.N.D.S.","steam_id":76561198008511665,"connected_time":702000000000,"state":"active","ping":50},{"user_id":44,"name":"walluu","steam_id":76561198121830870,"connected_time":2568000000000,"state":"active","ping":79},{"user_id":69,"name":"SpilledMilk","steam_id":76561198174123971,"connected_time":1522000000000,"state":"active","ping":58}]},{"server_id":22,"name":"Uncletopia | London | 6 | All Maps","name_short":"lon-6","host":"lon-1.uk.uncletopia.com","port":27065,"enabled":true,"region":"eu","cc":"gb","latitude":51.509865,"longitude":-0.118092,"reserved":0,"last_update":"0001-01-01T00:00:00Z","name_a2s":"Uncletopia | London | 6 | All Maps","protocol":17,"map":"pl_badwater","folder":"tf","game":"Team Fortress","app_id":440,"player_count":7,"max_players":24,"Bots":0,"server_type":"Dedicated","server_os":"Linux","password":true,"vac":true,"version":"7882260","steam_id":85568392924742830,"keywords":["nocrits","nodmgspread","payload","uncletopia"],"game_id":440,"stv_port":27066,"stv_name":"Uncletopia | London | 6 | All Maps | STV","players":[{"user_id":18,"name":"Whaskalmanik","steam_id":76561198014522632,"connected_time":89000000000,"state":"active","ping":73},{"user_id":16,"name":"Truegr","steam_id":76561198811912339,"connected_time":148000000000,"state":"active","ping":56},{"user_id":17,"name":"fried","steam_id":76561198307522022,"connected_time":118000000000,"state":"active","ping":49},{"user_id":19,"name":"sedmihlavek1","steam_id":76561198830699364,"connected_time":80000000000,"state":"active","ping":76},{"user_id":20,"name":"Aly","steam_id":76561198271951717,"connected_time":44000000000,"state":"active","ping":62},{"user_id":21,"name":"Strafely","steam_id":76561199242567438,"connected_time":24000000000,"state":"active","ping":63},{"user_id":22,"name":"B∞p | ❤Fasto❤","steam_id":76561198118298527,"connected_time":8000000000,"state":"spawning","ping":58}]},{"server_id":40,"name":"Uncletopia | London | 7 | No Payload","name_short":"lon-7","host":"lon-1.uk.uncletopia.com","port":27075,"enabled":true,"region":"eu","cc":"gb","latitude":51.509865,"longitude":-0.118092,"reserved":0,"last_update":"0001-01-01T00:00:00Z","name_a2s":"Uncletopia | London | 7 | No Payload","protocol":17,"map":"cp_snakewater_final1","folder":"tf","game":"Team Fortress","app_id":440,"player_count":24,"max_players":24,"Bots":0,"server_type":"Dedicated","server_os":"Linux","password":true,"vac":true,"version":"7882260","steam_id":85568392924964314,"keywords":["cp","nocrits","nodmgspread","uncletopia"],"game_id":440,"stv_port":27076,"stv_name":"Uncletopia | London | 7 | No Payload | STV","players":[{"user_id":277,"name":"Wuli","steam_id":76561198056928284,"connected_time":4526000000000,"state":"active","ping":75},{"user_id":344,"name":"ran is running","steam_id":76561199443185667,"connected_time":964000000000,"state":"active","ping":138},{"user_id":336,"name":"HADID_sex_god","steam_id":76561198302623594,"connected_time":1583000000000,"state":"active","ping":98},{"user_id":195,"name":"Reverie","steam_id":76561198987005784,"connected_time":8348000000000,"state":"active","ping":147},{"user_id":341,"name":"Tea","steam_id":76561198799243030,"connected_time":1146000000000,"state":"active","ping":52},{"user_id":345,"name":"blazeeight","steam_id":76561198159456502,"connected_time":942000000000,"state":"active","ping":74},{"user_id":332,"name":"grip reap3r","steam_id":76561199106399206,"connected_time":1819000000000,"state":"active","ping":34},{"user_id":324,"name":"Diamhair","steam_id":76561198109020178,"connected_time":2148000000000,"state":"active","ping":64},{"user_id":357,"name":"Birb mister","steam_id":76561199207235620,"connected_time":421000000000,"state":"active","ping":62},{"user_id":356,"name":"Our Hero","steam_id":76561198132047538,"connected_time":553000000000,"state":"active","ping":90},{"user_id":316,"name":"XBlueBeam","steam_id":76561199084917373,"connected_time":2783000000000,"state":"active","ping":76},{"user_id":360,"name":"LilithR","steam_id":76561199164255561,"connected_time":56000000000,"state":"active","ping":98},{"user_id":216,"name":"Envy","steam_id":76561198132723219,"connected_time":7479000000000,"state":"active","ping":106},{"user_id":347,"name":"glyph","steam_id":76561197980736364,"connected_time":905000000000,"state":"active","ping":79},{"user_id":312,"name":"joethefool","steam_id":76561199015436319,"connected_time":2852000000000,"state":"active","ping":116},{"user_id":321,"name":"IndigoJones","steam_id":76561198050284262,"connected_time":2235000000000,"state":"active","ping":54},{"user_id":343,"name":"Exe_Red","steam_id":76561198154952759,"connected_time":1064000000000,"state":"active","ping":135},{"user_id":307,"name":"TylowStar","steam_id":76561198357107806,"connected_time":3055000000000,"state":"active","ping":72},{"user_id":342,"name":"_⁧⁧NxtPerfect","steam_id":76561198265938609,"connected_time":1091000000000,"state":"active","ping":90},{"user_id":350,"name":"червяк","steam_id":76561199231855641,"connected_time":844000000000,"state":"active","ping":117},{"user_id":359,"name":"DiscoTraveler","steam_id":76561199240168088,"connected_time":110000000000,"state":"active","ping":128},{"user_id":348,"name":"DarthPaul8181","steam_id":76561198373050455,"connected_time":898000000000,"state":"active","ping":48},{"user_id":352,"name":"Subterranean","steam_id":76561198106684566,"connected_time":777000000000,"state":"active","ping":83},{"user_id":237,"name":"Providence","steam_id":76561198003920270,"connected_time":6676000000000,"state":"active","ping":69}]},{"server_id":41,"name":"Uncletopia | London | 8 | Community","name_short":"lon-8","host":"lon-1.uk.uncletopia.com","port":27085,"enabled":true,"region":"eu","cc":"gb","latitude":51.509865,"longitude":-0.118092,"reserved":0,"last_update":"0001-01-01T00:00:00Z","name_a2s":"Uncletopia | London | 8 | Community","protocol":17,"map":"workshop/rd_asteroid_redux_b1.ugc2154902912","folder":"tf","game":"Team Fortress","app_id":440,"player_count":1,"max_players":24,"Bots":0,"server_type":"Dedicated","server_os":"Linux","password":true,"vac":true,"version":"7882260","steam_id":85568392924964315,"keywords":["beta","nocrits","nodmgspread","rd","uncletopia"],"game_id":440,"stv_port":27086,"stv_name":"Uncletopia | London | 8 | Community | STV","players":[{"user_id":18,"name":"Some Guy","steam_id":76561198137335527,"connected_time":60000000000,"state":"active","ping":51}]},{"server_id":300,"name":"Uncletopia | Montréal | 1 | All Maps","name_short":"mtl-1","host":"mtl-1.ca.uncletopia.com","port":27015,"enabled":true,"region":"us-east","cc":"ca","latitude":45.50889,"longitude":-73.56167,"reserved":0,"last_update":"0001-01-01T00:00:00Z","name_a2s":"Uncletopia | Montréal | 1 | All Maps","protocol":17,"map":"pl_snowycoast","folder":"tf","game":"Team Fortress","app_id":440,"player_count":0,"max_players":24,"Bots":0,"server_type":"Dedicated","server_os":"Linux","password":true,"vac":true,"version":"7882260","steam_id":85568392924500087,"keywords":["nocrits","nodmgspread","payload","uncletopia"],"game_id":440,"stv_port":27016,"stv_name":"Uncletopia | Montréal | 1 | All Maps | STV","players":null},{"server_id":301,"name":"Uncletopia | Montréal | 2 | All Maps","name_short":"mtl-2","host":"mtl-1.ca.uncletopia.com","port":27025,"enabled":true,"region":"us-east","cc":"ca","latitude":45.50889,"longitude":-73.56167,"reserved":0,"last_update":"0001-01-01T00:00:00Z","name_a2s":"Uncletopia | Montréal | 2 | All Maps","protocol":17,"map":"cp_sunshine","folder":"tf","game":"Team Fortress","app_id":440,"player_count":0,"max_players":24,"Bots":0,"server_type":"Dedicated","server_os":"Linux","password":true,"vac":true,"version":"7882260","steam_id":85568392924500088,"keywords":["cp","nocrits","nodmgspread","uncletopia"],"game_id":440,"stv_port":27026,"stv_name":"Uncletopia | Montréal | 2 | All Maps | STV","players":null},{"server_id":302,"name":"Uncletopia | Montréal | 3 | All Maps","name_short":"mtl-3","host":"mtl-1.ca.uncletopia.com","port":27035,"enabled":true,"region":"us-east","cc":"ca","latitude":45.50889,"longitude":-73.56167,"reserved":0,"last_update":"0001-01-01T00:00:00Z","name_a2s":"Uncletopia | Montréal | 3 | All Maps","protocol":17,"map":"pl_borneo","folder":"tf","game":"Team Fortress","app_id":440,"player_count":0,"max_players":24,"Bots":0,"server_type":"Dedicated","server_os":"Linux","password":true,"vac":true,"version":"7882260","steam_id":85568392924500089,"keywords":["nocrits","nodmgspread","payload","uncletopia"],"game_id":440,"stv_port":27036,"stv_name":"Uncletopia | Montréal | 3 | All Maps | STV","players":null},{"server_id":303,"name":"Uncletopia | Montréal | 4 | No Payload","name_short":"mtl-4","host":"mtl-1.ca.uncletopia.com","port":27045,"enabled":true,"region":"us-east","cc":"ca","latitude":45.50889,"longitude":-73.56167,"reserved":0,"last_update":"0001-01-01T00:00:00Z","name_a2s":"Uncletopia | Montréal | 4 | No Payload","protocol":17,"map":"cp_altitude","folder":"tf","game":"Team Fortress","app_id":440,"player_count":0,"max_players":24,"Bots":0,"server_type":"Dedicated","server_os":"Linux","password":true,"vac":true,"version":"7882260","steam_id":85568392924500090,"keywords":["cp","nocrits","nodmgspread","uncletopia"],"game_id":440,"stv_port":27046,"stv_name":"Uncletopia | Montréal | 4 | No Payload | STV","players":null},{"server_id":13,"name":"Uncletopia | New York City | 1 | All Maps","name_short":"nyc-1","host":"nyc-1.us.uncletopia.com","port":27015,"enabled":true,"region":"us-east","cc":"us","latitude":40.73061,"longitude":-73.93524,"reserved":0,"last_update":"0001-01-01T00:00:00Z","name_a2s":"Uncletopia | New York City | 1 | All Maps","protocol":17,"map":"pl_upward","folder":"tf","game":"Team Fortress","app_id":440,"player_count":24,"max_players":24,"Bots":0,"server_type":"Dedicated","server_os":"Linux","password":true,"vac":true,"version":"7882260","steam_id":85568392924469993,"keywords":["nocrits","nodmgspread","payload","uncletopia"],"game_id":440,"stv_port":27016,"stv_name":"Uncletopia | New York City | 1 | All Maps | STV","players":[{"user_id":91,"name":"Flak Maniak","steam_id":76561198005653808,"connected_time":668000000000,"state":"active","ping":56},{"user_id":97,"name":"Uncasual Crusader","steam_id":76561198167004125,"connected_time":430000000000,"state":"active","ping":144},{"user_id":22,"name":"Bottom-Fragging Dog Witch","steam_id":76561198103496593,"connected_time":4981000000000,"state":"active","ping":61},{"user_id":50,"name":"HOT SOUP","steam_id":76561199077389918,"connected_time":3703000000000,"state":"active","ping":48},{"user_id":72,"name":"Cassini-Huygens","steam_id":76561198152673510,"connected_time":1962000000000,"state":"active","ping":75},{"user_id":65,"name":"The Loveable CHI.I.BI.","steam_id":76561198039262228,"connected_time":2958000000000,"state":"active","ping":75},{"user_id":96,"name":"majorbobfunction","steam_id":76561198042464632,"connected_time":451000000000,"state":"active","ping":66},{"user_id":75,"name":"Gaskranx","steam_id":76561198020269547,"connected_time":1804000000000,"state":"active","ping":55},{"user_id":19,"name":"TrashMann","steam_id":76561198040969743,"connected_time":5145000000000,"state":"active","ping":70},{"user_id":98,"name":"Toxic","steam_id":76561198262455958,"connected_time":421000000000,"state":"active","ping":48},{"user_id":87,"name":"Mrs.Frizzle","steam_id":76561198117157085,"connected_time":1024000000000,"state":"active","ping":60},{"user_id":95,"name":"brett","steam_id":76561198799740059,"connected_time":453000000000,"state":"active","ping":59},{"user_id":101,"name":"SantaMuerte","steam_id":76561198039898148,"connected_time":254000000000,"state":"active","ping":74},{"user_id":103,"name":"drooskie","steam_id":76561198036083886,"connected_time":219000000000,"state":"active","ping":67},{"user_id":88,"name":"Uncle Majic the Hip Hop Magicia","steam_id":76561198107924303,"connected_time":1016000000000,"state":"active","ping":34},{"user_id":81,"name":"STEVE","steam_id":76561198063475894,"connected_time":1376000000000,"state":"active","ping":64},{"user_id":104,"name":"J21","steam_id":76561198066590783,"connected_time":216000000000,"state":"active","ping":62},{"user_id":53,"name":"abed","steam_id":76561198072856511,"connected_time":3340000000000,"state":"active","ping":68},{"user_id":36,"name":"ror!","steam_id":76561198021227843,"connected_time":4539000000000,"state":"active","ping":73},{"user_id":89,"name":"sonic1394","steam_id":76561198054636788,"connected_time":966000000000,"state":"active","ping":72},{"user_id":82,"name":"Liquid Rage","steam_id":76561198797597686,"connected_time":1343000000000,"state":"active","ping":85},{"user_id":64,"name":"johnson exam","steam_id":76561198838784551,"connected_time":2991000000000,"state":"active","ping":77},{"user_id":92,"name":"Kritzburgh","steam_id":76561198149466938,"connected_time":546000000000,"state":"active","ping":53},{"user_id":94,"name":"Krellah","steam_id":76561198287045069,"connected_time":526000000000,"state":"active","ping":92}]},{"server_id":14,"name":"Uncletopia | New York City | 2 | All Maps","name_short":"nyc-2","host":"nyc-1.us.uncletopia.com","port":27025,"enabled":true,"region":"us-east","cc":"us","latitude":40.73061,"longitude":-73.93524,"reserved":0,"last_update":"0001-01-01T00:00:00Z","name_a2s":"Uncletopia | New York City | 2 | All Maps","protocol":17,"map":"pl_swiftwater_final1","folder":"tf","game":"Team Fortress","app_id":440,"player_count":1,"max_players":24,"Bots":0,"server_type":"Dedicated","server_os":"Linux","password":true,"vac":true,"version":"7882260","steam_id":85568392924469994,"keywords":["nocrits","nodmgspread","payload","uncletopia"],"game_id":440,"stv_port":27026,"stv_name":"Uncletopia | New York City | 2 | All Maps | STV","players":[{"user_id":7,"name":"palpatine","steam_id":76561199072907445,"connected_time":315000000000,"state":"active","ping":110}]},{"server_id":15,"name":"Uncletopia | New York City | 3 | Stopwatch Beta","name_short":"nyc-3","host":"nyc-1.us.uncletopia.com","port":27035,"enabled":true,"region":"us-east","cc":"us","latitude":40.73061,"longitude":-73.93524,"reserved":0,"last_update":"0001-01-01T00:00:00Z","name_a2s":"Uncletopia | New York City | 3 | Stopwatch Beta","protocol":17,"map":"cp_sunshine","folder":"tf","game":"Team Fortress","app_id":440,"player_count":0,"max_players":24,"Bots":0,"server_type":"Dedicated","server_os":"Linux","password":true,"vac":true,"version":"7882260","steam_id":85568392924742820,"keywords":["cp","nocrits","nodmgspread","uncletopia"],"game_id":440,"stv_port":27036,"stv_name":"Uncletopia | New York City | 3 | Stopwatch Beta | STV","players":null},{"server_id":16,"name":"Uncletopia | New York City | 4 | Community","name_short":"nyc-4","host":"nyc-1.us.uncletopia.com","port":27045,"enabled":true,"region":"us-east","cc":"us","latitude":40.73061,"longitude":-73.93524,"reserved":0,"last_update":"0001-01-01T00:00:00Z","name_a2s":"Uncletopia | New York City | 4 | Community","protocol":17,"map":"pl_badwater","folder":"tf","game":"Team Fortress","app_id":440,"player_count":0,"max_players":24,"Bots":0,"server_type":"Dedicated","server_os":"Linux","password":true,"vac":true,"version":"7882260","steam_id":85568392924742821,"keywords":["nocrits","nodmgspread","payload","uncletopia"],"game_id":440,"stv_port":27046,"stv_name":"Uncletopia | New York City | 4 | Community | STV","players":null},{"server_id":142,"name":"Uncletopia | São Paulo | 1 | All Maps","name_short":"sao-1","host":"sao-1.br.uncletopia.com","port":27015,"enabled":true,"region":"sa","cc":"br","latitude":-23.533773,"longitude":-46.62529,"reserved":0,"last_update":"0001-01-01T00:00:00Z","name_a2s":"Uncletopia | São Paulo | 1 | All Maps","protocol":17,"map":"pl_swiftwater_final1","folder":"tf","game":"Team Fortress","app_id":440,"player_count":0,"max_players":24,"Bots":0,"server_type":"Dedicated","server_os":"Linux","password":true,"vac":true,"version":"7882260","steam_id":85568392924469996,"keywords":["nocrits","nodmgspread","payload","uncletopia"],"game_id":440,"stv_port":27016,"stv_name":"Uncletopia | São Paulo | 1 | All Maps | STV","players":null},{"server_id":143,"name":"Uncletopia | São Paulo | 2 | All Maps","name_short":"sao-2","host":"sao-2.br.uncletopia.com","port":27015,"enabled":true,"region":"sa","cc":"br","latitude":-23.533773,"longitude":-46.62529,"reserved":0,"last_update":"0001-01-01T00:00:00Z","name_a2s":"Uncletopia | São Paulo | 2 | All Maps","protocol":17,"map":"pl_frontier_final","folder":"tf","game":"Team Fortress","app_id":440,"player_count":0,"max_players":24,"Bots":0,"server_type":"Dedicated","server_os":"Linux","password":true,"vac":true,"version":"7882260","steam_id":85568392924485349,"keywords":["nocrits","nodmgspread","payload","uncletopia"],"game_id":440,"stv_port":27016,"stv_name":"Uncletopia | São Paulo | 2 | All Maps | STV","players":null},{"server_id":7,"name":"Uncletopia | Seattle | 1 | All Maps","name_short":"sea-1","host":"sea-1.us.uncletopia.com","port":27015,"enabled":true,"region":"us-west","cc":"us","latitude":47.608013,"longitude":-122.33517,"reserved":0,"last_update":"0001-01-01T00:00:00Z","name_a2s":"Uncletopia | Seattle | 1 | All Maps","protocol":17,"map":"pl_snowycoast","folder":"tf","game":"Team Fortress","app_id":440,"player_count":24,"max_players":24,"Bots":0,"server_type":"Dedicated","server_os":"Linux","password":true,"vac":true,"version":"7882260","steam_id":85568392924469997,"keywords":["nocrits","nodmgspread","payload","uncletopia"],"game_id":440,"stv_port":27016,"stv_name":"Uncletopia | Seattle | 1 | All Maps | STV","players":[{"user_id":16,"name":"Lazy","steam_id":76561198802747832,"connected_time":6984000000000,"state":"active","ping":49},{"user_id":98,"name":"Greg","steam_id":76561198155234670,"connected_time":1432000000000,"state":"active","ping":100},{"user_id":107,"name":"A Can of Arizona Green Tea","steam_id":76561198062481133,"connected_time":765000000000,"state":"active","ping":86},{"user_id":100,"name":"son","steam_id":76561199199143812,"connected_time":1224000000000,"state":"active","ping":89},{"user_id":38,"name":"Surfing Garchomp","steam_id":76561199107236884,"connected_time":5996000000000,"state":"active","ping":64},{"user_id":77,"name":"cirmona tuwoka","steam_id":76561198213385439,"connected_time":3719000000000,"state":"active","ping":71},{"user_id":111,"name":"Indigolake","steam_id":76561198202215807,"connected_time":468000000000,"state":"active","ping":139},{"user_id":91,"name":"resting neutral face","steam_id":76561197999259502,"connected_time":1804000000000,"state":"active","ping":60},{"user_id":120,"name":"AmiableNebula","steam_id":76561198094306627,"connected_time":215000000000,"state":"active","ping":73},{"user_id":94,"name":"oinkpig234","steam_id":76561198883733811,"connected_time":1594000000000,"state":"active","ping":116},{"user_id":87,"name":"Delicate Steve","steam_id":76561198063582381,"connected_time":2058000000000,"state":"active","ping":71},{"user_id":82,"name":"Tyler\u0026Fingers","steam_id":76561198085154485,"connected_time":2554000000000,"state":"active","ping":137},{"user_id":95,"name":"Flesh Eating Turtle","steam_id":76561198116742139,"connected_time":1592000000000,"state":"active","ping":56},{"user_id":117,"name":"SibilantSerpent","steam_id":76561198154488754,"connected_time":377000000000,"state":"active","ping":56},{"user_id":112,"name":"McSpazatron","steam_id":76561198955942148,"connected_time":465000000000,"state":"active","ping":88},{"user_id":68,"name":"Mignyanne :3","steam_id":76561198048754056,"connected_time":4576000000000,"state":"active","ping":69},{"user_id":64,"name":"🅜🅔🅔🅚🅢🅣🅔\ufffd\ufffd\ufffd","steam_id":76561197999748343,"connected_time":4986000000000,"state":"active","ping":98},{"user_id":96,"name":"Blitzy","steam_id":76561198149472890,"connected_time":1526000000000,"state":"active","ping":61},{"user_id":103,"name":"roach","steam_id":76561198354811369,"connected_time":1083000000000,"state":"active","ping":79},{"user_id":81,"name":"Sir Coreden","steam_id":76561198008430589,"connected_time":3236000000000,"state":"active","ping":100},{"user_id":110,"name":"Tibetan Pop Star","steam_id":76561198844903984,"connected_time":508000000000,"state":"active","ping":84},{"user_id":121,"name":"jayeskae","steam_id":76561198144220801,"connected_time":124000000000,"state":"active","ping":51},{"user_id":109,"name":"purple escape","steam_id":76561197997100185,"connected_time":718000000000,"state":"active","ping":83},{"user_id":80,"name":"Femboi Fox","steam_id":76561198915758702,"connected_time":3582000000000,"state":"active","ping":60}]},{"server_id":119,"name":"Uncletopia | Seattle | 2 | All Maps","name_short":"sea-2","host":"sea-1.us.uncletopia.com","port":27025,"enabled":true,"region":"us-west","cc":"us","latitude":47.608013,"longitude":-122.33517,"reserved":0,"last_update":"0001-01-01T00:00:00Z","name_a2s":"Uncletopia | Seattle | 2 | All Maps","protocol":17,"map":"koth_highpass","folder":"tf","game":"Team Fortress","app_id":440,"player_count":0,"max_players":24,"Bots":0,"server_type":"Dedicated","server_os":"Linux","password":true,"vac":true,"version":"7882260","steam_id":85568392924469998,"keywords":["cp","nocrits","nodmgspread","uncletopia"],"game_id":440,"stv_port":27026,"stv_name":"Uncletopia | Seattle | 2 | All Maps | STV","players":null},{"server_id":406,"name":"Uncletopia | Seattle | 3 | Stopwatch Beta","name_short":"sea-3","host":"sea-1.us.uncletopia.com","port":27035,"enabled":true,"region":"us-west","cc":"us","latitude":47.608013,"longitude":-122.33517,"reserved":0,"last_update":"0001-01-01T00:00:00Z","name_a2s":"Uncletopia | Seattle | 3 | Stopwatch Beta","protocol":17,"map":"cp_mountainlab","folder":"tf","game":"Team Fortress","app_id":440,"player_count":0,"max_players":24,"Bots":0,"server_type":"Dedicated","server_os":"Linux","password":true,"vac":true,"version":"7882260","steam_id":85568392924515217,"keywords":["cp","nocrits","nodmgspread","uncletopia"],"game_id":440,"stv_port":27036,"stv_name":"Uncletopia | Seattle | 3 | Stopwatch Beta | STV","players":null},{"server_id":17,"name":"Uncletopia | San Francisco | 1 | All Maps","name_short":"sfo-1","host":"sfo-1.us.uncletopia.com","port":27015,"enabled":true,"region":"us-west","cc":"us","latitude":37.77397,"longitude":-122.4313,"reserved":0,"last_update":"0001-01-01T00:00:00Z","name_a2s":"Uncletopia | San Francisco | 1 | All Maps","protocol":17,"map":"cp_process_final","folder":"tf","game":"Team Fortress","app_id":440,"player_count":0,"max_players":24,"Bots":0,"server_type":"Dedicated","server_os":"Linux","password":true,"vac":true,"version":"7757534","steam_id":85568392924469999,"keywords":["cp","nocrits","nodmgspread","uncletopia"],"game_id":440,"stv_port":27016,"stv_name":"Uncletopia | San Francisco | 1 | All Maps | STV","players":null},{"server_id":18,"name":"Uncletopia | San Francisco | 2 | All Maps","name_short":"sfo-2","host":"sfo-1.us.uncletopia.com","port":27025,"enabled":true,"region":"us-west","cc":"us","latitude":37.77397,"longitude":-122.4313,"reserved":0,"last_update":"0001-01-01T00:00:00Z","name_a2s":"Uncletopia | San Francisco | 2 | All Maps","protocol":17,"map":"koth_highpass","folder":"tf","game":"Team Fortress","app_id":440,"player_count":0,"max_players":24,"Bots":0,"server_type":"Dedicated","server_os":"Linux","password":true,"vac":true,"version":"7757534","steam_id":85568392924470000,"keywords":["cp","nocrits","nodmgspread","uncletopia"],"game_id":440,"stv_port":27026,"stv_name":"Uncletopia | San Francisco | 2 | All Maps | STV","players":null},{"server_id":19,"name":"Uncletopia | San Francisco | 3 | Stopwatch Beta","name_short":"sfo-3","host":"sfo-1.us.uncletopia.com","port":27035,"enabled":true,"region":"us-west","cc":"us","latitude":37.77397,"longitude":-122.4313,"reserved":0,"last_update":"0001-01-01T00:00:00Z","name_a2s":"Uncletopia | San Francisco | 3 | Stopwatch Beta","protocol":17,"map":"koth_lakeside_final","folder":"tf","game":"Team Fortress","app_id":440,"player_count":0,"max_players":24,"Bots":0,"server_type":"Dedicated","server_os":"Linux","password":true,"vac":true,"version":"7757534","steam_id":85568392924742824,"keywords":["cp","nocrits","nodmgspread","uncletopia"],"game_id":440,"stv_port":27036,"stv_name":"Uncletopia | San Francisco | 3 | Stopwatch Beta | STV","players":null},{"server_id":20,"name":"Uncletopia | San Francisco | 4 | Community","name_short":"sfo-4","host":"sfo-1.us.uncletopia.com","port":27045,"enabled":true,"region":"us-west","cc":"us","latitude":37.77397,"longitude":-122.4313,"reserved":0,"last_update":"0001-01-01T00:00:00Z","name_a2s":"Uncletopia | San Francisco | 4 | Community","protocol":17,"map":"cp_altitude","folder":"tf","game":"Team Fortress","app_id":440,"player_count":0,"max_players":24,"Bots":0,"server_type":"Dedicated","server_os":"Linux","password":true,"vac":true,"version":"7757534","steam_id":85568392924742826,"keywords":["cp","nocrits","nodmgspread","uncletopia"],"game_id":440,"stv_port":27046,"stv_name":"Uncletopia | San Francisco | 4 | Community | STV","players":null},{"server_id":141,"name":"Uncletopia | Sydney | 1 | All Maps","name_short":"syd-1","host":"syd-1.au.uncletopia.com","port":27015,"enabled":true,"region":"au","cc":"au","latitude":-33.865143,"longitude":151.2099,"reserved":0,"last_update":"0001-01-01T00:00:00Z","name_a2s":"Uncletopia | Sydney | 1 | All Maps","protocol":17,"map":"cp_snakewater_final1","folder":"tf","game":"Team Fortress","app_id":440,"player_count":0,"max_players":24,"Bots":0,"server_type":"Dedicated","server_os":"Linux","password":true,"vac":true,"version":"7882260","steam_id":85568392924470001,"keywords":["cp","nocrits","nodmgspread","uncletopia"],"game_id":440,"stv_port":27016,"stv_name":"Uncletopia | Sydney | 1 | All Maps | STV","players":null},{"server_id":123,"name":"Uncletopia | Sydney | 2 | All Maps","name_short":"syd-2","host":"syd-1.au.uncletopia.com","port":27025,"enabled":true,"region":"au","cc":"au","latitude":-33.865143,"longitude":151.2099,"reserved":0,"last_update":"0001-01-01T00:00:00Z","name_a2s":"Uncletopia | Sydney | 2 | All Maps","protocol":17,"map":"pl_barnblitz","folder":"tf","game":"Team Fortress","app_id":440,"player_count":0,"max_players":24,"Bots":0,"server_type":"Dedicated","server_os":"Linux","password":true,"vac":true,"version":"7882260","steam_id":85568392924470002,"keywords":["nocrits","nodmgspread","payload","uncletopia"],"game_id":440,"stv_port":27026,"stv_name":"Uncletopia | Sydney | 2 | All Maps | STV","players":null},{"server_id":395,"name":"Uncletopia | Sydney | 3 | All Maps","name_short":"syd-3","host":"syd-1.au.uncletopia.com","port":27035,"enabled":true,"region":"au","cc":"au","latitude":-33.865143,"longitude":151.2099,"reserved":0,"last_update":"0001-01-01T00:00:00Z","name_a2s":"Uncletopia | Sydney | 3 | All Maps","protocol":17,"map":"pl_badwater","folder":"tf","game":"Team Fortress","app_id":440,"player_count":0,"max_players":24,"Bots":0,"server_type":"Dedicated","server_os":"Linux","password":true,"vac":true,"version":"7882260","steam_id":85568392925194467,"keywords":["nocrits","nodmgspread","payload","uncletopia"],"game_id":440,"stv_port":27036,"stv_name":"Uncletopia | Sydney | 3 | All Maps | STV","players":null},{"server_id":396,"name":"Uncletopia | Sydney | 4 | All Maps","name_short":"syd-4","host":"syd-1.au.uncletopia.com","port":27045,"enabled":true,"region":"au","cc":"au","latitude":-33.865143,"longitude":151.2099,"reserved":0,"last_update":"0001-01-01T00:00:00Z","name_a2s":"Uncletopia | Sydney | 4 | All Maps","protocol":17,"map":"cp_dustbowl","folder":"tf","game":"Team Fortress","app_id":440,"player_count":0,"max_players":24,"Bots":0,"server_type":"Dedicated","server_os":"Linux","password":true,"vac":true,"version":"7882260","steam_id":85568392925397958,"keywords":["cp","nocrits","nodmgspread","uncletopia"],"game_id":440,"stv_port":27046,"stv_name":"Uncletopia | Sydney | 4 | All Maps | STV","players":null},{"server_id":58,"name":"Uncletopia | Sydney | 5 | Stopwatch Beta","name_short":"syd-5","host":"syd-1.au.uncletopia.com","port":27055,"enabled":true,"region":"au","cc":"au","latitude":-33.865143,"longitude":151.2099,"reserved":0,"last_update":"0001-01-01T00:00:00Z","name_a2s":"Uncletopia | Sydney | 5 | Stopwatch Beta","protocol":17,"map":"cp_snakewater_final1","folder":"tf","game":"Team Fortress","app_id":440,"player_count":0,"max_players":24,"Bots":0,"server_type":"Dedicated","server_os":"Linux","password":true,"vac":true,"version":"7882260","steam_id":85568392925397959,"keywords":["cp","nocrits","nodmgspread","uncletopia"],"game_id":440,"stv_port":27056,"stv_name":"Uncletopia | Sydney | 5 | Stopwatch Beta | STV","players":null},{"server_id":59,"name":"Uncletopia | Sydney | 6 | Community","name_short":"syd-6","host":"syd-1.au.uncletopia.com","port":27065,"enabled":true,"region":"au","cc":"au","latitude":-33.865143,"longitude":151.2099,"reserved":0,"last_update":"0001-01-01T00:00:00Z","name_a2s":"Uncletopia | Sydney | 6 | Community","protocol":17,"map":"pl_snowycoast","folder":"tf","game":"Team Fortress","app_id":440,"player_count":0,"max_players":24,"Bots":0,"server_type":"Dedicated","server_os":"Linux","password":true,"vac":true,"version":"7882260","steam_id":85568392925397960,"keywords":["nocrits","nodmgspread","payload","uncletopia"],"game_id":440,"stv_port":27066,"stv_name":"Uncletopia | Sydney | 6 | Community | STV","players":null},{"server_id":49,"name":"Uncletopia | Warsaw | 1 | All Maps","name_short":"waw-1","host":"waw-1.pl.uncletopia.com","port":27015,"enabled":true,"region":"eu","cc":"pl","latitude":52.2297,"longitude":21.017532,"reserved":0,"last_update":"0001-01-01T00:00:00Z","name_a2s":"","protocol":0,"map":"","folder":"","game":"","app_id":0,"player_count":0,"max_players":0,"Bots":0,"server_type":"","server_os":"","password":false,"vac":false,"version":"","steam_id":0,"keywords":null,"game_id":0,"stv_port":0,"stv_name":"","players":null},{"server_id":50,"name":"Uncletopia | Warsaw | 2 | All Maps","name_short":"waw-2","host":"waw-1.pl.uncletopia.com","port":27025,"enabled":true,"region":"eu","cc":"pl","latitude":52.2297,"longitude":21.017532,"reserved":0,"last_update":"0001-01-01T00:00:00Z","name_a2s":"Uncletopia | Warsaw | 2 | All Maps","protocol":17,"map":"koth_lakeside_final","folder":"tf","game":"Team Fortress","app_id":440,"player_count":0,"max_players":24,"Bots":0,"server_type":"Dedicated","server_os":"Linux","password":true,"vac":true,"version":"7882260","steam_id":85568392925397851,"keywords":["cp","nocrits","nodmgspread","uncletopia"],"game_id":440,"stv_port":27026,"stv_name":"Uncletopia | Warsaw | 2 | All Maps | STV","players":null},{"server_id":51,"name":"Uncletopia | Warsaw | 3 | All Maps","name_short":"waw-3","host":"waw-1.pl.uncletopia.com","port":27035,"enabled":true,"region":"eu","cc":"pl","latitude":52.2297,"longitude":21.017532,"reserved":0,"last_update":"0001-01-01T00:00:00Z","name_a2s":"Uncletopia | Warsaw | 3 | All Maps","protocol":17,"map":"koth_viaduct","folder":"tf","game":"Team Fortress","app_id":440,"player_count":0,"max_players":24,"Bots":0,"server_type":"Dedicated","server_os":"Linux","password":true,"vac":true,"version":"7882260","steam_id":85568392925397852,"keywords":["cp","nocrits","nodmgspread","uncletopia"],"game_id":440,"stv_port":27036,"stv_name":"Uncletopia | Warsaw | 3 | All Maps | STV","players":null},{"server_id":52,"name":"Uncletopia | Warsaw | 4 | All Maps","name_short":"waw-4","host":"waw-1.pl.uncletopia.com","port":27045,"enabled":true,"region":"eu","cc":"pl","latitude":52.2297,"longitude":21.017532,"reserved":0,"last_update":"0001-01-01T00:00:00Z","name_a2s":"Uncletopia | Warsaw | 4 | All Maps","protocol":17,"map":"koth_highpass","folder":"tf","game":"Team Fortress","app_id":440,"player_count":0,"max_players":24,"Bots":0,"server_type":"Dedicated","server_os":"Linux","password":true,"vac":true,"version":"7882260","steam_id":85568392925397853,"keywords":["cp","nocrits","nodmgspread","uncletopia"],"game_id":440,"stv_port":27046,"stv_name":"Uncletopia | Warsaw | 4 | All Maps | STV","players":null},{"server_id":53,"name":"Uncletopia | Warsaw | 5 | Stopwatch Beta","name_short":"waw-5","host":"waw-1.pl.uncletopia.com","port":27055,"enabled":true,"region":"eu","cc":"pl","latitude":52.2297,"longitude":21.017532,"reserved":0,"last_update":"0001-01-01T00:00:00Z","name_a2s":"Uncletopia | Warsaw | 5 | Stopwatch Beta","protocol":17,"map":"cp_mountainlab","folder":"tf","game":"Team Fortress","app_id":440,"player_count":0,"max_players":24,"Bots":0,"server_type":"Dedicated","server_os":"Linux","password":true,"vac":true,"version":"7882260","steam_id":85568392925397854,"keywords":["cp","nocrits","nodmgspread","uncletopia"],"game_id":440,"stv_port":27056,"stv_name":"Uncletopia | Warsaw | 5 | Stopwatch Beta | STV","players":null},{"server_id":54,"name":"Uncletopia | Warsaw | 6 | Community","name_short":"waw-6","host":"waw-1.pl.uncletopia.com","port":27065,"enabled":true,"region":"eu","cc":"pl","latitude":52.2297,"longitude":21.017532,"reserved":0,"last_update":"0001-01-01T00:00:00Z","name_a2s":"Uncletopia | Warsaw | 6 | Community","protocol":17,"map":"koth_viaduct","folder":"tf","game":"Team Fortress","app_id":440,"player_count":0,"max_players":24,"Bots":0,"server_type":"Dedicated","server_os":"Linux","password":true,"vac":true,"version":"7882260","steam_id":85568392925397856,"keywords":["cp","nocrits","nodmgspread","uncletopia"],"game_id":440,"stv_port":27066,"stv_name":"Uncletopia | Warsaw | 6 | Community | STV","players":null}]}