{"status":true,"message":"","result":[{"server_id":9,"name":"Uncletopia | Atlanta | 1 | All Maps","name_short":"atl-1","host":"atl-1.us.uncletopia.com","port":27015,"enabled":true,"region":"us-east","cc":"us","latitude":33.753746,"longitude":-84.38633,"reserved":0,"last_update":"0001-01-01T00:00:00Z","name_a2s":"Uncletopia | Atlanta | 1 | All Maps","protocol":17,"map":"pl_snowycoast","folder":"tf","game":"Team Fortress","app_id":440,"player_count":24,"max_players":24,"Bots":0,"server_type":"Dedicated","server_os":"Linux","password":true,"vac":true,"version":"7757534","steam_id":85568392924469982,"keywords":["nocrits","nodmgspread","payload","uncletopia"],"game_id":440,"stv_port":27016,"stv_name":"Uncletopia | Atlanta | 1 | All Maps | STV","players":[{"user_id":541,"name":"nomad","steam_id":76561197998740399,"connected_time":11815000000000,"state":"active","ping":66},{"user_id":655,"name":"psy","steam_id":76561198013195018,"connected_time":876000000000,"state":"active","ping":86},{"user_id":660,"name":"Marlboro Menthol 100s","steam_id":76561198263631055,"connected_time":331000000000,"state":"active","ping":46},{"user_id":332,"name":"eish","steam_id":76561198089463603,"connected_time":29192000000000,"state":"active","ping":118},{"user_id":631,"name":"Onyx","steam_id":76561198275349640,"connected_time":4761000000000,"state":"active","ping":75},{"user_id":626,"name":"fitotutus","steam_id":76561197974993253,"connected_time":5267000000000,"state":"active","ping":92},{"user_id":653,"name":"Raine","steam_id":76561198098860903,"connected_time":1150000000000,"state":"active","ping":159},{"user_id":648,"name":"hapi bananuh","steam_id":76561198091547092,"connected_time":1691000000000,"state":"active","ping":49},{"user_id":661,"name":"Chef","steam_id":76561198086523798,"connected_time":311000000000,"state":"active","ping":52},{"user_id":640,"name":"Sophie","steam_id":76561198170408057,"connected_time":3251000000000,"state":"active","ping":52},{"user_id":639,"name":"FemboyNate","steam_id":76561198146636410,"connected_time":3263000000000,"state":"active","ping":59},{"user_id":645,"name":"rose","steam_id":76561198048882285,"connected_time":1833000000000,"state":"active","ping":60},{"user_id":642,"name":"Mage","steam_id":76561198285026879,"connected_time":2228000000000,"state":"active","ping":83},{"user_id":641,"name":"Toonice","steam_id":76561198402994885,"connected_time":2744000000000,"state":"active","ping":86},{"user_id":610,"name":"BIG HOG","steam_id":76561198079923652,"connected_time":6686000000000,"state":"active","ping":75},{"user_id":634,"name":"morphine","steam_id":76561198072124799,"connected_time":4122000000000,"state":"active","ping":98},{"user_id":659,"name":"ARegularJohnDoe","steam_id":76561198015020139,"connected_time":521000000000,"state":"active","ping":60},{"user_id":643,"name":"p4ka","steam_id":76561198315291317,"connected_time":2146000000000,"state":"active","ping":77},{"user_id":646,"name":"Gichael","steam_id":76561198040602075,"connected_time":1807000000000,"state":"active","ping":85},{"user_id":657,"name":"troll","steam_id":76561198040890252,"connected_time":802000000000,"state":"active","ping":55},{"user_id":611,"name":"lil hog","steam_id":76561199230929836,"connected_time":6521000000000,"state":"active","ping":84},{"user_id":654,"name":"KBoneski ‚ô°","steam_id":76561198307409065,"connected_time":1130000000000,"state":"active","ping":106},{"user_id":658,"name":"Peppino","steam_id":76561199468131065,"connected_time":800000000000,"state":"active","ping":70},{"user_id":603,"name":"David De Bergerac","steam_id":76561198010306294,"connected_time":8398000000000,"state":"active","ping":85}]},{"server_id":104,"name":"Uncletopia | Atlanta | 2 | All Maps","name_short":"atl-2","host":"atl-1.us.uncletopia.com","port":27025,"enabled":true,"region":"us-east","cc":"us","latitude":33.753746,"longitude":-84.38633,"reserved":0,"last_update":"0001-01-01T00:00:00Z","name_a2s":"Uncletopia | Atlanta | 2 | All Maps","protocol":17,"map":"pl_swiftwater_final1","folder":"tf","game":"Team Fortress","app_id":440,"player_count":3,"max_players":24,"Bots":0,"server_type":"Dedicated","server_os":"Linux","password":true,"vac":true,"version":"7757534","steam_id":85568392924469983,"keywords":["nocrits","nodmgspread","payload","uncletopia"],"game_id":440,"stv_port":27026,"stv_name":"Uncletopia | Atlanta | 2 | All Maps | STV","players":[{"user_id":529,"name":"PackingPeanutt :)","steam_id":76561199053229413,"connected_time":692000000000,"state":"active","ping":83},{"user_id":518,"name":"mu","steam_id":76561197997530228,"connected_time":2139000000000,"state":"active","ping":111},{"user_id":311,"name":"brock","steam_id":76561199015537819,"connected_time":16333000000000,"state":"active","ping":52}]},{"server_id":400,"name":"Uncletopia | Atlanta | 3 | Community","name_short":"atl-3","host":"atl-1.us.uncletopia.com","port":27035,"enabled":true,"region":"us-east","cc":"us","latitude":33.753746,"longitude":-84.38633,"reserved":0,"last_update":"0001-01-01T00:00:00Z","name_a2s":"Uncletopia | Atlanta | 3 | Community","protocol":17,"map":"workshop/pl_divulgence_b4b.ugc2884808746","folder":"tf","game":"Team Fortress","app_id":440,"player_count":20,"max_players":24,"Bots":0,"server_type":"Dedicated","server_os":"Linux","password":true,"vac":true,"version":"7757534","steam_id":85568392924515187,"keywords":["nocrits","nodmgspread","payload","uncletopia"],"game_id":440,"stv_port":27036,"stv_name":"Uncletopia | Atlanta | 3 | Community | STV","players":[{"user_id":254,"name":"i forgor","steam_id":76561199120622265,"connected_time":847000000000,"state":"active","ping":78},{"user_id":266,"name":"Orenji","steam_id":76561199229204857,"connected_time":609000000000,"state":"active","ping":112},{"user_id":250,"name":"TheSquirrelofHuscurl","steam_id":76561198073379623,"connected_time":1241000000000,"state":"spawning","ping":194},{"user_id":24,"name":"Dask","steam_id":76561198043385839,"connected_time":17803000000000,"state":"active","ping":75},{"user_id":246,"name":"larguu","steam_id":76561197994336210,"connected_time":2453000000000,"state":"active","ping":51},{"user_id":252,"name":"TheUKnowWho","steam_id":76561198181418159,"connected_time":1007000000000,"state":"active","ping":72},{"user_id":256,"name":"üÖúüÖîüÖîüÖöüÖ¢üÖ£üÖî\ufffd\ufffd\ufffd","steam_id":76561197999748343,"connected_time":761000000000,"state":"active","ping":61},{"user_id":231,"name":"LovingKindne2z","steam_id":76561199064932372,"connected_time":3920000000000,"state":"active","ping":106},{"user_id":272,"name":"Sack Joltz","steam_id":76561198005025342,"connected_time":294000000000,"state":"active","ping":89},{"user_id":241,"name":"Yongle","steam_id":76561198068591156,"connected_time":2941000000000,"state":"active","ping":67},{"user_id":271,"name":"Klip","steam_id":76561198316254429,"connected_time":509000000000,"state":"active","ping":76},{"user_id":259,"name":"Rozebud","steam_id":76561198088274510,"connected_time":723000000000,"state":"active","ping":59},{"user_id":247,"name":"The Final Terminus","steam_id":76561197964985183,"connected_time":2169000000000,"state":"active","ping":63},{"user_id":206,"name":"Miranda \"Chicken Legs\" Johnson","steam_id":76561198004659985,"connected_time":6399000000000,"state":"active","ping":61},{"user_id":217,"name":"Sea Captain","steam_id":76561198043432905,"connected_time":5256000000000,"state":"active","ping":144},{"user_id":261,"name":"fabs","steam_id":76561198191021121,"connected_time":700000000000,"state":"active","ping":170},{"user_id":264,"name":"üîØ","steam_id":76561198206235701,"connected_time":627000000000,"state":"active","ping":105},{"user_id":268,"name":"comet","steam_id":76561198149217841,"connected_time":597000000000,"state":"active","ping":126},{"user_id":244,"name":"–ü–µ–ø—Å–∏","steam_id":76561198133834262,"connected_time":2787000000000,"state":"active","ping":77},{"user_id":270,"name":"Hard Soap","steam_id":76561198267905614,"connected_time":568000000000,"state":"active","ping":68}]},{"server_id":401,"name":"Uncletopia | Atlanta | 4 | No Payload","name_short":"atl-4","host":"atl-1.us.uncletopia.com","port":27045,"enabled":true,"region":"us-east","cc":"us","latitude":33.753746,"longitude":-84.38633,"reserved":0,"last_update":"0001-01-01T00:00:00Z","name_a2s":"","protocol":0,"map":"","folder":"","game":"","app_id":0,"player_count":0,"max_players":0,"Bots":0,"server_type":"","server_os":"","password":false,"vac":false,"version":"","steam_id":0,"keywords":null,"game_id":0,"stv_port":0,"stv_name":"","players":null},{"server_id":2,"name":"Uncletopia | Chicago | 1 | All Maps","name_short":"chi-1","host":"chi-1.us.uncletopia.com","port":27015,"enabled":true,"region":"us-central","cc":"us","latitude":41.881832,"longitude":-87.62318,"reserved":0,"last_update":"0001-01-01T00:00:00Z","name_a2s":"Uncletopia | Chicago | 1 | All Maps","protocol":17,"map":"cp_dustbowl","folder":"tf","game":"Team Fortress","app_id":440,"player_count":24,"max_players":24,"Bots":0,"server_type":"Dedicated","server_os":"Linux","password":true,"vac":true,"version":"7757534","steam_id":85568392924469984,"keywords":["cp","nocrits","nodmgspread","uncletopia"],"game_id":440,"stv_port":27016,"stv_name":"Uncletopia | Chicago | 1 | All Maps | STV","players":[{"user_id":661,"name":"FlarbaDoodle","steam_id":76561198176879990,"connected_time":1473000000000,"state":"active","ping":64},{"user_id":628,"name":"Cutie","steam_id":76561198126686695,"connected_time":4729000000000,"state":"active","ping":69},{"user_id":680,"name":"Xevon","steam_id":76561198355618921,"connected_time":432000000000,"state":"active","ping":107},{"user_id":604,"name":"Merci?","steam_id":76561198096823118,"connected_time":6946000000000,"state":"active","ping":76},{"user_id":643,"name":"Thundermonkey (SMOKE)","steam_id":76561198017631728,"connected_time":2851000000000,"state":"active","ping":62},{"user_id":653,"name":"wavlog0124","steam_id":76561199079614516,"connected_time":2389000000000,"state":"active","ping":52},{"user_id":681,"name":"Wizard Raccoon","steam_id":76561198072562591,"connected_time":427000000000,"state":"active","ping":82},{"user_id":682,"name":"vaccine dildo","steam_id":76561198092139690,"connected_time":415000000000,"state":"active","ping":101},{"user_id":683,"name":"loyaldandan0764","steam_id":76561199231020424,"connected_time":364000000000,"state":"active","ping":109},{"user_id":669,"name":"ursa","steam_id":76561198025394298,"connected_time":1015000000000,"state":"active","ping":68},{"user_id":587,"name":"Lavender","steam_id":76561198142770666,"connected_time":8132000000000,"state":"active","ping":57},{"user_id":667,"name":"GoldtoothFour","steam_id":76561198055529332,"connected_time":1177000000000,"state":"active","ping":55},{"user_id":670,"name":"fatnuts","steam_id":76561198162989738,"connected_time":1005000000000,"state":"active","ping":66},{"user_id":671,"name":"Skunk Spray","steam_id":76561198028707400,"connected_time":997000000000,"state":"active","ping":65},{"user_id":672,"name":"marf","steam_id":76561198259541415,"connected_time":975000000000,"state":"active","ping":64},{"user_id":673,"name":"Mann","steam_id":76561199030987614,"connected_time":950000000000,"state":"active","ping":89},{"user_id":679,"name":"Thy.Roid","steam_id":76561198122291992,"connected_time":555000000000,"state":"active","ping":57},{"user_id":675,"name":"Steve Burns","steam_id":76561198069968316,"connected_time":912000000000,"state":"active","ping":100},{"user_id":684,"name":"kefkja","steam_id":76561198283963218,"connected_time":344000000000,"state":"active","ping":97},{"user_id":685,"name":"snooopay","steam_id":76561198132873984,"connected_time":204000000000,"state":"active","ping":70},{"user_id":676,"name":"Eve","steam_id":76561198039832932,"connected_time":907000000000,"state":"active","ping":59},{"user_id":650,"name":"wuddles","steam_id":76561198025782349,"connected_time":2671000000000,"state":"active","ping":107},{"user_id":677,"name":"Quick","steam_id":76561199173328590,"connected_time":904000000000,"state":"active","ping":57},{"user_id":652,"name":"soup","steam_id":76561198077790130,"connected_time":2633000000000,"state":"active","ping":64}]},{"server_id":106,"name":"Uncletopia | Chicago | 2 | All Maps","name_short":"chi-2","host":"chi-1.us.uncletopia.com","port":27025,"enabled":true,"region":"us-central","cc":"us","latitude":41.881832,"longitude":-87.62318,"reserved":0,"last_update":"0001-01-01T00:00:00Z","name_a2s":"Uncletopia | Chicago | 2 | All Maps","protocol":17,"map":"pl_badwater","folder":"tf","game":"Team Fortress","app_id":440,"player_count":24,"max_players":24,"Bots":0,"server_type":"Dedicated","server_os":"Linux","password":true,"vac":true,"version":"7757534","steam_id":85568392924469985,"keywords":["nocrits","nodmgspread","payload","uncletopia"],"game_id":440,"stv_port":27026,"stv_name":"Uncletopia | Chicago | 2 | All Maps | STV","players":[{"user_id":510,"name":"moistwalnut1967","steam_id":76561198044489449,"connected_time":1498000000000,"state":"active","ping":47},{"user_id":493,"name":"pongo","steam_id":76561198358109107,"connected_time":2917000000000,"state":"active","ping":70},{"user_id":479,"name":"El Gato Paranoico","steam_id":76561198116567116,"connected_time":3716000000000,"state":"active","ping":101},{"user_id":495,"name":"Smiley Face","steam_id":76561198008710622,"connected_time":2893000000000,"state":"active","ping":95},{"user_id":518,"name":"Dive(z)","steam_id":76561198140843225,"connected_time":1057000000000,"state":"active","ping":111},{"user_id":480,"name":"Sole Flux","steam_id":76561198351794131,"connected_time":3698000000000,"state":"active","ping":49},{"user_id":517,"name":"pathways","steam_id":76561198054832333,"connected_time":1271000000000,"state":"active","ping":48},{"user_id":481,"name":"Swilliam","steam_id":76561198401382210,"connected_time":3692000000000,"state":"active","ping":66},{"user_id":396,"name":"Nani?","steam_id":76561198130982692,"connected_time":10469000000000,"state":"active","ping":64},{"user_id":508,"name":"Kasodani Kyouko","steam_id":76561198023178589,"connected_time":1918000000000,"state":"active","ping":79},{"user_id":483,"name":"cringe_#abandontf2","steam_id":76561199074872253,"connected_time":3677000000000,"state":"active","ping":64},{"user_id":476,"name":"MoePlaysTf2","steam_id":76561198316877833,"connected_time":3973000000000,"state":"active","ping":99},{"user_id":490,"name":"Jombi","steam_id":76561198427813097,"connected_time":3520000000000,"state":"active","ping":73},{"user_id":509,"name":"Speeder Mingus","steam_id":76561198106841910,"connected_time":1871000000000,"state":"active","ping":74},{"user_id":496,"name":"Nobody","steam_id":76561198286486517,"connected_time":2883000000000,"state":"active","ping":73},{"user_id":520,"name":"god approaches","steam_id":76561198081617990,"connected_time":104000000000,"state":"active","ping":94},{"user_id":516,"name":"Skye","steam_id":76561198048151074,"connected_time":1306000000000,"state":"active","ping":70},{"user_id":519,"name":"Yustitsiya","steam_id":76561198876203029,"connected_time":918000000000,"state":"active","ping":98},{"user_id":502,"name":"JMan","steam_id":76561198367705381,"connected_time":2528000000000,"state":"active","ping":165},{"user_id":507,"name":"DoctorBodacious","steam_id":76561198258784171,"connected_time":2179000000000,"state":"active","ping":69},{"user_id":498,"name":"Training Arc","steam_id":76561198038832034,"connected_time":2866000000000,"state":"active","ping":105},{"user_id":499,"name":"Mario","steam_id":76561198321794277,"connected_time":2861000000000,"state":"active","ping":55},{"user_id":317,"name":"liftin'","steam_id":76561199089515791,"connected_time":16535000000000,"state":"active","ping":109},{"user_id":515,"name":"Jelqing Table","steam_id":76561198051373750,"connected_time":1437000000000,"state":"active","ping":76}]},{"server_id":402,"name":"Uncletopia | Chicago | 3 | All Maps","name_short":"chi-3","host":"chi-1.us.uncletopia.com","port":27035,"enabled":true,"region":"us-central","cc":"us","latitude":41.881832,"longitude":-87.62318,"reserved":0,"last_update":"0001-01-01T00:00:00Z","name_a2s":"Uncletopia | Chicago | 3 | All Maps","protocol":17,"map":"pl_borneo","folder":"tf","game":"Team Fortress","app_id":440,"player_count":20,"max_players":24,"Bots":0,"server_type":"Dedicated","server_os":"Linux","password":true,"vac":true,"version":"7757534","steam_id":85568392924515191,"keywords":["nocrits","nodmgspread","payload","uncletopia"],"game_id":440,"stv_port":27036,"stv_name":"Uncletopia | Chicago | 3 | All Maps | STV","players":[{"user_id":360,"name":"STONE COLD","steam_id":76561198041643833,"connected_time":5883000000000,"state":"active","ping":90},{"user_id":402,"name":"Aristotle Voulton","steam_id":76561198100174923,"connected_time":2352000000000,"state":"active","ping":88},{"user_id":347,"name":"Flesh Eating Turtle","steam_id":76561198116742139,"connected_time":7048000000000,"state":"active","ping":100},{"user_id":430,"name":"Pho","steam_id":76561198306515742,"connected_time":153000000000,"state":"active","ping":92},{"user_id":424,"name":"Xpiredd","steam_id":76561198449525437,"connected_time":690000000000,"state":"active","ping":64},{"user_id":404,"name":"herb","steam_id":76561198185980055,"connected_time":2284000000000,"state":"active","ping":60},{"user_id":399,"name":"Goober","steam_id":76561198988863807,"connected_time":2735000000000,"state":"active","ping":75},{"user_id":405,"name":"[DEEP] Danmar33","steam_id":76561198056453091,"connected_time":2169000000000,"state":"active","ping":45},{"user_id":428,"name":"Midnight TV","steam_id":76561198851363077,"connected_time":213000000000,"state":"active","ping":73},{"user_id":349,"name":"Your kinky Onee-san","steam_id":76561199146582356,"connected_time":6857000000000,"state":"active","ping":105},{"user_id":429,"name":"Assitins","steam_id":76561198041572892,"connected_time":207000000000,"state":"active","ping":62},{"user_id":432,"name":"OldManHenderson1976","steam_id":76561198148713751,"connected_time":89000000000,"state":"active","ping":77},{"user_id":421,"name":"Tanuki in your attic.","steam_id":76561198027487285,"connected_time":1274000000000,"state":"active","ping":134},{"user_id":426,"name":"Stressmelo","steam_id":76561199204445185,"connected_time":536000000000,"state":"active","ping":71},{"user_id":427,"name":"bill","steam_id":76561199142779872,"connected_time":404000000000,"state":"active","ping":61},{"user_id":431,"name":"rainingmudkips","steam_id":76561198018010854,"connected_time":141000000000,"state":"active","ping":60},{"user_id":411,"name":"gwen","steam_id":76561198046815360,"connected_time":1820000000000,"state":"active","ping":94},{"user_id":396,"name":"Krome","steam_id":76561198087317232,"connected_time":3387000000000,"state":"active","ping":63},{"user_id":387,"name":"Frank Cilantro","steam_id":76561198120789856,"connected_time":4172000000000,"state":"active","ping":75},{"user_id":422,"name":"jim awesome","steam_id":76561198337486020,"connected_time":1272000000000,"state":"active","ping":106}]},{"server_id":403,"name":"Uncletopia | Chicago | 4 | All Maps","name_short":"chi-4","host":"chi-1.us.uncletopia.com","port":27045,"enabled":true,"region":"us-central","cc":"us","latitude":41.881832,"longitude":-87.62318,"reserved":0,"last_update":"0001-01-01T00:00:00Z","name_a2s":"Uncletopia | Chicago | 4 | All Maps","protocol":17,"map":"pl_frontier_final","folder":"tf","game":"Team Fortress","app_id":440,"player_count":6,"max_players":24,"Bots":0,"server_type":"Dedicated","server_os":"Linux","password":true,"vac":true,"version":"7757534","steam_id":85568392924515193,"keywords":["nocrits","nodmgspread","payload","uncletopia"],"game_id":440,"stv_port":27046,"stv_name":"Uncletopia | Chicago | 4 | All Maps | STV","players":[{"user_id":347,"name":"DoomsdaySnail","steam_id":76561198131444200,"connected_time":3456000000000,"state":"active","ping":69},{"user_id":359,"name":"Spring Beans","steam_id":76561197978546259,"connected_time":2138000000000,"state":"active","ping":51},{"user_id":344,"name":"Zephyr","steam_id":76561198129785553,"connected_time":3536000000000,"state":"active","ping":74},{"user_id":334,"name":"Deimos","steam_id":76561198254665780,"connected_time":4242000000000,"state":"active","ping":104},{"user_id":337,"name":"gusjacobi","steam_id":76561198233500588,"connected_time":3918000000000,"state":"active","ping":101},{"user_id":312,"name":"Kng","steam_id":76561198993248203,"connected_time":5470000000000,"state":"active","ping":82}]},{"server_id":36,"name":"Uncletopia | Chicago | 5 | All Maps","name_short":"chi-5","host":"chi-2.us.uncletopia.com","port":27015,"enabled":true,"region":"us-central","cc":"us","latitude":41.881832,"longitude":-87.62318,"reserved":0,"last_update":"0001-01-01T00:00:00Z","name_a2s":"Uncletopia | Chicago | 5 | All Maps","protocol":17,"map":"pl_swiftwater_final1","folder":"tf","game":"Team Fortress","app_id":440,"player_count":24,"max_players":24,"Bots":0,"server_type":"Dedicated","server_os":"Linux","password":true,"vac":true,"version":"7757534","steam_id":85568392924866362,"keywords":["nocrits","nodmgspread","payload","uncletopia"],"game_id":440,"stv_port":27016,"stv_name":"Uncletopia | Chicago | 5 | All Maps | STV","players":[{"user_id":645,"name":"1-800-GHOST-DANCE","steam_id":76561198835430429,"connected_time":888000000000,"state":"active","ping":77},{"user_id":598,"name":"Fredorando","steam_id":76561198242546842,"connected_time":5591000000000,"state":"active","ping":64},{"user_id":637,"name":"Sprit ‚ô•","steam_id":76561198268780781,"connected_time":1542000000000,"state":"active","ping":46},{"user_id":635,"name":"bluemarblecat6952","steam_id":76561199480894173,"connected_time":1632000000000,"state":"active","ping":75},{"user_id":662,"name":"Kamin","steam_id":76561198255299559,"connected_time":166000000000,"state":"active","ping":86},{"user_id":617,"name":"Srattinee","steam_id":76561198199840395,"connected_time":3678000000000,"state":"active","ping":55},{"user_id":654,"name":"flora","steam_id":76561197994492154,"connected_time":628000000000,"state":"active","ping":173},{"user_id":647,"name":"Kzjytsugn","steam_id":76561198130241974,"connected_time":819000000000,"state":"active","ping":86},{"user_id":648,"name":"Tempest","steam_id":76561198044125968,"connected_time":797000000000,"state":"active","ping":56},{"user_id":650,"name":"slinky","steam_id":76561198246183704,"connected_time":749000000000,"state":"active","ping":60},{"user_id":651,"name":"Zerg_Man","steam_id":76561199060404359,"connected_time":711000000000,"state":"active","ping":86},{"user_id":638,"name":"Goldensliv","steam_id":76561198161673891,"connected_time":1534000000000,"state":"active","ping":85},{"user_id":639,"name":"GhastlyGhostJr","steam_id":76561198037484203,"connected_time":1419000000000,"state":"active","ping":73},{"user_id":652,"name":"chug jug","steam_id":76561198155631250,"connected_time":705000000000,"state":"active","ping":64},{"user_id":653,"name":"Boznyan","steam_id":76561198129164016,"connected_time":700000000000,"state":"active","ping":57},{"user_id":658,"name":"Jeeper","steam_id":76561198155583692,"connected_time":452000000000,"state":"active","ping":74},{"user_id":642,"name":"Retro Phoenix","steam_id":76561198077176271,"connected_time":1239000000000,"state":"active","ping":58},{"user_id":608,"name":"bad spy player","steam_id":76561198873699671,"connected_time":4738000000000,"state":"active","ping":98},{"user_id":660,"name":"westward","steam_id":76561198805512350,"connected_time":369000000000,"state":"active","ping":105},{"user_id":661,"name":"monke","steam_id":76561198308289194,"connected_time":366000000000,"state":"active","ping":75},{"user_id":618,"name":"Shaw Han","steam_id":76561198204259015,"connected_time":3664000000000,"state":"active","ping":62},{"user_id":656,"name":"mike\"3loavesofbread\"jones","steam_id":76561198064342804,"connected_time":591000000000,"state":"active","ping":170},{"user_id":644,"name":"grahamcrunchycracker","steam_id":76561199037569525,"connected_time":1216000000000,"state":"active","ping":191},{"user_id":592,"name":"6' 4\" 270 lbs ALL MUSCLE","steam_id":76561198021308963,"connected_time":6197000000000,"state":"active","ping":71}]},{"server_id":37,"name":"Uncletopia | Chicago | 6 | All Maps","name_short":"chi-6","host":"chi-2.us.uncletopia.com","port":27025,"enabled":true,"region":"us-central","cc":"us","latitude":41.881832,"longitude":-87.62318,"reserved":0,"last_update":"0001-01-01T00:00:00Z","name_a2s":"Uncletopia | Chicago | 6 | All Maps","protocol":17,"map":"pl_snowycoast","folder":"tf","game":"Team Fortress","app_id":440,"player_count":0,"max_players":24,"Bots":0,"server_type":"Dedicated","server_os":"Linux","password":true,"vac":true,"version":"7757534","steam_id":85568392924866363,"keywords":["nocrits","nodmgspread","payload","uncletopia"],"game_id":440,"stv_port":27026,"stv_name":"Uncletopia | Chicago | 6 | All Maps | STV","players":null},{"server_id":38,"name":"Uncletopia | Chicago | 7 | Stopwatch Beta","name_short":"chi-7","host":"chi-2.us.uncletopia.com","port":27035,"enabled":true,"region":"us-central","cc":"us","latitude":41.881832,"longitude":-87.62318,"reserved":0,"last_update":"0001-01-01T00:00:00Z","name_a2s":"Uncletopia | Chicago | 7 | Stopwatch Beta","protocol":17,"map":"cp_granary","folder":"tf","game":"Team Fortress","app_id":440,"player_count":0,"max_players":24,"Bots":0,"server_type":"Dedicated","server_os":"Linux","password":true,"vac":true,"version":"7757534","steam_id":85568392924866364,"keywords":["cp","nocrits","nodmgspread","uncletopia"],"game_id":440,"stv_port":27036,"stv_name":"Uncletopia | Chicago | 7 | Stopwatch Beta | STV","players":null},{"server_id":39,"name":"Uncletopia | Chicago | 8 | Community","name_short":"chi-8","host":"chi-2.us.uncletopia.com","port":27045,"enabled":true,"region":"us-central","cc":"us","latitude":41.881832,"longitude":-87.62318,"reserved":0,"last_update":"0001-01-01T00:00:00Z","name_a2s":"Uncletopia | Chicago | 8 | Community","protocol":17,"map":"workshop/koth_ramjam_rc1.ugc459778887","folder":"tf","game":"Team Fortress","app_id":440,"player_count":0,"max_players":24,"Bots":0,"server_type":"Dedicated","server_os":"Linux","password":true,"vac":true,"version":"7757534","steam_id":85568392924866365,"keywords":["cp","nocrits","nodmgspread","uncletopia"],"game_id":440,"stv_port":27046,"stv_name":"Uncletopia | Chicago | 8 | Community | STV","players":null},{"server_id":8,"name":"Uncletopia | Dallas | 1 | All Maps","name_short":"dal-1","host":"dal-1.us.uncletopia.com","port":27015,"enabled":true,"region":"us-central","cc":"us","latitude":32.779167,"longitude":-96.80889,"reserved":0,"last_update":"0001-01-01T00:00:00Z","name_a2s":"Uncletopia | Dallas | 1 | All Maps","protocol":17,"map":"cp_process_final","folder":"tf","game":"Team Fortress","app_id":440,"player_count":17,"max_players":24,"Bots":0,"server_type":"Dedicated","server_os":"Linux","password":true,"vac":true,"version":"7757534","steam_id":85568392924469986,"keywords":["cp","nocrits","nodmgspread","uncletopia"],"game_id":440,"stv_port":27016,"stv_name":"Uncletopia | Dallas | 1 | All Maps | STV","players":[{"user_id":475,"name":"cow","steam_id":76561198198453117,"connected_time":1076000000000,"state":"active","ping":48},{"user_id":486,"name":"‚òπ","steam_id":76561198804763186,"connected_time":101000000000,"state":"active","ping":83},{"user_id":478,"name":"KVWI","steam_id":76561197971352904,"connected_time":534000000000,"state":"active","ping":53},{"user_id":487,"name":"Fielder","steam_id":76561198021106219,"connected_time":28000000000,"state":"active","ping":176},{"user_id":481,"name":"pim","steam_id":76561198095163441,"connected_time":329000000000,"state":"active","ping":48},{"user_id":469,"name":"pinple","steam_id":76561198167075606,"connected_time":1821000000000,"state":"active","ping":84},{"user_id":429,"name":"Great Value Rice Crispers","steam_id":76561198211512619,"connected_time":4944000000000,"state":"active","ping":105},{"user_id":430,"name":"bbrolls","steam_id":76561198281696751,"connected_time":4929000000000,"state":"active","ping":107},{"user_id":459,"name":"Danger McHazard","steam_id":76561198059451274,"connected_time":3068000000000,"state":"active","ping":75},{"user_id":473,"name":"Doof","steam_id":76561198034031819,"connected_time":1426000000000,"state":"active","ping":64},{"user_id":462,"name":"austintacious","steam_id":76561198054118061,"connected_time":2673000000000,"state":"active","ping":74},{"user_id":401,"name":"nnobi","steam_id":76561198878729277,"connected_time":7157000000000,"state":"active","ping":73},{"user_id":479,"name":"Manly Emerald","steam_id":76561198245838476,"connected_time":528000000000,"state":"active","ping":45},{"user_id":483,"name":"tacofever","steam_id":76561198010966507,"connected_time":270000000000,"state":"active","ping":81},{"user_id":474,"name":"wm1","steam_id":76561198265522923,"connected_time":1166000000000,"state":"active","ping":49},{"user_id":472,"name":"Shamrock Shake Oct.10.2020 @8pm","steam_id":76561198833313201,"connected_time":1734000000000,"state":"active","ping":86},{"user_id":485,"name":"DSM-IVCE","steam_id":76561199438515797,"connected_time":227000000000,"state":"active","ping":105}]},{"server_id":108,"name":"Uncletopia | Dallas | 2 | All Maps","name_short":"dal-2","host":"dal-1.us.uncletopia.com","port":27025,"enabled":true,"region":"us-central","cc":"us","latitude":32.779167,"longitude":-96.80889,"reserved":0,"last_update":"0001-01-01T00:00:00Z","name_a2s":"Uncletopia | Dallas | 2 | All Maps","protocol":17,"map":"pl_upward","folder":"tf","game":"Team Fortress","app_id":440,"player_count":24,"max_players":24,"Bots":0,"server_type":"Dedicated","server_os":"Linux","password":true,"vac":true,"version":"7757534","steam_id":85568392924469988,"keywords":["nocrits","nodmgspread","payload","uncletopia"],"game_id":440,"stv_port":27026,"stv_name":"Uncletopia | Dallas | 2 | All Maps | STV","players":[{"user_id":708,"name":"Alex Jones","steam_id":76561198272738226,"connected_time":2301000000000,"state":"active","ping":117},{"user_id":666,"name":"Bread Zoo","steam_id":76561198013732450,"connected_time":5446000000000,"state":"active","ping":63},{"user_id":659,"name":"mac_cheese","steam_id":76561198071334162,"connected_time":5687000000000,"state":"active","ping":104},{"user_id":712,"name":"intek","steam_id":76561198052705291,"connected_time":2147000000000,"state":"active","ping":75},{"user_id":730,"name":"Pasta","steam_id":76561198170042173,"connected_time":958000000000,"state":"active","ping":84},{"user_id":738,"name":"Drakon","steam_id":76561198078210822,"connected_time":171000000000,"state":"active","ping":91},{"user_id":739,"name":"krakowski","steam_id":76561198119536224,"connected_time":171000000000,"state":"active","ping":78},{"user_id":669,"name":"Za Zombie","steam_id":76561198055545262,"connected_time":5369000000000,"state":"active","ping":120},{"user_id":710,"name":"Buttfuck Armstrong","steam_id":76561198075547905,"connected_time":2183000000000,"state":"active","ping":79},{"user_id":681,"name":"Autogyro","steam_id":76561198047943679,"connected_time":4467000000000,"state":"active","ping":54},{"user_id":720,"name":"Spoofle","steam_id":76561199003655066,"connected_time":1576000000000,"state":"active","ping":77},{"user_id":729,"name":"Len","steam_id":76561199141913673,"connected_time":1019000000000,"state":"active","ping":61},{"user_id":727,"name":"sora","steam_id":76561198094256973,"connected_time":1061000000000,"state":"active","ping":90},{"user_id":650,"name":"Pizza","steam_id":76561198118748364,"connected_time":6559000000000,"state":"active","ping":75},{"user_id":731,"name":"0x01FE","steam_id":76561198838881917,"connected_time":947000000000,"state":"active","ping":67},{"user_id":728,"name":"ray (the based god)","steam_id":76561198311984941,"connected_time":1051000000000,"state":"active","ping":83},{"user_id":670,"name":"Kumies","steam_id":76561199481315713,"connected_time":5365000000000,"state":"active","ping":65},{"user_id":734,"name":"crankshaft","steam_id":76561197992798282,"connected_time":795000000000,"state":"active","ping":77},{"user_id":718,"name":"Rex The Mouse","steam_id":76561197995569428,"connected_time":1940000000000,"state":"active","ping":84},{"user_id":653,"name":"Marshall","steam_id":76561198042570322,"connected_time":6435000000000,"state":"active","ping":84},{"user_id":737,"name":"Strongspank","steam_id":76561198002169223,"connected_time":194000000000,"state":"active","ping":62},{"user_id":733,"name":"Woozy","steam_id":76561198008220735,"connected_time":864000000000,"state":"active","ping":89},{"user_id":724,"name":"deb","steam_id":76561198414336279,"connected_time":1405000000000,"state":"active","ping":60},{"user_id":736,"name":"Zing","steam_id":76561198097160898,"connected_time":440000000000,"state":"active","ping":86}]},{"server_id":5,"name":"Uncletopia | Frankfurt | 1 | All Maps","name_short":"frk-1","host":"frk-1.de.uncletopia.com","port":27015,"enabled":true,"region":"eu","cc":"de","latitude":50.110924,"longitude":8.682127,"reserved":0,"last_update":"0001-01-01T00:00:00Z","name_a2s":"Uncletopia | Frankfurt | 1 | All Maps","protocol":17,"map":"pl_snowycoast","folder":"tf","game":"Team Fortress","app_id":440,"player_count":0,"max_players":24,"Bots":0,"server_type":"Dedicated","server_os":"Linux","password":true,"vac":true,"version":"7757534","steam_id":85568392924469989,"keywords":["nocrits","nodmgspread","payload","uncletopia"],"game_id":440,"stv_port":27016,"stv_name":"Uncletopia | Frankfurt | 1 | All Maps | STV","players":null},{"server_id":110,"name":"Uncletopia | Frankfurt | 2 | All Maps","name_short":"frk-2","host":"frk-1.de.uncletopia.com","port":27025,"enabled":true,"region":"eu","cc":"de","latitude":50.110924,"longitude":8.682127,"reserved":0,"last_update":"0001-01-01T00:00:00Z","name_a2s":"Uncletopia | Frankfurt | 2 | All Maps","protocol":17,"map":"cp_snakewater_final1","folder":"tf","game":"Team Fortress","app_id":440,"player_count":0,"max_players":24,"Bots":0,"server_type":"Dedicated","server_os":"Linux","password":true,"vac":true,"version":"7757534","steam_id":85568392924469990,"keywords":["cp","nocrits","nodmgspread","uncletopia"],"game_id":440,"stv_port":27026,"stv_name":"Uncletopia | Frankfurt | 2 | All Maps | STV","players":null},{"server_id":308,"name":"Uncletopia | Frankfurt | 3 | All Maps","name_short":"frk-3","host":"frk-1.de.uncletopia.com","port":27035,"enabled":true,"region":"eu","cc":"de","latitude":50.110924,"longitude":8.682127,"reserved":0,"last_update":"0001-01-01T00:00:00Z","name_a2s":"Uncletopia | Frankfurt | 3 | All Maps","protocol":17,"map":"pl_swiftwater_final1","folder":"tf","game":"Team Fortress","app_id":440,"player_count":0,"max_players":24,"Bots":0,"server_type":"Dedicated","server_os":"Linux","password":true,"vac":true,"version":"7757534","steam_id":85568392924504274,"keywords":["nocrits","nodmgspread","payload","uncletopia"],"game_id":440,"stv_port":27036,"stv_name":"Uncletopia | Frankfurt | 3 | All Maps | STV","players":null},{"server_id":309,"name":"Uncletopia | Frankfurt | 4 | All Maps","name_short":"frk-4","host":"frk-1.de.uncletopia.com","port":27045,"enabled":true,"region":"eu","cc":"de","latitude":50.110924,"longitude":8.682127,"reserved":0,"last_update":"0001-01-01T00:00:00Z","name_a2s":"Uncletopia | Frankfurt | 4 | All Maps","protocol":17,"map":"koth_viaduct","folder":"tf","game":"Team Fortress","app_id":440,"player_count":0,"max_players":24,"Bots":0,"server_type":"Dedicated","server_os":"Linux","password":true,"vac":true,"version":"7757534","steam_id":85568392924504275,"keywords":["cp","nocrits","nodmgspread","uncletopia"],"game_id":440,"stv_port":27046,"stv_name":"Uncletopia | Frankfurt | 4 | All Maps | STV","players":null},{"server_id":310,"name":"Uncletopia | Frankfurt | 5 | All Maps","name_short":"frk-5","host":"frk-1.de.uncletopia.com","port":27055,"enabled":true,"region":"eu","cc":"de","latitude":50.110924,"longitude":8.682127,"reserved":0,"last_update":"0001-01-01T00:00:00Z","name_a2s":"Uncletopia | Frankfurt | 5 | All Maps","protocol":17,"map":"koth_lakeside_final","folder":"tf","game":"Team Fortress","app_id":440,"player_count":0,"max_players":24,"Bots":0,"server_type":"Dedicated","server_os":"Linux","password":true,"vac":true,"version":"7757534","steam_id":85568392924504277,"keywords":["cp","nocrits","nodmgspread","uncletopia"],"game_id":440,"stv_port":27056,"stv_name":"Uncletopia | Frankfurt | 5 | All Maps | STV","players":null},{"server_id":311,"name":"Uncletopia | Frankfurt | 6 | All Maps","name_short":"frk-6","host":"frk-1.de.uncletopia.com","port":27065,"enabled":true,"region":"eu","cc":"de","latitude":50.110924,"longitude":8.682127,"reserved":0,"last_update":"0001-01-01T00:00:00Z","name_a2s":"Uncletopia | Frankfurt | 6 | All Maps","protocol":17,"map":"pl_frontier_final","folder":"tf","game":"Team Fortress","app_id":440,"player_count":0,"max_players":24,"Bots":0,"server_type":"Dedicated","server_os":"Linux","password":true,"vac":true,"version":"7757534","steam_id":85568392924504278,"keywords":["nocrits","nodmgspread","payload","uncletopia"],"game_id":440,"stv_port":27066,"stv_name":"Uncletopia | Frankfurt | 6 | All Maps | STV","players":null},{"server_id":23,"name":"Uncletopia | Frankfurt | 7 | Stopwatch Beta","name_short":"frk-7","host":"frk-1.de.uncletopia.com","port":27075,"enabled":true,"region":"eu","cc":"de","latitude":50.110924,"longitude":8.682127,"reserved":0,"last_update":"0001-01-01T00:00:00Z","name_a2s":"Uncletopia | Frankfurt | 7 | Stopwatch Beta","protocol":17,"map":"cp_sunshine","folder":"tf","game":"Team Fortress","app_id":440,"player_count":0,"max_players":24,"Bots":0,"server_type":"Dedicated","server_os":"Linux","password":true,"vac":true,"version":"7757534","steam_id":85568392924742827,"keywords":["cp","nocrits","nodmgspread","uncletopia"],"game_id":440,"stv_port":27076,"stv_name":"Uncletopia | Frankfurt | 7 | Stopwatch Beta | STV","players":null},{"server_id":24,"name":"Uncletopia | Frankfurt | 8 | Community","name_short":"frk-8","host":"frk-1.de.uncletopia.com","port":27085,"enabled":true,"region":"eu","cc":"de","latitude":50.110924,"longitude":8.682127,"reserved":0,"last_update":"0001-01-01T00:00:00Z","name_a2s":"Uncletopia | Frankfurt | 8 | Community","protocol":17,"map":"koth_lakeside_final","folder":"tf","game":"Team Fortress","app_id":440,"player_count":0,"max_players":24,"Bots":0,"server_type":"Dedicated","server_os":"Linux","password":true,"vac":true,"version":"7757534","steam_id":85568392924742828,"keywords":["cp","nocrits","nodmgspread","uncletopia"],"game_id":440,"stv_port":27086,"stv_name":"Uncletopia | Frankfurt | 8 | Community | STV","players":null},{"server_id":202,"name":"Uncletopia | Hong Kong | 1 | All Maps","name_short":"hgk-1","host":"hgk-1.hk.uncletopia.com","port":27015,"enabled":true,"region":"asia","cc":"hk","latitude":22.302711,"longitude":114.177216,"reserved":0,"last_update":"0001-01-01T00:00:00Z","name_a2s":"Uncletopia | Hong Kong | 1 | All Maps","protocol":17,"map":"cp_junction_final","folder":"tf","game":"Team Fortress","app_id":440,"player_count":24,"max_players":24,"Bots":0,"server_type":"Dedicated","server_os":"Linux","password":true,"vac":true,"version":"7757534","steam_id":85568392924494504,"keywords":["cp","nocrits","nodmgspread","uncletopia"],"game_id":440,"stv_port":27016,"stv_name":"Uncletopia | Hong Kong | 1 | All Maps | STV","players":[{"user_id":214,"name":"Michael Scott","steam_id":76561198023082794,"connected_time":2525000000000,"state":"active","ping":46},{"user_id":232,"name":"Male Detected!","steam_id":76561199082459598,"connected_time":102000000000,"state":"active","ping":80},{"user_id":213,"name":"Noyour","steam_id":76561198323259830,"connected_time":2857000000000,"state":"active","ping":116},{"user_id":179,"name":"urotsuki with da doobie","steam_id":76561198074339034,"connected_time":5855000000000,"state":"active","ping":74},{"user_id":225,"name":"Water = Soup","steam_id":76561198349949683,"connected_time":1519000000000,"state":"active","ping":44},{"user_id":201,"name":"silverhouse7","steam_id":76561198349634906,"connected_time":3984000000000,"state":"active","ping":90},{"user_id":202,"name":"7853","steam_id":76561199390507975,"connected_time":3973000000000,"state":"active","ping":49},{"user_id":229,"name":"Vortex Medico","steam_id":76561198833527091,"connected_time":852000000000,"state":"active","ping":88},{"user_id":208,"name":"ase","steam_id":76561198152588681,"connected_time":3325000000000,"state":"active","ping":76},{"user_id":219,"name":"t.tv/subasubasuba30","steam_id":76561199474092971,"connected_time":2250000000000,"state":"active","ping":100},{"user_id":180,"name":"junbi OK","steam_id":76561198116387218,"connected_time":5349000000000,"state":"active","ping":87},{"user_id":220,"name":"clori","steam_id":76561199146847474,"connected_time":2249000000000,"state":"active","ping":44},{"user_id":116,"name":"LEGS","steam_id":76561199111623890,"connected_time":10112000000000,"state":"active","ping":101},{"user_id":210,"name":"Stupid B","steam_id":76561198131423270,"connected_time":3189000000000,"state":"active","ping":114},{"user_id":183,"name":"ArcticDolphin","steam_id":76561198203626319,"connected_time":4825000000000,"state":"active","ping":124},{"user_id":224,"name":"NotFine","steam_id":76561199242217590,"connected_time":1643000000000,"state":"active","ping":93},{"user_id":233,"name":"Milk‚ù§","steam_id":76561198163911560,"connected_time":12000000000,"state":"spawning","ping":133},{"user_id":207,"name":"shenko","steam_id":76561198082921407,"connected_time":3555000000000,"state":"active","ping":122},{"user_id":228,"name":"Lelouch","steam_id":76561198828840546,"connected_time":1033000000000,"state":"active","ping":72},{"user_id":163,"name":"redmond","steam_id":76561198056390902,"connected_time":7478000000000,"state":"active","ping":67},{"user_id":226,"name":"cherenn","steam_id":76561198320532821,"connected_time":1519000000000,"state":"active","ping":65},{"user_id":154,"name":"3wfFbdrjEze5d2G","steam_id":76561198435900451,"connected_time":8146000000000,"state":"active","ping":123},{"user_id":197,"name":"E","steam_id":76561199173781370,"connected_time":4024000000000,"state":"active","ping":101},{"user_id":199,"name":"MongGoyo63","steam_id":76561198349540834,"connected_time":4012000000000,"state":"active","ping":83}]},{"server_id":1,"name":"Uncletopia | Los Angeles | 1 | All Maps","name_short":"lax-1","host":"lax-1.us.uncletopia.com","port":27015,"enabled":true,"region":"us-west","cc":"us","latitude":33.94279,"longitude":-118.41004,"reserved":0,"last_update":"0001-01-01T00:00:00Z","name_a2s":"Uncletopia | Los Angeles | 1 | All Maps","protocol":17,"map":"pl_frontier_final","folder":"tf","game":"Team Fortress","app_id":440,"player_count":16,"max_players":24,"Bots":0,"server_type":"Dedicated","server_os":"Linux","password":true,"vac":true,"version":"7757534","steam_id":85568392924469991,"keywords":["nocrits","nodmgspread","payload","uncletopia"],"game_id":440,"stv_port":27016,"stv_name":"Uncletopia | Los Angeles | 1 | All Maps | STV","players":[{"user_id":117,"name":"Shawn","steam_id":76561199199772083,"connected_time":2128000000000,"state":"active","ping":81},{"user_id":136,"name":"Timebomb2134","steam_id":76561199065629825,"connected_time":48000000000,"state":"active","ping":60},{"user_id":137,"name":"BonkStu","steam_id":76561199146543789,"connected_time":24000000000,"state":"active","ping":63},{"user_id":138,"name":"WeIsAwesome_156","steam_id":76561199471673921,"connected_time":22000000000,"state":"active","ping":131},{"user_id":91,"name":"nori_420","steam_id":76561199117134203,"connected_time":4182000000000,"state":"active","ping":53},{"user_id":131,"name":"Jovi Boy","steam_id":76561198046605691,"connected_time":1221000000000,"state":"active","ping":60},{"user_id":100,"name":"diggyhazard","steam_id":76561198206506481,"connected_time":3998000000000,"state":"active","ping":51},{"user_id":120,"name":"Dogg wader","steam_id":76561199090314340,"connected_time":2080000000000,"state":"active","ping":97},{"user_id":121,"name":"tweet","steam_id":76561198166515735,"connected_time":2080000000000,"state":"active","ping":54},{"user_id":122,"name":"Jack from Jack in The Box","steam_id":76561199083594971,"connected_time":1979000000000,"state":"active","ping":45},{"user_id":126,"name":"Slim Charles","steam_id":76561197981687895,"connected_time":1691000000000,"state":"active","ping":57},{"user_id":134,"name":"Camohno","steam_id":76561198283519918,"connected_time":541000000000,"state":"active","ping":68},{"user_id":135,"name":"silver","steam_id":76561199020503397,"connected_time":343000000000,"state":"active","ping":44},{"user_id":133,"name":"Rock Collector","steam_id":76561198131467867,"connected_time":1201000000000,"state":"active","ping":44},{"user_id":74,"name":"Zirkel","steam_id":76561198091428512,"connected_time":5147000000000,"state":"active","ping":51},{"user_id":106,"name":"Nova Academy of Salmon Action","steam_id":76561198021842526,"connected_time":3836000000000,"state":"active","ping":61}]},{"server_id":112,"name":"Uncletopia | Los Angeles | 2 | All Maps","name_short":"lax-2","host":"lax-1.us.uncletopia.com","port":27025,"enabled":true,"region":"us-west","cc":"us","latitude":33.94279,"longitude":-118.41004,"reserved":0,"last_update":"0001-01-01T00:00:00Z","name_a2s":"Uncletopia | Los Angeles | 2 | All Maps","protocol":17,"map":"koth_cascade","folder":"tf","game":"Team Fortress","app_id":440,"player_count":24,"max_players":24,"Bots":0,"server_type":"Dedicated","server_os":"Linux","password":true,"vac":true,"version":"7757534","steam_id":85568392924469992,"keywords":["cp","nocrits","nodmgspread","uncletopia"],"game_id":440,"stv_port":27026,"stv_name":"Uncletopia | Los Angeles | 2 | All Maps | STV","players":[{"user_id":482,"name":"Remedy Rex","steam_id":76561198181128247,"connected_time":3675000000000,"state":"active","ping":70},{"user_id":497,"name":"Lucky7","steam_id":76561199084623109,"connected_time":2035000000000,"state":"active","ping":91},{"user_id":416,"name":"Marzbee115","steam_id":76561198095821025,"connected_time":8813000000000,"state":"active","ping":50},{"user_id":426,"name":"Dob Bole","steam_id":76561198056367220,"connected_time":8293000000000,"state":"active","ping":45},{"user_id":527,"name":"zaza addict","steam_id":76561198202982780,"connected_time":301000000000,"state":"active","ping":94},{"user_id":488,"name":"Ultimate Prinny Battle God!","steam_id":76561198087574100,"connected_time":3071000000000,"state":"active","ping":57},{"user_id":532,"name":"kommando1911","steam_id":76561198121455141,"connected_time":45000000000,"state":"active","ping":49},{"user_id":499,"name":"FI LO","steam_id":76561198976530881,"connected_time":1838000000000,"state":"active","ping":42},{"user_id":529,"name":"Punished Jeff (Drain Messiah)","steam_id":76561198304252584,"connected_time":205000000000,"state":"active","ping":55},{"user_id":520,"name":"Mickmissi√≥n","steam_id":76561199133527421,"connected_time":776000000000,"state":"active","ping":57},{"user_id":506,"name":"_Maubi_","steam_id":76561198840840588,"connected_time":1581000000000,"state":"active","ping":88},{"user_id":517,"name":"SpeakerD","steam_id":76561198032618618,"connected_time":843000000000,"state":"active","ping":93},{"user_id":533,"name":"Mint Jelly","steam_id":76561197991286751,"connected_time":22000000000,"state":"active","ping":95},{"user_id":519,"name":"artropartropartropartropartrop","steam_id":76561198339376559,"connected_time":793000000000,"state":"active","ping":106},{"user_id":508,"name":"trackmeet","steam_id":76561198882285139,"connected_time":1553000000000,"state":"active","ping":87},{"user_id":531,"name":"‚òÖSuperBurgerBoy‚òÖ","steam_id":76561198856387197,"connected_time":146000000000,"state":"active","ping":152},{"user_id":522,"name":"Frank Accardi","steam_id":76561198017275707,"connected_time":767000000000,"state":"active","ping":64},{"user_id":422,"name":"Drive-By-Fish-Guy","steam_id":76561198105513652,"connected_time":8638000000000,"state":"active","ping":72},{"user_id":463,"name":"brucking","steam_id":76561198348213337,"connected_time":5599000000000,"state":"active","ping":66},{"user_id":512,"name":"Antifa Supersoldier","steam_id":76561198141816516,"connected_time":1470000000000,"state":"active","ping":74},{"user_id":483,"name":"gregory house m.d.","steam_id":76561199117672749,"connected_time":3658000000000,"state":"active","ping":80},{"user_id":525,"name":"Aequalis747","steam_id":76561199456589841,"connected_time":447000000000,"state":"active","ping":64},{"user_id":526,"name":"A Shiny Meat Bicycle","steam_id":76561198358757709,"connected_time":399000000000,"state":"active","ping":117},{"user_id":470,"name":"The Midget Pounder","steam_id":76561198058940183,"connected_time":4695000000000,"state":"active","ping":60}]},{"server_id":324,"name":"Uncletopia | Los Angeles | 3 | All Maps","name_short":"lax-3","host":"lax-1.us.uncletopia.com","port":27035,"enabled":true,"region":"us-west","cc":"us","latitude":33.94279,"longitude":-118.41004,"reserved":0,"last_update":"0001-01-01T00:00:00Z","name_a2s":"Uncletopia | Los Angeles | 3 | All Maps","protocol":17,"map":"pl_snowycoast","folder":"tf","game":"Team Fortress","app_id":440,"player_count":4,"max_players":24,"Bots":0,"server_type":"Dedicated","server_os":"Linux","password":true,"vac":true,"version":"7757534","steam_id":85568392924510198,"keywords":["nocrits","nodmgspread","payload","uncletopia"],"game_id":440,"stv_port":27036,"stv_name":"Uncletopia | Los Angeles | 3 | All Maps | STV","players":[{"user_id":663,"name":"I UBER SPIES #SAVETF2","steam_id":76561199118711243,"connected_time":2372000000000,"state":"active","ping":57},{"user_id":668,"name":"s4lmon","steam_id":76561198055882807,"connected_time":32000000000,"state":"active","ping":64},{"user_id":655,"name":"Matt","steam_id":76561199122703238,"connected_time":4480000000000,"state":"active","ping":65},{"user_id":666,"name":"The Regional Manager","steam_id":76561198825154890,"connected_time":1474000000000,"state":"active","ping":55}]},{"server_id":25,"name":"Uncletopia | Los Angeles | 4 | Stopwatch Beta","name_short":"lax-4","host":"lax-1.us.uncletopia.com","port":27045,"enabled":true,"region":"us-west","cc":"us","latitude":33.94279,"longitude":-118.41004,"reserved":0,"last_update":"0001-01-01T00:00:00Z","name_a2s":"Uncletopia | Los Angeles | 4 | Stopwatch Beta","protocol":17,"map":"workshop/pl_badwater_pro_v12.ugc2142942074","folder":"tf","game":"Team Fortress","app_id":440,"player_count":0,"max_players":24,"Bots":0,"server_type":"Dedicated","server_os":"Linux","password":true,"vac":true,"version":"7757534","steam_id":85568392924510199,"keywords":["nocrits","nodmgspread","payload","uncletopia"],"game_id":440,"stv_port":27046,"stv_name":"Uncletopia | Los Angeles | 4 | Stopwatch Beta | STV","players":null},{"server_id":11,"name":"Uncletopia | London | 1 | All Maps","name_short":"lon-1","host":"lon-1.uk.uncletopia.com","port":27015,"enabled":true,"region":"eu","cc":"gb","latitude":51.509865,"longitude":-0.118092,"reserved":0,"last_update":"0001-01-01T00:00:00Z","name_a2s":"Uncletopia | London | 1 | All Maps","protocol":17,"map":"koth_highpass","folder":"tf","game":"Team Fortress","app_id":440,"player_count":0,"max_players":24,"Bots":0,"server_type":"Dedicated","server_os":"Linux","password":true,"vac":true,"version":"7757534","steam_id":85568392924367362,"keywords":["cp","nocrits","nodmgspread","uncletopia"],"game_id":440,"stv_port":27016,"stv_name":"Uncletopia | London | 1 | All Maps | STV","players":null},{"server_id":114,"name":"Uncletopia | London | 2 | All Maps","name_short":"lon-2","host":"lon-1.uk.uncletopia.com","port":27025,"enabled":true,"region":"eu","cc":"gb","latitude":51.509865,"longitude":-0.118092,"reserved":0,"last_update":"0001-01-01T00:00:00Z","name_a2s":"Uncletopia | London | 2 | All Maps","protocol":17,"map":"pl_borneo","folder":"tf","game":"Team Fortress","app_id":440,"player_count":0,"max_players":24,"Bots":0,"server_type":"Dedicated","server_os":"Linux","password":true,"vac":true,"version":"7757534","steam_id":85568392924470941,"keywords":["nocrits","nodmgspread","payload","uncletopia"],"game_id":440,"stv_port":27026,"stv_name":"Uncletopia | London | 2 | All Maps | STV","players":null},{"server_id":320,"name":"Uncletopia | London | 3 | All Maps","name_short":"lon-3","host":"lon-1.uk.uncletopia.com","port":27035,"enabled":true,"region":"eu","cc":"gb","latitude":51.509865,"longitude":-0.118092,"reserved":0,"last_update":"0001-01-01T00:00:00Z","name_a2s":"Uncletopia | London | 3 | All Maps","protocol":17,"map":"cp_dustbowl","folder":"tf","game":"Team Fortress","app_id":440,"player_count":0,"max_players":24,"Bots":0,"server_type":"Dedicated","server_os":"Linux","password":true,"vac":true,"version":"7757534","steam_id":85568392924510192,"keywords":["cp","nocrits","nodmgspread","uncletopia"],"game_id":440,"stv_port":27036,"stv_name":"Uncletopia | London | 3 | All Maps | STV","players":null},{"server_id":321,"name":"Uncletopia | London | 4 | All Maps","name_short":"lon-4","host":"lon-1.uk.uncletopia.com","port":27045,"enabled":true,"region":"eu","cc":"gb","latitude":51.509865,"longitude":-0.118092,"reserved":0,"last_update":"0001-01-01T00:00:00Z","name_a2s":"Uncletopia | London | 4 | All Maps","protocol":17,"map":"cp_dustbowl","folder":"tf","game":"Team Fortress","app_id":440,"player_count":0,"max_players":24,"Bots":0,"server_type":"Dedicated","server_os":"Linux","password":true,"vac":true,"version":"7757534","steam_id":85568392924510193,"keywords":["cp","nocrits","nodmgspread","uncletopia"],"game_id":440,"stv_port":27046,"stv_name":"Uncletopia | London | 4 | All Maps | STV","players":null},{"server_id":21,"name":"Uncletopia | London | 5 | All Maps","name_short":"lon-5","host":"lon-1.uk.uncletopia.com","port":27055,"enabled":true,"region":"eu","cc":"gb","latitude":51.509865,"longitude":-0.118092,"reserved":0,"last_update":"0001-01-01T00:00:00Z","name_a2s":"Uncletopia | London | 5 | All Maps","protocol":17,"map":"cp_altitude","folder":"tf","game":"Team Fortress","app_id":440,"player_count":0,"max_players":24,"Bots":0,"server_type":"Dedicated","server_os":"Linux","password":true,"vac":true,"version":"7757534","steam_id":85568392924742829,"keywords":["cp","nocrits","nodmgspread","uncletopia"],"game_id":440,"stv_port":27056,"stv_name":"Uncletopia | London | 5 | All Maps | STV","players":null},{"server_id":22,"name":"Uncletopia | London | 6 | All Maps","name_short":"lon-6","host":"lon-1.uk.uncletopia.com","port":27065,"enabled":true,"region":"eu","cc":"gb","latitude":51.509865,"longitude":-0.118092,"reserved":0,"last_update":"0001-01-01T00:00:00Z","name_a2s":"Uncletopia | London | 6 | All Maps","protocol":17,"map":"cp_mountainlab","folder":"tf","game":"Team Fortress","app_id":440,"player_count":0,"max_players":24,"Bots":0,"server_type":"Dedicated","server_os":"Linux","password":true,"vac":true,"version":"7757534","steam_id":85568392924742830,"keywords":["cp","nocrits","nodmgspread","uncletopia"],"game_id":440,"stv_port":27066,"stv_name":"Uncletopia | London | 6 | All Maps | STV","players":null},{"server_id":40,"name":"Uncletopia | London | 7 | No Payload","name_short":"lon-7","host":"lon-1.uk.uncletopia.com","port":27075,"enabled":true,"region":"eu","cc":"gb","latitude":51.509865,"longitude":-0.118092,"reserved":0,"last_update":"0001-01-01T00:00:00Z","name_a2s":"Uncletopia | London | 7 | No Payload","protocol":17,"map":"koth_harvest_final","folder":"tf","game":"Team Fortress","app_id":440,"player_count":11,"max_players":24,"Bots":0,"server_type":"Dedicated","server_os":"Linux","password":true,"vac":true,"version":"7757534","steam_id":85568392924964314,"keywords":["cp","nocrits","nodmgspread","uncletopia"],"game_id":440,"stv_port":27076,"stv_name":"Uncletopia | London | 7 | No Payload | STV","players":[{"user_id":3,"name":"Truegr","steam_id":76561198811912339,"connected_time":2138000000000,"state":"active","ping":69},{"user_id":4,"name":"fried","steam_id":76561198307522022,"connected_time":2049000000000,"state":"active","ping":45},{"user_id":5,"name":"The one true horse.","steam_id":76561198073332036,"connected_time":1656000000000,"state":"active","ping":109},{"user_id":6,"name":"cooler bones","steam_id":76561199480942903,"connected_time":1527000000000,"state":"active","ping":70},{"user_id":12,"name":"MuffinMat","steam_id":76561198963850297,"connected_time":306000000000,"state":"active","ping":76},{"user_id":9,"name":"big naked bruh","steam_id":76561199179040672,"connected_time":803000000000,"state":"active","ping":56},{"user_id":13,"name":"YaG-10 (29-K)","steam_id":76561198112012468,"connected_time":240000000000,"state":"active","ping":79},{"user_id":11,"name":"listener2music","steam_id":76561198418869405,"connected_time":775000000000,"state":"active","ping":218},{"user_id":14,"name":"Tank","steam_id":76561199059174576,"connected_time":239000000000,"state":"active","ping":170},{"user_id":15,"name":"please help i suck at this game","steam_id":76561199400534628,"connected_time":201000000000,"state":"active","ping":105},{"user_id":16,"name":"weed fairy","steam_id":76561197998843096,"connected_time":28000000000,"state":"active","ping":77}]},{"server_id":41,"name":"Uncletopia | London | 8 | Community","name_short":"lon-8","host":"lon-1.uk.uncletopia.com","port":27085,"enabled":true,"region":"eu","cc":"gb","latitude":51.509865,"longitude":-0.118092,"reserved":0,"last_update":"0001-01-01T00:00:00Z","name_a2s":"Uncletopia | London | 8 | Community","protocol":17,"map":"pl_barnblitz","folder":"tf","game":"Team Fortress","app_id":440,"player_count":0,"max_players":24,"Bots":0,"server_type":"Dedicated","server_os":"Linux","password":true,"vac":true,"version":"7757534","steam_id":85568392924964315,"keywords":["nocrits","nodmgspread","payload","uncletopia"],"game_id":440,"stv_port":27086,"stv_name":"Uncletopia | London | 8 | Community | STV","players":null},{"server_id":300,"name":"Uncletopia | Montr√©al | 1 | All Maps","name_short":"mtl-1","host":"mtl-1.ca.uncletopia.com","port":27015,"enabled":true,"region":"us-east","cc":"ca","latitude":45.50889,"longitude":-73.56167,"reserved":0,"last_update":"0001-01-01T00:00:00Z","name_a2s":"Uncletopia | Montr√©al | 1 | All Maps","protocol":17,"map":"cp_altitude","folder":"tf","game":"Team Fortress","app_id":440,"player_count":0,"max_players":24,"Bots":0,"server_type":"Dedicated","server_os":"Linux","password":true,"vac":true,"version":"7757534","steam_id":85568392924500087,"keywords":["cp","nocrits","nodmgspread","uncletopia"],"game_id":440,"stv_port":27016,"stv_name":"Uncletopia | Montr√©al | 1 | All Maps | STV","players":null},{"server_id":301,"name":"Uncletopia | Montr√©al | 2 | All Maps","name_short":"mtl-2","host":"mtl-1.ca.uncletopia.com","port":27025,"enabled":true,"region":"us-east","cc":"ca","latitude":45.50889,"longitude":-73.56167,"reserved":0,"last_update":"0001-01-01T00:00:00Z","name_a2s":"Uncletopia | Montr√©al | 2 | All Maps","protocol":17,"map":"koth_viaduct","folder":"tf","game":"Team Fortress","app_id":440,"player_count":0,"max_players":24,"Bots":0,"server_type":"Dedicated","server_os":"Linux","password":true,"vac":true,"version":"7757534","steam_id":85568392924500088,"keywords":["cp","nocrits","nodmgspread","uncletopia"],"game_id":440,"stv_port":27026,"stv_name":"Uncletopia | Montr√©al | 2 | All Maps | STV","players":null},{"server_id":302,"name":"Uncletopia | Montr√©al | 3 | All Maps","name_short":"mtl-3","host":"mtl-1.ca.uncletopia.com","port":27035,"enabled":true,"region":"us-east","cc":"ca","latitude":45.50889,"longitude":-73.56167,"reserved":0,"last_update":"0001-01-01T00:00:00Z","name_a2s":"Uncletopia | Montr√©al | 3 | All Maps","protocol":17,"map":"cp_sunshine","folder":"tf","game":"Team Fortress","app_id":440,"player_count":0,"max_players":24,"Bots":0,"server_type":"Dedicated","server_os":"Linux","password":true,"vac":true,"version":"7757534","steam_id":85568392924500089,"keywords":["cp","nocrits","nodmgspread","uncletopia"],"game_id":440,"stv_port":27036,"stv_name":"Uncletopia | Montr√©al | 3 | All Maps | STV","players":null},{"server_id":303,"name":"Uncletopia | Montr√©al | 4 | No Payload","name_short":"mtl-4","host":"mtl-1.ca.uncletopia.com","port":27045,"enabled":true,"region":"us-east","cc":"ca","latitude":45.50889,"longitude":-73.56167,"reserved":0,"last_update":"0001-01-01T00:00:00Z","name_a2s":"Uncletopia | Montr√©al | 4 | No Payload","protocol":17,"map":"cp_gorge","folder":"tf","game":"Team Fortress","app_id":440,"player_count":0,"max_players":24,"Bots":0,"server_type":"Dedicated","server_os":"Linux","password":true,"vac":true,"version":"7757534","steam_id":85568392924500090,"keywords":["cp","nocrits","nodmgspread","uncletopia"],"game_id":440,"stv_port":27046,"stv_name":"Uncletopia | Montr√©al | 4 | No Payload | STV","players":null},{"server_id":13,"name":"Uncletopia | New York City | 1 | All Maps","name_short":"nyc-1","host":"nyc-1.us.uncletopia.com","port":27015,"enabled":true,"region":"us-east","cc":"us","latitude":40.73061,"longitude":-73.93524,"reserved":0,"last_update":"0001-01-01T00:00:00Z","name_a2s":"Uncletopia | New York City | 1 | All Maps","protocol":17,"map":"pl_borneo","folder":"tf","game":"Team Fortress","app_id":440,"player_count":24,"max_players":24,"Bots":0,"server_type":"Dedicated","server_os":"Linux","password":true,"vac":true,"version":"7757534","steam_id":85568392924469993,"keywords":["nocrits","nodmgspread","payload","uncletopia"],"game_id":440,"stv_port":27016,"stv_name":"Uncletopia | New York City | 1 | All Maps | STV","players":[{"user_id":512,"name":"The famous 'Joker' character","steam_id":76561198043990433,"connected_time":5673000000000,"state":"active","ping":97},{"user_id":497,"name":"quint","steam_id":76561198046797995,"connected_time":6923000000000,"state":"active","ping":71},{"user_id":528,"name":"Two-Teste Tommy","steam_id":76561198064308936,"connected_time":4287000000000,"state":"active","ping":55},{"user_id":554,"name":"rice white","steam_id":76561198320732910,"connected_time":583000000000,"state":"active","ping":71},{"user_id":555,"name":"Achtan","steam_id":76561198078189844,"connected_time":534000000000,"state":"active","ping":73},{"user_id":536,"name":"C Papi","steam_id":76561198027779564,"connected_time":4009000000000,"state":"active","ping":58},{"user_id":545,"name":"TONE","steam_id":76561198043898471,"connected_time":2325000000000,"state":"active","ping":46},{"user_id":546,"name":"Your Wurst Nightmare","steam_id":76561198874531590,"connected_time":2297000000000,"state":"active","ping":65},{"user_id":553,"name":"Wso1123","steam_id":76561198048040111,"connected_time":706000000000,"state":"active","ping":83},{"user_id":549,"name":"Scooter O'Boyl","steam_id":76561197971687069,"connected_time":1625000000000,"state":"active","ping":63},{"user_id":522,"name":"Vladikr1","steam_id":76561198401495362,"connected_time":4544000000000,"state":"active","ping":69},{"user_id":559,"name":"psy¬∑cho¬∑so¬∑cial","steam_id":76561197962696818,"connected_time":283000000000,"state":"active","ping":73},{"user_id":527,"name":"[OP] 1upist","steam_id":76561198031006501,"connected_time":4445000000000,"state":"active","ping":46},{"user_id":514,"name":"i suck ass at tf2 fr fr","steam_id":76561198277163301,"connected_time":5392000000000,"state":"active","ping":75},{"user_id":557,"name":"DEQUAVIS","steam_id":76561198843060075,"connected_time":456000000000,"state":"active","ping":108},{"user_id":538,"name":"mika kagehira","steam_id":76561198799326339,"connected_time":4006000000000,"state":"active","ping":31},{"user_id":560,"name":"JellyParrot","steam_id":76561199190990163,"connected_time":212000000000,"state":"active","ping":73},{"user_id":518,"name":"ElectronX","steam_id":76561198116034988,"connected_time":5314000000000,"state":"active","ping":111},{"user_id":531,"name":"Exio","steam_id":76561198218639325,"connected_time":4250000000000,"state":"active","ping":62},{"user_id":489,"name":"Ghostly Slacker","steam_id":76561198846116303,"connected_time":7688000000000,"state":"active","ping":96},{"user_id":539,"name":"suckafucka900","steam_id":76561198017524460,"connected_time":3991000000000,"state":"active","ping":102},{"user_id":450,"name":"Ludcmorais","steam_id":76561198359217809,"connected_time":11091000000000,"state":"active","ping":165},{"user_id":558,"name":"ryqset","steam_id":76561198349299874,"connected_time":315000000000,"state":"active","ping":126},{"user_id":540,"name":"Brain Tumor","steam_id":76561198805526881,"connected_time":3974000000000,"state":"active","ping":65}]},{"server_id":14,"name":"Uncletopia | New York City | 2 | All Maps","name_short":"nyc-2","host":"nyc-1.us.uncletopia.com","port":27025,"enabled":true,"region":"us-east","cc":"us","latitude":40.73061,"longitude":-73.93524,"reserved":0,"last_update":"0001-01-01T00:00:00Z","name_a2s":"Uncletopia | New York City | 2 | All Maps","protocol":17,"map":"pl_frontier_final","folder":"tf","game":"Team Fortress","app_id":440,"player_count":23,"max_players":24,"Bots":0,"server_type":"Dedicated","server_os":"Linux","password":true,"vac":true,"version":"7757534","steam_id":85568392924469994,"keywords":["nocrits","nodmgspread","payload","uncletopia"],"game_id":440,"stv_port":27026,"stv_name":"Uncletopia | New York City | 2 | All Maps | STV","players":[{"user_id":658,"name":"Yosh","steam_id":76561198027078899,"connected_time":1748000000000,"state":"active","ping":101},{"user_id":659,"name":"Major Woody","steam_id":76561198835541533,"connected_time":1722000000000,"state":"active","ping":59},{"user_id":650,"name":"Goat","steam_id":76561198068447650,"connected_time":2145000000000,"state":"active","ping":96},{"user_id":674,"name":"TheArachnidGamer","steam_id":76561198304986752,"connected_time":432000000000,"state":"active","ping":89},{"user_id":671,"name":"Quirk","steam_id":76561198092557455,"connected_time":686000000000,"state":"active","ping":58},{"user_id":651,"name":"NV_6155 (twitch.tv)","steam_id":76561198085696816,"connected_time":2093000000000,"state":"active","ping":63},{"user_id":617,"name":"eek","steam_id":76561198332896682,"connected_time":5304000000000,"state":"active","ping":121},{"user_id":616,"name":"twin","steam_id":76561198055626638,"connected_time":5309000000000,"state":"active","ping":78},{"user_id":667,"name":"proon","steam_id":76561198155983535,"connected_time":843000000000,"state":"active","ping":54},{"user_id":660,"name":"open.gif","steam_id":76561198046055673,"connected_time":1707000000000,"state":"active","ping":58},{"user_id":661,"name":"prosto crabic","steam_id":76561198294473783,"connected_time":1701000000000,"state":"active","ping":175},{"user_id":662,"name":"Glass Joe","steam_id":76561198317365741,"connected_time":1680000000000,"state":"active","ping":72},{"user_id":668,"name":"literallyskeletor","steam_id":76561198336005988,"connected_time":732000000000,"state":"active","ping":68},{"user_id":669,"name":"SoaringPhoenix","steam_id":76561198445103637,"connected_time":717000000000,"state":"active","ping":55},{"user_id":636,"name":"Sarah Tonin","steam_id":76561198263707757,"connected_time":3359000000000,"state":"active","ping":60},{"user_id":655,"name":"Twitch.tv/markblood2023tm","steam_id":76561198171746702,"connected_time":1895000000000,"state":"active","ping":48},{"user_id":665,"name":"Stauxie","steam_id":76561198255030077,"connected_time":1271000000000,"state":"active","ping":75},{"user_id":629,"name":"Feistypanda34","steam_id":76561198260910134,"connected_time":4583000000000,"state":"active","ping":97},{"user_id":593,"name":"Yeahboiiii","steam_id":76561198390325068,"connected_time":7318000000000,"state":"active","ping":48},{"user_id":666,"name":"what","steam_id":76561198082336619,"connected_time":1165000000000,"state":"active","ping":57},{"user_id":672,"name":"Jimmy The Tube","steam_id":76561198123216756,"connected_time":679000000000,"state":"active","ping":90},{"user_id":673,"name":"evegioyidechadab","steam_id":76561198075991626,"connected_time":672000000000,"state":"active","ping":135},{"user_id":676,"name":"Trash Man","steam_id":76561198130036002,"connected_time":417000000000,"state":"active","ping":57}]},{"server_id":15,"name":"Uncletopia | New York City | 3 | Stopwatch Beta","name_short":"nyc-3","host":"nyc-1.us.uncletopia.com","port":27035,"enabled":true,"region":"us-east","cc":"us","latitude":40.73061,"longitude":-73.93524,"reserved":0,"last_update":"0001-01-01T00:00:00Z","name_a2s":"Uncletopia | New York City | 3 | Stopwatch Beta","protocol":17,"map":"workshop/koth_product_final.ugc454272353","folder":"tf","game":"Team Fortress","app_id":440,"player_count":0,"max_players":24,"Bots":0,"server_type":"Dedicated","server_os":"Linux","password":true,"vac":true,"version":"7757534","steam_id":85568392924742820,"keywords":["cp","nocrits","nodmgspread","uncletopia"],"game_id":440,"stv_port":27036,"stv_name":"Uncletopia | New York City | 3 | Stopwatch Beta | STV","players":null},{"server_id":16,"name":"Uncletopia | New York City | 4 | Community","name_short":"nyc-4","host":"nyc-1.us.uncletopia.com","port":27045,"enabled":true,"region":"us-east","cc":"us","latitude":40.73061,"longitude":-73.93524,"reserved":0,"last_update":"0001-01-01T00:00:00Z","name_a2s":"Uncletopia | New York City | 4 | Community","protocol":17,"map":"workshop/pl_fifthcurve_rc1.ugc648227046","folder":"tf","game":"Team Fortress","app_id":440,"player_count":0,"max_players":24,"Bots":0,"server_type":"Dedicated","server_os":"Linux","password":true,"vac":true,"version":"7757534","steam_id":85568392924742821,"keywords":["nocrits","nodmgspread","payload","uncletopia"],"game_id":440,"stv_port":27046,"stv_name":"Uncletopia | New York City | 4 | Community | STV","players":null},{"server_id":142,"name":"Uncletopia | S√£o Paulo | 1 | All Maps","name_short":"sao-1","host":"sao-1.br.uncletopia.com","port":27015,"enabled":true,"region":"sa","cc":"br","latitude":-23.533773,"longitude":-46.62529,"reserved":0,"last_update":"0001-01-01T00:00:00Z","name_a2s":"Uncletopia | S√£o Paulo | 1 | All Maps","protocol":17,"map":"koth_lakeside_final","folder":"tf","game":"Team Fortress","app_id":440,"player_count":0,"max_players":24,"Bots":0,"server_type":"Dedicated","server_os":"Linux","password":true,"vac":true,"version":"7757534","steam_id":85568392924469996,"keywords":["cp","nocrits","nodmgspread","uncletopia"],"game_id":440,"stv_port":27016,"stv_name":"Uncletopia | S√£o Paulo | 1 | All Maps | STV","players":null},{"server_id":143,"name":"Uncletopia | S√£o Paulo | 2 | All Maps","name_short":"sao-2","host":"sao-2.br.uncletopia.com","port":27015,"enabled":true,"region":"sa","cc":"br","latitude":-23.533773,"longitude":-46.62529,"reserved":0,"last_update":"0001-01-01T00:00:00Z","name_a2s":"Uncletopia | S√£o Paulo | 2 | All Maps","protocol":17,"map":"koth_cascade","folder":"tf","game":"Team Fortress","app_id":440,"player_count":0,"max_players":24,"Bots":0,"server_type":"Dedicated","server_os":"Linux","password":true,"vac":true,"version":"7757534","steam_id":85568392924485349,"keywords":["cp","nocrits","nodmgspread","uncletopia"],"game_id":440,"stv_port":27016,"stv_name":"Uncletopia | S√£o Paulo | 2 | All Maps | STV","players":null},{"server_id":7,"name":"Uncletopia | Seattle | 1 | All Maps","name_short":"sea-1","host":"sea-1.us.uncletopia.com","port":27015,"enabled":true,"region":"us-west","cc":"us","latitude":47.608013,"longitude":-122.33517,"reserved":0,"last_update":"0001-01-01T00:00:00Z","name_a2s":"Uncletopia | Seattle | 1 | All Maps","protocol":17,"map":"koth_harvest_final","folder":"tf","game":"Team Fortress","app_id":440,"player_count":24,"max_players":24,"Bots":0,"server_type":"Dedicated","server_os":"Linux","password":true,"vac":true,"version":"7757534","steam_id":85568392924469997,"keywords":["cp","nocrits","nodmgspread","uncletopia"],"game_id":440,"stv_port":27016,"stv_name":"Uncletopia | Seattle | 1 | All Maps | STV","players":[{"user_id":689,"name":"Suspicious Daycare Employee","steam_id":76561198053602791,"connected_time":3979000000000,"state":"active","ping":46},{"user_id":700,"name":"Overmind","steam_id":76561198107930305,"connected_time":3134000000000,"state":"active","ping":67},{"user_id":646,"name":"The King of Piss World","steam_id":76561198082806956,"connected_time":7734000000000,"state":"active","ping":117},{"user_id":731,"name":"Lazy-assed Prophet","steam_id":76561198214400452,"connected_time":234000000000,"state":"active","ping":73},{"user_id":715,"name":"Tommy da bird","steam_id":76561198136340711,"connected_time":1740000000000,"state":"active","ping":96},{"user_id":724,"name":"Bishuhp","steam_id":76561198015062850,"connected_time":967000000000,"state":"active","ping":49},{"user_id":561,"name":"Dongus","steam_id":76561197979056451,"connected_time":14529000000000,"state":"active","ping":46},{"user_id":704,"name":"lili ezili","steam_id":76561199391478575,"connected_time":2840000000000,"state":"active","ping":96},{"user_id":666,"name":"soup","steam_id":76561198043209046,"connected_time":5793000000000,"state":"active","ping":86},{"user_id":665,"name":"[TrC] Dackstrus","steam_id":76561197973518509,"connected_time":5800000000000,"state":"active","ping":62},{"user_id":733,"name":"gnoblin","steam_id":76561198314221897,"connected_time":182000000000,"state":"active","ping":48},{"user_id":693,"name":"touca","steam_id":76561198986534519,"connected_time":3942000000000,"state":"active","ping":46},{"user_id":727,"name":"Ayayayayahuasca","steam_id":76561199002906056,"connected_time":783000000000,"state":"active","ping":49},{"user_id":716,"name":"2j psych ward boiwife","steam_id":76561198206752128,"connected_time":1728000000000,"state":"active","ping":150},{"user_id":725,"name":"colespudzo","steam_id":76561198051127147,"connected_time":831000000000,"state":"active","ping":45},{"user_id":730,"name":"Thanks Ants","steam_id":76561197966221018,"connected_time":316000000000,"state":"active","ping":54},{"user_id":729,"name":"üíôüíöMissaüíôüíö","steam_id":76561197979828851,"connected_time":734000000000,"state":"active","ping":64},{"user_id":661,"name":"[TrC] Nosy","steam_id":76561197978859310,"connected_time":6662000000000,"state":"active","ping":62},{"user_id":722,"name":"Lane","steam_id":76561197965828506,"connected_time":1405000000000,"state":"active","ping":91},{"user_id":691,"name":"ÊåëÈÖíË∑üÊåë‰∫∫‰∏ÄÊ®£","steam_id":76561198068672882,"connected_time":3976000000000,"state":"active","ping":66},{"user_id":720,"name":"Jacob Highrise","steam_id":76561198346327753,"connected_time":1566000000000,"state":"active","ping":59},{"user_id":726,"name":"self sufficient kitten","steam_id":76561197960592612,"connected_time":825000000000,"state":"active","ping":47},{"user_id":696,"name":"dust | she/it","steam_id":76561198045218909,"connected_time":3276000000000,"state":"active","ping":44},{"user_id":672,"name":"The God of Corn Bread","steam_id":76561198198658783,"connected_time":5294000000000,"state":"active","ping":69}]},{"server_id":119,"name":"Uncletopia | Seattle | 2 | All Maps","name_short":"sea-2","host":"sea-1.us.uncletopia.com","port":27025,"enabled":true,"region":"us-west","cc":"us","latitude":47.608013,"longitude":-122.33517,"reserved":0,"last_update":"0001-01-01T00:00:00Z","name_a2s":"Uncletopia | Seattle | 2 | All Maps","protocol":17,"map":"pl_upward","folder":"tf","game":"Team Fortress","app_id":440,"player_count":24,"max_players":24,"Bots":0,"server_type":"Dedicated","server_os":"Linux","password":true,"vac":true,"version":"7757534","steam_id":85568392924469998,"keywords":["nocrits","nodmgspread","payload","uncletopia"],"game_id":440,"stv_port":27026,"stv_name":"Uncletopia | Seattle | 2 | All Maps | STV","players":[{"user_id":495,"name":"oil","steam_id":76561198099980149,"connected_time":162000000000,"state":"active","ping":78},{"user_id":486,"name":"SvicidalBug","steam_id":76561198221390504,"connected_time":1057000000000,"state":"active","ping":65},{"user_id":478,"name":"Willy Wonker","steam_id":76561198082944789,"connected_time":1350000000000,"state":"active","ping":76},{"user_id":496,"name":"exephur","steam_id":76561198135763234,"connected_time":161000000000,"state":"active","ping":64},{"user_id":479,"name":"delight","steam_id":76561197980280272,"connected_time":1312000000000,"state":"active","ping":48},{"user_id":446,"name":"yosh.wav","steam_id":76561199127755834,"connected_time":4058000000000,"state":"active","ping":65},{"user_id":497,"name":"h a r t","steam_id":76561198046073848,"connected_time":121000000000,"state":"active","ping":45},{"user_id":489,"name":"tophawkyy","steam_id":76561199075934685,"connected_time":423000000000,"state":"active","ping":75},{"user_id":498,"name":"Snippykeegan","steam_id":76561198274529343,"connected_time":48000000000,"state":"active","ping":66},{"user_id":487,"name":"gorlab","steam_id":76561198025089694,"connected_time":780000000000,"state":"active","ping":60},{"user_id":353,"name":"Pneumo.","steam_id":76561197987911883,"connected_time":12221000000000,"state":"active","ping":71},{"user_id":484,"name":"profile name","steam_id":76561198032625036,"connected_time":1228000000000,"state":"active","ping":60},{"user_id":473,"name":"hosewater","steam_id":76561198023383126,"connected_time":1505000000000,"state":"active","ping":56},{"user_id":452,"name":"cougfan407","steam_id":76561198043263820,"connected_time":3319000000000,"state":"active","ping":54},{"user_id":474,"name":"Reven596","steam_id":76561198885592765,"connected_time":1471000000000,"state":"active","ping":65},{"user_id":482,"name":"rorywashere /·ê† - Àï -„Éû ‚≥ä","steam_id":76561198065825165,"connected_time":1283000000000,"state":"active","ping":139},{"user_id":461,"name":"Mom","steam_id":76561198207936000,"connected_time":2190000000000,"state":"active","ping":63},{"user_id":454,"name":"xMitjana","steam_id":76561198416931478,"connected_time":3298000000000,"state":"active","ping":53},{"user_id":455,"name":"LoremIpsum","steam_id":76561198401854615,"connected_time":3233000000000,"state":"active","ping":64},{"user_id":462,"name":"bobtheninjaman","steam_id":76561198066424544,"connected_time":2189000000000,"state":"active","ping":82},{"user_id":483,"name":"Keamy","steam_id":76561199471434875,"connected_time":1280000000000,"state":"active","ping":36},{"user_id":467,"name":"PopcornBucketGames","steam_id":76561199089562026,"connected_time":1907000000000,"state":"active","ping":54},{"user_id":488,"name":"Sentient Trash Can","steam_id":76561199438622491,"connected_time":718000000000,"state":"active","ping":62},{"user_id":490,"name":"jorts","steam_id":76561199041179985,"connected_time":358000000000,"state":"active","ping":62}]},{"server_id":406,"name":"Uncletopia | Seattle | 3 | Stopwatch Beta","name_short":"sea-3","host":"sea-1.us.uncletopia.com","port":27035,"enabled":true,"region":"us-west","cc":"us","latitude":47.608013,"longitude":-122.33517,"reserved":0,"last_update":"0001-01-01T00:00:00Z","name_a2s":"Uncletopia | Seattle | 3 | Stopwatch Beta","protocol":17,"map":"workshop/koth_ramjam_rc1.ugc459778887","folder":"tf","game":"Team Fortress","app_id":440,"player_count":10,"max_players":24,"Bots":0,"server_type":"Dedicated","server_os":"Linux","password":true,"vac":true,"version":"7757534","steam_id":85568392924515217,"keywords":["cp","nocrits","nodmgspread","uncletopia"],"game_id":440,"stv_port":27036,"stv_name":"Uncletopia | Seattle | 3 | Stopwatch Beta | STV","players":[{"user_id":176,"name":"Serbian Stalker","steam_id":76561199182959265,"connected_time":7760000000000,"state":"active","ping":75},{"user_id":284,"name":"miscellaneous","steam_id":76561199436642954,"connected_time":522000000000,"state":"active","ping":59},{"user_id":177,"name":"justapikmin","steam_id":76561199023650282,"connected_time":7746000000000,"state":"active","ping":101},{"user_id":285,"name":"Long Dong Silver","steam_id":76561198331087811,"connected_time":503000000000,"state":"active","ping":92},{"user_id":221,"name":"A Puppy","steam_id":76561198828184456,"connected_time":4682000000000,"state":"active","ping":104},{"user_id":286,"name":"Leaderofthe00fkins","steam_id":76561198281999872,"connected_time":388000000000,"state":"active","ping":68},{"user_id":287,"name":"I regret nothing","steam_id":76561198399261089,"connected_time":368000000000,"state":"active","ping":58},{"user_id":248,"name":"Ellis","steam_id":76561198993634489,"connected_time":3008000000000,"state":"active","ping":72},{"user_id":277,"name":"Pyrolimited","steam_id":76561198195455657,"connected_time":1035000000000,"state":"active","ping":47},{"user_id":279,"name":"shoe","steam_id":76561198451476220,"connected_time":975000000000,"state":"active","ping":59}]},{"server_id":17,"name":"Uncletopia | San Francisco | 1 | All Maps","name_short":"sfo-1","host":"sfo-1.us.uncletopia.com","port":27015,"enabled":true,"region":"us-west","cc":"us","latitude":37.77397,"longitude":-122.4313,"reserved":0,"last_update":"0001-01-01T00:00:00Z","name_a2s":"Uncletopia | San Francisco | 1 | All Maps","protocol":17,"map":"cp_sunshine","folder":"tf","game":"Team Fortress","app_id":440,"player_count":19,"max_players":24,"Bots":0,"server_type":"Dedicated","server_os":"Linux","password":true,"vac":true,"version":"7757534","steam_id":85568392924469999,"keywords":["cp","nocrits","nodmgspread","uncletopia"],"game_id":440,"stv_port":27016,"stv_name":"Uncletopia | San Francisco | 1 | All Maps | STV","players":[{"user_id":399,"name":"_Ati","steam_id":76561198339777801,"connected_time":4813000000000,"state":"active","ping":73},{"user_id":369,"name":"G‡∂ûMER","steam_id":76561198340389876,"connected_time":7909000000000,"state":"active","ping":73},{"user_id":465,"name":"Duty Enjoyer","steam_id":76561198831760421,"connected_time":85000000000,"state":"active","ping":131},{"user_id":461,"name":"Miro","steam_id":76561198936412406,"connected_time":248000000000,"state":"active","ping":127},{"user_id":438,"name":"‡∏∏","steam_id":76561199140164173,"connected_time":1344000000000,"state":"active","ping":44},{"user_id":462,"name":"Liam0Bot","steam_id":76561198336006061,"connected_time":231000000000,"state":"active","ping":65},{"user_id":466,"name":"Marge \"ZaZa\" Simpson","steam_id":76561198156496197,"connected_time":61000000000,"state":"active","ping":99},{"user_id":423,"name":"Idiotden","steam_id":76561199340950135,"connected_time":2708000000000,"state":"active","ping":48},{"user_id":440,"name":"TacoBellEmployee","steam_id":76561199088415420,"connected_time":1288000000000,"state":"active","ping":90},{"user_id":451,"name":"CrAKKhEAd√ò√ü","steam_id":76561199233952747,"connected_time":923000000000,"state":"active","ping":68},{"user_id":452,"name":"bleachedjoy","steam_id":76561198070495321,"connected_time":669000000000,"state":"active","ping":67},{"user_id":458,"name":"Titocheeto","steam_id":76561198994684924,"connected_time":355000000000,"state":"active","ping":105},{"user_id":448,"name":"mentos14","steam_id":76561198097993629,"connected_time":1028000000000,"state":"active","ping":61},{"user_id":444,"name":"squilith","steam_id":76561198134923092,"connected_time":1200000000000,"state":"active","ping":54},{"user_id":424,"name":"FRANKY!!!","steam_id":76561199211305343,"connected_time":2697000000000,"state":"active","ping":50},{"user_id":453,"name":"Sakisano","steam_id":76561198245814880,"connected_time":616000000000,"state":"active","ping":100},{"user_id":449,"name":"gazoig","steam_id":76561199041519004,"connected_time":1007000000000,"state":"active","ping":48},{"user_id":383,"name":"Jimmy","steam_id":76561198857959855,"connected_time":6207000000000,"state":"active","ping":54},{"user_id":450,"name":"Mjaddix","steam_id":76561198035505965,"connected_time":974000000000,"state":"active","ping":55}]},{"server_id":18,"name":"Uncletopia | San Francisco | 2 | All Maps","name_short":"sfo-2","host":"sfo-1.us.uncletopia.com","port":27025,"enabled":true,"region":"us-west","cc":"us","latitude":37.77397,"longitude":-122.4313,"reserved":0,"last_update":"0001-01-01T00:00:00Z","name_a2s":"Uncletopia | San Francisco | 2 | All Maps","protocol":17,"map":"pl_upward","folder":"tf","game":"Team Fortress","app_id":440,"player_count":24,"max_players":24,"Bots":0,"server_type":"Dedicated","server_os":"Linux","password":true,"vac":true,"version":"7757534","steam_id":85568392924470000,"keywords":["nocrits","nodmgspread","payload","uncletopia"],"game_id":440,"stv_port":27026,"stv_name":"Uncletopia | San Francisco | 2 | All Maps | STV","players":[{"user_id":130,"name":"Eden Hazard","steam_id":76561198089241053,"connected_time":3408000000000,"state":"active","ping":103},{"user_id":136,"name":"greens beans","steam_id":76561198153611491,"connected_time":2474000000000,"state":"active","ping":56},{"user_id":154,"name":"hoodclips","steam_id":76561198253706796,"connected_time":558000000000,"state":"active","ping":61},{"user_id":150,"name":"kintsugi","steam_id":76561198014583939,"connected_time":940000000000,"state":"active","ping":45},{"user_id":155,"name":"Kevster805","steam_id":76561198188074049,"connected_time":518000000000,"state":"active","ping":45},{"user_id":112,"name":"info","steam_id":76561197989806185,"connected_time":4936000000000,"state":"active","ping":74},{"user_id":137,"name":"OlimarsDisciple","steam_id":76561198798700505,"connected_time":2438000000000,"state":"active","ping":72},{"user_id":157,"name":"fortniteBoost.net","steam_id":76561198254464898,"connected_time":385000000000,"state":"active","ping":62},{"user_id":64,"name":"Giselle","steam_id":76561198162593640,"connected_time":8664000000000,"state":"active","ping":110},{"user_id":147,"name":"madi's sexy and crunchy pickle\ufffd","steam_id":76561198361917585,"connected_time":1799000000000,"state":"active","ping":49},{"user_id":156,"name":"zozo","steam_id":76561198031297359,"connected_time":471000000000,"state":"active","ping":44},{"user_id":122,"name":"Ekuseebia","steam_id":76561198037504112,"connected_time":4010000000000,"state":"active","ping":78},{"user_id":158,"name":"sweaterfan","steam_id":76561199389567214,"connected_time":102000000000,"state":"active","ping":106},{"user_id":116,"name":"Moshi Man","steam_id":76561198038249762,"connected_time":4670000000000,"state":"active","ping":105},{"user_id":140,"name":"Squigzy_","steam_id":76561198061696667,"connected_time":2047000000000,"state":"active","ping":104},{"user_id":54,"name":"Zero","steam_id":76561199383267408,"connected_time":9013000000000,"state":"active","ping":89},{"user_id":115,"name":"Tangle","steam_id":76561198019027998,"connected_time":4851000000000,"state":"active","ping":85},{"user_id":144,"name":"Surfing Garchomp","steam_id":76561199107236884,"connected_time":1912000000000,"state":"active","ping":80},{"user_id":107,"name":"TTV/YT Hunter","steam_id":76561198115812405,"connected_time":5198000000000,"state":"active","ping":139},{"user_id":159,"name":"help me","steam_id":76561198844273999,"connected_time":71000000000,"state":"active","ping":61},{"user_id":135,"name":"noellehound","steam_id":76561198108844158,"connected_time":2909000000000,"state":"active","ping":64},{"user_id":146,"name":"DoubleTee","steam_id":76561198018980347,"connected_time":1852000000000,"state":"active","ping":136},{"user_id":153,"name":"Jason the DemoKnight main","steam_id":76561199100258990,"connected_time":732000000000,"state":"active","ping":99},{"user_id":73,"name":"Ian","steam_id":76561198159334435,"connected_time":7172000000000,"state":"active","ping":174}]},{"server_id":19,"name":"Uncletopia | San Francisco | 3 | Stopwatch Beta","name_short":"sfo-3","host":"sfo-1.us.uncletopia.com","port":27035,"enabled":true,"region":"us-west","cc":"us","latitude":37.77397,"longitude":-122.4313,"reserved":0,"last_update":"0001-01-01T00:00:00Z","name_a2s":"Uncletopia | San Francisco | 3 | Stopwatch Beta","protocol":17,"map":"workshop/koth_ashville_final.ugc2130459942","folder":"tf","game":"Team Fortress","app_id":440,"player_count":0,"max_players":24,"Bots":0,"server_type":"Dedicated","server_os":"Linux","password":true,"vac":true,"version":"7757534","steam_id":85568392924742824,"keywords":["cp","nocrits","nodmgspread","uncletopia"],"game_id":440,"stv_port":27036,"stv_name":"Uncletopia | San Francisco | 3 | Stopwatch Beta | STV","players":null},{"server_id":20,"name":"Uncletopia | San Francisco | 4 | Community","name_short":"sfo-4","host":"sfo-1.us.uncletopia.com","port":27045,"enabled":true,"region":"us-west","cc":"us","latitude":37.77397,"longitude":-122.4313,"reserved":0,"last_update":"0001-01-01T00:00:00Z","name_a2s":"Uncletopia | San Francisco | 4 | Community","protocol":17,"map":"workshop/rd_asteroid_redux_b1.ugc2154902912","folder":"tf","game":"Team Fortress","app_id":440,"player_count":0,"max_players":24,"Bots":0,"server_type":"Dedicated","server_os":"Linux","password":true,"vac":true,"version":"7757534","steam_id":85568392924742826,"keywords":["beta","nocrits","nodmgspread","rd","uncletopia"],"game_id":440,"stv_port":27046,"stv_name":"Uncletopia | San Francisco | 4 | Community | STV","players":null},{"server_id":141,"name":"Uncletopia | Sydney | 1 | All Maps","name_short":"syd-1","host":"syd-1.au.uncletopia.com","port":27015,"enabled":true,"region":"au","cc":"au","latitude":-33.865143,"longitude":151.2099,"reserved":0,"last_update":"0001-01-01T00:00:00Z","name_a2s":"Uncletopia | Sydney | 1 | All Maps","protocol":17,"map":"pl_swiftwater_final1","folder":"tf","game":"Team Fortress","app_id":440,"player_count":24,"max_players":24,"Bots":0,"server_type":"Dedicated","server_os":"Linux","password":true,"vac":true,"version":"7757534","steam_id":85568392924470001,"keywords":["nocrits","nodmgspread","payload","uncletopia"],"game_id":440,"stv_port":27016,"stv_name":"Uncletopia | Sydney | 1 | All Maps | STV","players":[{"user_id":443,"name":"the weed alien","steam_id":76561199205171109,"connected_time":2229000000000,"state":"active","ping":60},{"user_id":448,"name":"V.Z.","steam_id":76561198289101527,"connected_time":2068000000000,"state":"active","ping":45},{"user_id":444,"name":"Ganome Chilled","steam_id":76561198064898965,"connected_time":2194000000000,"state":"active","ping":78},{"user_id":474,"name":"Float","steam_id":76561198021812511,"connected_time":839000000000,"state":"active","ping":60},{"user_id":469,"name":"Arbitrary Arbiter","steam_id":76561199178964453,"connected_time":1132000000000,"state":"active","ping":165},{"user_id":400,"name":"Jodelk√∂nig Franzl Lang","steam_id":76561198007667830,"connected_time":4892000000000,"state":"active","ping":56},{"user_id":463,"name":"Sover blw.tf","steam_id":76561198136347837,"connected_time":1470000000000,"state":"active","ping":146},{"user_id":445,"name":"Anxiety","steam_id":76561198062130469,"connected_time":2166000000000,"state":"active","ping":76},{"user_id":473,"name":"Chocolate Lightning","steam_id":76561198213958971,"connected_time":891000000000,"state":"active","ping":122},{"user_id":470,"name":"Kilking","steam_id":76561198843968881,"connected_time":1093000000000,"state":"active","ping":68},{"user_id":480,"name":"laptop","steam_id":76561198104810002,"connected_time":216000000000,"state":"active","ping":46},{"user_id":450,"name":"Natebox","steam_id":76561198027457443,"connected_time":2000000000000,"state":"active","ping":84},{"user_id":467,"name":"Marsguard","steam_id":76561198113775091,"connected_time":1235000000000,"state":"active","ping":60},{"user_id":468,"name":"Cosmic","steam_id":76561199187372152,"connected_time":1228000000000,"state":"active","ping":86},{"user_id":464,"name":"Bobby Wilkinson","steam_id":76561198054985347,"connected_time":1377000000000,"state":"active","ping":58},{"user_id":440,"name":"distraction","steam_id":76561198119112358,"connected_time":2745000000000,"state":"active","ping":49},{"user_id":478,"name":"Candler","steam_id":76561198302841509,"connected_time":374000000000,"state":"active","ping":59},{"user_id":334,"name":"Jiffy360","steam_id":76561198149550772,"connected_time":9432000000000,"state":"active","ping":94},{"user_id":416,"name":"Rashid Of The Dank Memes","steam_id":76561198281398078,"connected_time":4034000000000,"state":"active","ping":66},{"user_id":482,"name":"exceptional hygiene","steam_id":76561198039920735,"connected_time":89000000000,"state":"active","ping":48},{"user_id":430,"name":"LibertyValence","steam_id":76561197992384359,"connected_time":3334000000000,"state":"active","ping":54},{"user_id":477,"name":"itsnothenry","steam_id":76561197966455767,"connected_time":416000000000,"state":"active","ping":60},{"user_id":479,"name":"Selling Anti-Matter for $543","steam_id":76561198070708382,"connected_time":368000000000,"state":"active","ping":45},{"user_id":439,"name":"Sy 4","steam_id":76561198879862702,"connected_time":2858000000000,"state":"active","ping":67}]},{"server_id":123,"name":"Uncletopia | Sydney | 2 | All Maps","name_short":"syd-2","host":"syd-1.au.uncletopia.com","port":27025,"enabled":true,"region":"au","cc":"au","latitude":-33.865143,"longitude":151.2099,"reserved":0,"last_update":"0001-01-01T00:00:00Z","name_a2s":"Uncletopia | Sydney | 2 | All Maps","protocol":17,"map":"cp_dustbowl","folder":"tf","game":"Team Fortress","app_id":440,"player_count":12,"max_players":24,"Bots":0,"server_type":"Dedicated","server_os":"Linux","password":true,"vac":true,"version":"7757534","steam_id":85568392924470002,"keywords":["cp","nocrits","nodmgspread","uncletopia"],"game_id":440,"stv_port":27026,"stv_name":"Uncletopia | Sydney | 2 | All Maps | STV","players":[{"user_id":142,"name":"Jellyfish_kurage","steam_id":76561198425670698,"connected_time":5378000000000,"state":"active","ping":55},{"user_id":181,"name":"Zieria","steam_id":76561199261811388,"connected_time":1763000000000,"state":"active","ping":37},{"user_id":182,"name":"uh oh! bad decision, mark!","steam_id":76561199057568663,"connected_time":1729000000000,"state":"active","ping":57},{"user_id":197,"name":"164KiloBytes","steam_id":76561198889481715,"connected_time":358000000000,"state":"active","ping":83},{"user_id":153,"name":"Candy_Cane19","steam_id":76561198978478925,"connected_time":4609000000000,"state":"active","ping":58},{"user_id":192,"name":"Phobia¬≤","steam_id":76561198038833524,"connected_time":593000000000,"state":"active","ping":59},{"user_id":201,"name":"NexGenInsanity","steam_id":76561198109801641,"connected_time":13000000000,"state":"spawning","ping":58},{"user_id":200,"name":"hazz_mcpie -BvM-","steam_id":76561198092450084,"connected_time":71000000000,"state":"active","ping":77},{"user_id":193,"name":"ToadFungus","steam_id":76561199219667039,"connected_time":586000000000,"state":"active","ping":105},{"user_id":164,"name":"Glockenspe (She/Her)","steam_id":76561199184115241,"connected_time":3180000000000,"state":"active","ping":57},{"user_id":175,"name":"bobo","steam_id":76561198156622144,"connected_time":2472000000000,"state":"active","ping":45},{"user_id":198,"name":"\u003e:FrozenDragon:\u003c","steam_id":76561198227960928,"connected_time":295000000000,"state":"active","ping":105}]},{"server_id":395,"name":"Uncletopia | Sydney | 3 | All Maps","name_short":"syd-3","host":"syd-1.au.uncletopia.com","port":27035,"enabled":true,"region":"au","cc":"au","latitude":-33.865143,"longitude":151.2099,"reserved":0,"last_update":"0001-01-01T00:00:00Z","name_a2s":"Uncletopia | Sydney | 3 | All Maps","protocol":17,"map":"koth_viaduct","folder":"tf","game":"Team Fortress","app_id":440,"player_count":0,"max_players":24,"Bots":0,"server_type":"Dedicated","server_os":"Linux","password":true,"vac":true,"version":"7757534","steam_id":85568392925194467,"keywords":["cp","nocrits","nodmgspread","uncletopia"],"game_id":440,"stv_port":27036,"stv_name":"Uncletopia | Sydney | 3 | All Maps | STV","players":null},{"server_id":396,"name":"Uncletopia | Sydney | 4 | All Maps","name_short":"syd-4","host":"syd-1.au.uncletopia.com","port":27045,"enabled":true,"region":"au","cc":"au","latitude":-33.865143,"longitude":151.2099,"reserved":0,"last_update":"0001-01-01T00:00:00Z","name_a2s":"Uncletopia | Sydney | 4 | All Maps","protocol":17,"map":"koth_highpass","folder":"tf","game":"Team Fortress","app_id":440,"player_count":0,"max_players":24,"Bots":0,"server_type":"Dedicated","server_os":"Linux","password":true,"vac":true,"version":"7757534","steam_id":85568392925397958,"keywords":["cp","nocrits","nodmgspread","uncletopia"],"game_id":440,"stv_port":27046,"stv_name":"Uncletopia | Sydney | 4 | All Maps | STV","players":null},{"server_id":58,"name":"Uncletopia | Sydney | 5 | Stopwatch Beta","name_short":"syd-5","host":"syd-1.au.uncletopia.com","port":27055,"enabled":true,"region":"au","cc":"au","latitude":-33.865143,"longitude":151.2099,"reserved":0,"last_update":"0001-01-01T00:00:00Z","name_a2s":"Uncletopia | Sydney | 5 | Stopwatch Beta","protocol":17,"map":"pl_upward","folder":"tf","game":"Team Fortress","app_id":440,"player_count":0,"max_players":24,"Bots":0,"server_type":"Dedicated","server_os":"Linux","password":true,"vac":true,"version":"7757534","steam_id":85568392925397959,"keywords":["nocrits","nodmgspread","payload","uncletopia"],"game_id":440,"stv_port":27056,"stv_name":"Uncletopia | Sydney | 5 | Stopwatch Beta | STV","players":null},{"server_id":59,"name":"Uncletopia | Sydney | 6 | Community","name_short":"syd-6","host":"syd-1.au.uncletopia.com","port":27065,"enabled":true,"region":"au","cc":"au","latitude":-33.865143,"longitude":151.2099,"reserved":0,"last_update":"0001-01-01T00:00:00Z","name_a2s":"Uncletopia | Sydney | 6 | Community","protocol":17,"map":"workshop/cp_logjam_rc12.ugc454812035","folder":"tf","game":"Team Fortress","app_id":440,"player_count":0,"max_players":24,"Bots":0,"server_type":"Dedicated","server_os":"Linux","password":true,"vac":true,"version":"7757534","steam_id":85568392925397960,"keywords":["cp","nocrits","nodmgspread","uncletopia"],"game_id":440,"stv_port":27066,"stv_name":"Uncletopia | Sydney | 6 | Community | STV","players":null},{"server_id":49,"name":"Uncletopia | Warsaw | 1 | All Maps","name_short":"waw-1","host":"waw-1.pl.uncletopia.com","port":27015,"enabled":true,"region":"eu","cc":"pl","latitude":52.2297,"longitude":21.017532,"reserved":0,"last_update":"0001-01-01T00:00:00Z","name_a2s":"","protocol":0,"map":"","folder":"","game":"","app_id":0,"player_count":0,"max_players":0,"Bots":0,"server_type":"","server_os":"","password":false,"vac":false,"version":"","steam_id":0,"keywords":null,"game_id":0,"stv_port":0,"stv_name":"","players":null},{"server_id":50,"name":"Uncletopia | Warsaw | 2 | All Maps","name_short":"waw-2","host":"waw-1.pl.uncletopia.com","port":27025,"enabled":true,"region":"eu","cc":"pl","latitude":52.2297,"longitude":21.017532,"reserved":0,"last_update":"0001-01-01T00:00:00Z","name_a2s":"Uncletopia | Warsaw | 2 | All Maps","protocol":17,"map":"koth_viaduct","folder":"tf","game":"Team Fortress","app_id":440,"player_count":1,"max_players":24,"Bots":0,"server_type":"Dedicated","server_os":"Linux","password":true,"vac":true,"version":"7757534","steam_id":85568392925397851,"keywords":["cp","nocrits","nodmgspread","uncletopia"],"game_id":440,"stv_port":27026,"stv_name":"Uncletopia | Warsaw | 2 | All Maps | STV","players":[{"user_id":3,"name":"ja","steam_id":76561199228540618,"connected_time":179000000000,"state":"active","ping":60}]},{"server_id":51,"name":"Uncletopia | Warsaw | 3 | All Maps","name_short":"waw-3","host":"waw-1.pl.uncletopia.com","port":27035,"enabled":true,"region":"eu","cc":"pl","latitude":52.2297,"longitude":21.017532,"reserved":0,"last_update":"0001-01-01T00:00:00Z","name_a2s":"Uncletopia | Warsaw | 3 | All Maps","protocol":17,"map":"pl_badwater","folder":"tf","game":"Team Fortress","app_id":440,"player_count":0,"max_players":24,"Bots":0,"server_type":"Dedicated","server_os":"Linux","password":true,"vac":true,"version":"7757534","steam_id":85568392925397852,"keywords":["nocrits","nodmgspread","payload","uncletopia"],"game_id":440,"stv_port":27036,"stv_name":"Uncletopia | Warsaw | 3 | All Maps | STV","players":null},{"server_id":52,"name":"Uncletopia | Warsaw | 4 | All Maps","name_short":"waw-4","host":"waw-1.pl.uncletopia.com","port":27045,"enabled":true,"region":"eu","cc":"pl","latitude":52.2297,"longitude":21.017532,"reserved":0,"last_update":"0001-01-01T00:00:00Z","name_a2s":"Uncletopia | Warsaw | 4 | All Maps","protocol":17,"map":"koth_lakeside_final","folder":"tf","game":"Team Fortress","app_id":440,"player_count":0,"max_players":24,"Bots":0,"server_type":"Dedicated","server_os":"Linux","password":true,"vac":true,"version":"7757534","steam_id":85568392925397853,"keywords":["cp","nocrits","nodmgspread","uncletopia"],"game_id":440,"stv_port":27046,"stv_name":"Uncletopia | Warsaw | 4 | All Maps | STV","players":null},{"server_id":53,"name":"Uncletopia | Warsaw | 5 | Stopwatch Beta","name_short":"waw-5","host":"waw-1.pl.uncletopia.com","port":27055,"enabled":true,"region":"eu","cc":"pl","latitude":52.2297,"longitude":21.017532,"reserved":0,"last_update":"0001-01-01T00:00:00Z","name_a2s":"Uncletopia | Warsaw | 5 | Stopwatch Beta","protocol":17,"map":"pl_borneo","folder":"tf","game":"Team Fortress","app_id":440,"player_count":0,"max_players":24,"Bots":0,"server_type":"Dedicated","server_os":"Linux","password":true,"vac":true,"version":"7757534","steam_id":85568392925397854,"keywords":["nocrits","nodmgspread","payload","uncletopia"],"game_id":440,"stv_port":27056,"stv_name":"Uncletopia | Warsaw | 5 | Stopwatch Beta | STV","players":null},{"server_id":54,"name":"Uncletopia | Warsaw | 6 | Community","name_short":"waw-6","host":"waw-1.pl.uncletopia.com","port":27065,"enabled":true,"region":"eu","cc":"pl","latitude":52.2297,"longitude":21.017532,"reserved":0,"last_update":"0001-01-01T00:00:00Z","name_a2s":"Uncletopia | Warsaw | 6 | Community","protocol":17,"map":"koth_lakeside_final","folder":"tf","game":"Team Fortress","app_id":440,"player_count":0,"max_players":24,"Bots":0,"server_type":"Dedicated","server_os":"Linux","password":true,"vac":true,"version":"7757534","steam_id":85568392925397856,"keywords":["cp","nocrits","nodmgspread","uncletopia"],"game_id":440,"stv_port":27066,"stv_name":"Uncletopia | Warsaw | 6 | Community | STV","players":null}]}