{"status":true,"message":"","result":[{"server_id":0,"name_short":"","name":"Uncletopia | Warsaw | 2 | One Thousand Uncles","host":"","port":0,"enabled":false,"region":"","cc":"","latitude":0,"longitude":0,"reserved":0,"last_update":"0001-01-01T00:00:00Z","protocol":17,"map":"pl_goldrush","folder":"tf","game":"Team Fortress","app_id":440,"player_count":0,"max_players":32,"Bots":0,"server_type":"Dedicated","server_os":"Linux","password":true,"vac":true,"version":"7961495","steam_id":85568392925397851,"keywords":["alltalk","danepve","increased_maxplayers","norespawntime","payload","uncletopia"],"edicts":[1133,2048],"game_id":440,"stv_port":0,"stv_name":"","players":null},{"server_id":0,"name_short":"","name":"Uncletopia | Sydney | 2 | All Maps","host":"","port":0,"enabled":false,"region":"","cc":"","latitude":0,"longitude":0,"reserved":0,"last_update":"0001-01-01T00:00:00Z","protocol":17,"map":"pl_frontier_final","folder":"tf","game":"Team Fortress","app_id":440,"player_count":1,"max_players":24,"Bots":0,"server_type":"Dedicated","server_os":"Linux","password":true,"vac":true,"version":"7961495","steam_id":85568392924470002,"keywords":["nocrits","nodmgspread","payload","uncletopia"],"edicts":[749,2048],"game_id":440,"stv_port":27026,"stv_name":"Uncletopia | Sydney | 2 | All Maps | STV","players":[{"user_id":10,"name":"7th xsiin","steam_id":76561198050128614,"connected_time":259000000000,"state":"active","ping":62}]},{"server_id":0,"name_short":"","name":"Uncletopia | Dallas | 1 | All Maps","host":"","port":0,"enabled":false,"region":"","cc":"","latitude":0,"longitude":0,"reserved":0,"last_update":"0001-01-01T00:00:00Z","protocol":17,"map":"koth_viaduct","folder":"tf","game":"Team Fortress","app_id":440,"player_count":24,"max_players":24,"Bots":0,"server_type":"Dedicated","server_os":"Linux","password":true,"vac":true,"version":"7961495","steam_id":85568392924469986,"keywords":["cp","nocrits","nodmgspread","uncletopia"],"edicts":[493,2048],"game_id":440,"stv_port":27016,"stv_name":"Uncletopia | Dallas | 1 | All Maps | STV","players":[{"user_id":303,"name":"Derblitz","steam_id":76561198040953176,"connected_time":2044000000000,"state":"active","ping":87},{"user_id":321,"name":"StudioMania (#SAVETF2)","steam_id":76561198211315795,"connected_time":1477000000000,"state":"active","ping":78},{"user_id":315,"name":"Normalux","steam_id":76561198293891426,"connected_time":1709000000000,"state":"active","ping":95},{"user_id":337,"name":"cloaker","steam_id":76561199453618642,"connected_time":223000000000,"state":"active","ping":92},{"user_id":324,"name":"Gl√ºhbirne","steam_id":76561198189278869,"connected_time":908000000000,"state":"active","ping":69},{"user_id":300,"name":"triph","steam_id":76561198067196509,"connected_time":2494000000000,"state":"active","ping":75},{"user_id":312,"name":"Dr. No Name","steam_id":76561198058656869,"connected_time":1854000000000,"state":"active","ping":162},{"user_id":339,"name":"FanaticSalt","steam_id":76561199380123059,"connected_time":12000000000,"state":"spawning","ping":64},{"user_id":330,"name":"coolbust carti","steam_id":76561198065384345,"connected_time":583000000000,"state":"active","ping":85},{"user_id":331,"name":"squabble","steam_id":76561198955248082,"connected_time":581000000000,"state":"active","ping":57},{"user_id":332,"name":"Degree","steam_id":76561198059812393,"connected_time":499000000000,"state":"active","ping":90},{"user_id":107,"name":"Perry (The White Fang Goon)","steam_id":76561198870926636,"connected_time":11741000000000,"state":"active","ping":81},{"user_id":275,"name":"tsz","steam_id":76561199246231090,"connected_time":4031000000000,"state":"active","ping":129},{"user_id":325,"name":"Tomato","steam_id":76561197996472649,"connected_time":890000000000,"state":"active","ping":88},{"user_id":338,"name":"amaz","steam_id":76561198386233160,"connected_time":119000000000,"state":"active","ping":61},{"user_id":316,"name":"DrMisteryous2","steam_id":76561198336307012,"connected_time":1708000000000,"state":"active","ping":181},{"user_id":328,"name":"Tophatter","steam_id":76561199487676443,"connected_time":708000000000,"state":"active","ping":62},{"user_id":318,"name":"Spinch","steam_id":76561198296224166,"connected_time":1589000000000,"state":"active","ping":59},{"user_id":296,"name":"Deeply","steam_id":76561199000786530,"connected_time":2606000000000,"state":"active","ping":75},{"user_id":319,"name":"Publo","steam_id":76561198161777140,"connected_time":1564000000000,"state":"active","ping":58},{"user_id":334,"name":"Lord Baconsworth III Esquire","steam_id":76561198155318419,"connected_time":431000000000,"state":"active","ping":56},{"user_id":322,"name":"Speedy","steam_id":76561198873086850,"connected_time":1465000000000,"state":"active","ping":94},{"user_id":335,"name":"Doc Mochi","steam_id":76561198035479925,"connected_time":412000000000,"state":"active","ping":68},{"user_id":311,"name":"Babypool","steam_id":76561198329213832,"connected_time":1909000000000,"state":"active","ping":72}]},{"server_id":0,"name_short":"","name":"Uncletopia | London | 4 | All Maps","host":"","port":0,"enabled":false,"region":"","cc":"","latitude":0,"longitude":0,"reserved":0,"last_update":"0001-01-01T00:00:00Z","protocol":17,"map":"cp_process_final","folder":"tf","game":"Team Fortress","app_id":440,"player_count":0,"max_players":24,"Bots":0,"server_type":"Dedicated","server_os":"Linux","password":true,"vac":true,"version":"7961495","steam_id":85568392924510193,"keywords":["cp","nocrits","nodmgspread","uncletopia"],"edicts":[538,2048],"game_id":440,"stv_port":27046,"stv_name":"Uncletopia | London | 4 | All Maps | STV","players":null},{"server_id":0,"name_short":"","name":"Uncletopia | London | 2 | All Maps","host":"","port":0,"enabled":false,"region":"","cc":"","latitude":0,"longitude":0,"reserved":0,"last_update":"0001-01-01T00:00:00Z","protocol":17,"map":"koth_highpass","folder":"tf","game":"Team Fortress","app_id":440,"player_count":0,"max_players":24,"Bots":0,"server_type":"Dedicated","server_os":"Linux","password":true,"vac":true,"version":"7961495","steam_id":85568392924470941,"keywords":["cp","nocrits","nodmgspread","uncletopia"],"edicts":[413,2048],"game_id":440,"stv_port":27026,"stv_name":"Uncletopia | London | 2 | All Maps | STV","players":null},{"server_id":0,"name_short":"","name":"Uncletopia | London | 3 | All Maps","host":"","port":0,"enabled":false,"region":"","cc":"","latitude":0,"longitude":0,"reserved":0,"last_update":"0001-01-01T00:00:00Z","protocol":17,"map":"pl_swiftwater_final1","folder":"tf","game":"Team Fortress","app_id":440,"player_count":24,"max_players":24,"Bots":0,"server_type":"Dedicated","server_os":"Linux","password":true,"vac":true,"version":"7961495","steam_id":85568392924510192,"keywords":["nocrits","nodmgspread","payload","uncletopia"],"edicts":[1219,2048],"game_id":440,"stv_port":27036,"stv_name":"Uncletopia | London | 3 | All Maps | STV","players":[{"user_id":360,"name":"ULTIDUO CUP BatChest","steam_id":76561198051852765,"connected_time":2015000000000,"state":"active","ping":75},{"user_id":379,"name":"kiddie groomer association","steam_id":76561199510662823,"connected_time":774000000000,"state":"active","ping":101},{"user_id":381,"name":"Silver\u003c3 (12k hours and trash)","steam_id":76561198022351828,"connected_time":343000000000,"state":"active","ping":45},{"user_id":386,"name":"Estamie","steam_id":76561198058527691,"connected_time":293000000000,"state":"active","ping":74},{"user_id":382,"name":"radek","steam_id":76561197998883721,"connected_time":330000000000,"state":"active","ping":72},{"user_id":383,"name":"al","steam_id":76561199101813776,"connected_time":315000000000,"state":"active","ping":49},{"user_id":387,"name":"sam_","steam_id":76561198814734120,"connected_time":269000000000,"state":"active","ping":107},{"user_id":380,"name":"kael","steam_id":76561198041128282,"connected_time":387000000000,"state":"active","ping":82},{"user_id":384,"name":"Cheshireycat","steam_id":76561198067204908,"connected_time":302000000000,"state":"active","ping":59},{"user_id":385,"name":"mud","steam_id":76561198141497461,"connected_time":298000000000,"state":"active","ping":75},{"user_id":350,"name":"Napa cabbage","steam_id":76561198103825541,"connected_time":3587000000000,"state":"active","ping":135},{"user_id":363,"name":"glue eating champion","steam_id":76561198100963738,"connected_time":1857000000000,"state":"active","ping":45},{"user_id":390,"name":"Sivik","steam_id":76561198370329466,"connected_time":120000000000,"state":"active","ping":55},{"user_id":364,"name":"Coac","steam_id":76561198085265740,"connected_time":1814000000000,"state":"active","ping":72},{"user_id":373,"name":"KAISER OF KRIEG","steam_id":76561198011223050,"connected_time":1619000000000,"state":"active","ping":43},{"user_id":366,"name":"sword machine","steam_id":76561198895235231,"connected_time":1766000000000,"state":"active","ping":54},{"user_id":388,"name":"Costarona","steam_id":76561197989455970,"connected_time":266000000000,"state":"active","ping":75},{"user_id":369,"name":"your mum","steam_id":76561198086323694,"connected_time":1724000000000,"state":"active","ping":62},{"user_id":368,"name":"r06u3","steam_id":76561198254099253,"connected_time":1728000000000,"state":"active","ping":180},{"user_id":389,"name":"KittyKate ‚ù§","steam_id":76561198116340817,"connected_time":238000000000,"state":"active","ping":60},{"user_id":371,"name":"Four Legged Elsa ‚ù§","steam_id":76561198101502273,"connected_time":1720000000000,"state":"active","ping":45},{"user_id":353,"name":"fart","steam_id":76561198862535506,"connected_time":2810000000000,"state":"active","ping":75},{"user_id":377,"name":"BrownBreadMan","steam_id":76561199092834214,"connected_time":1025000000000,"state":"active","ping":49},{"user_id":372,"name":"Dei Genetrix","steam_id":76561198305678122,"connected_time":1718000000000,"state":"active","ping":49}]},{"server_id":0,"name_short":"","name":"Uncletopia | Frankfurt | 1 | All Maps","host":"","port":0,"enabled":false,"region":"","cc":"","latitude":0,"longitude":0,"reserved":0,"last_update":"0001-01-01T00:00:00Z","protocol":17,"map":"cp_snakewater_final1","folder":"tf","game":"Team Fortress","app_id":440,"player_count":24,"max_players":24,"Bots":0,"server_type":"Dedicated","server_os":"Linux","password":true,"vac":true,"version":"7961495","steam_id":85568392924469989,"keywords":["cp","nocrits","nodmgspread","uncletopia"],"edicts":[892,2048],"game_id":440,"stv_port":27016,"stv_name":"Uncletopia | Frankfurt | 1 | All Maps | STV","players":[{"user_id":801,"name":"i beat the last giant","steam_id":76561198080524596,"connected_time":471000000000,"state":"active","ping":49},{"user_id":785,"name":"hachi","steam_id":76561198074094477,"connected_time":1456000000000,"state":"active","ping":89},{"user_id":786,"name":"V.M. VARGA","steam_id":76561198227913628,"connected_time":1409000000000,"state":"active","ping":58},{"user_id":787,"name":"V.M  VARGA","steam_id":76561199262973361,"connected_time":1409000000000,"state":"active","ping":48},{"user_id":792,"name":"R8N - Obismal","steam_id":76561198007482714,"connected_time":1047000000000,"state":"active","ping":67},{"user_id":772,"name":"Jack","steam_id":76561198397105421,"connected_time":2184000000000,"state":"active","ping":66},{"user_id":782,"name":"Yarozak","steam_id":76561198138215623,"connected_time":1513000000000,"state":"active","ping":72},{"user_id":809,"name":"Nuuskis","steam_id":76561198084042012,"connected_time":56000000000,"state":"active","ping":67},{"user_id":799,"name":"FancyRancy","steam_id":76561198415354519,"connected_time":651000000000,"state":"active","ping":50},{"user_id":793,"name":"armadillo","steam_id":76561198324656652,"connected_time":1037000000000,"state":"active","ping":66},{"user_id":780,"name":"Vitun vittu","steam_id":76561198110679463,"connected_time":1600000000000,"state":"active","ping":76},{"user_id":800,"name":"ùôºùüπùöÅùô∫ùüøùü∑","steam_id":76561198149188604,"connected_time":580000000000,"state":"active","ping":146},{"user_id":742,"name":"Lucky Number 13","steam_id":76561198043951279,"connected_time":4247000000000,"state":"active","ping":69},{"user_id":802,"name":"mrrobsa","steam_id":76561197971287215,"connected_time":371000000000,"state":"active","ping":64},{"user_id":798,"name":"Solima","steam_id":76561198045349099,"connected_time":953000000000,"state":"active","ping":49},{"user_id":771,"name":"Arseni","steam_id":76561198042602892,"connected_time":2190000000000,"state":"active","ping":53},{"user_id":803,"name":"Wilderhammer","steam_id":76561198132133702,"connected_time":362000000000,"state":"active","ping":45},{"user_id":804,"name":"goop - Obismal","steam_id":76561198190073005,"connected_time":289000000000,"state":"active","ping":53},{"user_id":805,"name":"nut fast, chucklethink","steam_id":76561198151495820,"connected_time":231000000000,"state":"active","ping":92},{"user_id":746,"name":"Frazzle","steam_id":76561198262577951,"connected_time":4103000000000,"state":"active","ping":77},{"user_id":806,"name":"The cock","steam_id":76561198197304886,"connected_time":215000000000,"state":"active","ping":115},{"user_id":810,"name":"Valfezant","steam_id":76561199063983797,"connected_time":1000000000,"state":"spawning","ping":46},{"user_id":755,"name":"engineergaming","steam_id":76561199510512133,"connected_time":3167000000000,"state":"active","ping":113},{"user_id":808,"name":"Zero","steam_id":76561198179123885,"connected_time":116000000000,"state":"active","ping":122}]},{"server_id":0,"name_short":"","name":"Uncletopia | Sydney | 6 | Community","host":"","port":0,"enabled":false,"region":"","cc":"","latitude":0,"longitude":0,"reserved":0,"last_update":"0001-01-01T00:00:00Z","protocol":17,"map":"koth_soot_final1","folder":"tf","game":"Team Fortress","app_id":440,"player_count":0,"max_players":24,"Bots":0,"server_type":"Dedicated","server_os":"Linux","password":true,"vac":true,"version":"7961495","steam_id":85568392925397960,"keywords":["cp","nocrits","nodmgspread","uncletopia"],"edicts":[240,2048],"game_id":440,"stv_port":27066,"stv_name":"Uncletopia | Sydney | 6 | Community | STV","players":null},{"server_id":0,"name_short":"","name":"Uncletopia | Dallas | 4 | Community","host":"","port":0,"enabled":false,"region":"","cc":"","latitude":0,"longitude":0,"reserved":0,"last_update":"0001-01-01T00:00:00Z","protocol":17,"map":"koth_product_final","folder":"tf","game":"Team Fortress","app_id":440,"player_count":2,"max_players":24,"Bots":0,"server_type":"Dedicated","server_os":"Linux","password":true,"vac":true,"version":"7961495","steam_id":85568392924515220,"keywords":["cp","nocrits","nodmgspread","uncletopia"],"edicts":[388,2048],"game_id":440,"stv_port":27046,"stv_name":"Uncletopia | Dallas | 4 | Community | STV","players":[{"user_id":14,"name":"Orange","steam_id":76561198169914315,"connected_time":3652000000000,"state":"active","ping":60},{"user_id":15,"name":"drillstevejr","steam_id":76561198905993824,"connected_time":3559000000000,"state":"active","ping":116}]},{"server_id":0,"name_short":"","name":"Uncletopia | Seattle | 1 | All Maps","host":"","port":0,"enabled":false,"region":"","cc":"","latitude":0,"longitude":0,"reserved":0,"last_update":"0001-01-01T00:00:00Z","protocol":17,"map":"pl_swiftwater_final1","folder":"tf","game":"Team Fortress","app_id":440,"player_count":24,"max_players":24,"Bots":0,"server_type":"Dedicated","server_os":"Linux","password":true,"vac":true,"version":"7961495","steam_id":85568392924469997,"keywords":["nocrits","nodmgspread","payload","uncletopia"],"edicts":[1191,2048],"game_id":440,"stv_port":27016,"stv_name":"Uncletopia | Seattle | 1 | All Maps | STV","players":[{"user_id":469,"name":"Thunder","steam_id":76561198097721532,"connected_time":2081000000000,"state":"active","ping":134},{"user_id":439,"name":"Trips","steam_id":76561198054581597,"connected_time":5364000000000,"state":"active","ping":61},{"user_id":472,"name":"Arsonist Goose","steam_id":76561198147441830,"connected_time":2041000000000,"state":"active","ping":75},{"user_id":480,"name":"Cheetose Intolerant","steam_id":76561198013399809,"connected_time":1301000000000,"state":"active","ping":85},{"user_id":492,"name":"mega","steam_id":76561198089520959,"connected_time":515000000000,"state":"active","ping":74},{"user_id":498,"name":"Frebresio","steam_id":76561198353493333,"connected_time":71000000000,"state":"active","ping":79},{"user_id":459,"name":"Cheezbeargur","steam_id":76561198164702899,"connected_time":4058000000000,"state":"active","ping":68},{"user_id":478,"name":"t4rkus","steam_id":76561198233984300,"connected_time":1435000000000,"state":"active","ping":102},{"user_id":483,"name":"Dat1SpenceyBoi","steam_id":76561199446171976,"connected_time":1176000000000,"state":"active","ping":86},{"user_id":488,"name":"Just a Good Friend","steam_id":76561198140052403,"connected_time":602000000000,"state":"active","ping":76},{"user_id":499,"name":"Lobotomy enjoyer","steam_id":76561198857237473,"connected_time":0,"state":"spawning","ping":0},{"user_id":479,"name":"The Don","steam_id":76561198322125657,"connected_time":1435000000000,"state":"active","ping":68},{"user_id":476,"name":"FlamingManiac","steam_id":76561198361996837,"connected_time":1485000000000,"state":"active","ping":141},{"user_id":426,"name":"Eden","steam_id":76561198081284664,"connected_time":6054000000000,"state":"active","ping":87},{"user_id":487,"name":"Shah","steam_id":76561198047508851,"connected_time":621000000000,"state":"active","ping":53},{"user_id":496,"name":"Keamy","steam_id":76561199471434875,"connected_time":325000000000,"state":"active","ping":45},{"user_id":470,"name":"MrYadaization","steam_id":76561198050770818,"connected_time":2079000000000,"state":"active","ping":68},{"user_id":497,"name":"*moans*","steam_id":76561198103517327,"connected_time":263000000000,"state":"active","ping":52},{"user_id":495,"name":"Rock Eater","steam_id":76561198419378913,"connected_time":378000000000,"state":"active","ping":78},{"user_id":452,"name":"2 Point Tom","steam_id":76561198087617008,"connected_time":4777000000000,"state":"active","ping":57},{"user_id":482,"name":"The Benefactor","steam_id":76561198307247913,"connected_time":1252000000000,"state":"active","ping":86},{"user_id":460,"name":"Klone","steam_id":76561198854485605,"connected_time":3873000000000,"state":"active","ping":110},{"user_id":489,"name":"coco","steam_id":76561199488457138,"connected_time":599000000000,"state":"active","ping":66},{"user_id":491,"name":"ack.awesome676","steam_id":76561199109415958,"connected_time":581000000000,"state":"active","ping":73}]},{"server_id":0,"name_short":"","name":"Uncletopia | Chicago | 6 | All Maps","host":"","port":0,"enabled":false,"region":"","cc":"","latitude":0,"longitude":0,"reserved":0,"last_update":"0001-01-01T00:00:00Z","protocol":17,"map":"pl_borneo","folder":"tf","game":"Team Fortress","app_id":440,"player_count":19,"max_players":24,"Bots":0,"server_type":"Dedicated","server_os":"Linux","password":true,"vac":true,"version":"7961495","steam_id":85568392924866363,"keywords":["nocrits","nodmgspread","payload","uncletopia"],"edicts":[946,2048],"game_id":440,"stv_port":27026,"stv_name":"Uncletopia | Chicago | 6 | All Maps | STV","players":[{"user_id":90,"name":"Lain","steam_id":76561198029303534,"connected_time":339000000000,"state":"active","ping":65},{"user_id":93,"name":"whiteferrari","steam_id":76561198097086916,"connected_time":83000000000,"state":"active","ping":56},{"user_id":72,"name":"pickle","steam_id":76561198160650463,"connected_time":1615000000000,"state":"active","ping":48},{"user_id":57,"name":"Smashy","steam_id":76561198030704307,"connected_time":2174000000000,"state":"active","ping":75},{"user_id":67,"name":"Squigly","steam_id":76561198084811625,"connected_time":1762000000000,"state":"active","ping":71},{"user_id":81,"name":"moonwalker","steam_id":76561198021494055,"connected_time":530000000000,"state":"active","ping":90},{"user_id":84,"name":"Vigilante","steam_id":76561198370169088,"connected_time":474000000000,"state":"active","ping":65},{"user_id":77,"name":"ecks","steam_id":76561197978114705,"connected_time":797000000000,"state":"active","ping":77},{"user_id":86,"name":"ERORR","steam_id":76561198447492262,"connected_time":468000000000,"state":"active","ping":58},{"user_id":87,"name":"Tockbird","steam_id":76561199437964594,"connected_time":458000000000,"state":"active","ping":107},{"user_id":88,"name":"Little Skull Kid","steam_id":76561198040818333,"connected_time":424000000000,"state":"active","ping":174},{"user_id":79,"name":"MilesFireStorm","steam_id":76561198078642820,"connected_time":620000000000,"state":"active","ping":78},{"user_id":45,"name":"punk cock","steam_id":76561198418182764,"connected_time":2505000000000,"state":"active","ping":70},{"user_id":92,"name":"GlitchNoodles","steam_id":76561199009135766,"connected_time":89000000000,"state":"active","ping":48},{"user_id":91,"name":"no more fucks to give","steam_id":76561199129974320,"connected_time":227000000000,"state":"active","ping":62},{"user_id":78,"name":"Gotta Move That Gear Up","steam_id":76561197993467034,"connected_time":710000000000,"state":"active","ping":46},{"user_id":70,"name":"Shady Businessman","steam_id":76561198143855968,"connected_time":1628000000000,"state":"active","ping":95},{"user_id":73,"name":"FranckyFox2468","steam_id":76561198037679126,"connected_time":1594000000000,"state":"active","ping":72},{"user_id":76,"name":"Fred","steam_id":76561198114281255,"connected_time":899000000000,"state":"active","ping":69}]},{"server_id":0,"name_short":"","name":"Uncletopia | Hong Kong | 1 | All Maps","host":"","port":0,"enabled":false,"region":"","cc":"","latitude":0,"longitude":0,"reserved":0,"last_update":"0001-01-01T00:00:00Z","protocol":17,"map":"cp_metalworks","folder":"tf","game":"Team Fortress","app_id":440,"player_count":0,"max_players":24,"Bots":0,"server_type":"Dedicated","server_os":"Linux","password":true,"vac":true,"version":"7961495","steam_id":85568392924494504,"keywords":["cp","nocrits","nodmgspread","uncletopia"],"edicts":[461,2048],"game_id":440,"stv_port":27016,"stv_name":"Uncletopia | Hong Kong | 1 | All Maps | STV","players":null},{"server_id":0,"name_short":"","name":"Uncletopia | Sydney | 3 | All Maps","host":"","port":0,"enabled":false,"region":"","cc":"","latitude":0,"longitude":0,"reserved":0,"last_update":"0001-01-01T00:00:00Z","protocol":17,"map":"koth_brazil","folder":"tf","game":"Team Fortress","app_id":440,"player_count":0,"max_players":24,"Bots":0,"server_type":"Dedicated","server_os":"Linux","password":true,"vac":true,"version":"7961495","steam_id":85568392925194467,"keywords":["cp","nocrits","nodmgspread","uncletopia"],"edicts":[417,2048],"game_id":440,"stv_port":27036,"stv_name":"Uncletopia | Sydney | 3 | All Maps | STV","players":null},{"server_id":0,"name_short":"","name":"Uncletopia | Sydney | 4 | All Maps","host":"","port":0,"enabled":false,"region":"","cc":"","latitude":0,"longitude":0,"reserved":0,"last_update":"0001-01-01T00:00:00Z","protocol":17,"map":"cp_standin_final","folder":"tf","game":"Team Fortress","app_id":440,"player_count":0,"max_players":24,"Bots":0,"server_type":"Dedicated","server_os":"Linux","password":true,"vac":true,"version":"7961495","steam_id":85568392925397958,"keywords":["cp","nocrits","nodmgspread","uncletopia"],"edicts":[426,2048],"game_id":440,"stv_port":27046,"stv_name":"Uncletopia | Sydney | 4 | All Maps | STV","players":null},{"server_id":0,"name_short":"","name":"Uncletopia | Montr√©al | 1 | One Thousand Uncles","host":"","port":0,"enabled":false,"region":"","cc":"","latitude":0,"longitude":0,"reserved":0,"last_update":"0001-01-01T00:00:00Z","protocol":17,"map":"pl_barnblitz","folder":"tf","game":"Team Fortress","app_id":440,"player_count":0,"max_players":32,"Bots":0,"server_type":"Dedicated","server_os":"Linux","password":true,"vac":true,"version":"7961495","steam_id":85568392924500087,"keywords":["alltalk","danepve","increased_maxplayers","norespawntime","payload","uncletopia"],"edicts":[803,2048],"game_id":440,"stv_port":0,"stv_name":"","players":null},{"server_id":0,"name_short":"","name":"Uncletopia | New York City | 1 | All Maps","host":"","port":0,"enabled":false,"region":"","cc":"","latitude":0,"longitude":0,"reserved":0,"last_update":"0001-01-01T00:00:00Z","protocol":17,"map":"pl_barnblitz","folder":"tf","game":"Team Fortress","app_id":440,"player_count":22,"max_players":24,"Bots":0,"server_type":"Dedicated","server_os":"Linux","password":true,"vac":true,"version":"7961495","steam_id":85568392924469993,"keywords":["nocrits","nodmgspread","payload","uncletopia"],"edicts":[1053,2048],"game_id":440,"stv_port":27016,"stv_name":"Uncletopia | New York City | 1 | All Maps | STV","players":[{"user_id":124,"name":"Jordan","steam_id":76561198134123296,"connected_time":4182000000000,"state":"active","ping":114},{"user_id":130,"name":"on that zaza?","steam_id":76561198038713198,"connected_time":3677000000000,"state":"active","ping":48},{"user_id":137,"name":"4Lukaska","steam_id":76561198083515060,"connected_time":3147000000000,"state":"active","ping":48},{"user_id":177,"name":"saurhead","steam_id":76561198132937722,"connected_time":321000000000,"state":"active","ping":60},{"user_id":142,"name":"Lt. Don Draper","steam_id":76561198030866017,"connected_time":2516000000000,"state":"active","ping":87},{"user_id":167,"name":"1st place love live fan","steam_id":76561198037951506,"connected_time":593000000000,"state":"active","ping":59},{"user_id":165,"name":"Not_Douglas","steam_id":76561199024184136,"connected_time":976000000000,"state":"active","ping":71},{"user_id":168,"name":"Uncle Malik","steam_id":76561198044802388,"connected_time":566000000000,"state":"active","ping":106},{"user_id":178,"name":"‚ú™Type_Alpha","steam_id":76561198122780598,"connected_time":304000000000,"state":"active","ping":58},{"user_id":182,"name":"m√ºde","steam_id":76561198141184894,"connected_time":85000000000,"state":"active","ping":109},{"user_id":170,"name":"Griffin","steam_id":76561198159339442,"connected_time":531000000000,"state":"active","ping":72},{"user_id":157,"name":"undercover crayon sniffer","steam_id":76561199388637537,"connected_time":1744000000000,"state":"active","ping":44},{"user_id":180,"name":"Level 1 Dispenser","steam_id":76561198865512016,"connected_time":278000000000,"state":"active","ping":65},{"user_id":103,"name":"Kobbert","steam_id":76561198045040833,"connected_time":5596000000000,"state":"active","ping":60},{"user_id":82,"name":"CreateADebate","steam_id":76561198115760035,"connected_time":6600000000000,"state":"active","ping":64},{"user_id":166,"name":"delta","steam_id":76561198288966901,"connected_time":727000000000,"state":"active","ping":170},{"user_id":179,"name":"you forgot the sauce","steam_id":76561198387016713,"connected_time":301000000000,"state":"active","ping":57},{"user_id":172,"name":"Tec-9 Fubar","steam_id":76561198403649648,"connected_time":524000000000,"state":"active","ping":75},{"user_id":174,"name":"lacava.ryan","steam_id":76561199118865787,"connected_time":479000000000,"state":"active","ping":54},{"user_id":181,"name":"gIBBY","steam_id":76561198080099598,"connected_time":241000000000,"state":"active","ping":38},{"user_id":151,"name":"Sex Midfielder","steam_id":76561198048918192,"connected_time":2097000000000,"state":"active","ping":91},{"user_id":176,"name":"Search117","steam_id":76561198021696780,"connected_time":476000000000,"state":"active","ping":55}]},{"server_id":0,"name_short":"","name":"Uncletopia | Los Angeles | 3 | All Maps","host":"","port":0,"enabled":false,"region":"","cc":"","latitude":0,"longitude":0,"reserved":0,"last_update":"0001-01-01T00:00:00Z","protocol":17,"map":"koth_lakeside_final","folder":"tf","game":"Team Fortress","app_id":440,"player_count":0,"max_players":24,"Bots":0,"server_type":"Dedicated","server_os":"Linux","password":true,"vac":true,"version":"7961495","steam_id":85568392924510198,"keywords":["cp","nocrits","nodmgspread","uncletopia"],"edicts":[304,2048],"game_id":440,"stv_port":27036,"stv_name":"Uncletopia | Los Angeles | 3 | All Maps | STV","players":null},{"server_id":0,"name_short":"","name":"Uncletopia | Sydney | 5 | Stopwatch","host":"","port":0,"enabled":false,"region":"","cc":"","latitude":0,"longitude":0,"reserved":0,"last_update":"0001-01-01T00:00:00Z","protocol":17,"map":"koth_product_final","folder":"tf","game":"Team Fortress","app_id":440,"player_count":0,"max_players":24,"Bots":0,"server_type":"Dedicated","server_os":"Linux","password":true,"vac":true,"version":"7961495","steam_id":85568392925397959,"keywords":["cp","nocrits","nodmgspread","uncletopia"],"edicts":[355,2048],"game_id":440,"stv_port":27056,"stv_name":"Uncletopia | Sydney | 5 | Stopwatch | STV","players":null},{"server_id":0,"name_short":"","name":"Uncletopia | Dallas | 2 | All Maps","host":"","port":0,"enabled":false,"region":"","cc":"","latitude":0,"longitude":0,"reserved":0,"last_update":"0001-01-01T00:00:00Z","protocol":17,"map":"koth_viaduct","folder":"tf","game":"Team Fortress","app_id":440,"player_count":23,"max_players":24,"Bots":0,"server_type":"Dedicated","server_os":"Linux","password":true,"vac":true,"version":"7961495","steam_id":85568392924469988,"keywords":["cp","nocrits","nodmgspread","uncletopia"],"edicts":[481,2048],"game_id":440,"stv_port":27026,"stv_name":"Uncletopia | Dallas | 2 | All Maps | STV","players":[{"user_id":576,"name":"Hawkborne","steam_id":76561198107249245,"connected_time":85000000000,"state":"active","ping":76},{"user_id":543,"name":"AlistairSamuel720","steam_id":76561198805603832,"connected_time":2144000000000,"state":"active","ping":83},{"user_id":547,"name":"Dwebus","steam_id":76561198086559045,"connected_time":1463000000000,"state":"active","ping":71},{"user_id":548,"name":"Lydia","steam_id":76561198800417942,"connected_time":1235000000000,"state":"active","ping":64},{"user_id":577,"name":"Harold Manshaft, CEO","steam_id":76561198046563712,"connected_time":69000000000,"state":"active","ping":99},{"user_id":502,"name":"Verily","steam_id":76561198200558318,"connected_time":4872000000000,"state":"active","ping":105},{"user_id":551,"name":"Moonflower ‚ú¶","steam_id":76561198191782483,"connected_time":1168000000000,"state":"active","ping":53},{"user_id":552,"name":"schmuck","steam_id":76561198143789773,"connected_time":1085000000000,"state":"active","ping":48},{"user_id":574,"name":"Capitalism","steam_id":76561198068677316,"connected_time":115000000000,"state":"active","ping":105},{"user_id":572,"name":"hatbill","steam_id":76561198184814466,"connected_time":285000000000,"state":"active","ping":109},{"user_id":535,"name":"SgT_Spam","steam_id":76561198275753768,"connected_time":2772000000000,"state":"active","ping":51},{"user_id":555,"name":"squarg","steam_id":76561198857911015,"connected_time":980000000000,"state":"active","ping":61},{"user_id":573,"name":"jestor","steam_id":76561198248148760,"connected_time":247000000000,"state":"active","ping":95},{"user_id":557,"name":"Froot Loops","steam_id":76561198253927199,"connected_time":946000000000,"state":"active","ping":160},{"user_id":558,"name":"BlueSceptile","steam_id":76561198303151606,"connected_time":891000000000,"state":"active","ping":62},{"user_id":560,"name":"Prinz","steam_id":76561198175476071,"connected_time":866000000000,"state":"active","ping":82},{"user_id":561,"name":"Pi Guy","steam_id":76561199071784224,"connected_time":806000000000,"state":"active","ping":91},{"user_id":578,"name":"Gundam Guy","steam_id":76561198178453993,"connected_time":59000000000,"state":"active","ping":62},{"user_id":567,"name":"name","steam_id":76561199153026367,"connected_time":651000000000,"state":"active","ping":102},{"user_id":569,"name":"LordKirby","steam_id":76561198006938286,"connected_time":559000000000,"state":"active","ping":97},{"user_id":565,"name":"Superfolders","steam_id":76561198310110253,"connected_time":683000000000,"state":"active","ping":44},{"user_id":568,"name":"HyperAshGaming","steam_id":76561199001959528,"connected_time":614000000000,"state":"active","ping":80},{"user_id":570,"name":"Hey, sex?","steam_id":76561199480085211,"connected_time":508000000000,"state":"active","ping":138}]},{"server_id":0,"name_short":"","name":"Uncletopia | San Francisco | 3 | Stopwatch","host":"","port":0,"enabled":false,"region":"","cc":"","latitude":0,"longitude":0,"reserved":0,"last_update":"0001-01-01T00:00:00Z","protocol":17,"map":"koth_clearcut_b15","folder":"tf","game":"Team Fortress","app_id":440,"player_count":0,"max_players":24,"Bots":0,"server_type":"Dedicated","server_os":"Linux","password":true,"vac":true,"version":"7961495","steam_id":85568392924742824,"keywords":["cp","nocrits","nodmgspread","uncletopia"],"edicts":[445,2048],"game_id":440,"stv_port":27036,"stv_name":"Uncletopia | San Francisco | 3 | Stopwatch | STV","players":null},{"server_id":0,"name_short":"","name":"Uncletopia | San Francisco | 4 | Community","host":"","port":0,"enabled":false,"region":"","cc":"","latitude":0,"longitude":0,"reserved":0,"last_update":"0001-01-01T00:00:00Z","protocol":17,"map":"pl_badwater_pro_v12","folder":"tf","game":"Team Fortress","app_id":440,"player_count":0,"max_players":24,"Bots":0,"server_type":"Dedicated","server_os":"Linux","password":true,"vac":true,"version":"7961495","steam_id":85568392924742826,"keywords":["nocrits","nodmgspread","payload","uncletopia"],"edicts":[735,2048],"game_id":440,"stv_port":27046,"stv_name":"Uncletopia | San Francisco | 4 | Community | STV","players":null},{"server_id":0,"name_short":"","name":"Uncletopia | London | 1 | All Maps","host":"","port":0,"enabled":false,"region":"","cc":"","latitude":0,"longitude":0,"reserved":0,"last_update":"0001-01-01T00:00:00Z","protocol":17,"map":"pl_pier","folder":"tf","game":"Team Fortress","app_id":440,"player_count":0,"max_players":24,"Bots":0,"server_type":"Dedicated","server_os":"Linux","password":true,"vac":true,"version":"7961495","steam_id":85568392924367362,"keywords":["nocrits","nodmgspread","payload","uncletopia"],"edicts":[963,2048],"game_id":440,"stv_port":27016,"stv_name":"Uncletopia | London | 1 | All Maps | STV","players":null},{"server_id":0,"name_short":"","name":"Uncletopia | Montr√©al | 3 | One Thousand Uncles","host":"","port":0,"enabled":false,"region":"","cc":"","latitude":0,"longitude":0,"reserved":0,"last_update":"0001-01-01T00:00:00Z","protocol":17,"map":"cp_dustbowl","folder":"tf","game":"Team Fortress","app_id":440,"player_count":0,"max_players":32,"Bots":0,"server_type":"Dedicated","server_os":"Linux","password":true,"vac":true,"version":"7961495","steam_id":85568392924500089,"keywords":["alltalk","cp","danepve","increased_maxplayers","norespawntime","uncletopia"],"edicts":[736,2048],"game_id":440,"stv_port":0,"stv_name":"","players":null},{"server_id":0,"name_short":"","name":"Uncletopia | Chicago | 4 | All Maps","host":"","port":0,"enabled":false,"region":"","cc":"","latitude":0,"longitude":0,"reserved":0,"last_update":"0001-01-01T00:00:00Z","protocol":17,"map":"cp_snakewater_final1","folder":"tf","game":"Team Fortress","app_id":440,"player_count":24,"max_players":24,"Bots":0,"server_type":"Dedicated","server_os":"Linux","password":true,"vac":true,"version":"7961495","steam_id":85568392924515193,"keywords":["cp","nocrits","nodmgspread","uncletopia"],"edicts":[931,2048],"game_id":440,"stv_port":27046,"stv_name":"Uncletopia | Chicago | 4 | All Maps | STV","players":[{"user_id":114,"name":"SodaKid_7","steam_id":76561198079419485,"connected_time":3260000000000,"state":"active","ping":90},{"user_id":148,"name":"[DRS]Nadrol","steam_id":76561197995382967,"connected_time":1412000000000,"state":"active","ping":66},{"user_id":151,"name":"Duncan Slamwell, B-Ball Attorne","steam_id":76561197994924793,"connected_time":1277000000000,"state":"active","ping":75},{"user_id":101,"name":"toastman","steam_id":76561198207073088,"connected_time":3737000000000,"state":"active","ping":65},{"user_id":152,"name":"teeth","steam_id":76561198217144372,"connected_time":1158000000000,"state":"active","ping":84},{"user_id":142,"name":"BOTH | cheapskate!","steam_id":76561198880304614,"connected_time":1612000000000,"state":"active","ping":52},{"user_id":156,"name":"Menachem","steam_id":76561198041226420,"connected_time":1025000000000,"state":"active","ping":50},{"user_id":98,"name":"Empyrean","steam_id":76561198116398716,"connected_time":3856000000000,"state":"active","ping":106},{"user_id":159,"name":"cratex.gLu","steam_id":76561198251054454,"connected_time":855000000000,"state":"active","ping":52},{"user_id":160,"name":"Enderkill777","steam_id":76561198876915153,"connected_time":573000000000,"state":"active","ping":98},{"user_id":112,"name":"yomo","steam_id":76561198063175935,"connected_time":3405000000000,"state":"active","ping":72},{"user_id":161,"name":"weeping choir","steam_id":76561198194471251,"connected_time":257000000000,"state":"active","ping":60},{"user_id":111,"name":"i drive a nissan altima","steam_id":76561198143132686,"connected_time":3518000000000,"state":"active","ping":89},{"user_id":139,"name":"Ninjoth","steam_id":76561198038611753,"connected_time":1679000000000,"state":"active","ping":80},{"user_id":138,"name":"[P-CAN] At\u0026t Home Internet","steam_id":76561198126700526,"connected_time":1717000000000,"state":"active","ping":64},{"user_id":155,"name":"Miss Star","steam_id":76561199106587693,"connected_time":1108000000000,"state":"active","ping":65},{"user_id":120,"name":"Asanez3","steam_id":76561198037381436,"connected_time":2946000000000,"state":"active","ping":78},{"user_id":146,"name":"Aeris","steam_id":76561198287271028,"connected_time":1445000000000,"state":"active","ping":60},{"user_id":162,"name":"Ta5K","steam_id":76561198939558155,"connected_time":138000000000,"state":"active","ping":45},{"user_id":154,"name":"idiovic","steam_id":76561198414355727,"connected_time":1153000000000,"state":"active","ping":94},{"user_id":135,"name":"William Lovett","steam_id":76561197991063996,"connected_time":2185000000000,"state":"active","ping":47},{"user_id":153,"name":"Creature","steam_id":76561198132691820,"connected_time":1158000000000,"state":"active","ping":69},{"user_id":158,"name":"Mango enjoyer","steam_id":76561198189330642,"connected_time":998000000000,"state":"active","ping":102},{"user_id":136,"name":"RubWub","steam_id":76561198089623364,"connected_time":2158000000000,"state":"active","ping":87}]},{"server_id":0,"name_short":"","name":"Uncletopia | Atlanta | 2 | All Maps","host":"","port":0,"enabled":false,"region":"","cc":"","latitude":0,"longitude":0,"reserved":0,"last_update":"0001-01-01T00:00:00Z","protocol":17,"map":"cp_steel","folder":"tf","game":"Team Fortress","app_id":440,"player_count":24,"max_players":24,"Bots":0,"server_type":"Dedicated","server_os":"Linux","password":true,"vac":true,"version":"7961495","steam_id":85568392924469983,"keywords":["cp","nocrits","nodmgspread","uncletopia"],"edicts":[1172,2048],"game_id":440,"stv_port":27026,"stv_name":"Uncletopia | Atlanta | 2 | All Maps | STV","players":[{"user_id":317,"name":"the yain","steam_id":76561198069589278,"connected_time":900000000000,"state":"active","ping":111},{"user_id":325,"name":"drood","steam_id":76561198000300475,"connected_time":770000000000,"state":"active","ping":79},{"user_id":298,"name":"cbv jhygui8ho;/ohp8byy","steam_id":76561198304661367,"connected_time":2309000000000,"state":"active","ping":58},{"user_id":190,"name":"gretchling","steam_id":76561198046111695,"connected_time":10969000000000,"state":"active","ping":62},{"user_id":257,"name":"Kick Down Door 6:00AM TUCK‚òÉRO","steam_id":76561197976146738,"connected_time":5548000000000,"state":"active","ping":82},{"user_id":272,"name":"kratomSnorter.1quarter","steam_id":76561198946987511,"connected_time":4563000000000,"state":"active","ping":80},{"user_id":324,"name":"Sex Defender","steam_id":76561198039710677,"connected_time":790000000000,"state":"active","ping":78},{"user_id":313,"name":"my mom","steam_id":76561199225201569,"connected_time":1210000000000,"state":"active","ping":62},{"user_id":320,"name":"Other Players, My One Weakness","steam_id":76561197989247588,"connected_time":824000000000,"state":"active","ping":77},{"user_id":321,"name":"tydogzilla","steam_id":76561198054254518,"connected_time":822000000000,"state":"active","ping":67},{"user_id":252,"name":"TI-83 Plus","steam_id":76561198316134443,"connected_time":6086000000000,"state":"active","ping":62},{"user_id":281,"name":"muddy","steam_id":76561198035015260,"connected_time":3860000000000,"state":"active","ping":91},{"user_id":278,"name":"GuyGoom","steam_id":76561198254522178,"connected_time":3993000000000,"state":"active","ping":75},{"user_id":314,"name":"surrender to the void","steam_id":76561198055494039,"connected_time":1197000000000,"state":"active","ping":84},{"user_id":170,"name":"Inworth","steam_id":76561197999777003,"connected_time":12442000000000,"state":"active","ping":78},{"user_id":288,"name":"MARIOPARTYDSFAN","steam_id":76561198872122117,"connected_time":3471000000000,"state":"active","ping":82},{"user_id":296,"name":"BlueMew","steam_id":76561198060454348,"connected_time":2529000000000,"state":"active","ping":83},{"user_id":322,"name":"brg","steam_id":76561197998415548,"connected_time":815000000000,"state":"active","ping":75},{"user_id":327,"name":"Birbs","steam_id":76561198045308598,"connected_time":510000000000,"state":"active","ping":67},{"user_id":289,"name":"catgirl of the void","steam_id":76561198052542017,"connected_time":3367000000000,"state":"active","ping":59},{"user_id":328,"name":"chrisd149","steam_id":76561198018710480,"connected_time":367000000000,"state":"active","ping":67},{"user_id":283,"name":"kill kill kill kill","steam_id":76561199038370433,"connected_time":3853000000000,"state":"active","ping":169},{"user_id":305,"name":"Oopsie Daisy ‚ùã","steam_id":76561198042144492,"connected_time":1944000000000,"state":"active","ping":48},{"user_id":310,"name":"insanely aggressive alcoholic","steam_id":76561198992873877,"connected_time":1469000000000,"state":"active","ping":90}]},{"server_id":0,"name_short":"","name":"Uncletopia | Los Angeles | 2 | All Maps","host":"","port":0,"enabled":false,"region":"","cc":"","latitude":0,"longitude":0,"reserved":0,"last_update":"0001-01-01T00:00:00Z","protocol":17,"map":"koth_lazarus","folder":"tf","game":"Team Fortress","app_id":440,"player_count":0,"max_players":24,"Bots":0,"server_type":"Dedicated","server_os":"Linux","password":true,"vac":true,"version":"7961495","steam_id":85568392924469992,"keywords":["cp","nocrits","nodmgspread","uncletopia"],"edicts":[863,2048],"game_id":440,"stv_port":27026,"stv_name":"Uncletopia | Los Angeles | 2 | All Maps | STV","players":null},{"server_id":0,"name_short":"","name":"Uncletopia | Los Angeles | 1 | All Maps","host":"","port":0,"enabled":false,"region":"","cc":"","latitude":0,"longitude":0,"reserved":0,"last_update":"0001-01-01T00:00:00Z","protocol":17,"map":"cp_mountainlab","folder":"tf","game":"Team Fortress","app_id":440,"player_count":0,"max_players":24,"Bots":0,"server_type":"Dedicated","server_os":"Linux","password":true,"vac":true,"version":"7961495","steam_id":85568392924469991,"keywords":["cp","nocrits","nodmgspread","uncletopia"],"edicts":[533,2048],"game_id":440,"stv_port":27016,"stv_name":"Uncletopia | Los Angeles | 1 | All Maps | STV","players":null},{"server_id":0,"name_short":"","name":"Uncletopia | San Francisco | 2 | All Maps","host":"","port":0,"enabled":false,"region":"","cc":"","latitude":0,"longitude":0,"reserved":0,"last_update":"0001-01-01T00:00:00Z","protocol":17,"map":"pl_frontier_final","folder":"tf","game":"Team Fortress","app_id":440,"player_count":5,"max_players":24,"Bots":0,"server_type":"Dedicated","server_os":"Linux","password":true,"vac":true,"version":"7961495","steam_id":85568392924470000,"keywords":["nocrits","nodmgspread","payload","uncletopia"],"edicts":[792,2048],"game_id":440,"stv_port":27026,"stv_name":"Uncletopia | San Francisco | 2 | All Maps | STV","players":[{"user_id":14,"name":"Alkimia","steam_id":76561198385763137,"connected_time":302000000000,"state":"active","ping":185},{"user_id":10,"name":"Koshiethedeathless","steam_id":76561199090202897,"connected_time":841000000000,"state":"active","ping":109},{"user_id":11,"name":"Yackaboi","steam_id":76561199444911765,"connected_time":647000000000,"state":"active","ping":95},{"user_id":12,"name":"Mentally unwell Medic GF","steam_id":76561198836316052,"connected_time":574000000000,"state":"active","ping":71},{"user_id":13,"name":"goth witch","steam_id":76561198069605283,"connected_time":470000000000,"state":"active","ping":57}]},{"server_id":0,"name_short":"","name":"Uncletopia | London | 5 | All Maps","host":"","port":0,"enabled":false,"region":"","cc":"","latitude":0,"longitude":0,"reserved":0,"last_update":"0001-01-01T00:00:00Z","protocol":17,"map":"pl_barnblitz","folder":"tf","game":"Team Fortress","app_id":440,"player_count":24,"max_players":24,"Bots":0,"server_type":"Dedicated","server_os":"Linux","password":true,"vac":true,"version":"7961495","steam_id":85568392924742829,"keywords":["nocrits","nodmgspread","payload","uncletopia"],"edicts":[1097,2048],"game_id":440,"stv_port":27056,"stv_name":"Uncletopia | London | 5 | All Maps | STV","players":[{"user_id":587,"name":"Nexiogi","steam_id":76561198083284171,"connected_time":537000000000,"state":"active","ping":117},{"user_id":582,"name":"Leo the bread","steam_id":76561198987139624,"connected_time":741000000000,"state":"active","ping":74},{"user_id":584,"name":"Sabour","steam_id":76561197963965445,"connected_time":572000000000,"state":"active","ping":66},{"user_id":592,"name":"Lyncurion","steam_id":76561199260022725,"connected_time":319000000000,"state":"active","ping":79},{"user_id":570,"name":"trans werewolf","steam_id":76561198107235989,"connected_time":2035000000000,"state":"active","ping":65},{"user_id":534,"name":"Glitch","steam_id":76561198081895538,"connected_time":4408000000000,"state":"active","ping":50},{"user_id":585,"name":"taffer","steam_id":76561199480942903,"connected_time":563000000000,"state":"active","ping":73},{"user_id":571,"name":"Ake","steam_id":76561198099722662,"connected_time":2026000000000,"state":"active","ping":81},{"user_id":505,"name":"tyroksi :D","steam_id":76561198103875245,"connected_time":6110000000000,"state":"active","ping":111},{"user_id":551,"name":"Cosmetic brain","steam_id":76561198055936410,"connected_time":3157000000000,"state":"active","ping":87},{"user_id":586,"name":"Vince","steam_id":76561199103000131,"connected_time":556000000000,"state":"active","ping":41},{"user_id":588,"name":"meow meow meow","steam_id":76561199510115679,"connected_time":504000000000,"state":"active","ping":38},{"user_id":598,"name":"nug","steam_id":76561198055396568,"connected_time":5000000000,"state":"spawning","ping":45},{"user_id":548,"name":"can u die from gargling honey","steam_id":76561197996269312,"connected_time":3576000000000,"state":"active","ping":41},{"user_id":572,"name":"Funny Cat Song","steam_id":76561199229682408,"connected_time":1945000000000,"state":"active","ping":40},{"user_id":563,"name":"Dan Dan the Furious","steam_id":76561198091032527,"connected_time":2702000000000,"state":"active","ping":55},{"user_id":593,"name":"high russian man","steam_id":76561198386712795,"connected_time":243000000000,"state":"active","ping":49},{"user_id":581,"name":"Uselss Joe","steam_id":76561198275853629,"connected_time":1094000000000,"state":"active","ping":55},{"user_id":580,"name":"Shlongulator","steam_id":76561198149779201,"connected_time":1115000000000,"state":"active","ping":52},{"user_id":566,"name":"big bug buttz","steam_id":76561198115106008,"connected_time":2246000000000,"state":"active","ping":53},{"user_id":527,"name":"Ralle Shadow Wizard Money Gang","steam_id":76561198160975724,"connected_time":4844000000000,"state":"active","ping":81},{"user_id":529,"name":"MACHO MAN RANDY SAVAGE","steam_id":76561197995723404,"connected_time":4809000000000,"state":"active","ping":60},{"user_id":567,"name":"Bobo","steam_id":76561198052308399,"connected_time":2239000000000,"state":"active","ping":71},{"user_id":590,"name":"MintChocoo","steam_id":76561198055339823,"connected_time":446000000000,"state":"active","ping":46}]},{"server_id":0,"name_short":"","name":"Uncletopia | Warsaw | 6 | Community","host":"","port":0,"enabled":false,"region":"","cc":"","latitude":0,"longitude":0,"reserved":0,"last_update":"0001-01-01T00:00:00Z","protocol":17,"map":"pl_cactuscanyon_redux_final2","folder":"tf","game":"Team Fortress","app_id":440,"player_count":0,"max_players":24,"Bots":0,"server_type":"Dedicated","server_os":"Linux","password":true,"vac":true,"version":"7961495","steam_id":85568392925397856,"keywords":["nocrits","nodmgspread","payload","uncletopia"],"edicts":[979,2048],"game_id":440,"stv_port":27066,"stv_name":"Uncletopia | Warsaw | 6 | Community | STV","players":null},{"server_id":0,"name_short":"","name":"Uncletopia | Chicago | 5 | All Maps","host":"","port":0,"enabled":false,"region":"","cc":"","latitude":0,"longitude":0,"reserved":0,"last_update":"0001-01-01T00:00:00Z","protocol":17,"map":"koth_highpass","folder":"tf","game":"Team Fortress","app_id":440,"player_count":0,"max_players":24,"Bots":0,"server_type":"Dedicated","server_os":"Linux","password":true,"vac":true,"version":"7961495","steam_id":85568392924866362,"keywords":["cp","nocrits","nodmgspread","uncletopia"],"edicts":[415,2048],"game_id":440,"stv_port":27016,"stv_name":"Uncletopia | Chicago | 5 | All Maps | STV","players":null},{"server_id":0,"name_short":"","name":"Uncletopia | Atlanta | 3 | Stopwatch","host":"","port":0,"enabled":false,"region":"","cc":"","latitude":0,"longitude":0,"reserved":0,"last_update":"0001-01-01T00:00:00Z","protocol":17,"map":"koth_bagel_rc6","folder":"tf","game":"Team Fortress","app_id":440,"player_count":0,"max_players":24,"Bots":0,"server_type":"Dedicated","server_os":"Linux","password":true,"vac":true,"version":"7961495","steam_id":85568392924515187,"keywords":["cp","nocrits","nodmgspread","uncletopia"],"edicts":[600,2048],"game_id":440,"stv_port":27036,"stv_name":"Uncletopia | Atlanta | 3 | Stopwatch | STV","players":null},{"server_id":0,"name_short":"","name":"Uncletopia | Warsaw | 5 | Stopwatch","host":"","port":0,"enabled":false,"region":"","cc":"","latitude":0,"longitude":0,"reserved":0,"last_update":"0001-01-01T00:00:00Z","protocol":17,"map":"koth_jamram_rc1a","folder":"tf","game":"Team Fortress","app_id":440,"player_count":0,"max_players":24,"Bots":0,"server_type":"Dedicated","server_os":"Linux","password":true,"vac":true,"version":"7961495","steam_id":85568392925397854,"keywords":["cp","nocrits","nodmgspread","uncletopia"],"edicts":[483,2048],"game_id":440,"stv_port":27056,"stv_name":"Uncletopia | Warsaw | 5 | Stopwatch | STV","players":null},{"server_id":0,"name_short":"","name":"Uncletopia | Chicago | 8 | Community","host":"","port":0,"enabled":false,"region":"","cc":"","latitude":0,"longitude":0,"reserved":0,"last_update":"0001-01-01T00:00:00Z","protocol":17,"map":"cp_caldera_rc3","folder":"tf","game":"Team Fortress","app_id":440,"player_count":0,"max_players":24,"Bots":0,"server_type":"Dedicated","server_os":"Linux","password":true,"vac":true,"version":"7961495","steam_id":85568392924866365,"keywords":["cp","nocrits","nodmgspread","uncletopia"],"edicts":[717,2048],"game_id":440,"stv_port":27046,"stv_name":"Uncletopia | Chicago | 8 | Community | STV","players":null},{"server_id":0,"name_short":"","name":"Uncletopia | Frankfurt | 5 | All Maps","host":"","port":0,"enabled":false,"region":"","cc":"","latitude":0,"longitude":0,"reserved":0,"last_update":"0001-01-01T00:00:00Z","protocol":17,"map":"cp_dustbowl","folder":"tf","game":"Team Fortress","app_id":440,"player_count":0,"max_players":24,"Bots":0,"server_type":"Dedicated","server_os":"Linux","password":true,"vac":true,"version":"7961495","steam_id":85568392924504277,"keywords":["cp","nocrits","nodmgspread","uncletopia"],"edicts":[741,2048],"game_id":440,"stv_port":27056,"stv_name":"Uncletopia | Frankfurt | 5 | All Maps | STV","players":null},{"server_id":0,"name_short":"","name":"Uncletopia | Montr√©al | 2 | One Thousand Uncles","host":"","port":0,"enabled":false,"region":"","cc":"","latitude":0,"longitude":0,"reserved":0,"last_update":"0001-01-01T00:00:00Z","protocol":17,"map":"cp_mossrock","folder":"tf","game":"Team Fortress","app_id":440,"player_count":0,"max_players":32,"Bots":0,"server_type":"Dedicated","server_os":"Linux","password":true,"vac":true,"version":"7961495","steam_id":85568392924500088,"keywords":["alltalk","cp","danepve","increased_maxplayers","norespawntime","uncletopia"],"edicts":[444,2048],"game_id":440,"stv_port":0,"stv_name":"","players":null},{"server_id":0,"name_short":"","name":"Uncletopia | Chicago | 1 | All Maps","host":"","port":0,"enabled":false,"region":"","cc":"","latitude":0,"longitude":0,"reserved":0,"last_update":"0001-01-01T00:00:00Z","protocol":17,"map":"pl_barnblitz","folder":"tf","game":"Team Fortress","app_id":440,"player_count":24,"max_players":24,"Bots":0,"server_type":"Dedicated","server_os":"Linux","password":true,"vac":true,"version":"7961495","steam_id":85568392924469984,"keywords":["nocrits","nodmgspread","payload","uncletopia"],"edicts":[1110,2048],"game_id":440,"stv_port":27016,"stv_name":"Uncletopia | Chicago | 1 | All Maps | STV","players":[{"user_id":465,"name":"Bomb Squirtle‚Ñ¢","steam_id":76561197998931145,"connected_time":4286000000000,"state":"active","ping":86},{"user_id":491,"name":"pan","steam_id":76561198093968095,"connected_time":2721000000000,"state":"active","ping":93},{"user_id":503,"name":"Û†Å≥‚Åß‚Åß Argo","steam_id":76561198353725622,"connected_time":1849000000000,"state":"active","ping":79},{"user_id":519,"name":"DJ Chalice","steam_id":76561197974872458,"connected_time":408000000000,"state":"active","ping":73},{"user_id":505,"name":"LoboSolo","steam_id":76561198006883170,"connected_time":1821000000000,"state":"active","ping":79},{"user_id":452,"name":"LegendaryMister151","steam_id":76561198064890524,"connected_time":4629000000000,"state":"active","ping":81},{"user_id":520,"name":"2cats_2curious","steam_id":76561198027143149,"connected_time":391000000000,"state":"active","ping":44},{"user_id":497,"name":"Tay","steam_id":76561198059605568,"connected_time":2320000000000,"state":"active","ping":75},{"user_id":473,"name":"Praise_to_the_Flashlight!","steam_id":76561199001728789,"connected_time":3774000000000,"state":"active","ping":61},{"user_id":488,"name":"Fobby #Savetf2","steam_id":76561198047681469,"connected_time":2869000000000,"state":"active","ping":75},{"user_id":441,"name":"richard clock","steam_id":76561198048455671,"connected_time":5036000000000,"state":"active","ping":57},{"user_id":523,"name":"fetid horse carcass (lesbian)","steam_id":76561198117139659,"connected_time":192000000000,"state":"active","ping":68},{"user_id":514,"name":"All Powerful Spud","steam_id":76561198122894436,"connected_time":739000000000,"state":"active","ping":73},{"user_id":496,"name":"gps","steam_id":76561198067492304,"connected_time":2341000000000,"state":"active","ping":85},{"user_id":517,"name":"NUt","steam_id":76561198031007966,"connected_time":685000000000,"state":"active","ping":73},{"user_id":511,"name":"A Sun","steam_id":76561198142545364,"connected_time":1266000000000,"state":"active","ping":71},{"user_id":498,"name":"Tibalt Nyahuma","steam_id":76561198034779431,"connected_time":2307000000000,"state":"active","ping":72},{"user_id":508,"name":"Capybara Enjoyer","steam_id":76561199147114434,"connected_time":1801000000000,"state":"active","ping":112},{"user_id":510,"name":"Oh, it's Zach","steam_id":76561198103309672,"connected_time":1568000000000,"state":"active","ping":58},{"user_id":504,"name":"Qball","steam_id":76561198179016466,"connected_time":1845000000000,"state":"active","ping":57},{"user_id":518,"name":"Pixler544","steam_id":76561198240575132,"connected_time":536000000000,"state":"active","ping":71},{"user_id":471,"name":"wiiblob","steam_id":76561198109106242,"connected_time":3912000000000,"state":"active","ping":138},{"user_id":522,"name":"capybara","steam_id":76561198798828328,"connected_time":203000000000,"state":"active","ping":58},{"user_id":494,"name":"Dead Silent Lia","steam_id":76561198151569597,"connected_time":2501000000000,"state":"active","ping":149}]},{"server_id":0,"name_short":"","name":"Uncletopia | Warsaw | 3 | All Maps","host":"","port":0,"enabled":false,"region":"","cc":"","latitude":0,"longitude":0,"reserved":0,"last_update":"0001-01-01T00:00:00Z","protocol":17,"map":"pl_swiftwater_final1","folder":"tf","game":"Team Fortress","app_id":440,"player_count":0,"max_players":24,"Bots":0,"server_type":"Dedicated","server_os":"Linux","password":true,"vac":true,"version":"7961495","steam_id":85568392925397852,"keywords":["nocrits","nodmgspread","payload","uncletopia"],"edicts":[895,2048],"game_id":440,"stv_port":27036,"stv_name":"Uncletopia | Warsaw | 3 | All Maps | STV","players":null},{"server_id":0,"name_short":"","name":"Uncletopia | Warsaw | 4 | All Maps","host":"","port":0,"enabled":false,"region":"","cc":"","latitude":0,"longitude":0,"reserved":0,"last_update":"0001-01-01T00:00:00Z","protocol":17,"map":"koth_viaduct","folder":"tf","game":"Team Fortress","app_id":440,"player_count":0,"max_players":24,"Bots":0,"server_type":"Dedicated","server_os":"Linux","password":true,"vac":true,"version":"7961495","steam_id":85568392925397853,"keywords":["cp","nocrits","nodmgspread","uncletopia"],"edicts":[215,2048],"game_id":440,"stv_port":27046,"stv_name":"Uncletopia | Warsaw | 4 | All Maps | STV","players":null},{"server_id":0,"name_short":"","name":"Uncletopia | Seattle | 2 | All Maps","host":"","port":0,"enabled":false,"region":"","cc":"","latitude":0,"longitude":0,"reserved":0,"last_update":"0001-01-01T00:00:00Z","protocol":17,"map":"pl_snowycoast","folder":"tf","game":"Team Fortress","app_id":440,"player_count":19,"max_players":24,"Bots":0,"server_type":"Dedicated","server_os":"Linux","password":true,"vac":true,"version":"7961495","steam_id":85568392924469998,"keywords":["nocrits","nodmgspread","payload","uncletopia"],"edicts":[1120,2048],"game_id":440,"stv_port":27026,"stv_name":"Uncletopia | Seattle | 2 | All Maps | STV","players":[{"user_id":100,"name":"Micc","steam_id":76561199447744486,"connected_time":913000000000,"state":"active","ping":72},{"user_id":104,"name":"currytofu10","steam_id":76561198856278322,"connected_time":781000000000,"state":"active","ping":83},{"user_id":109,"name":"BabyBARKing","steam_id":76561198362318243,"connected_time":462000000000,"state":"active","ping":61},{"user_id":105,"name":"CHIEF_JUSTICE_FUCKASS","steam_id":76561199261675844,"connected_time":776000000000,"state":"active","ping":50},{"user_id":106,"name":"Domster536","steam_id":76561198152695768,"connected_time":760000000000,"state":"active","ping":84},{"user_id":108,"name":"MotherlyRose","steam_id":76561198103939680,"connected_time":574000000000,"state":"active","ping":98},{"user_id":110,"name":"Mr. Mystical Perfection","steam_id":76561198036444997,"connected_time":453000000000,"state":"active","ping":36},{"user_id":111,"name":"nivekuil","steam_id":76561198043892129,"connected_time":437000000000,"state":"active","ping":31},{"user_id":114,"name":"MegawrightAA","steam_id":76561198338063642,"connected_time":305000000000,"state":"active","ping":78},{"user_id":74,"name":"Throws Before BrosÛ†Ä°","steam_id":76561197992905530,"connected_time":2415000000000,"state":"active","ping":70},{"user_id":119,"name":"Merekitten","steam_id":76561198066307477,"connected_time":87000000000,"state":"active","ping":80},{"user_id":120,"name":"GreenApples","steam_id":76561198120559543,"connected_time":73000000000,"state":"active","ping":70},{"user_id":102,"name":"devn | trade.tf","steam_id":76561199202420894,"connected_time":892000000000,"state":"active","ping":43},{"user_id":115,"name":"Pixel","steam_id":76561199004733624,"connected_time":288000000000,"state":"active","ping":113},{"user_id":121,"name":"porfer","steam_id":76561199118049168,"connected_time":46000000000,"state":"active","ping":116},{"user_id":116,"name":"LizardGames","steam_id":76561199147525483,"connected_time":225000000000,"state":"active","ping":43},{"user_id":117,"name":"Vintage","steam_id":76561198091786007,"connected_time":197000000000,"state":"active","ping":91},{"user_id":89,"name":"greens beans","steam_id":76561198153611491,"connected_time":1899000000000,"state":"active","ping":45},{"user_id":75,"name":"stool zoftnerr","steam_id":76561198128750352,"connected_time":2411000000000,"state":"active","ping":116}]},{"server_id":0,"name_short":"","name":"Uncletopia | London | 8 | Community","host":"","port":0,"enabled":false,"region":"","cc":"","latitude":0,"longitude":0,"reserved":0,"last_update":"0001-01-01T00:00:00Z","protocol":17,"map":"cp_propaganda_b18","folder":"tf","game":"Team Fortress","app_id":440,"player_count":0,"max_players":24,"Bots":0,"server_type":"Dedicated","server_os":"Linux","password":true,"vac":true,"version":"7961495","steam_id":85568392924964315,"keywords":["cp","nocrits","nodmgspread","uncletopia"],"edicts":[412,2048],"game_id":440,"stv_port":27086,"stv_name":"Uncletopia | London | 8 | Community | STV","players":null},{"server_id":0,"name_short":"","name":"Uncletopia | London | 6 | All Maps","host":"","port":0,"enabled":false,"region":"","cc":"","latitude":0,"longitude":0,"reserved":0,"last_update":"0001-01-01T00:00:00Z","protocol":17,"map":"koth_cascade","folder":"tf","game":"Team Fortress","app_id":440,"player_count":0,"max_players":24,"Bots":0,"server_type":"Dedicated","server_os":"Linux","password":true,"vac":true,"version":"7961495","steam_id":85568392924742830,"keywords":["cp","nocrits","nodmgspread","uncletopia"],"edicts":[546,2048],"game_id":440,"stv_port":27066,"stv_name":"Uncletopia | London | 6 | All Maps | STV","players":null},{"server_id":0,"name_short":"","name":"Uncletopia | London | 7 | Stopwatch","host":"","port":0,"enabled":false,"region":"","cc":"","latitude":0,"longitude":0,"reserved":0,"last_update":"0001-01-01T00:00:00Z","protocol":17,"map":"koth_bagel_rc6","folder":"tf","game":"Team Fortress","app_id":440,"player_count":0,"max_players":24,"Bots":0,"server_type":"Dedicated","server_os":"Linux","password":true,"vac":true,"version":"7961495","steam_id":85568392924964314,"keywords":["cp","nocrits","nodmgspread","uncletopia"],"edicts":[598,2048],"game_id":440,"stv_port":27076,"stv_name":"Uncletopia | London | 7 | Stopwatch | STV","players":null},{"server_id":0,"name_short":"","name":"Uncletopia | Warsaw | 1 | One Thousand Uncles","host":"","port":0,"enabled":false,"region":"","cc":"","latitude":0,"longitude":0,"reserved":0,"last_update":"0001-01-01T00:00:00Z","protocol":17,"map":"pl_hoodoo_final","folder":"tf","game":"Team Fortress","app_id":440,"player_count":22,"max_players":32,"Bots":20,"server_type":"Dedicated","server_os":"Linux","password":true,"vac":true,"version":"7961495","steam_id":85568392925397850,"keywords":["alltalk","bots","danepve","increased_maxplayers","norespawntime","payload","uncletopia"],"edicts":[1502,2048],"game_id":440,"stv_port":0,"stv_name":"","players":[{"user_id":646,"name":"MrTalon63","steam_id":76561198169518632,"connected_time":3664000000000,"state":"active","ping":55},{"user_id":560,"name":"Zedifo","steam_id":76561198044032070,"connected_time":13202000000000,"state":"active","ping":73}]},{"server_id":0,"name_short":"","name":"Uncletopia | Chicago | 7 | Stopwatch","host":"","port":0,"enabled":false,"region":"","cc":"","latitude":0,"longitude":0,"reserved":0,"last_update":"0001-01-01T00:00:00Z","protocol":17,"map":"koth_lakeside_final","folder":"tf","game":"Team Fortress","app_id":440,"player_count":0,"max_players":24,"Bots":0,"server_type":"Dedicated","server_os":"Linux","password":true,"vac":true,"version":"7961495","steam_id":85568392924866364,"keywords":["cp","nocrits","nodmgspread","uncletopia"],"edicts":[304,2048],"game_id":440,"stv_port":27036,"stv_name":"Uncletopia | Chicago | 7 | Stopwatch | STV","players":null},{"server_id":0,"name_short":"","name":"Uncletopia | Atlanta | 4 | Community","host":"","port":0,"enabled":false,"region":"","cc":"","latitude":0,"longitude":0,"reserved":0,"last_update":"0001-01-01T00:00:00Z","protocol":17,"map":"rd_asteroid_redux_b1","folder":"tf","game":"Team Fortress","app_id":440,"player_count":22,"max_players":24,"Bots":0,"server_type":"Dedicated","server_os":"Linux","password":true,"vac":true,"version":"7961495","steam_id":85568392924515188,"keywords":["beta","nocrits","nodmgspread","rd","uncletopia"],"edicts":[1141,2048],"game_id":440,"stv_port":27046,"stv_name":"Uncletopia | Atlanta | 4 | Community | STV","players":[{"user_id":17,"name":"Albino Jellyfish","steam_id":76561198208561097,"connected_time":4236000000000,"state":"active","ping":55},{"user_id":43,"name":"Pango","steam_id":76561198069811545,"connected_time":1614000000000,"state":"active","ping":45},{"user_id":13,"name":"Avo","steam_id":76561197993340494,"connected_time":4286000000000,"state":"active","ping":57},{"user_id":55,"name":"Spicy Tamale","steam_id":76561198284847234,"connected_time":1153000000000,"state":"active","ping":63},{"user_id":16,"name":"I'm a Capricorn I was born goat","steam_id":76561198092135570,"connected_time":4263000000000,"state":"active","ping":60},{"user_id":44,"name":"jri22896","steam_id":76561199369035331,"connected_time":1597000000000,"state":"active","ping":100},{"user_id":67,"name":"makotothompson","steam_id":76561199012033756,"connected_time":250000000000,"state":"active","ping":61},{"user_id":68,"name":"Lost CS2 player","steam_id":76561198892387723,"connected_time":77000000000,"state":"active","ping":63},{"user_id":25,"name":"user_glitched404","steam_id":76561199452655992,"connected_time":2973000000000,"state":"active","ping":92},{"user_id":31,"name":"BananaMangoFestival2013","steam_id":76561198218558897,"connected_time":2113000000000,"state":"active","ping":168},{"user_id":45,"name":"john egbert","steam_id":76561198366204757,"connected_time":1562000000000,"state":"active","ping":45},{"user_id":56,"name":"DR.MYater","steam_id":76561198084479633,"connected_time":1113000000000,"state":"active","ping":107},{"user_id":33,"name":"PewPew","steam_id":76561198011299099,"connected_time":2052000000000,"state":"active","ping":61},{"user_id":34,"name":"Intro Bonito","steam_id":76561198119478838,"connected_time":2022000000000,"state":"active","ping":51},{"user_id":36,"name":"Overwatch's PvE Mode","steam_id":76561198046127710,"connected_time":1979000000000,"state":"active","ping":73},{"user_id":65,"name":"Decolour","steam_id":76561199045608372,"connected_time":458000000000,"state":"active","ping":66},{"user_id":52,"name":"Critical","steam_id":76561198123744966,"connected_time":1255000000000,"state":"active","ping":85},{"user_id":46,"name":"Chris U","steam_id":76561198219486405,"connected_time":1545000000000,"state":"active","ping":63},{"user_id":58,"name":"MichelangeloStark","steam_id":76561197976489900,"connected_time":970000000000,"state":"active","ping":75},{"user_id":69,"name":"M.C.Double","steam_id":76561198125684547,"connected_time":59000000000,"state":"active","ping":108},{"user_id":66,"name":"Cogsmon","steam_id":76561198044977767,"connected_time":335000000000,"state":"active","ping":96},{"user_id":70,"name":"Oni","steam_id":76561198112066584,"connected_time":55000000000,"state":"active","ping":63}]},{"server_id":0,"name_short":"","name":"Uncletopia | San Francisco | 1 | All Maps","host":"","port":0,"enabled":false,"region":"","cc":"","latitude":0,"longitude":0,"reserved":0,"last_update":"0001-01-01T00:00:00Z","protocol":17,"map":"pl_barnblitz","folder":"tf","game":"Team Fortress","app_id":440,"player_count":0,"max_players":24,"Bots":0,"server_type":"Dedicated","server_os":"Linux","password":true,"vac":true,"version":"7961495","steam_id":85568392924469999,"keywords":["nocrits","nodmgspread","payload","uncletopia"],"edicts":[804,2048],"game_id":440,"stv_port":27016,"stv_name":"Uncletopia | San Francisco | 1 | All Maps | STV","players":null},{"server_id":0,"name_short":"","name":"Uncletopia | Frankfurt | 7 | Stopwatch","host":"","port":0,"enabled":false,"region":"","cc":"","latitude":0,"longitude":0,"reserved":0,"last_update":"0001-01-01T00:00:00Z","protocol":17,"map":"koth_lakeside_final","folder":"tf","game":"Team Fortress","app_id":440,"player_count":0,"max_players":24,"Bots":0,"server_type":"Dedicated","server_os":"Linux","password":true,"vac":true,"version":"7961495","steam_id":85568392924742827,"keywords":["cp","nocrits","nodmgspread","uncletopia"],"edicts":[303,2048],"game_id":440,"stv_port":27076,"stv_name":"Uncletopia | Frankfurt | 7 | Stopwatch | STV","players":null},{"server_id":0,"name_short":"","name":"Uncletopia | Chicago | 2 | All Maps","host":"","port":0,"enabled":false,"region":"","cc":"","latitude":0,"longitude":0,"reserved":0,"last_update":"0001-01-01T00:00:00Z","protocol":17,"map":"cp_sunshine","folder":"tf","game":"Team Fortress","app_id":440,"player_count":24,"max_players":24,"Bots":0,"server_type":"Dedicated","server_os":"Linux","password":true,"vac":true,"version":"7961495","steam_id":85568392924469985,"keywords":["cp","nocrits","nodmgspread","uncletopia"],"edicts":[893,2048],"game_id":440,"stv_port":27026,"stv_name":"Uncletopia | Chicago | 2 | All Maps | STV","players":[{"user_id":386,"name":"HundchenTanque","steam_id":76561198122692754,"connected_time":864000000000,"state":"active","ping":56},{"user_id":367,"name":"Siren","steam_id":76561198047395823,"connected_time":1455000000000,"state":"active","ping":94},{"user_id":391,"name":"cumgoblin","steam_id":76561198113270138,"connected_time":114000000000,"state":"active","ping":70},{"user_id":373,"name":"Happy Pride 2023","steam_id":76561197981137624,"connected_time":1220000000000,"state":"active","ping":98},{"user_id":390,"name":"Gooper Blooper","steam_id":76561198067174070,"connected_time":417000000000,"state":"active","ping":85},{"user_id":387,"name":"beep","steam_id":76561199096448766,"connected_time":859000000000,"state":"active","ping":60},{"user_id":320,"name":"Avg Native Canadian","steam_id":76561198260451626,"connected_time":4220000000000,"state":"active","ping":65},{"user_id":338,"name":"Liminality","steam_id":76561198002601402,"connected_time":2517000000000,"state":"active","ping":106},{"user_id":383,"name":"[DATS‚û°] Sugar Meowth","steam_id":76561197995251793,"connected_time":918000000000,"state":"active","ping":89},{"user_id":374,"name":"Dr. Dre (Official)","steam_id":76561198075510786,"connected_time":1190000000000,"state":"active","ping":63},{"user_id":394,"name":"Riju","steam_id":76561198157492580,"connected_time":51000000000,"state":"active","ping":51},{"user_id":368,"name":"nhbiker","steam_id":76561198081277675,"connected_time":1442000000000,"state":"active","ping":60},{"user_id":377,"name":"doop","steam_id":76561198370487545,"connected_time":1148000000000,"state":"active","ping":86},{"user_id":393,"name":"totoro","steam_id":76561198210420871,"connected_time":104000000000,"state":"active","ping":47},{"user_id":369,"name":"tooth","steam_id":76561197986437643,"connected_time":1337000000000,"state":"active","ping":70},{"user_id":361,"name":"Donk","steam_id":76561199202761955,"connected_time":1808000000000,"state":"active","ping":70},{"user_id":348,"name":"Rice","steam_id":76561199150353089,"connected_time":2307000000000,"state":"active","ping":72},{"user_id":351,"name":"The Jar","steam_id":76561198146013385,"connected_time":2177000000000,"state":"active","ping":78},{"user_id":370,"name":"Ayphi","steam_id":76561198288030412,"connected_time":1310000000000,"state":"active","ping":100},{"user_id":389,"name":"Toottoot","steam_id":76561197992404836,"connected_time":464000000000,"state":"active","ping":45},{"user_id":354,"name":"Gian","steam_id":76561198041434512,"connected_time":2096000000000,"state":"active","ping":122},{"user_id":388,"name":"Satchamo","steam_id":76561198012968239,"connected_time":490000000000,"state":"active","ping":76},{"user_id":329,"name":"WorldsWorstGamer","steam_id":76561199126634917,"connected_time":3365000000000,"state":"active","ping":51},{"user_id":356,"name":"WaywardFinn","steam_id":76561198040391296,"connected_time":2076000000000,"state":"active","ping":84}]},{"server_id":0,"name_short":"","name":"Uncletopia | Seattle | 3 | Stopwatch","host":"","port":0,"enabled":false,"region":"","cc":"","latitude":0,"longitude":0,"reserved":0,"last_update":"0001-01-01T00:00:00Z","protocol":17,"map":"koth_product_final","folder":"tf","game":"Team Fortress","app_id":440,"player_count":0,"max_players":24,"Bots":0,"server_type":"Dedicated","server_os":"Linux","password":true,"vac":true,"version":"7961495","steam_id":85568392924515217,"keywords":["cp","nocrits","nodmgspread","uncletopia"],"edicts":[355,2048],"game_id":440,"stv_port":27036,"stv_name":"Uncletopia | Seattle | 3 | Stopwatch | STV","players":null},{"server_id":0,"name_short":"","name":"Uncletopia | Frankfurt | 8 | Community","host":"","port":0,"enabled":false,"region":"","cc":"","latitude":0,"longitude":0,"reserved":0,"last_update":"0001-01-01T00:00:00Z","protocol":17,"map":"pl_stallberg_rc3","folder":"tf","game":"Team Fortress","app_id":440,"player_count":0,"max_players":24,"Bots":0,"server_type":"Dedicated","server_os":"Linux","password":true,"vac":true,"version":"7961495","steam_id":85568392924742828,"keywords":["nocrits","nodmgspread","payload","uncletopia"],"edicts":[603,2048],"game_id":440,"stv_port":27086,"stv_name":"Uncletopia | Frankfurt | 8 | Community | STV","players":null},{"server_id":0,"name_short":"","name":"Uncletopia | New York City | 4 | Community","host":"","port":0,"enabled":false,"region":"","cc":"","latitude":0,"longitude":0,"reserved":0,"last_update":"0001-01-01T00:00:00Z","protocol":17,"map":"cp_villa_b19","folder":"tf","game":"Team Fortress","app_id":440,"player_count":0,"max_players":24,"Bots":0,"server_type":"Dedicated","server_os":"Linux","password":true,"vac":true,"version":"7961495","steam_id":85568392924742821,"keywords":["cp","nocrits","nodmgspread","uncletopia"],"edicts":[441,2048],"game_id":440,"stv_port":27046,"stv_name":"Uncletopia | New York City | 4 | Community | STV","players":null},{"server_id":0,"name_short":"","name":"Uncletopia | Dallas | 3 | All Maps","host":"","port":0,"enabled":false,"region":"","cc":"","latitude":0,"longitude":0,"reserved":0,"last_update":"0001-01-01T00:00:00Z","protocol":17,"map":"pl_upward","folder":"tf","game":"Team Fortress","app_id":440,"player_count":4,"max_players":24,"Bots":0,"server_type":"Dedicated","server_os":"Linux","password":true,"vac":true,"version":"7961495","steam_id":85568392924515219,"keywords":["nocrits","nodmgspread","payload","uncletopia"],"edicts":[694,2048],"game_id":440,"stv_port":27036,"stv_name":"Uncletopia | Dallas | 3 | All Maps | STV","players":[{"user_id":276,"name":"Creamus Maximus","steam_id":76561198085135600,"connected_time":1828000000000,"state":"active","ping":66},{"user_id":278,"name":"Bully Maguire","steam_id":76561199081621029,"connected_time":1814000000000,"state":"active","ping":74},{"user_id":280,"name":"JackDaSnac","steam_id":76561198991858250,"connected_time":1505000000000,"state":"active","ping":77},{"user_id":281,"name":"goobiestgoober","steam_id":76561199487899460,"connected_time":874000000000,"state":"active","ping":111}]},{"server_id":0,"name_short":"","name":"Uncletopia | Atlanta | 1 | All Maps","host":"","port":0,"enabled":false,"region":"","cc":"","latitude":0,"longitude":0,"reserved":0,"last_update":"0001-01-01T00:00:00Z","protocol":17,"map":"pl_swiftwater_final1","folder":"tf","game":"Team Fortress","app_id":440,"player_count":23,"max_players":24,"Bots":0,"server_type":"Dedicated","server_os":"Linux","password":true,"vac":true,"version":"7961495","steam_id":85568392924469982,"keywords":["nocrits","nodmgspread","payload","uncletopia"],"edicts":[1043,2048],"game_id":440,"stv_port":27016,"stv_name":"Uncletopia | Atlanta | 1 | All Maps | STV","players":[{"user_id":351,"name":"joshuatheSAVAGE2007","steam_id":76561198184900753,"connected_time":6568000000000,"state":"active","ping":64},{"user_id":374,"name":"z #based","steam_id":76561198377478982,"connected_time":4277000000000,"state":"active","ping":67},{"user_id":450,"name":"G.L.O.R.I.","steam_id":76561198134414380,"connected_time":29000000000,"state":"active","ping":139},{"user_id":420,"name":"ATL1 | to4st","steam_id":76561198981009008,"connected_time":2926000000000,"state":"active","ping":64},{"user_id":363,"name":"skafan777","steam_id":76561198386344068,"connected_time":5340000000000,"state":"active","ping":73},{"user_id":444,"name":"HarryjusttHarry","steam_id":76561198982810452,"connected_time":690000000000,"state":"active","ping":94},{"user_id":432,"name":"cn draven","steam_id":76561198125947844,"connected_time":1937000000000,"state":"active","ping":105},{"user_id":439,"name":"krabby","steam_id":76561199072773402,"connected_time":1363000000000,"state":"active","ping":62},{"user_id":452,"name":"Hidden Phantom","steam_id":76561198115531799,"connected_time":11000000000,"state":"spawning","ping":85},{"user_id":447,"name":"Cheese","steam_id":76561199207081299,"connected_time":50000000000,"state":"connecting","ping":105},{"user_id":357,"name":"barrybackshots14","steam_id":76561198388095559,"connected_time":6533000000000,"state":"active","ping":114},{"user_id":427,"name":"terrytennisball418","steam_id":76561198048882285,"connected_time":2425000000000,"state":"active","ping":60},{"user_id":440,"name":"PinkLemonade","steam_id":76561198799286228,"connected_time":1185000000000,"state":"active","ping":66},{"user_id":443,"name":"Brandonazz","steam_id":76561197994366351,"connected_time":930000000000,"state":"active","ping":78},{"user_id":448,"name":"Tyco","steam_id":76561197978414167,"connected_time":49000000000,"state":"active","ping":67},{"user_id":436,"name":"UNRELIABLE TEAMMATE","steam_id":76561198063526102,"connected_time":1881000000000,"state":"active","ping":79},{"user_id":449,"name":"lurid","steam_id":76561199134999203,"connected_time":37000000000,"state":"active","ping":60},{"user_id":306,"name":"Heathcliff","steam_id":76561198044288534,"connected_time":11590000000000,"state":"active","ping":67},{"user_id":451,"name":"Mr.Clean(All Purpose Cleaner)","steam_id":76561198208014257,"connected_time":21000000000,"state":"active","ping":50},{"user_id":428,"name":"lemme get a bbl the ocky way","steam_id":76561198115458307,"connected_time":2404000000000,"state":"active","ping":119},{"user_id":433,"name":"Kine¬≤","steam_id":76561198061505962,"connected_time":1924000000000,"state":"active","ping":43},{"user_id":431,"name":"Jin Gulilo","steam_id":76561198065151242,"connected_time":1998000000000,"state":"active","ping":62},{"user_id":414,"name":"finnishhospital89","steam_id":76561198249206656,"connected_time":3302000000000,"state":"active","ping":89}]},{"server_id":0,"name_short":"","name":"Uncletopia | S√£o Paulo | 2 | Community","host":"","port":0,"enabled":false,"region":"","cc":"","latitude":0,"longitude":0,"reserved":0,"last_update":"0001-01-01T00:00:00Z","protocol":17,"map":"koth_trenchfoot_ab1","folder":"tf","game":"Team Fortress","app_id":440,"player_count":0,"max_players":24,"Bots":0,"server_type":"Dedicated","server_os":"Linux","password":true,"vac":true,"version":"7961495","steam_id":85568392924485349,"keywords":["cp","nocrits","nodmgspread","uncletopia"],"edicts":[236,2048],"game_id":440,"stv_port":27016,"stv_name":"Uncletopia | S√£o Paulo | 2 | Community | STV","players":null},{"server_id":0,"name_short":"","name":"Uncletopia | Sydney | 1 | All Maps","host":"","port":0,"enabled":false,"region":"","cc":"","latitude":0,"longitude":0,"reserved":0,"last_update":"0001-01-01T00:00:00Z","protocol":17,"map":"cp_dustbowl","folder":"tf","game":"Team Fortress","app_id":440,"player_count":0,"max_players":24,"Bots":0,"server_type":"Dedicated","server_os":"Linux","password":true,"vac":true,"version":"7961495","steam_id":85568392924470001,"keywords":["cp","nocrits","nodmgspread","uncletopia"],"edicts":[739,2048],"game_id":440,"stv_port":27016,"stv_name":"Uncletopia | Sydney | 1 | All Maps | STV","players":null},{"server_id":0,"name_short":"","name":"Uncletopia | New York City | 3 | Stopwatch","host":"","port":0,"enabled":false,"region":"","cc":"","latitude":0,"longitude":0,"reserved":0,"last_update":"0001-01-01T00:00:00Z","protocol":17,"map":"koth_bagel_rc6","folder":"tf","game":"Team Fortress","app_id":440,"player_count":0,"max_players":24,"Bots":0,"server_type":"Dedicated","server_os":"Linux","password":true,"vac":true,"version":"7961495","steam_id":85568392924742820,"keywords":["cp","nocrits","nodmgspread","uncletopia"],"edicts":[600,2048],"game_id":440,"stv_port":27036,"stv_name":"Uncletopia | New York City | 3 | Stopwatch | STV","players":null},{"server_id":0,"name_short":"","name":"Uncletopia | New York City | 2 | All Maps","host":"","port":0,"enabled":false,"region":"","cc":"","latitude":0,"longitude":0,"reserved":0,"last_update":"0001-01-01T00:00:00Z","protocol":17,"map":"pl_barnblitz","folder":"tf","game":"Team Fortress","app_id":440,"player_count":9,"max_players":24,"Bots":0,"server_type":"Dedicated","server_os":"Linux","password":true,"vac":true,"version":"7961495","steam_id":85568392924469994,"keywords":["nocrits","nodmgspread","payload","uncletopia"],"edicts":[905,2048],"game_id":440,"stv_port":27026,"stv_name":"Uncletopia | New York City | 2 | All Maps | STV","players":[{"user_id":286,"name":"alex","steam_id":76561199207337181,"connected_time":141000000000,"state":"active","ping":48},{"user_id":282,"name":"Baron von Whoopsie","steam_id":76561197996691013,"connected_time":424000000000,"state":"active","ping":58},{"user_id":283,"name":"CaptinBrown","steam_id":76561198127709638,"connected_time":363000000000,"state":"active","ping":72},{"user_id":274,"name":"Jeffery Jitterson","steam_id":76561199021400714,"connected_time":1129000000000,"state":"active","ping":40},{"user_id":287,"name":"Dreszerg","steam_id":76561198838757422,"connected_time":86000000000,"state":"active","ping":75},{"user_id":281,"name":"Jaxtonian al Gaming","steam_id":76561198070929853,"connected_time":599000000000,"state":"active","ping":41},{"user_id":285,"name":"AbsolutePotato","steam_id":76561198084907848,"connected_time":193000000000,"state":"active","ping":39},{"user_id":288,"name":"fear_the-penguins","steam_id":76561199013292217,"connected_time":60000000000,"state":"active","ping":53},{"user_id":239,"name":"Harry S. Truman","steam_id":76561197993339757,"connected_time":3295000000000,"state":"active","ping":51}]},{"server_id":0,"name_short":"","name":"Uncletopia | Frankfurt | 4 | All Maps","host":"","port":0,"enabled":false,"region":"","cc":"","latitude":0,"longitude":0,"reserved":0,"last_update":"0001-01-01T00:00:00Z","protocol":17,"map":"pl_swiftwater_final1","folder":"tf","game":"Team Fortress","app_id":440,"player_count":0,"max_players":24,"Bots":0,"server_type":"Dedicated","server_os":"Linux","password":true,"vac":true,"version":"7961495","steam_id":85568392924504275,"keywords":["nocrits","nodmgspread","payload","uncletopia"],"edicts":[902,2048],"game_id":440,"stv_port":27046,"stv_name":"Uncletopia | Frankfurt | 4 | All Maps | STV","players":null},{"server_id":0,"name_short":"","name":"Uncletopia | Frankfurt | 3 | All Maps","host":"","port":0,"enabled":false,"region":"","cc":"","latitude":0,"longitude":0,"reserved":0,"last_update":"0001-01-01T00:00:00Z","protocol":17,"map":"koth_suijin","folder":"tf","game":"Team Fortress","app_id":440,"player_count":0,"max_players":24,"Bots":0,"server_type":"Dedicated","server_os":"Linux","password":true,"vac":true,"version":"7961495","steam_id":85568392924504274,"keywords":["cp","nocrits","nodmgspread","uncletopia"],"edicts":[422,2048],"game_id":440,"stv_port":27036,"stv_name":"Uncletopia | Frankfurt | 3 | All Maps | STV","players":null},{"server_id":0,"name_short":"","name":"Uncletopia | Frankfurt | 2 | All Maps","host":"","port":0,"enabled":false,"region":"","cc":"","latitude":0,"longitude":0,"reserved":0,"last_update":"0001-01-01T00:00:00Z","protocol":17,"map":"pl_borneo","folder":"tf","game":"Team Fortress","app_id":440,"player_count":2,"max_players":24,"Bots":0,"server_type":"Dedicated","server_os":"Linux","password":true,"vac":true,"version":"7961495","steam_id":85568392924469990,"keywords":["nocrits","nodmgspread","payload","uncletopia"],"edicts":[723,2048],"game_id":440,"stv_port":27026,"stv_name":"Uncletopia | Frankfurt | 2 | All Maps | STV","players":[{"user_id":419,"name":"ksutan","steam_id":76561198986353020,"connected_time":182000000000,"state":"active","ping":76},{"user_id":414,"name":"Speedy‚òï","steam_id":76561199038798778,"connected_time":907000000000,"state":"active","ping":92}]},{"server_id":0,"name_short":"","name":"Uncletopia | S√£o Paulo | 1 | All Maps","host":"","port":0,"enabled":false,"region":"","cc":"","latitude":0,"longitude":0,"reserved":0,"last_update":"0001-01-01T00:00:00Z","protocol":17,"map":"koth_lakeside_final","folder":"tf","game":"Team Fortress","app_id":440,"player_count":0,"max_players":24,"Bots":0,"server_type":"Dedicated","server_os":"Linux","password":true,"vac":true,"version":"7961495","steam_id":85568392924469996,"keywords":["cp","nocrits","nodmgspread","uncletopia"],"edicts":[304,2048],"game_id":440,"stv_port":27016,"stv_name":"Uncletopia | S√£o Paulo | 1 | All Maps | STV","players":null},{"server_id":0,"name_short":"","name":"Uncletopia | Chicago | 3 | All Maps","host":"","port":0,"enabled":false,"region":"","cc":"","latitude":0,"longitude":0,"reserved":0,"last_update":"0001-01-01T00:00:00Z","protocol":17,"map":"pl_barnblitz","folder":"tf","game":"Team Fortress","app_id":440,"player_count":24,"max_players":24,"Bots":0,"server_type":"Dedicated","server_os":"Linux","password":true,"vac":true,"version":"7961495","steam_id":85568392924515191,"keywords":["nocrits","nodmgspread","payload","uncletopia"],"edicts":[1124,2048],"game_id":440,"stv_port":27036,"stv_name":"Uncletopia | Chicago | 3 | All Maps | STV","players":[{"user_id":299,"name":"what the freak","steam_id":76561198080754727,"connected_time":127000000000,"state":"active","ping":82},{"user_id":287,"name":"Nondescript","steam_id":76561198035777247,"connected_time":1172000000000,"state":"active","ping":112},{"user_id":278,"name":"Colossal Falafel","steam_id":76561198108086245,"connected_time":2483000000000,"state":"active","ping":45},{"user_id":274,"name":"Alpha","steam_id":76561199482290132,"connected_time":2630000000000,"state":"active","ping":70},{"user_id":291,"name":"Avenging Spirit","steam_id":76561198119572121,"connected_time":259000000000,"state":"active","ping":61},{"user_id":262,"name":"Point then Click","steam_id":76561198076133259,"connected_time":3287000000000,"state":"active","ping":99},{"user_id":280,"name":"b4rry","steam_id":76561198365887154,"connected_time":1975000000000,"state":"active","ping":71},{"user_id":289,"name":"bacon :D","steam_id":76561199121940464,"connected_time":511000000000,"state":"active","ping":88},{"user_id":294,"name":"Big_Beans888","steam_id":76561198100822287,"connected_time":182000000000,"state":"active","ping":124},{"user_id":295,"name":"Bacchus","steam_id":76561199056815356,"connected_time":174000000000,"state":"active","ping":66},{"user_id":292,"name":"popfulmail","steam_id":76561198865971290,"connected_time":254000000000,"state":"active","ping":83},{"user_id":169,"name":"HumFreY","steam_id":76561198076639682,"connected_time":9491000000000,"state":"active","ping":77},{"user_id":290,"name":"YesMargaret","steam_id":76561198127971751,"connected_time":509000000000,"state":"active","ping":61},{"user_id":192,"name":"joosssh","steam_id":76561198072130805,"connected_time":8443000000000,"state":"active","ping":164},{"user_id":296,"name":"Gugomo","steam_id":76561198121428316,"connected_time":148000000000,"state":"active","ping":98},{"user_id":298,"name":"Krissy","steam_id":76561197960848174,"connected_time":131000000000,"state":"active","ping":74},{"user_id":264,"name":"DEADHORSE","steam_id":76561198066342171,"connected_time":3267000000000,"state":"active","ping":94},{"user_id":293,"name":"‚Ä¢ Fran ‚Ä¢","steam_id":76561198119724479,"connected_time":212000000000,"state":"active","ping":82},{"user_id":221,"name":"hearthian","steam_id":76561198113235260,"connected_time":5821000000000,"state":"active","ping":89},{"user_id":237,"name":"todd howard (real)","steam_id":76561198046650995,"connected_time":4909000000000,"state":"active","ping":96},{"user_id":270,"name":"B R O W N","steam_id":76561198084016173,"connected_time":3006000000000,"state":"active","ping":70},{"user_id":281,"name":"Rukks","steam_id":76561197993918954,"connected_time":1586000000000,"state":"active","ping":91},{"user_id":288,"name":"robert.smith.2004","steam_id":76561198865812602,"connected_time":766000000000,"state":"active","ping":73},{"user_id":297,"name":"Gheeotine","steam_id":76561198010181698,"connected_time":147000000000,"state":"active","ping":97}]},{"server_id":0,"name_short":"","name":"Uncletopia | Frankfurt | 6 | All Maps","host":"","port":0,"enabled":false,"region":"","cc":"","latitude":0,"longitude":0,"reserved":0,"last_update":"0001-01-01T00:00:00Z","protocol":17,"map":"plr_pipeline","folder":"tf","game":"Team Fortress","app_id":440,"player_count":0,"max_players":24,"Bots":0,"server_type":"Dedicated","server_os":"Linux","password":true,"vac":true,"version":"7961495","steam_id":85568392924504278,"keywords":["nocrits","nodmgspread","payload","uncletopia"],"edicts":[900,2048],"game_id":440,"stv_port":27066,"stv_name":"Uncletopia | Frankfurt | 6 | All Maps | STV","players":null},{"server_id":0,"name_short":"","name":"Uncletopia | Los Angeles | 4 | Stopwatch","host":"","port":0,"enabled":false,"region":"","cc":"","latitude":0,"longitude":0,"reserved":0,"last_update":"0001-01-01T00:00:00Z","protocol":17,"map":"cp_process_final","folder":"tf","game":"Team Fortress","app_id":440,"player_count":0,"max_players":24,"Bots":0,"server_type":"Dedicated","server_os":"Linux","password":true,"vac":true,"version":"7961495","steam_id":85568392924510199,"keywords":["cp","nocrits","nodmgspread","uncletopia"],"edicts":[537,2048],"game_id":440,"stv_port":27046,"stv_name":"Uncletopia | Los Angeles | 4 | Stopwatch | STV","players":null}]}