{"status":true,"message":"","result":[{"server_id":9,"name":"Uncletopia | Atlanta | 1 | All Maps","name_short":"atl-1","host":"atl-1.us.uncletopia.com","port":27015,"enabled":true,"region":"us-east","cc":"us","latitude":33.753746,"longitude":-84.38633,"reserved":0,"last_update":"0001-01-01T00:00:00Z","name_a2s":"Uncletopia | Atlanta | 1 | All Maps","protocol":17,"map":"pl_snowycoast","folder":"tf","game":"Team Fortress","app_id":440,"player_count":24,"max_players":24,"Bots":0,"server_type":"Dedicated","server_os":"Linux","password":true,"vac":true,"version":"7757534","steam_id":85568392924469982,"keywords":["nocrits","nodmgspread","payload","uncletopia"],"game_id":440,"stv_port":27016,"stv_name":"Uncletopia | Atlanta | 1 | All Maps | STV","players":[{"user_id":460,"name":"basil","steam_id":76561198075758026,"connected_time":805000000000,"state":"active","ping":69},{"user_id":441,"name":"SparkStorm","steam_id":76561198095817025,"connected_time":3091000000000,"state":"active","ping":39},{"user_id":415,"name":"chubbbo","steam_id":76561198943598378,"connected_time":4999000000000,"state":"active","ping":42},{"user_id":361,"name":"ATL1 | cola","steam_id":76561198374390458,"connected_time":10576000000000,"state":"active","ping":58},{"user_id":448,"name":"Monkey Mode","steam_id":76561197961267543,"connected_time":2705000000000,"state":"active","ping":59},{"user_id":419,"name":"O'Keearns","steam_id":76561198042213797,"connected_time":4684000000000,"state":"active","ping":46},{"user_id":442,"name":"BoopBerry","steam_id":76561198871571711,"connected_time":3087000000000,"state":"active","ping":84},{"user_id":466,"name":"ToonBoi","steam_id":76561199107879515,"connected_time":629000000000,"state":"active","ping":81},{"user_id":471,"name":"Shame has deployed the NAVY","steam_id":76561198100490994,"connected_time":129000000000,"state":"active","ping":58},{"user_id":461,"name":"snoops","steam_id":76561197986760351,"connected_time":785000000000,"state":"active","ping":77},{"user_id":272,"name":"Flint","steam_id":76561198066547582,"connected_time":17799000000000,"state":"active","ping":114},{"user_id":281,"name":"eish","steam_id":76561198089463603,"connected_time":16912000000000,"state":"active","ping":118},{"user_id":390,"name":"Frost ‚ô•","steam_id":76561198168870617,"connected_time":7184000000000,"state":"active","ping":73},{"user_id":462,"name":"Zillers","steam_id":76561198095248744,"connected_time":784000000000,"state":"active","ping":78},{"user_id":456,"name":"Uganda Knuckles lll","steam_id":76561199121276474,"connected_time":1852000000000,"state":"active","ping":99},{"user_id":459,"name":"Oddball","steam_id":76561198040440984,"connected_time":1535000000000,"state":"active","ping":89},{"user_id":453,"name":"melancholy","steam_id":76561198024301465,"connected_time":1976000000000,"state":"active","ping":45},{"user_id":464,"name":"Œõlxium","steam_id":76561198131272900,"connected_time":720000000000,"state":"active","ping":87},{"user_id":465,"name":"Scab Collector","steam_id":76561198346425545,"connected_time":664000000000,"state":"active","ping":73},{"user_id":475,"name":"Intro Bonito","steam_id":76561198119478838,"connected_time":14000000000,"state":"spawning","ping":44},{"user_id":468,"name":"Fetus in a paper bag","steam_id":76561199047286823,"connected_time":547000000000,"state":"active","ping":74},{"user_id":473,"name":"lil hog","steam_id":76561199230929836,"connected_time":46000000000,"state":"active","ping":74},{"user_id":470,"name":"Bean76","steam_id":76561198352985531,"connected_time":144000000000,"state":"active","ping":50},{"user_id":395,"name":"Intestinal Straw","steam_id":76561198082095303,"connected_time":6139000000000,"state":"active","ping":74}]},{"server_id":104,"name":"Uncletopia | Atlanta | 2 | All Maps","name_short":"atl-2","host":"atl-1.us.uncletopia.com","port":27025,"enabled":true,"region":"us-east","cc":"us","latitude":33.753746,"longitude":-84.38633,"reserved":0,"last_update":"0001-01-01T00:00:00Z","name_a2s":"Uncletopia | Atlanta | 2 | All Maps","protocol":17,"map":"pl_badwater","folder":"tf","game":"Team Fortress","app_id":440,"player_count":24,"max_players":24,"Bots":0,"server_type":"Dedicated","server_os":"Linux","password":true,"vac":true,"version":"7757534","steam_id":85568392924469983,"keywords":["nocrits","nodmgspread","payload","uncletopia"],"game_id":440,"stv_port":27026,"stv_name":"Uncletopia | Atlanta | 2 | All Maps | STV","players":[{"user_id":308,"name":"joe mama","steam_id":76561198180696981,"connected_time":4333000000000,"state":"active","ping":73},{"user_id":354,"name":"LiMPs","steam_id":76561198176806234,"connected_time":1439000000000,"state":"active","ping":69},{"user_id":284,"name":"üê∫-Iwky-ü¶ä","steam_id":76561198185616311,"connected_time":6450000000000,"state":"active","ping":73},{"user_id":352,"name":"Yummy Kabobz","steam_id":76561198067661705,"connected_time":1800000000000,"state":"active","ping":57},{"user_id":339,"name":"Crunchy","steam_id":76561199065412274,"connected_time":2627000000000,"state":"active","ping":59},{"user_id":319,"name":"Madrox Who?","steam_id":76561197988859134,"connected_time":3150000000000,"state":"active","ping":85},{"user_id":248,"name":"Kyatoru","steam_id":76561198360597965,"connected_time":8689000000000,"state":"active","ping":136},{"user_id":294,"name":"Nicholas Deckolas","steam_id":76561198005301468,"connected_time":5436000000000,"state":"active","ping":92},{"user_id":273,"name":"paloma","steam_id":76561198066076086,"connected_time":7371000000000,"state":"active","ping":127},{"user_id":341,"name":"DuckMann","steam_id":76561198197058638,"connected_time":1959000000000,"state":"active","ping":46},{"user_id":362,"name":"bobby peanstalk","steam_id":76561198040495463,"connected_time":1043000000000,"state":"active","ping":113},{"user_id":276,"name":"bought this cart for 15 dollars","steam_id":76561198253731826,"connected_time":7325000000000,"state":"active","ping":86},{"user_id":359,"name":"Honeybadger","steam_id":76561198075944319,"connected_time":1096000000000,"state":"active","ping":88},{"user_id":342,"name":"rkp!","steam_id":76561199053070819,"connected_time":1947000000000,"state":"active","ping":72},{"user_id":360,"name":"EvilMrPotoo ÔΩ°‚óï‚Äø‚óïÔΩ°","steam_id":76561198012566870,"connected_time":1089000000000,"state":"active","ping":75},{"user_id":255,"name":"Spiral Mountain","steam_id":76561198058683715,"connected_time":8607000000000,"state":"active","ping":76},{"user_id":363,"name":"Ka Xin Yu","steam_id":76561198057116531,"connected_time":1037000000000,"state":"active","ping":60},{"user_id":364,"name":"Leviathan","steam_id":76561197997528907,"connected_time":456000000000,"state":"active","ping":59},{"user_id":358,"name":"LuigiBot63","steam_id":76561199122191695,"connected_time":1125000000000,"state":"active","ping":89},{"user_id":350,"name":"Qwerty","steam_id":76561198023525894,"connected_time":1839000000000,"state":"active","ping":172},{"user_id":355,"name":"Falleax","steam_id":76561198021154908,"connected_time":1301000000000,"state":"active","ping":71},{"user_id":351,"name":"Spike Bones","steam_id":76561198234926120,"connected_time":1837000000000,"state":"active","ping":88},{"user_id":365,"name":"GrunkK","steam_id":76561198353250544,"connected_time":275000000000,"state":"active","ping":46},{"user_id":333,"name":"B0otstrut beel","steam_id":76561198202457221,"connected_time":2787000000000,"state":"active","ping":70}]},{"server_id":400,"name":"Uncletopia | Atlanta | 3 | Community","name_short":"atl-3","host":"atl-1.us.uncletopia.com","port":27035,"enabled":true,"region":"us-east","cc":"us","latitude":33.753746,"longitude":-84.38633,"reserved":0,"last_update":"0001-01-01T00:00:00Z","name_a2s":"Uncletopia | Atlanta | 3 | Community","protocol":17,"map":"workshop/pl_barnblitz_pro7.ugc582280235","folder":"tf","game":"Team Fortress","app_id":440,"player_count":24,"max_players":24,"Bots":0,"server_type":"Dedicated","server_os":"Linux","password":true,"vac":true,"version":"7757534","steam_id":85568392924515187,"keywords":["nocrits","nodmgspread","payload","uncletopia"],"game_id":440,"stv_port":27036,"stv_name":"Uncletopia | Atlanta | 3 | Community | STV","players":[{"user_id":196,"name":"Team Fartpiss Poo","steam_id":76561199163591880,"connected_time":771000000000,"state":"active","ping":77},{"user_id":132,"name":"Huey","steam_id":76561198972816386,"connected_time":5916000000000,"state":"active","ping":60},{"user_id":201,"name":" ï‚Ä¢·¥•‚Ä¢ î the bear","steam_id":76561197989591976,"connected_time":478000000000,"state":"active","ping":86},{"user_id":190,"name":"Rin \"Hindwing\" Redtail","steam_id":76561199074865638,"connected_time":1699000000000,"state":"active","ping":59},{"user_id":183,"name":"Brass","steam_id":76561198275581643,"connected_time":2065000000000,"state":"active","ping":127},{"user_id":176,"name":"Doc Cock","steam_id":76561198314320983,"connected_time":3171000000000,"state":"active","ping":99},{"user_id":177,"name":"Agent 2","steam_id":76561198079416360,"connected_time":3145000000000,"state":"active","ping":69},{"user_id":189,"name":"creamy","steam_id":76561198157435832,"connected_time":1766000000000,"state":"active","ping":93},{"user_id":188,"name":"The unsung hero","steam_id":76561199198863237,"connected_time":1851000000000,"state":"active","ping":95},{"user_id":180,"name":"Delightful MadCat","steam_id":76561198086178426,"connected_time":2186000000000,"state":"active","ping":101},{"user_id":191,"name":"Meme","steam_id":76561198080326037,"connected_time":1685000000000,"state":"active","ping":77},{"user_id":202,"name":"Grip Acquired","steam_id":76561198352512685,"connected_time":137000000000,"state":"active","ping":150},{"user_id":156,"name":"Trove","steam_id":76561198110970476,"connected_time":4364000000000,"state":"active","ping":39},{"user_id":198,"name":"Knocker","steam_id":76561198112054551,"connected_time":702000000000,"state":"active","ping":75},{"user_id":194,"name":"Notation","steam_id":76561198119509319,"connected_time":1249000000000,"state":"active","ping":51},{"user_id":199,"name":"Greasy Guavas","steam_id":76561198089650428,"connected_time":698000000000,"state":"active","ping":99},{"user_id":184,"name":"the cool","steam_id":76561198314198356,"connected_time":2012000000000,"state":"active","ping":134},{"user_id":200,"name":"Kid B8","steam_id":76561198086764710,"connected_time":648000000000,"state":"active","ping":95},{"user_id":185,"name":"TI-83 Plus","steam_id":76561198316134443,"connected_time":2003000000000,"state":"active","ping":68},{"user_id":114,"name":"2inch","steam_id":76561198082116747,"connected_time":6986000000000,"state":"active","ping":91},{"user_id":193,"name":"Knakrapunt","steam_id":76561198165865896,"connected_time":1487000000000,"state":"active","ping":62},{"user_id":81,"name":"I am a mooshroom","steam_id":76561198104198295,"connected_time":7729000000000,"state":"active","ping":81},{"user_id":187,"name":"JerlBays","steam_id":76561198096773292,"connected_time":1969000000000,"state":"active","ping":47},{"user_id":144,"name":"sasharudzik","steam_id":76561199126617781,"connected_time":5209000000000,"state":"active","ping":92}]},{"server_id":401,"name":"Uncletopia | Atlanta | 4 | No Payload","name_short":"atl-4","host":"atl-1.us.uncletopia.com","port":27045,"enabled":true,"region":"us-east","cc":"us","latitude":33.753746,"longitude":-84.38633,"reserved":0,"last_update":"0001-01-01T00:00:00Z","name_a2s":"","protocol":0,"map":"","folder":"","game":"","app_id":0,"player_count":0,"max_players":0,"Bots":0,"server_type":"","server_os":"","password":false,"vac":false,"version":"","steam_id":0,"keywords":null,"game_id":0,"stv_port":0,"stv_name":"","players":null},{"server_id":2,"name":"Uncletopia | Chicago | 1 | All Maps","name_short":"chi-1","host":"chi-1.us.uncletopia.com","port":27015,"enabled":true,"region":"us-central","cc":"us","latitude":41.881832,"longitude":-87.62318,"reserved":0,"last_update":"0001-01-01T00:00:00Z","name_a2s":"Uncletopia | Chicago | 1 | All Maps","protocol":17,"map":"pl_snowycoast","folder":"tf","game":"Team Fortress","app_id":440,"player_count":25,"max_players":24,"Bots":0,"server_type":"Dedicated","server_os":"Linux","password":true,"vac":true,"version":"7757534","steam_id":85568392924469984,"keywords":["nocrits","nodmgspread","payload","uncletopia"],"game_id":440,"stv_port":27016,"stv_name":"Uncletopia | Chicago | 1 | All Maps | STV","players":[{"user_id":622,"name":"Brocklee","steam_id":76561198073953768,"connected_time":10119000000000,"state":"active","ping":57},{"user_id":754,"name":"Convict Police Officers","steam_id":76561197993527275,"connected_time":1809000000000,"state":"active","ping":56},{"user_id":751,"name":"Candy Sparkles","steam_id":76561198126871264,"connected_time":1864000000000,"state":"active","ping":86},{"user_id":752,"name":"chipperguy","steam_id":76561199060302023,"connected_time":1852000000000,"state":"active","ping":85},{"user_id":773,"name":"Weerk","steam_id":76561199209543551,"connected_time":1364000000000,"state":"active","ping":94},{"user_id":801,"name":"MrDarkc","steam_id":76561199233053848,"connected_time":886000000000,"state":"active","ping":97},{"user_id":758,"name":"RaPids","steam_id":76561198082496100,"connected_time":1654000000000,"state":"active","ping":84},{"user_id":772,"name":"femboy foxgirl","steam_id":76561198056432756,"connected_time":1429000000000,"state":"active","ping":53},{"user_id":757,"name":".JIFF","steam_id":76561198045181760,"connected_time":1698000000000,"state":"active","ping":57},{"user_id":740,"name":"Tallyden","steam_id":76561197998572962,"connected_time":2663000000000,"state":"active","ping":70},{"user_id":759,"name":"sexgaming_","steam_id":76561198245994746,"connected_time":1633000000000,"state":"active","ping":56},{"user_id":749,"name":"Doublebagel47","steam_id":76561198832021744,"connected_time":1899000000000,"state":"active","ping":74},{"user_id":760,"name":"Mister36","steam_id":76561198019132100,"connected_time":1626000000000,"state":"active","ping":49},{"user_id":802,"name":"Sour Grapes Radio Hour","steam_id":76561198121372198,"connected_time":847000000000,"state":"active","ping":69},{"user_id":743,"name":"Toasty Gyro","steam_id":76561198001026643,"connected_time":2235000000000,"state":"active","ping":52},{"user_id":814,"name":"[REDACTED]","steam_id":76561197999637991,"connected_time":425000000000,"state":"active","ping":77},{"user_id":820,"name":"polibo","steam_id":76561199065978850,"connected_time":0,"state":"spawning","ping":0},{"user_id":765,"name":"blitzibb","steam_id":76561198109469469,"connected_time":1606000000000,"state":"active","ping":117},{"user_id":791,"name":"KooKooKachue","steam_id":76561198391195262,"connected_time":1142000000000,"state":"active","ping":96},{"user_id":731,"name":"knucklesandwich59","steam_id":76561198120684348,"connected_time":3681000000000,"state":"active","ping":38},{"user_id":730,"name":"Crazed Gunman loose in Walmart","steam_id":76561198413125750,"connected_time":3752000000000,"state":"active","ping":69},{"user_id":769,"name":"3ggsalad3","steam_id":76561199386969191,"connected_time":1501000000000,"state":"active","ping":54},{"user_id":807,"name":"ColonelKermit","steam_id":76561198318215660,"connected_time":697000000000,"state":"active","ping":60},{"user_id":728,"name":"Wang of Wall St","steam_id":76561198047460598,"connected_time":3963000000000,"state":"active","ping":79},{"user_id":766,"name":"Enchanter110","steam_id":76561199017490425,"connected_time":1581000000000,"state":"active","ping":95}]},{"server_id":106,"name":"Uncletopia | Chicago | 2 | All Maps","name_short":"chi-2","host":"chi-1.us.uncletopia.com","port":27025,"enabled":true,"region":"us-central","cc":"us","latitude":41.881832,"longitude":-87.62318,"reserved":0,"last_update":"0001-01-01T00:00:00Z","name_a2s":"Uncletopia | Chicago | 2 | All Maps","protocol":17,"map":"pl_swiftwater_final1","folder":"tf","game":"Team Fortress","app_id":440,"player_count":24,"max_players":24,"Bots":0,"server_type":"Dedicated","server_os":"Linux","password":true,"vac":true,"version":"7757534","steam_id":85568392924469985,"keywords":["nocrits","nodmgspread","payload","uncletopia"],"game_id":440,"stv_port":27026,"stv_name":"Uncletopia | Chicago | 2 | All Maps | STV","players":[{"user_id":726,"name":"BigDeac","steam_id":76561198091237274,"connected_time":1178000000000,"state":"active","ping":55},{"user_id":725,"name":"Notorious B.A.R.T hellcase.com","steam_id":76561198145092836,"connected_time":1307000000000,"state":"active","ping":76},{"user_id":695,"name":"countrychefbeerboy92","steam_id":76561198132476501,"connected_time":3255000000000,"state":"active","ping":48},{"user_id":708,"name":"Certified Snoozer","steam_id":76561199005778478,"connected_time":2474000000000,"state":"active","ping":60},{"user_id":694,"name":"cotton candy muncher","steam_id":76561198058998371,"connected_time":3410000000000,"state":"active","ping":70},{"user_id":717,"name":"Frenchie","steam_id":76561199240301565,"connected_time":1446000000000,"state":"active","ping":52},{"user_id":729,"name":"bkiller","steam_id":76561198029265697,"connected_time":313000000000,"state":"active","ping":71},{"user_id":713,"name":"PageBoiSkull","steam_id":76561198237353578,"connected_time":1705000000000,"state":"active","ping":108},{"user_id":719,"name":"Predicta","steam_id":76561198017630616,"connected_time":1408000000000,"state":"active","ping":47},{"user_id":706,"name":"SheppoBeppo","steam_id":76561198133734515,"connected_time":2851000000000,"state":"active","ping":64},{"user_id":714,"name":"level three mug","steam_id":76561198072592880,"connected_time":1471000000000,"state":"active","ping":40},{"user_id":720,"name":"dzcreeper","steam_id":76561198072250723,"connected_time":1405000000000,"state":"active","ping":87},{"user_id":707,"name":"Motreir","steam_id":76561198151717946,"connected_time":2542000000000,"state":"active","ping":93},{"user_id":704,"name":"‚òÇBliffenstimmers‚òÇ","steam_id":76561198059984896,"connected_time":2909000000000,"state":"active","ping":86},{"user_id":715,"name":"BackwardsEagle","steam_id":76561199013712612,"connected_time":1469000000000,"state":"active","ping":96},{"user_id":697,"name":"guess i'll die...virtually","steam_id":76561199112291386,"connected_time":3197000000000,"state":"active","ping":118},{"user_id":698,"name":"lokm","steam_id":76561198030374238,"connected_time":3173000000000,"state":"active","ping":114},{"user_id":721,"name":"Vivid Hut 64","steam_id":76561198170050059,"connected_time":1401000000000,"state":"active","ping":72},{"user_id":728,"name":"Zicky Nee","steam_id":76561198042601111,"connected_time":627000000000,"state":"active","ping":65},{"user_id":723,"name":"remilia","steam_id":76561198069180543,"connected_time":1380000000000,"state":"active","ping":80},{"user_id":553,"name":"FortressGamer #SaveTF2","steam_id":76561198144049265,"connected_time":13829000000000,"state":"active","ping":71},{"user_id":678,"name":"kite","steam_id":76561198346516392,"connected_time":4255000000000,"state":"active","ping":71},{"user_id":686,"name":"Silico","steam_id":76561197993814144,"connected_time":3847000000000,"state":"active","ping":56},{"user_id":711,"name":"Vanessa","steam_id":76561198020696265,"connected_time":2003000000000,"state":"active","ping":63}]},{"server_id":402,"name":"Uncletopia | Chicago | 3 | All Maps","name_short":"chi-3","host":"chi-1.us.uncletopia.com","port":27035,"enabled":true,"region":"us-central","cc":"us","latitude":41.881832,"longitude":-87.62318,"reserved":0,"last_update":"0001-01-01T00:00:00Z","name_a2s":"Uncletopia | Chicago | 3 | All Maps","protocol":17,"map":"pl_pier","folder":"tf","game":"Team Fortress","app_id":440,"player_count":24,"max_players":24,"Bots":0,"server_type":"Dedicated","server_os":"Linux","password":true,"vac":true,"version":"7757534","steam_id":85568392924515191,"keywords":["nocrits","nodmgspread","payload","uncletopia"],"game_id":440,"stv_port":27036,"stv_name":"Uncletopia | Chicago | 3 | All Maps | STV","players":[{"user_id":205,"name":"matchmatch                     ","steam_id":76561198048925904,"connected_time":3416000000000,"state":"active","ping":116},{"user_id":242,"name":"Red","steam_id":76561198041784302,"connected_time":85000000000,"state":"active","ping":75},{"user_id":216,"name":"memeku","steam_id":76561199194985181,"connected_time":3023000000000,"state":"active","ping":58},{"user_id":180,"name":"Brow","steam_id":76561199020794572,"connected_time":5881000000000,"state":"active","ping":148},{"user_id":230,"name":"\u003c blank \u003e","steam_id":76561198012566503,"connected_time":1366000000000,"state":"active","ping":110},{"user_id":231,"name":"Boogie","steam_id":76561198043626626,"connected_time":1112000000000,"state":"active","ping":58},{"user_id":243,"name":"megalootbags","steam_id":76561198846823332,"connected_time":64000000000,"state":"active","ping":70},{"user_id":225,"name":"4+1MyriadFuturesCosMo@BousouFC","steam_id":76561198181929019,"connected_time":2567000000000,"state":"active","ping":50},{"user_id":210,"name":"Deathpill","steam_id":76561197994404793,"connected_time":3240000000000,"state":"active","ping":73},{"user_id":240,"name":"MrPoopy","steam_id":76561199456009540,"connected_time":780000000000,"state":"active","ping":98},{"user_id":244,"name":"crime committer","steam_id":76561198066455591,"connected_time":60000000000,"state":"active","ping":75},{"user_id":241,"name":"ssstEVe","steam_id":76561198063475894,"connected_time":383000000000,"state":"active","ping":66},{"user_id":245,"name":"TheGhostThatWas","steam_id":76561198055836483,"connected_time":48000000000,"state":"active","ping":58},{"user_id":209,"name":"cycoone","steam_id":76561198059745285,"connected_time":3249000000000,"state":"active","ping":59},{"user_id":239,"name":"JetZ","steam_id":76561199122488957,"connected_time":928000000000,"state":"active","ping":62},{"user_id":194,"name":"Fallen_Crusade72","steam_id":76561199239498526,"connected_time":4123000000000,"state":"active","ping":78},{"user_id":206,"name":"Bzamo","steam_id":76561198039883392,"connected_time":3411000000000,"state":"active","ping":60},{"user_id":207,"name":"Bert","steam_id":76561198073902241,"connected_time":3378000000000,"state":"active","ping":74},{"user_id":246,"name":"The Great Karizma!","steam_id":76561198346191193,"connected_time":38000000000,"state":"active","ping":99},{"user_id":224,"name":"pasta","steam_id":76561198084719895,"connected_time":2601000000000,"state":"active","ping":53},{"user_id":218,"name":"Scoober","steam_id":76561198079736959,"connected_time":2921000000000,"state":"active","ping":76},{"user_id":227,"name":"Bread Baker","steam_id":76561198185335103,"connected_time":2155000000000,"state":"active","ping":57},{"user_id":247,"name":"Sir Iasis","steam_id":76561198035666760,"connected_time":20000000000,"state":"active","ping":62},{"user_id":193,"name":"pickup truck with huge honks","steam_id":76561198111447214,"connected_time":4179000000000,"state":"active","ping":79}]},{"server_id":403,"name":"Uncletopia | Chicago | 4 | All Maps","name_short":"chi-4","host":"chi-1.us.uncletopia.com","port":27045,"enabled":true,"region":"us-central","cc":"us","latitude":41.881832,"longitude":-87.62318,"reserved":0,"last_update":"0001-01-01T00:00:00Z","name_a2s":"Uncletopia | Chicago | 4 | All Maps","protocol":17,"map":"pl_snowycoast","folder":"tf","game":"Team Fortress","app_id":440,"player_count":23,"max_players":24,"Bots":0,"server_type":"Dedicated","server_os":"Linux","password":true,"vac":true,"version":"7757534","steam_id":85568392924515193,"keywords":["nocrits","nodmgspread","payload","uncletopia"],"game_id":440,"stv_port":27046,"stv_name":"Uncletopia | Chicago | 4 | All Maps | STV","players":[{"user_id":353,"name":"MLA Format 9th Edition","steam_id":76561198863997898,"connected_time":3048000000000,"state":"active","ping":55},{"user_id":379,"name":"pink","steam_id":76561198143290835,"connected_time":840000000000,"state":"active","ping":64},{"user_id":373,"name":"Poegryn","steam_id":76561198048068532,"connected_time":1546000000000,"state":"active","ping":58},{"user_id":350,"name":"Midnight Flame","steam_id":76561198279692754,"connected_time":3758000000000,"state":"active","ping":94},{"user_id":374,"name":"Ludidas","steam_id":76561198156272124,"connected_time":1536000000000,"state":"active","ping":47},{"user_id":370,"name":"Kab","steam_id":76561198073503100,"connected_time":1625000000000,"state":"active","ping":65},{"user_id":380,"name":"confettispaghetti (evil)","steam_id":76561198069600113,"connected_time":757000000000,"state":"active","ping":57},{"user_id":366,"name":"b.loke","steam_id":76561198371235800,"connected_time":2787000000000,"state":"active","ping":76},{"user_id":375,"name":"blorp","steam_id":76561198054677742,"connected_time":1524000000000,"state":"active","ping":103},{"user_id":367,"name":"AJTarcza","steam_id":76561198070800190,"connected_time":2296000000000,"state":"active","ping":86},{"user_id":358,"name":"Bad Medic Buddy","steam_id":76561198093222632,"connected_time":3018000000000,"state":"active","ping":93},{"user_id":359,"name":"La Leche","steam_id":76561198319119844,"connected_time":3013000000000,"state":"active","ping":67},{"user_id":334,"name":"turd ferguson","steam_id":76561198071620782,"connected_time":4396000000000,"state":"active","ping":83},{"user_id":360,"name":"Gods Silliest Soldier","steam_id":76561198147242655,"connected_time":2985000000000,"state":"active","ping":79},{"user_id":339,"name":"Flowers","steam_id":76561198031669899,"connected_time":4199000000000,"state":"active","ping":88},{"user_id":361,"name":"Emperor Dankatine","steam_id":76561198044741086,"connected_time":2976000000000,"state":"active","ping":81},{"user_id":376,"name":"your–¥—Ä—É–≥","steam_id":76561198317927140,"connected_time":1524000000000,"state":"active","ping":67},{"user_id":369,"name":"Aegis XIII","steam_id":76561198295006002,"connected_time":1988000000000,"state":"active","ping":57},{"user_id":383,"name":"TheMemeNinja","steam_id":76561198939053223,"connected_time":20000000000,"state":"spawning","ping":50},{"user_id":304,"name":"lemn","steam_id":76561198177305950,"connected_time":5755000000000,"state":"active","ping":60},{"user_id":240,"name":"cyber.genius","steam_id":76561198034121017,"connected_time":8462000000000,"state":"active","ping":68},{"user_id":384,"name":"Breadnb","steam_id":76561199223339201,"connected_time":19000000000,"state":"spawning","ping":140}]},{"server_id":36,"name":"Uncletopia | Chicago | 5 | All Maps","name_short":"chi-5","host":"chi-2.us.uncletopia.com","port":27015,"enabled":true,"region":"us-central","cc":"us","latitude":41.881832,"longitude":-87.62318,"reserved":0,"last_update":"0001-01-01T00:00:00Z","name_a2s":"Uncletopia | Chicago | 5 | All Maps","protocol":17,"map":"pl_badwater","folder":"tf","game":"Team Fortress","app_id":440,"player_count":24,"max_players":24,"Bots":0,"server_type":"Dedicated","server_os":"Linux","password":true,"vac":true,"version":"7757534","steam_id":85568392924866362,"keywords":["nocrits","nodmgspread","payload","uncletopia"],"game_id":440,"stv_port":27016,"stv_name":"Uncletopia | Chicago | 5 | All Maps | STV","players":[{"user_id":274,"name":"Sergeant Joker #savetf2","steam_id":76561198854616604,"connected_time":1201000000000,"state":"active","ping":62},{"user_id":305,"name":"Arthur Drexel","steam_id":76561198003904750,"connected_time":164000000000,"state":"active","ping":88},{"user_id":278,"name":"Bearegard","steam_id":76561198061926542,"connected_time":1049000000000,"state":"active","ping":66},{"user_id":293,"name":"VirusIGoob","steam_id":76561198842808067,"connected_time":594000000000,"state":"active","ping":58},{"user_id":306,"name":"hoboways","steam_id":76561198168035195,"connected_time":129000000000,"state":"active","ping":90},{"user_id":301,"name":"Wumps","steam_id":76561198207226825,"connected_time":334000000000,"state":"active","ping":75},{"user_id":289,"name":"Sceptre","steam_id":76561198807603392,"connected_time":689000000000,"state":"active","ping":69},{"user_id":290,"name":"WellThatCase","steam_id":76561198930966223,"connected_time":686000000000,"state":"active","ping":69},{"user_id":254,"name":"c","steam_id":76561199215821942,"connected_time":3716000000000,"state":"active","ping":75},{"user_id":279,"name":"bloodyboorp","steam_id":76561199177105829,"connected_time":1032000000000,"state":"active","ping":173},{"user_id":296,"name":"Biggles","steam_id":76561198126576389,"connected_time":534000000000,"state":"active","ping":72},{"user_id":281,"name":"heavyArmor","steam_id":76561198191056059,"connected_time":1015000000000,"state":"active","ping":146},{"user_id":299,"name":"Sam","steam_id":76561198079393512,"connected_time":410000000000,"state":"active","ping":78},{"user_id":285,"name":"little_sergeant","steam_id":76561199081927823,"connected_time":827000000000,"state":"active","ping":59},{"user_id":255,"name":"cooltool21","steam_id":76561197996817585,"connected_time":3712000000000,"state":"active","ping":82},{"user_id":286,"name":"thefifthwall","steam_id":76561198116216081,"connected_time":757000000000,"state":"active","ping":48},{"user_id":287,"name":"Saul Goodman","steam_id":76561198958881101,"connected_time":747000000000,"state":"active","ping":83},{"user_id":264,"name":"who is gavin?","steam_id":76561198069415057,"connected_time":2784000000000,"state":"active","ping":66},{"user_id":300,"name":"dipp","steam_id":76561198395577807,"connected_time":391000000000,"state":"active","ping":45},{"user_id":256,"name":"meggie","steam_id":76561198038291026,"connected_time":3708000000000,"state":"active","ping":67},{"user_id":302,"name":"SlippyPan04","steam_id":76561198411855797,"connected_time":293000000000,"state":"active","ping":56},{"user_id":303,"name":"Demonic Cipher","steam_id":76561198066082088,"connected_time":277000000000,"state":"active","ping":59},{"user_id":304,"name":"BasicPeaches","steam_id":76561198190890150,"connected_time":275000000000,"state":"active","ping":84},{"user_id":307,"name":"definitely not cris","steam_id":76561198930426710,"connected_time":128000000000,"state":"active","ping":71}]},{"server_id":37,"name":"Uncletopia | Chicago | 6 | All Maps","name_short":"chi-6","host":"chi-2.us.uncletopia.com","port":27025,"enabled":true,"region":"us-central","cc":"us","latitude":41.881832,"longitude":-87.62318,"reserved":0,"last_update":"0001-01-01T00:00:00Z","name_a2s":"Uncletopia | Chicago | 6 | All Maps","protocol":17,"map":"pl_frontier_final","folder":"tf","game":"Team Fortress","app_id":440,"player_count":24,"max_players":24,"Bots":0,"server_type":"Dedicated","server_os":"Linux","password":true,"vac":true,"version":"7757534","steam_id":85568392924866363,"keywords":["nocrits","nodmgspread","payload","uncletopia"],"game_id":440,"stv_port":27026,"stv_name":"Uncletopia | Chicago | 6 | All Maps | STV","players":[{"user_id":593,"name":"Chin","steam_id":76561198247426906,"connected_time":1190000000000,"state":"active","ping":75},{"user_id":594,"name":"Proof by close enough","steam_id":76561198083345384,"connected_time":1190000000000,"state":"active","ping":89},{"user_id":604,"name":"Mr. Dry Lips","steam_id":76561198028157625,"connected_time":117000000000,"state":"active","ping":75},{"user_id":590,"name":"volta","steam_id":76561199214283884,"connected_time":1415000000000,"state":"active","ping":97},{"user_id":589,"name":"Zho Biden","steam_id":76561198079224101,"connected_time":1505000000000,"state":"active","ping":56},{"user_id":570,"name":"Propaniac Gaming ‚òë","steam_id":76561198133963270,"connected_time":3057000000000,"state":"active","ping":64},{"user_id":587,"name":"RASTAPEEK","steam_id":76561198098284483,"connected_time":1662000000000,"state":"active","ping":51},{"user_id":474,"name":"flappyflap2","steam_id":76561198285048973,"connected_time":7495000000000,"state":"active","ping":65},{"user_id":571,"name":"Sockhead","steam_id":76561198253181773,"connected_time":3038000000000,"state":"active","ping":93},{"user_id":585,"name":"Punished Kong","steam_id":76561198973620882,"connected_time":2225000000000,"state":"active","ping":89},{"user_id":595,"name":"Viktir","steam_id":76561198127898517,"connected_time":1164000000000,"state":"active","ping":72},{"user_id":565,"name":"saga","steam_id":76561198130671890,"connected_time":3144000000000,"state":"active","ping":45},{"user_id":596,"name":"BIG CHIP","steam_id":76561198023680617,"connected_time":1144000000000,"state":"active","ping":51},{"user_id":523,"name":"crashymicsplody","steam_id":76561198213916765,"connected_time":5669000000000,"state":"active","ping":67},{"user_id":583,"name":"Kindagoodplayer","steam_id":76561198814625843,"connected_time":2260000000000,"state":"active","ping":82},{"user_id":597,"name":"radicalPolio","steam_id":76561197961561855,"connected_time":1136000000000,"state":"active","ping":66},{"user_id":603,"name":"Barry","steam_id":76561198371953939,"connected_time":247000000000,"state":"active","ping":85},{"user_id":599,"name":"Kaluka","steam_id":76561198036861445,"connected_time":1120000000000,"state":"active","ping":76},{"user_id":578,"name":"Hunter Biden's laptop","steam_id":76561199475829930,"connected_time":2693000000000,"state":"active","ping":94},{"user_id":524,"name":"deathstar0611","steam_id":76561198120476410,"connected_time":5651000000000,"state":"active","ping":115},{"user_id":605,"name":"Totally","steam_id":76561198126511227,"connected_time":117000000000,"state":"active","ping":55},{"user_id":584,"name":"‚ô•RizaTiz‚ô•","steam_id":76561198165274309,"connected_time":2251000000000,"state":"active","ping":140},{"user_id":588,"name":"froGG moist #fluorine","steam_id":76561198301176077,"connected_time":1655000000000,"state":"active","ping":72},{"user_id":600,"name":"lucil3 on Bandcamp","steam_id":76561198149063013,"connected_time":1081000000000,"state":"active","ping":69}]},{"server_id":38,"name":"Uncletopia | Chicago | 7 | Stopwatch Beta","name_short":"chi-7","host":"chi-2.us.uncletopia.com","port":27035,"enabled":true,"region":"us-central","cc":"us","latitude":41.881832,"longitude":-87.62318,"reserved":0,"last_update":"0001-01-01T00:00:00Z","name_a2s":"Uncletopia | Chicago | 7 | Stopwatch Beta","protocol":17,"map":"koth_lakeside_final","folder":"tf","game":"Team Fortress","app_id":440,"player_count":20,"max_players":24,"Bots":0,"server_type":"Dedicated","server_os":"Linux","password":true,"vac":true,"version":"7757534","steam_id":85568392924866364,"keywords":["cp","nocrits","nodmgspread","uncletopia"],"game_id":440,"stv_port":27036,"stv_name":"Uncletopia | Chicago | 7 | Stopwatch Beta | STV","players":[{"user_id":147,"name":"ms. capgras","steam_id":76561199080209996,"connected_time":2528000000000,"state":"active","ping":50},{"user_id":164,"name":"Santamen","steam_id":76561198119478199,"connected_time":1584000000000,"state":"active","ping":53},{"user_id":165,"name":"doozy","steam_id":76561198033106776,"connected_time":1454000000000,"state":"active","ping":124},{"user_id":180,"name":"Van","steam_id":76561198073518712,"connected_time":908000000000,"state":"active","ping":60},{"user_id":152,"name":"mEch114","steam_id":76561198236936060,"connected_time":2424000000000,"state":"active","ping":71},{"user_id":187,"name":"Bohamut","steam_id":76561198078465980,"connected_time":341000000000,"state":"active","ping":86},{"user_id":176,"name":"i suck dick","steam_id":76561198114679256,"connected_time":979000000000,"state":"active","ping":74},{"user_id":166,"name":"OlympicChamp_12 | Trade.tf","steam_id":76561198830574526,"connected_time":1289000000000,"state":"active","ping":124},{"user_id":185,"name":"Master17Gaming","steam_id":76561198145986516,"connected_time":476000000000,"state":"active","ping":93},{"user_id":141,"name":"malarkeyman","steam_id":76561198844473584,"connected_time":2908000000000,"state":"active","ping":58},{"user_id":178,"name":"Gonorrhea Gaming","steam_id":76561199121158746,"connected_time":962000000000,"state":"active","ping":79},{"user_id":175,"name":"CroMaLaka","steam_id":76561198380926090,"connected_time":1028000000000,"state":"active","ping":46},{"user_id":183,"name":"Metroid Prime (creature)","steam_id":76561198249811492,"connected_time":512000000000,"state":"active","ping":45},{"user_id":182,"name":"Soull","steam_id":76561199188088471,"connected_time":845000000000,"state":"active","ping":82},{"user_id":189,"name":"heisenburger","steam_id":76561198986534519,"connected_time":308000000000,"state":"active","ping":90},{"user_id":177,"name":"Comfy Monkey","steam_id":76561197998434936,"connected_time":966000000000,"state":"active","ping":52},{"user_id":77,"name":"Highground","steam_id":76561199197544789,"connected_time":6911000000000,"state":"active","ping":94},{"user_id":190,"name":"Zoarork25","steam_id":76561198373589711,"connected_time":183000000000,"state":"active","ping":77},{"user_id":191,"name":"tangerine","steam_id":76561198121378619,"connected_time":168000000000,"state":"active","ping":80},{"user_id":140,"name":"Creme","steam_id":76561198034166729,"connected_time":3136000000000,"state":"active","ping":86}]},{"server_id":39,"name":"Uncletopia | Chicago | 8 | Community","name_short":"chi-8","host":"chi-2.us.uncletopia.com","port":27045,"enabled":true,"region":"us-central","cc":"us","latitude":41.881832,"longitude":-87.62318,"reserved":0,"last_update":"0001-01-01T00:00:00Z","name_a2s":"Uncletopia | Chicago | 8 | Community","protocol":17,"map":"workshop/koth_ashville_final.ugc2130459942","folder":"tf","game":"Team Fortress","app_id":440,"player_count":22,"max_players":24,"Bots":0,"server_type":"Dedicated","server_os":"Linux","password":true,"vac":true,"version":"7757534","steam_id":85568392924866365,"keywords":["cp","nocrits","nodmgspread","uncletopia"],"game_id":440,"stv_port":27046,"stv_name":"Uncletopia | Chicago | 8 | Community | STV","players":[{"user_id":10,"name":"Burgmond","steam_id":76561198105619119,"connected_time":1891000000000,"state":"active","ping":71},{"user_id":39,"name":"JACOB","steam_id":76561198211874895,"connected_time":479000000000,"state":"active","ping":76},{"user_id":12,"name":"[JTG] AlexHart","steam_id":76561198124357533,"connected_time":1857000000000,"state":"active","ping":98},{"user_id":38,"name":"Misha","steam_id":76561198066174041,"connected_time":515000000000,"state":"active","ping":64},{"user_id":14,"name":"MostlyEmptyWallet","steam_id":76561198044555441,"connected_time":1830000000000,"state":"active","ping":80},{"user_id":15,"name":"Koishily","steam_id":76561198140549752,"connected_time":1672000000000,"state":"active","ping":71},{"user_id":17,"name":"Goat","steam_id":76561198068447650,"connected_time":1324000000000,"state":"active","ping":63},{"user_id":18,"name":"(TTV) The_Astrum_Guardian","steam_id":76561198130134103,"connected_time":1182000000000,"state":"active","ping":65},{"user_id":24,"name":"Prairie Fairy","steam_id":76561198045870254,"connected_time":824000000000,"state":"active","ping":66},{"user_id":20,"name":"Buck","steam_id":76561197993075304,"connected_time":1168000000000,"state":"active","ping":77},{"user_id":40,"name":"Spectre","steam_id":76561198025652246,"connected_time":473000000000,"state":"active","ping":33},{"user_id":22,"name":"GiraffeMan","steam_id":76561198042104084,"connected_time":1069000000000,"state":"active","ping":71},{"user_id":23,"name":"ShockHerman","steam_id":76561198072628610,"connected_time":975000000000,"state":"spawning","ping":187},{"user_id":46,"name":"Racer X","steam_id":76561198073613932,"connected_time":45000000000,"state":"active","ping":67},{"user_id":26,"name":"TwinAirplane959","steam_id":76561198866756840,"connected_time":778000000000,"state":"active","ping":89},{"user_id":44,"name":"Xyk","steam_id":76561198023268899,"connected_time":224000000000,"state":"active","ping":67},{"user_id":28,"name":"dddumb510","steam_id":76561198030793492,"connected_time":677000000000,"state":"active","ping":149},{"user_id":33,"name":"hoot.","steam_id":76561198066876703,"connected_time":598000000000,"state":"active","ping":47},{"user_id":41,"name":"KEEN","steam_id":76561197988436984,"connected_time":438000000000,"state":"active","ping":65},{"user_id":32,"name":"kai","steam_id":76561198258789116,"connected_time":621000000000,"state":"active","ping":44},{"user_id":45,"name":"Chinese \"Weather\" Balloon","steam_id":76561198031675881,"connected_time":137000000000,"state":"active","ping":59},{"user_id":37,"name":"Thomas the train","steam_id":76561198040153410,"connected_time":537000000000,"state":"active","ping":46}]},{"server_id":8,"name":"Uncletopia | Dallas | 1 | All Maps","name_short":"dal-1","host":"dal-1.us.uncletopia.com","port":27015,"enabled":true,"region":"us-central","cc":"us","latitude":32.779167,"longitude":-96.80889,"reserved":0,"last_update":"0001-01-01T00:00:00Z","name_a2s":"Uncletopia | Dallas | 1 | All Maps","protocol":17,"map":"pl_barnblitz","folder":"tf","game":"Team Fortress","app_id":440,"player_count":24,"max_players":24,"Bots":0,"server_type":"Dedicated","server_os":"Linux","password":true,"vac":true,"version":"7757534","steam_id":85568392924469986,"keywords":["nocrits","nodmgspread","payload","uncletopia"],"game_id":440,"stv_port":27016,"stv_name":"Uncletopia | Dallas | 1 | All Maps | STV","players":[{"user_id":656,"name":"Chief Diggery K.","steam_id":76561198066629137,"connected_time":4401000000000,"state":"active","ping":83},{"user_id":686,"name":"Lots0","steam_id":76561198043143145,"connected_time":390000000000,"state":"active","ping":67},{"user_id":666,"name":"Dylan","steam_id":76561198265522923,"connected_time":2672000000000,"state":"active","ping":45},{"user_id":667,"name":"spy","steam_id":76561198937717599,"connected_time":2564000000000,"state":"active","ping":41},{"user_id":687,"name":"great1photo","steam_id":76561198085481933,"connected_time":349000000000,"state":"active","ping":90},{"user_id":689,"name":"I Came","steam_id":76561198082938358,"connected_time":323000000000,"state":"active","ping":70},{"user_id":690,"name":"Thirty-Two Double-Yoos","steam_id":76561198068231069,"connected_time":304000000000,"state":"active","ping":78},{"user_id":685,"name":"that's showbiz, baybee","steam_id":76561197998258233,"connected_time":550000000000,"state":"active","ping":79},{"user_id":683,"name":"merge without looking","steam_id":76561198056702628,"connected_time":1337000000000,"state":"active","ping":39},{"user_id":671,"name":"Boiba Fett","steam_id":76561198027511884,"connected_time":2484000000000,"state":"active","ping":99},{"user_id":691,"name":"magical_mage0","steam_id":76561198213271916,"connected_time":264000000000,"state":"active","ping":93},{"user_id":679,"name":"errant","steam_id":76561197961758410,"connected_time":1447000000000,"state":"active","ping":35},{"user_id":692,"name":"Bonk","steam_id":76561198090666223,"connected_time":262000000000,"state":"active","ping":46},{"user_id":693,"name":"i eat pallet","steam_id":76561198101378377,"connected_time":252000000000,"state":"active","ping":81},{"user_id":694,"name":"Ninjegeabey","steam_id":76561198217717789,"connected_time":209000000000,"state":"active","ping":58},{"user_id":695,"name":"seriousbirb","steam_id":76561199047851076,"connected_time":184000000000,"state":"active","ping":115},{"user_id":696,"name":"Legit_Jaxer","steam_id":76561198172234053,"connected_time":180000000000,"state":"active","ping":108},{"user_id":697,"name":"Dr. Pootis, PhD","steam_id":76561198182123655,"connected_time":166000000000,"state":"active","ping":62},{"user_id":672,"name":"0x01FE","steam_id":76561198838881917,"connected_time":2139000000000,"state":"active","ping":65},{"user_id":675,"name":"allSparky | trade.tf","steam_id":76561198169399621,"connected_time":2017000000000,"state":"active","ping":67},{"user_id":664,"name":":]","steam_id":76561198974015618,"connected_time":3416000000000,"state":"active","ping":91},{"user_id":665,"name":"Spooky Daddy","steam_id":76561198359279278,"connected_time":3227000000000,"state":"active","ping":79},{"user_id":655,"name":"HONEY BOO BUSCEMI","steam_id":76561198379980749,"connected_time":4463000000000,"state":"active","ping":74},{"user_id":682,"name":"-_-","steam_id":76561199123098146,"connected_time":1402000000000,"state":"active","ping":112}]},{"server_id":108,"name":"Uncletopia | Dallas | 2 | All Maps","name_short":"dal-2","host":"dal-1.us.uncletopia.com","port":27025,"enabled":true,"region":"us-central","cc":"us","latitude":32.779167,"longitude":-96.80889,"reserved":0,"last_update":"0001-01-01T00:00:00Z","name_a2s":"Uncletopia | Dallas | 2 | All Maps","protocol":17,"map":"pl_swiftwater_final1","folder":"tf","game":"Team Fortress","app_id":440,"player_count":24,"max_players":24,"Bots":0,"server_type":"Dedicated","server_os":"Linux","password":true,"vac":true,"version":"7757534","steam_id":85568392924469988,"keywords":["nocrits","nodmgspread","payload","uncletopia"],"game_id":440,"stv_port":27026,"stv_name":"Uncletopia | Dallas | 2 | All Maps | STV","players":[{"user_id":666,"name":"Razz","steam_id":76561198158027533,"connected_time":1185000000000,"state":"active","ping":74},{"user_id":661,"name":"SPREAD SPRING GROWTH AND WARMTH","steam_id":76561198800386026,"connected_time":1698000000000,"state":"active","ping":105},{"user_id":559,"name":"Sir.TopHats","steam_id":76561198267326839,"connected_time":8855000000000,"state":"active","ping":70},{"user_id":671,"name":"Galactamarx","steam_id":76561198028065755,"connected_time":981000000000,"state":"active","ping":83},{"user_id":655,"name":"Floating Peasant","steam_id":76561198000183671,"connected_time":2704000000000,"state":"active","ping":57},{"user_id":622,"name":"EatSports","steam_id":76561198009384115,"connected_time":4343000000000,"state":"active","ping":54},{"user_id":676,"name":"gamers aren't real","steam_id":76561198113748347,"connected_time":572000000000,"state":"active","ping":71},{"user_id":664,"name":"MachineOfMachinesOfMachinesOf$\u0026","steam_id":76561198258143103,"connected_time":1217000000000,"state":"active","ping":53},{"user_id":677,"name":"Frog King","steam_id":76561197965022076,"connected_time":478000000000,"state":"active","ping":88},{"user_id":665,"name":"Wilhelmktx","steam_id":76561198158102295,"connected_time":1191000000000,"state":"active","ping":92},{"user_id":644,"name":"MeMyBongusAndTheGreatOutdoors","steam_id":76561198097708978,"connected_time":3267000000000,"state":"active","ping":59},{"user_id":675,"name":"Pinetree w/ apples.","steam_id":76561198105411709,"connected_time":634000000000,"state":"active","ping":109},{"user_id":680,"name":"Fuzzy","steam_id":76561199100612353,"connected_time":50000000000,"state":"active","ping":83},{"user_id":678,"name":"MayaBon","steam_id":76561198797968261,"connected_time":473000000000,"state":"active","ping":110},{"user_id":648,"name":"wakeupbdot","steam_id":76561198160786631,"connected_time":3146000000000,"state":"active","ping":67},{"user_id":607,"name":"Bones0010","steam_id":76561198096186958,"connected_time":5181000000000,"state":"active","ping":67},{"user_id":670,"name":"Drilly22","steam_id":76561198068838338,"connected_time":1069000000000,"state":"active","ping":71},{"user_id":669,"name":"langcharlie25","steam_id":76561199203225749,"connected_time":1138000000000,"state":"active","ping":61},{"user_id":634,"name":"anoobis","steam_id":76561199120731573,"connected_time":3700000000000,"state":"active","ping":75},{"user_id":653,"name":"carol in HR","steam_id":76561198071775268,"connected_time":2881000000000,"state":"active","ping":84},{"user_id":650,"name":"Arrluk","steam_id":76561198396679452,"connected_time":3004000000000,"state":"active","ping":97},{"user_id":679,"name":"Bunchie","steam_id":76561198011549808,"connected_time":372000000000,"state":"active","ping":36},{"user_id":660,"name":"Hedsik","steam_id":76561198045797773,"connected_time":1792000000000,"state":"active","ping":55},{"user_id":673,"name":"KentYardAssociate","steam_id":76561198290499758,"connected_time":938000000000,"state":"active","ping":111}]},{"server_id":5,"name":"Uncletopia | Frankfurt | 1 | All Maps","name_short":"frk-1","host":"frk-1.de.uncletopia.com","port":27015,"enabled":true,"region":"eu","cc":"de","latitude":50.110924,"longitude":8.682127,"reserved":0,"last_update":"0001-01-01T00:00:00Z","name_a2s":"Uncletopia | Frankfurt | 1 | All Maps","protocol":17,"map":"pl_barnblitz","folder":"tf","game":"Team Fortress","app_id":440,"player_count":0,"max_players":24,"Bots":0,"server_type":"Dedicated","server_os":"Linux","password":true,"vac":true,"version":"7757534","steam_id":85568392924469989,"keywords":["nocrits","nodmgspread","payload","uncletopia"],"game_id":440,"stv_port":27016,"stv_name":"Uncletopia | Frankfurt | 1 | All Maps | STV","players":null},{"server_id":110,"name":"Uncletopia | Frankfurt | 2 | All Maps","name_short":"frk-2","host":"frk-1.de.uncletopia.com","port":27025,"enabled":true,"region":"eu","cc":"de","latitude":50.110924,"longitude":8.682127,"reserved":0,"last_update":"0001-01-01T00:00:00Z","name_a2s":"Uncletopia | Frankfurt | 2 | All Maps","protocol":17,"map":"koth_viaduct","folder":"tf","game":"Team Fortress","app_id":440,"player_count":0,"max_players":24,"Bots":0,"server_type":"Dedicated","server_os":"Linux","password":true,"vac":true,"version":"7757534","steam_id":85568392924469990,"keywords":["cp","nocrits","nodmgspread","uncletopia"],"game_id":440,"stv_port":27026,"stv_name":"Uncletopia | Frankfurt | 2 | All Maps | STV","players":null},{"server_id":308,"name":"Uncletopia | Frankfurt | 3 | All Maps","name_short":"frk-3","host":"frk-1.de.uncletopia.com","port":27035,"enabled":true,"region":"eu","cc":"de","latitude":50.110924,"longitude":8.682127,"reserved":0,"last_update":"0001-01-01T00:00:00Z","name_a2s":"Uncletopia | Frankfurt | 3 | All Maps","protocol":17,"map":"koth_highpass","folder":"tf","game":"Team Fortress","app_id":440,"player_count":0,"max_players":24,"Bots":0,"server_type":"Dedicated","server_os":"Linux","password":true,"vac":true,"version":"7757534","steam_id":85568392924504274,"keywords":["cp","nocrits","nodmgspread","uncletopia"],"game_id":440,"stv_port":27036,"stv_name":"Uncletopia | Frankfurt | 3 | All Maps | STV","players":null},{"server_id":309,"name":"Uncletopia | Frankfurt | 4 | All Maps","name_short":"frk-4","host":"frk-1.de.uncletopia.com","port":27045,"enabled":true,"region":"eu","cc":"de","latitude":50.110924,"longitude":8.682127,"reserved":0,"last_update":"0001-01-01T00:00:00Z","name_a2s":"Uncletopia | Frankfurt | 4 | All Maps","protocol":17,"map":"koth_viaduct","folder":"tf","game":"Team Fortress","app_id":440,"player_count":4,"max_players":24,"Bots":0,"server_type":"Dedicated","server_os":"Linux","password":true,"vac":true,"version":"7757534","steam_id":85568392924504275,"keywords":["cp","nocrits","nodmgspread","uncletopia"],"game_id":440,"stv_port":27046,"stv_name":"Uncletopia | Frankfurt | 4 | All Maps | STV","players":[{"user_id":36,"name":"Truegr","steam_id":76561198811912339,"connected_time":6704000000000,"state":"active","ping":57},{"user_id":37,"name":"fried","steam_id":76561198307522022,"connected_time":6681000000000,"state":"active","ping":42},{"user_id":38,"name":"horror","steam_id":76561199217432438,"connected_time":4440000000000,"state":"active","ping":215},{"user_id":40,"name":"the person \u003e:)","steam_id":76561198992372174,"connected_time":1929000000000,"state":"active","ping":214}]},{"server_id":310,"name":"Uncletopia | Frankfurt | 5 | All Maps","name_short":"frk-5","host":"frk-1.de.uncletopia.com","port":27055,"enabled":true,"region":"eu","cc":"de","latitude":50.110924,"longitude":8.682127,"reserved":0,"last_update":"0001-01-01T00:00:00Z","name_a2s":"Uncletopia | Frankfurt | 5 | All Maps","protocol":17,"map":"cp_process_final","folder":"tf","game":"Team Fortress","app_id":440,"player_count":0,"max_players":24,"Bots":0,"server_type":"Dedicated","server_os":"Linux","password":true,"vac":true,"version":"7757534","steam_id":85568392924504277,"keywords":["cp","nocrits","nodmgspread","uncletopia"],"game_id":440,"stv_port":27056,"stv_name":"Uncletopia | Frankfurt | 5 | All Maps | STV","players":null},{"server_id":311,"name":"Uncletopia | Frankfurt | 6 | All Maps","name_short":"frk-6","host":"frk-1.de.uncletopia.com","port":27065,"enabled":true,"region":"eu","cc":"de","latitude":50.110924,"longitude":8.682127,"reserved":0,"last_update":"0001-01-01T00:00:00Z","name_a2s":"Uncletopia | Frankfurt | 6 | All Maps","protocol":17,"map":"pl_barnblitz","folder":"tf","game":"Team Fortress","app_id":440,"player_count":14,"max_players":24,"Bots":0,"server_type":"Dedicated","server_os":"Linux","password":true,"vac":true,"version":"7757534","steam_id":85568392924504278,"keywords":["nocrits","nodmgspread","payload","uncletopia"],"game_id":440,"stv_port":27066,"stv_name":"Uncletopia | Frankfurt | 6 | All Maps | STV","players":[{"user_id":952,"name":"Borat","steam_id":76561198122226417,"connected_time":1629000000000,"state":"active","ping":57},{"user_id":961,"name":"Aaron","steam_id":76561198324775476,"connected_time":429000000000,"state":"active","ping":61},{"user_id":931,"name":"Kodutah","steam_id":76561198203405574,"connected_time":3415000000000,"state":"active","ping":84},{"user_id":958,"name":"jones","steam_id":76561198044434971,"connected_time":1023000000000,"state":"active","ping":59},{"user_id":922,"name":"Turtle Fuckers 2","steam_id":76561198071938027,"connected_time":4454000000000,"state":"active","ping":56},{"user_id":960,"name":"Per√§miehen√§","steam_id":76561197968945306,"connected_time":569000000000,"state":"active","ping":71},{"user_id":959,"name":"Lewylow","steam_id":76561198005425686,"connected_time":985000000000,"state":"active","ping":61},{"user_id":962,"name":"BrianToons","steam_id":76561199099629036,"connected_time":329000000000,"state":"active","ping":205},{"user_id":963,"name":"minn","steam_id":76561198099101232,"connected_time":51000000000,"state":"active","ping":68},{"user_id":950,"name":"Jukes","steam_id":76561198050101585,"connected_time":1934000000000,"state":"active","ping":96},{"user_id":927,"name":"frosty","steam_id":76561198094560834,"connected_time":3693000000000,"state":"active","ping":60},{"user_id":955,"name":"lawn","steam_id":76561198001243486,"connected_time":1439000000000,"state":"active","ping":59},{"user_id":945,"name":"PK.TR","steam_id":76561198307037169,"connected_time":2294000000000,"state":"active","ping":73}]},{"server_id":23,"name":"Uncletopia | Frankfurt | 7 | Stopwatch Beta","name_short":"frk-7","host":"frk-1.de.uncletopia.com","port":27075,"enabled":true,"region":"eu","cc":"de","latitude":50.110924,"longitude":8.682127,"reserved":0,"last_update":"0001-01-01T00:00:00Z","name_a2s":"Uncletopia | Frankfurt | 7 | Stopwatch Beta","protocol":17,"map":"cp_metalworks","folder":"tf","game":"Team Fortress","app_id":440,"player_count":0,"max_players":24,"Bots":0,"server_type":"Dedicated","server_os":"Linux","password":true,"vac":true,"version":"7757534","steam_id":85568392924742827,"keywords":["cp","nocrits","nodmgspread","uncletopia"],"game_id":440,"stv_port":27076,"stv_name":"Uncletopia | Frankfurt | 7 | Stopwatch Beta | STV","players":null},{"server_id":24,"name":"Uncletopia | Frankfurt | 8 | Community","name_short":"frk-8","host":"frk-1.de.uncletopia.com","port":27085,"enabled":true,"region":"eu","cc":"de","latitude":50.110924,"longitude":8.682127,"reserved":0,"last_update":"0001-01-01T00:00:00Z","name_a2s":"Uncletopia | Frankfurt | 8 | Community","protocol":17,"map":"workshop/koth_synthetic_rc6a.ugc1549817316","folder":"tf","game":"Team Fortress","app_id":440,"player_count":0,"max_players":24,"Bots":0,"server_type":"Dedicated","server_os":"Linux","password":true,"vac":true,"version":"7757534","steam_id":85568392924742828,"keywords":["cp","nocrits","nodmgspread","uncletopia"],"game_id":440,"stv_port":27086,"stv_name":"Uncletopia | Frankfurt | 8 | Community | STV","players":null},{"server_id":202,"name":"Uncletopia | Hong Kong | 1 | All Maps","name_short":"hgk-1","host":"hgk-1.hk.uncletopia.com","port":27015,"enabled":true,"region":"asia","cc":"hk","latitude":22.302711,"longitude":114.177216,"reserved":0,"last_update":"0001-01-01T00:00:00Z","name_a2s":"Uncletopia | Hong Kong | 1 | All Maps","protocol":17,"map":"koth_nucleus","folder":"tf","game":"Team Fortress","app_id":440,"player_count":0,"max_players":24,"Bots":0,"server_type":"Dedicated","server_os":"Linux","password":true,"vac":true,"version":"7757534","steam_id":85568392924494504,"keywords":["cp","nocrits","nodmgspread","uncletopia"],"game_id":440,"stv_port":27016,"stv_name":"Uncletopia | Hong Kong | 1 | All Maps | STV","players":null},{"server_id":1,"name":"Uncletopia | Los Angeles | 1 | All Maps","name_short":"lax-1","host":"lax-1.us.uncletopia.com","port":27015,"enabled":true,"region":"us-west","cc":"us","latitude":33.94279,"longitude":-118.41004,"reserved":0,"last_update":"0001-01-01T00:00:00Z","name_a2s":"Uncletopia | Los Angeles | 1 | All Maps","protocol":17,"map":"cp_dustbowl","folder":"tf","game":"Team Fortress","app_id":440,"player_count":19,"max_players":24,"Bots":0,"server_type":"Dedicated","server_os":"Linux","password":true,"vac":true,"version":"7757534","steam_id":85568392924469991,"keywords":["cp","nocrits","nodmgspread","uncletopia"],"game_id":440,"stv_port":27016,"stv_name":"Uncletopia | Los Angeles | 1 | All Maps | STV","players":[{"user_id":175,"name":"t","steam_id":76561198175988929,"connected_time":4281000000000,"state":"active","ping":87},{"user_id":197,"name":"Op banana","steam_id":76561198303231451,"connected_time":2706000000000,"state":"active","ping":72},{"user_id":147,"name":"Blankrq","steam_id":76561198261030763,"connected_time":6167000000000,"state":"active","ping":52},{"user_id":185,"name":"spherewithahat","steam_id":76561199122192660,"connected_time":3544000000000,"state":"active","ping":114},{"user_id":186,"name":"NFL.com","steam_id":76561198113405376,"connected_time":3525000000000,"state":"active","ping":53},{"user_id":207,"name":"SanitysEdge","steam_id":76561198130732813,"connected_time":828000000000,"state":"active","ping":47},{"user_id":199,"name":"Fantastic Mr. Fox Appreciator","steam_id":76561198096306325,"connected_time":2428000000000,"state":"active","ping":107},{"user_id":169,"name":"Sir_Cheddar","steam_id":76561198132354554,"connected_time":4535000000000,"state":"active","ping":55},{"user_id":198,"name":"riSygneD","steam_id":76561198331618687,"connected_time":2697000000000,"state":"active","ping":41},{"user_id":206,"name":"+ layze +","steam_id":76561199014818099,"connected_time":884000000000,"state":"active","ping":59},{"user_id":58,"name":"Aircraft Carrier Princess","steam_id":76561198348354629,"connected_time":11277000000000,"state":"active","ping":73},{"user_id":208,"name":"Furious George","steam_id":76561198405111646,"connected_time":803000000000,"state":"active","ping":55},{"user_id":183,"name":"TheSecretNewbie","steam_id":76561198194671218,"connected_time":3830000000000,"state":"active","ping":81},{"user_id":181,"name":"SpringIvan","steam_id":76561199133179509,"connected_time":4126000000000,"state":"active","ping":59},{"user_id":204,"name":"Mystic man of potatoe","steam_id":76561198027267207,"connected_time":1352000000000,"state":"active","ping":56},{"user_id":154,"name":"AbsurdSiren","steam_id":76561199196666330,"connected_time":5980000000000,"state":"active","ping":111},{"user_id":212,"name":"Red Angry Bird","steam_id":76561198204896231,"connected_time":142000000000,"state":"active","ping":54},{"user_id":200,"name":"MonkeyNobody","steam_id":76561199451266605,"connected_time":2205000000000,"state":"active","ping":54},{"user_id":209,"name":"StarJesus","steam_id":76561198187728043,"connected_time":791000000000,"state":"active","ping":45}]},{"server_id":112,"name":"Uncletopia | Los Angeles | 2 | All Maps","name_short":"lax-2","host":"lax-1.us.uncletopia.com","port":27025,"enabled":true,"region":"us-west","cc":"us","latitude":33.94279,"longitude":-118.41004,"reserved":0,"last_update":"0001-01-01T00:00:00Z","name_a2s":"Uncletopia | Los Angeles | 2 | All Maps","protocol":17,"map":"pl_badwater","folder":"tf","game":"Team Fortress","app_id":440,"player_count":9,"max_players":24,"Bots":0,"server_type":"Dedicated","server_os":"Linux","password":true,"vac":true,"version":"7757534","steam_id":85568392924469992,"keywords":["nocrits","nodmgspread","payload","uncletopia"],"game_id":440,"stv_port":27026,"stv_name":"Uncletopia | Los Angeles | 2 | All Maps | STV","players":[{"user_id":358,"name":"Pyrolimited","steam_id":76561198195455657,"connected_time":693000000000,"state":"active","ping":67},{"user_id":359,"name":"Mr. Luggy","steam_id":76561198072723392,"connected_time":467000000000,"state":"active","ping":45},{"user_id":360,"name":"PanzerDragon5","steam_id":76561198989057579,"connected_time":349000000000,"state":"active","ping":96},{"user_id":353,"name":"OH JIMMY I'M HOME #SaveTf2","steam_id":76561198396658806,"connected_time":1252000000000,"state":"active","ping":47},{"user_id":361,"name":"Sprit ‚ô•","steam_id":76561198268780781,"connected_time":166000000000,"state":"active","ping":97},{"user_id":362,"name":"CaffeinatedCoffee","steam_id":76561199200856539,"connected_time":69000000000,"state":"active","ping":77},{"user_id":340,"name":"The Cool Man","steam_id":76561198096420556,"connected_time":1917000000000,"state":"active","ping":100},{"user_id":331,"name":"Tanner The Fish Man","steam_id":76561198372696640,"connected_time":2696000000000,"state":"active","ping":51},{"user_id":333,"name":"Johnathan J. Harris","steam_id":76561198078594280,"connected_time":2582000000000,"state":"active","ping":70}]},{"server_id":324,"name":"Uncletopia | Los Angeles | 3 | All Maps","name_short":"lax-3","host":"lax-1.us.uncletopia.com","port":27035,"enabled":true,"region":"us-west","cc":"us","latitude":33.94279,"longitude":-118.41004,"reserved":0,"last_update":"0001-01-01T00:00:00Z","name_a2s":"Uncletopia | Los Angeles | 3 | All Maps","protocol":17,"map":"pl_pier","folder":"tf","game":"Team Fortress","app_id":440,"player_count":19,"max_players":24,"Bots":0,"server_type":"Dedicated","server_os":"Linux","password":true,"vac":true,"version":"7757534","steam_id":85568392924510198,"keywords":["nocrits","nodmgspread","payload","uncletopia"],"game_id":440,"stv_port":27036,"stv_name":"Uncletopia | Los Angeles | 3 | All Maps | STV","players":[{"user_id":82,"name":"liftin'","steam_id":76561199089515791,"connected_time":10000000000,"state":"spawning","ping":56},{"user_id":78,"name":"FI LO","steam_id":76561198976530881,"connected_time":342000000000,"state":"active","ping":37},{"user_id":81,"name":"quaalude exhibitor","steam_id":76561198170082509,"connected_time":81000000000,"state":"active","ping":116},{"user_id":73,"name":"FUSION","steam_id":76561197972659738,"connected_time":691000000000,"state":"active","ping":94},{"user_id":15,"name":"lemonbutter","steam_id":76561198046112948,"connected_time":4861000000000,"state":"active","ping":77},{"user_id":66,"name":"momus","steam_id":76561198966979196,"connected_time":1535000000000,"state":"active","ping":45},{"user_id":74,"name":"Nyges","steam_id":76561198139236154,"connected_time":576000000000,"state":"active","ping":51},{"user_id":18,"name":"killohurtz","steam_id":76561198066382266,"connected_time":4818000000000,"state":"active","ping":105},{"user_id":67,"name":"Jax O'Gaytor","steam_id":76561198288922168,"connected_time":1530000000000,"state":"active","ping":75},{"user_id":24,"name":"trev","steam_id":76561198372593596,"connected_time":4569000000000,"state":"active","ping":61},{"user_id":56,"name":"the gamer","steam_id":76561198334059206,"connected_time":2453000000000,"state":"active","ping":60},{"user_id":60,"name":"Saint!","steam_id":76561198150438871,"connected_time":2253000000000,"state":"active","ping":117},{"user_id":63,"name":"Jykle","steam_id":76561198077352807,"connected_time":1814000000000,"state":"active","ping":82},{"user_id":69,"name":"rei","steam_id":76561198188249858,"connected_time":1475000000000,"state":"active","ping":139},{"user_id":57,"name":"Worst Scenario","steam_id":76561199052130229,"connected_time":2446000000000,"state":"active","ping":109},{"user_id":32,"name":"Thunder","steam_id":76561198097721532,"connected_time":4193000000000,"state":"active","ping":45},{"user_id":34,"name":"Courier711","steam_id":76561198053232343,"connected_time":4184000000000,"state":"active","ping":53},{"user_id":65,"name":"KingOmegaVolt","steam_id":76561199187481231,"connected_time":1573000000000,"state":"active","ping":111},{"user_id":49,"name":"VicLoL","steam_id":76561198045580784,"connected_time":2815000000000,"state":"active","ping":56}]},{"server_id":25,"name":"Uncletopia | Los Angeles | 4 | Stopwatch Beta","name_short":"lax-4","host":"lax-1.us.uncletopia.com","port":27045,"enabled":true,"region":"us-west","cc":"us","latitude":33.94279,"longitude":-118.41004,"reserved":0,"last_update":"0001-01-01T00:00:00Z","name_a2s":"Uncletopia | Los Angeles | 4 | Stopwatch Beta","protocol":17,"map":"pl_swiftwater_final1","folder":"tf","game":"Team Fortress","app_id":440,"player_count":0,"max_players":24,"Bots":0,"server_type":"Dedicated","server_os":"Linux","password":true,"vac":true,"version":"7757534","steam_id":85568392924510199,"keywords":["nocrits","nodmgspread","payload","uncletopia"],"game_id":440,"stv_port":27046,"stv_name":"Uncletopia | Los Angeles | 4 | Stopwatch Beta | STV","players":null},{"server_id":11,"name":"Uncletopia | London | 1 | All Maps","name_short":"lon-1","host":"lon-1.uk.uncletopia.com","port":27015,"enabled":true,"region":"eu","cc":"gb","latitude":51.509865,"longitude":-0.118092,"reserved":0,"last_update":"0001-01-01T00:00:00Z","name_a2s":"Uncletopia | London | 1 | All Maps","protocol":17,"map":"koth_lakeside_final","folder":"tf","game":"Team Fortress","app_id":440,"player_count":0,"max_players":24,"Bots":0,"server_type":"Dedicated","server_os":"Linux","password":true,"vac":true,"version":"7757534","steam_id":85568392924367362,"keywords":["cp","nocrits","nodmgspread","uncletopia"],"game_id":440,"stv_port":27016,"stv_name":"Uncletopia | London | 1 | All Maps | STV","players":null},{"server_id":114,"name":"Uncletopia | London | 2 | All Maps","name_short":"lon-2","host":"lon-1.uk.uncletopia.com","port":27025,"enabled":true,"region":"eu","cc":"gb","latitude":51.509865,"longitude":-0.118092,"reserved":0,"last_update":"0001-01-01T00:00:00Z","name_a2s":"Uncletopia | London | 2 | All Maps","protocol":17,"map":"cp_snakewater_final1","folder":"tf","game":"Team Fortress","app_id":440,"player_count":0,"max_players":24,"Bots":0,"server_type":"Dedicated","server_os":"Linux","password":true,"vac":true,"version":"7757534","steam_id":85568392924470941,"keywords":["cp","nocrits","nodmgspread","uncletopia"],"game_id":440,"stv_port":27026,"stv_name":"Uncletopia | London | 2 | All Maps | STV","players":null},{"server_id":320,"name":"Uncletopia | London | 3 | All Maps","name_short":"lon-3","host":"lon-1.uk.uncletopia.com","port":27035,"enabled":true,"region":"eu","cc":"gb","latitude":51.509865,"longitude":-0.118092,"reserved":0,"last_update":"0001-01-01T00:00:00Z","name_a2s":"Uncletopia | London | 3 | All Maps","protocol":17,"map":"pl_badwater","folder":"tf","game":"Team Fortress","app_id":440,"player_count":0,"max_players":24,"Bots":0,"server_type":"Dedicated","server_os":"Linux","password":true,"vac":true,"version":"7757534","steam_id":85568392924510192,"keywords":["nocrits","nodmgspread","payload","uncletopia"],"game_id":440,"stv_port":27036,"stv_name":"Uncletopia | London | 3 | All Maps | STV","players":null},{"server_id":321,"name":"Uncletopia | London | 4 | All Maps","name_short":"lon-4","host":"lon-1.uk.uncletopia.com","port":27045,"enabled":true,"region":"eu","cc":"gb","latitude":51.509865,"longitude":-0.118092,"reserved":0,"last_update":"0001-01-01T00:00:00Z","name_a2s":"Uncletopia | London | 4 | All Maps","protocol":17,"map":"pl_snowycoast","folder":"tf","game":"Team Fortress","app_id":440,"player_count":0,"max_players":24,"Bots":0,"server_type":"Dedicated","server_os":"Linux","password":true,"vac":true,"version":"7757534","steam_id":85568392924510193,"keywords":["nocrits","nodmgspread","payload","uncletopia"],"game_id":440,"stv_port":27046,"stv_name":"Uncletopia | London | 4 | All Maps | STV","players":null},{"server_id":21,"name":"Uncletopia | London | 5 | All Maps","name_short":"lon-5","host":"lon-1.uk.uncletopia.com","port":27055,"enabled":true,"region":"eu","cc":"gb","latitude":51.509865,"longitude":-0.118092,"reserved":0,"last_update":"0001-01-01T00:00:00Z","name_a2s":"Uncletopia | London | 5 | All Maps","protocol":17,"map":"koth_cascade","folder":"tf","game":"Team Fortress","app_id":440,"player_count":0,"max_players":24,"Bots":0,"server_type":"Dedicated","server_os":"Linux","password":true,"vac":true,"version":"7757534","steam_id":85568392924742829,"keywords":["cp","nocrits","nodmgspread","uncletopia"],"game_id":440,"stv_port":27056,"stv_name":"Uncletopia | London | 5 | All Maps | STV","players":null},{"server_id":22,"name":"Uncletopia | London | 6 | All Maps","name_short":"lon-6","host":"lon-1.uk.uncletopia.com","port":27065,"enabled":true,"region":"eu","cc":"gb","latitude":51.509865,"longitude":-0.118092,"reserved":0,"last_update":"0001-01-01T00:00:00Z","name_a2s":"Uncletopia | London | 6 | All Maps","protocol":17,"map":"koth_highpass","folder":"tf","game":"Team Fortress","app_id":440,"player_count":0,"max_players":24,"Bots":0,"server_type":"Dedicated","server_os":"Linux","password":true,"vac":true,"version":"7757534","steam_id":85568392924742830,"keywords":["cp","nocrits","nodmgspread","uncletopia"],"game_id":440,"stv_port":27066,"stv_name":"Uncletopia | London | 6 | All Maps | STV","players":null},{"server_id":40,"name":"Uncletopia | London | 7 | No Payload","name_short":"lon-7","host":"lon-1.uk.uncletopia.com","port":27075,"enabled":true,"region":"eu","cc":"gb","latitude":51.509865,"longitude":-0.118092,"reserved":0,"last_update":"0001-01-01T00:00:00Z","name_a2s":"Uncletopia | London | 7 | No Payload","protocol":17,"map":"plr_nightfall_final","folder":"tf","game":"Team Fortress","app_id":440,"player_count":0,"max_players":24,"Bots":0,"server_type":"Dedicated","server_os":"Linux","password":true,"vac":true,"version":"7757534","steam_id":85568392924964314,"keywords":["nocrits","nodmgspread","payload","uncletopia"],"game_id":440,"stv_port":27076,"stv_name":"Uncletopia | London | 7 | No Payload | STV","players":null},{"server_id":41,"name":"Uncletopia | London | 8 | Community","name_short":"lon-8","host":"lon-1.uk.uncletopia.com","port":27085,"enabled":true,"region":"eu","cc":"gb","latitude":51.509865,"longitude":-0.118092,"reserved":0,"last_update":"0001-01-01T00:00:00Z","name_a2s":"Uncletopia | London | 8 | Community","protocol":17,"map":"workshop/cp_sulfur_rc2.ugc619869471","folder":"tf","game":"Team Fortress","app_id":440,"player_count":0,"max_players":24,"Bots":0,"server_type":"Dedicated","server_os":"Linux","password":true,"vac":true,"version":"7757534","steam_id":85568392924964315,"keywords":["cp","nocrits","nodmgspread","uncletopia"],"game_id":440,"stv_port":27086,"stv_name":"Uncletopia | London | 8 | Community | STV","players":null},{"server_id":300,"name":"Uncletopia | Montr√©al | 1 | All Maps","name_short":"mtl-1","host":"mtl-1.ca.uncletopia.com","port":27015,"enabled":true,"region":"us-east","cc":"ca","latitude":45.50889,"longitude":-73.56167,"reserved":0,"last_update":"0001-01-01T00:00:00Z","name_a2s":"Uncletopia | Montr√©al | 1 | All Maps","protocol":17,"map":"koth_cascade","folder":"tf","game":"Team Fortress","app_id":440,"player_count":2,"max_players":24,"Bots":0,"server_type":"Dedicated","server_os":"Linux","password":true,"vac":true,"version":"7757534","steam_id":85568392924500087,"keywords":["cp","nocrits","nodmgspread","uncletopia"],"game_id":440,"stv_port":27016,"stv_name":"Uncletopia | Montr√©al | 1 | All Maps | STV","players":[{"user_id":12,"name":"_hooded_","steam_id":76561198023595873,"connected_time":103000000000,"state":"active","ping":79},{"user_id":13,"name":"Spoigus","steam_id":76561199014028199,"connected_time":19000000000,"state":"active","ping":64}]},{"server_id":301,"name":"Uncletopia | Montr√©al | 2 | All Maps","name_short":"mtl-2","host":"mtl-1.ca.uncletopia.com","port":27025,"enabled":true,"region":"us-east","cc":"ca","latitude":45.50889,"longitude":-73.56167,"reserved":0,"last_update":"0001-01-01T00:00:00Z","name_a2s":"Uncletopia | Montr√©al | 2 | All Maps","protocol":17,"map":"pl_upward","folder":"tf","game":"Team Fortress","app_id":440,"player_count":14,"max_players":24,"Bots":0,"server_type":"Dedicated","server_os":"Linux","password":true,"vac":true,"version":"7757534","steam_id":85568392924500088,"keywords":["nocrits","nodmgspread","payload","uncletopia"],"game_id":440,"stv_port":27026,"stv_name":"Uncletopia | Montr√©al | 2 | All Maps | STV","players":[{"user_id":83,"name":"Osteo-Oligarch","steam_id":76561198164731896,"connected_time":166000000000,"state":"active","ping":63},{"user_id":32,"name":"‡ºò ‚ãÜÀöüéßCaffeine‚òï*Àñ¬∞","steam_id":76561199259309294,"connected_time":2793000000000,"state":"active","ping":61},{"user_id":61,"name":"Kraul","steam_id":76561198043682060,"connected_time":1461000000000,"state":"active","ping":103},{"user_id":54,"name":"fleedy","steam_id":76561199102542822,"connected_time":1969000000000,"state":"active","ping":63},{"user_id":84,"name":"Uselesslump","steam_id":76561198976104278,"connected_time":69000000000,"state":"active","ping":87},{"user_id":33,"name":"Belmore","steam_id":76561198009355231,"connected_time":2774000000000,"state":"active","ping":129},{"user_id":69,"name":"Unofficial","steam_id":76561198370071152,"connected_time":868000000000,"state":"active","ping":132},{"user_id":70,"name":"Shuu","steam_id":76561199199180558,"connected_time":865000000000,"state":"active","ping":64},{"user_id":37,"name":"chiswola","steam_id":76561198046920142,"connected_time":2729000000000,"state":"active","ping":89},{"user_id":79,"name":"John Dingus","steam_id":76561198401766370,"connected_time":652000000000,"state":"active","ping":110},{"user_id":81,"name":"box","steam_id":76561198049531483,"connected_time":518000000000,"state":"active","ping":68},{"user_id":49,"name":"Spex","steam_id":76561198404566859,"connected_time":2151000000000,"state":"active","ping":91},{"user_id":63,"name":"‚õàMaxelis‚õà","steam_id":76561198058477276,"connected_time":1451000000000,"state":"active","ping":98},{"user_id":58,"name":"DO NOT call me BART SIMPSON!!","steam_id":76561198069113375,"connected_time":1758000000000,"state":"active","ping":44}]},{"server_id":302,"name":"Uncletopia | Montr√©al | 3 | All Maps","name_short":"mtl-3","host":"mtl-1.ca.uncletopia.com","port":27035,"enabled":true,"region":"us-east","cc":"ca","latitude":45.50889,"longitude":-73.56167,"reserved":0,"last_update":"0001-01-01T00:00:00Z","name_a2s":"Uncletopia | Montr√©al | 3 | All Maps","protocol":17,"map":"koth_highpass","folder":"tf","game":"Team Fortress","app_id":440,"player_count":0,"max_players":24,"Bots":0,"server_type":"Dedicated","server_os":"Linux","password":true,"vac":true,"version":"7757534","steam_id":85568392924500089,"keywords":["cp","nocrits","nodmgspread","uncletopia"],"game_id":440,"stv_port":27036,"stv_name":"Uncletopia | Montr√©al | 3 | All Maps | STV","players":null},{"server_id":303,"name":"Uncletopia | Montr√©al | 4 | No Payload","name_short":"mtl-4","host":"mtl-1.ca.uncletopia.com","port":27045,"enabled":true,"region":"us-east","cc":"ca","latitude":45.50889,"longitude":-73.56167,"reserved":0,"last_update":"0001-01-01T00:00:00Z","name_a2s":"Uncletopia | Montr√©al | 4 | No Payload","protocol":17,"map":"koth_nucleus","folder":"tf","game":"Team Fortress","app_id":440,"player_count":0,"max_players":24,"Bots":0,"server_type":"Dedicated","server_os":"Linux","password":true,"vac":true,"version":"7757534","steam_id":85568392924500090,"keywords":["cp","nocrits","nodmgspread","uncletopia"],"game_id":440,"stv_port":27046,"stv_name":"Uncletopia | Montr√©al | 4 | No Payload | STV","players":null},{"server_id":13,"name":"Uncletopia | New York City | 1 | All Maps","name_short":"nyc-1","host":"nyc-1.us.uncletopia.com","port":27015,"enabled":true,"region":"us-east","cc":"us","latitude":40.73061,"longitude":-73.93524,"reserved":0,"last_update":"0001-01-01T00:00:00Z","name_a2s":"Uncletopia | New York City | 1 | All Maps","protocol":17,"map":"pl_swiftwater_final1","folder":"tf","game":"Team Fortress","app_id":440,"player_count":23,"max_players":24,"Bots":0,"server_type":"Dedicated","server_os":"Linux","password":true,"vac":true,"version":"7757534","steam_id":85568392924469993,"keywords":["nocrits","nodmgspread","payload","uncletopia"],"game_id":440,"stv_port":27016,"stv_name":"Uncletopia | New York City | 1 | All Maps | STV","players":[{"user_id":509,"name":"Pozyomka","steam_id":76561198086331015,"connected_time":4469000000000,"state":"active","ping":37},{"user_id":552,"name":"pepsibobby","steam_id":76561198853864511,"connected_time":175000000000,"state":"active","ping":65},{"user_id":540,"name":"arii","steam_id":76561198247905096,"connected_time":995000000000,"state":"active","ping":77},{"user_id":541,"name":"Willy","steam_id":76561198046508940,"connected_time":881000000000,"state":"active","ping":47},{"user_id":521,"name":"Genesis [2t]","steam_id":76561198010893421,"connected_time":3073000000000,"state":"active","ping":79},{"user_id":542,"name":"Strange Diplomat","steam_id":76561198428191920,"connected_time":880000000000,"state":"active","ping":46},{"user_id":544,"name":"Brisk","steam_id":76561198129769783,"connected_time":851000000000,"state":"active","ping":90},{"user_id":530,"name":"Fiendish Frog","steam_id":76561198029478821,"connected_time":2041000000000,"state":"active","ping":55},{"user_id":539,"name":"Invisible Cheese","steam_id":76561198046942778,"connected_time":1314000000000,"state":"active","ping":97},{"user_id":549,"name":"devops intern at the matrix","steam_id":76561197980191631,"connected_time":404000000000,"state":"active","ping":60},{"user_id":522,"name":"Saristan","steam_id":76561198093346048,"connected_time":2861000000000,"state":"active","ping":37},{"user_id":545,"name":"NewerCoke","steam_id":76561198042911847,"connected_time":848000000000,"state":"active","ping":70},{"user_id":501,"name":"Braamklauw","steam_id":76561198283287697,"connected_time":5786000000000,"state":"active","ping":137},{"user_id":536,"name":"Voodo133","steam_id":76561198042670351,"connected_time":1496000000000,"state":"active","ping":81},{"user_id":529,"name":"Reader925","steam_id":76561198150492083,"connected_time":2083000000000,"state":"active","ping":51},{"user_id":548,"name":"WALL-E","steam_id":76561198154701370,"connected_time":666000000000,"state":"active","ping":66},{"user_id":531,"name":"The Giggler! its 2!","steam_id":76561198053046161,"connected_time":1994000000000,"state":"active","ping":46},{"user_id":518,"name":"SPINACH PUFFS","steam_id":76561198040766310,"connected_time":3286000000000,"state":"active","ping":81},{"user_id":526,"name":"DeviserDude","steam_id":76561198298631671,"connected_time":2463000000000,"state":"active","ping":71},{"user_id":535,"name":"fart420 BONGVILLAIN","steam_id":76561198044034546,"connected_time":1631000000000,"state":"active","ping":57},{"user_id":508,"name":"Sir Quacksalot","steam_id":76561198048942777,"connected_time":4484000000000,"state":"active","ping":94},{"user_id":537,"name":"ÎãπÏã†Ïùò ÏóÑÎßàÎ•ºÌñàÎã§","steam_id":76561198017114970,"connected_time":1413000000000,"state":"active","ping":120},{"user_id":550,"name":"pro gamer with a giant mousepad","steam_id":76561197999187629,"connected_time":313000000000,"state":"active","ping":63}]},{"server_id":14,"name":"Uncletopia | New York City | 2 | All Maps","name_short":"nyc-2","host":"nyc-1.us.uncletopia.com","port":27025,"enabled":true,"region":"us-east","cc":"us","latitude":40.73061,"longitude":-73.93524,"reserved":0,"last_update":"0001-01-01T00:00:00Z","name_a2s":"Uncletopia | New York City | 2 | All Maps","protocol":17,"map":"cp_egypt_final","folder":"tf","game":"Team Fortress","app_id":440,"player_count":23,"max_players":24,"Bots":0,"server_type":"Dedicated","server_os":"Linux","password":true,"vac":true,"version":"7757534","steam_id":85568392924469994,"keywords":["cp","nocrits","nodmgspread","uncletopia"],"game_id":440,"stv_port":27026,"stv_name":"Uncletopia | New York City | 2 | All Maps | STV","players":[{"user_id":665,"name":"zab11","steam_id":76561198115856002,"connected_time":1323000000000,"state":"active","ping":131},{"user_id":683,"name":"ha-yes","steam_id":76561198057101042,"connected_time":303000000000,"state":"active","ping":96},{"user_id":686,"name":"Pixel JC","steam_id":76561198014618589,"connected_time":301000000000,"state":"active","ping":107},{"user_id":677,"name":"6t26j","steam_id":76561198278282836,"connected_time":1025000000000,"state":"active","ping":58},{"user_id":671,"name":"java","steam_id":76561198030276792,"connected_time":1199000000000,"state":"active","ping":69},{"user_id":668,"name":"Pancreas Enjoyer","steam_id":76561199438598904,"connected_time":1276000000000,"state":"active","ping":101},{"user_id":669,"name":"too many puppies","steam_id":76561198000564263,"connected_time":1243000000000,"state":"active","ping":71},{"user_id":687,"name":"AINT SHIT FUNNY THE TIME IS N:O","steam_id":76561198052572890,"connected_time":264000000000,"state":"active","ping":47},{"user_id":651,"name":"nocham","steam_id":76561198097674181,"connected_time":1825000000000,"state":"active","ping":53},{"user_id":688,"name":"Joy #savetf2","steam_id":76561198073690173,"connected_time":250000000000,"state":"active","ping":56},{"user_id":672,"name":"give me spaghetti","steam_id":76561198010019214,"connected_time":1190000000000,"state":"active","ping":33},{"user_id":563,"name":"whorence","steam_id":76561197994492154,"connected_time":7877000000000,"state":"active","ping":145},{"user_id":604,"name":"Baron von Whoopsie","steam_id":76561197996691013,"connected_time":5073000000000,"state":"active","ping":63},{"user_id":692,"name":"Strawberry","steam_id":76561198973740497,"connected_time":43000000000,"state":"active","ping":113},{"user_id":664,"name":"Superbacon24","steam_id":76561198121223443,"connected_time":1357000000000,"state":"active","ping":132},{"user_id":693,"name":"Vivianistic","steam_id":76561198069166347,"connected_time":25000000000,"state":"active","ping":69},{"user_id":580,"name":"mike\"3loavesofbread\"jones","steam_id":76561198064342804,"connected_time":6943000000000,"state":"active","ping":156},{"user_id":690,"name":"Dr. Philurmom","steam_id":76561199389132651,"connected_time":193000000000,"state":"active","ping":64},{"user_id":676,"name":"A Puppy","steam_id":76561198828184456,"connected_time":1070000000000,"state":"active","ping":48},{"user_id":656,"name":"OptiCxmShot","steam_id":76561198049019578,"connected_time":1688000000000,"state":"active","ping":124},{"user_id":674,"name":"proud owner of a large tongue","steam_id":76561198106690989,"connected_time":1169000000000,"state":"active","ping":60},{"user_id":680,"name":"Taste","steam_id":76561197994506978,"connected_time":507000000000,"state":"active","ping":148},{"user_id":611,"name":"Trox","steam_id":76561198263581464,"connected_time":4750000000000,"state":"active","ping":75}]},{"server_id":15,"name":"Uncletopia | New York City | 3 | Stopwatch Beta","name_short":"nyc-3","host":"nyc-1.us.uncletopia.com","port":27035,"enabled":true,"region":"us-east","cc":"us","latitude":40.73061,"longitude":-73.93524,"reserved":0,"last_update":"0001-01-01T00:00:00Z","name_a2s":"Uncletopia | New York City | 3 | Stopwatch Beta","protocol":17,"map":"workshop/koth_ramjam_rc1.ugc459778887","folder":"tf","game":"Team Fortress","app_id":440,"player_count":0,"max_players":24,"Bots":0,"server_type":"Dedicated","server_os":"Linux","password":true,"vac":true,"version":"7757534","steam_id":85568392924742820,"keywords":["cp","nocrits","nodmgspread","uncletopia"],"game_id":440,"stv_port":27036,"stv_name":"Uncletopia | New York City | 3 | Stopwatch Beta | STV","players":null},{"server_id":16,"name":"Uncletopia | New York City | 4 | Community","name_short":"nyc-4","host":"nyc-1.us.uncletopia.com","port":27045,"enabled":true,"region":"us-east","cc":"us","latitude":40.73061,"longitude":-73.93524,"reserved":0,"last_update":"0001-01-01T00:00:00Z","name_a2s":"Uncletopia | New York City | 4 | Community","protocol":17,"map":"workshop/cp_kalinka_rc6a.ugc1272700588","folder":"tf","game":"Team Fortress","app_id":440,"player_count":0,"max_players":24,"Bots":0,"server_type":"Dedicated","server_os":"Linux","password":true,"vac":true,"version":"7757534","steam_id":85568392924742821,"keywords":["cp","nocrits","nodmgspread","uncletopia"],"game_id":440,"stv_port":27046,"stv_name":"Uncletopia | New York City | 4 | Community | STV","players":null},{"server_id":142,"name":"Uncletopia | S√£o Paulo | 1 | All Maps","name_short":"sao-1","host":"sao-1.br.uncletopia.com","port":27015,"enabled":true,"region":"sa","cc":"br","latitude":-23.533773,"longitude":-46.62529,"reserved":0,"last_update":"0001-01-01T00:00:00Z","name_a2s":"Uncletopia | S√£o Paulo | 1 | All Maps","protocol":17,"map":"koth_highpass","folder":"tf","game":"Team Fortress","app_id":440,"player_count":0,"max_players":24,"Bots":0,"server_type":"Dedicated","server_os":"Linux","password":true,"vac":true,"version":"7757534","steam_id":85568392924469996,"keywords":["cp","nocrits","nodmgspread","uncletopia"],"game_id":440,"stv_port":27016,"stv_name":"Uncletopia | S√£o Paulo | 1 | All Maps | STV","players":null},{"server_id":143,"name":"Uncletopia | S√£o Paulo | 2 | All Maps","name_short":"sao-2","host":"sao-2.br.uncletopia.com","port":27015,"enabled":true,"region":"sa","cc":"br","latitude":-23.533773,"longitude":-46.62529,"reserved":0,"last_update":"0001-01-01T00:00:00Z","name_a2s":"Uncletopia | S√£o Paulo | 2 | All Maps","protocol":17,"map":"koth_lakeside_final","folder":"tf","game":"Team Fortress","app_id":440,"player_count":0,"max_players":24,"Bots":0,"server_type":"Dedicated","server_os":"Linux","password":true,"vac":true,"version":"7757534","steam_id":85568392924485349,"keywords":["cp","nocrits","nodmgspread","uncletopia"],"game_id":440,"stv_port":27016,"stv_name":"Uncletopia | S√£o Paulo | 2 | All Maps | STV","players":null},{"server_id":7,"name":"Uncletopia | Seattle | 1 | All Maps","name_short":"sea-1","host":"sea-1.us.uncletopia.com","port":27015,"enabled":true,"region":"us-west","cc":"us","latitude":47.608013,"longitude":-122.33517,"reserved":0,"last_update":"0001-01-01T00:00:00Z","name_a2s":"Uncletopia | Seattle | 1 | All Maps","protocol":17,"map":"cp_snakewater_final1","folder":"tf","game":"Team Fortress","app_id":440,"player_count":24,"max_players":24,"Bots":0,"server_type":"Dedicated","server_os":"Linux","password":true,"vac":true,"version":"7757534","steam_id":85568392924469997,"keywords":["cp","nocrits","nodmgspread","uncletopia"],"game_id":440,"stv_port":27016,"stv_name":"Uncletopia | Seattle | 1 | All Maps | STV","players":[{"user_id":447,"name":"weeb#saveTf2","steam_id":76561199021791121,"connected_time":7229000000000,"state":"active","ping":53},{"user_id":513,"name":"igotmail","steam_id":76561198070631899,"connected_time":4411000000000,"state":"active","ping":112},{"user_id":548,"name":"Biggie Grug","steam_id":76561198042998887,"connected_time":216000000000,"state":"active","ping":60},{"user_id":539,"name":"Lentil Soup","steam_id":76561198051834684,"connected_time":425000000000,"state":"active","ping":68},{"user_id":534,"name":"mooney","steam_id":76561199110622484,"connected_time":982000000000,"state":"active","ping":68},{"user_id":530,"name":"zinnk","steam_id":76561198092081825,"connected_time":2664000000000,"state":"active","ping":59},{"user_id":526,"name":"Ping","steam_id":76561199206514106,"connected_time":3013000000000,"state":"active","ping":113},{"user_id":481,"name":"Clible","steam_id":76561198215430429,"connected_time":4818000000000,"state":"active","ping":49},{"user_id":529,"name":"Licensed Rizzicist","steam_id":76561199019693549,"connected_time":2892000000000,"state":"active","ping":62},{"user_id":504,"name":"C U Next Tuesday","steam_id":76561198058493492,"connected_time":4491000000000,"state":"active","ping":58},{"user_id":500,"name":"Username","steam_id":76561198855586261,"connected_time":4563000000000,"state":"active","ping":64},{"user_id":550,"name":"lyraaaaaaaaaaa","steam_id":76561198259331758,"connected_time":155000000000,"state":"active","ping":72},{"user_id":544,"name":"neet","steam_id":76561197968115168,"connected_time":392000000000,"state":"active","ping":117},{"user_id":516,"name":"fart shit bear (jar) snake piss","steam_id":76561199391478575,"connected_time":4226000000000,"state":"active","ping":71},{"user_id":542,"name":"Eraser cat","steam_id":76561199045570463,"connected_time":400000000000,"state":"active","ping":46},{"user_id":486,"name":"Mildstrife","steam_id":76561198000080715,"connected_time":4791000000000,"state":"active","ping":113},{"user_id":533,"name":"Peppy","steam_id":76561198866629645,"connected_time":1776000000000,"state":"active","ping":104},{"user_id":545,"name":"aphex twink","steam_id":76561198984612489,"connected_time":351000000000,"state":"active","ping":85},{"user_id":538,"name":"porfer","steam_id":76561199118049168,"connected_time":543000000000,"state":"active","ping":80},{"user_id":549,"name":"macabre","steam_id":76561198220125111,"connected_time":207000000000,"state":"active","ping":69},{"user_id":537,"name":"SibilantSerpent","steam_id":76561198154488754,"connected_time":683000000000,"state":"active","ping":60},{"user_id":394,"name":"\\m/ Cyfun (she/it)","steam_id":76561197960882221,"connected_time":10973000000000,"state":"active","ping":91},{"user_id":547,"name":"Michael scom GUNGA ‰∑±","steam_id":76561198137221516,"connected_time":286000000000,"state":"active","ping":49},{"user_id":451,"name":"o o o o o o o o o","steam_id":76561197993757506,"connected_time":7140000000000,"state":"active","ping":74}]},{"server_id":119,"name":"Uncletopia | Seattle | 2 | All Maps","name_short":"sea-2","host":"sea-1.us.uncletopia.com","port":27025,"enabled":true,"region":"us-west","cc":"us","latitude":47.608013,"longitude":-122.33517,"reserved":0,"last_update":"0001-01-01T00:00:00Z","name_a2s":"Uncletopia | Seattle | 2 | All Maps","protocol":17,"map":"pl_badwater","folder":"tf","game":"Team Fortress","app_id":440,"player_count":24,"max_players":24,"Bots":0,"server_type":"Dedicated","server_os":"Linux","password":true,"vac":true,"version":"7757534","steam_id":85568392924469998,"keywords":["nocrits","nodmgspread","payload","uncletopia"],"game_id":440,"stv_port":27026,"stv_name":"Uncletopia | Seattle | 2 | All Maps | STV","players":[{"user_id":296,"name":"Spruce","steam_id":76561198081684676,"connected_time":600000000000,"state":"active","ping":70},{"user_id":284,"name":"Spy of 83","steam_id":76561199062242958,"connected_time":2135000000000,"state":"active","ping":81},{"user_id":297,"name":"THICCBEEF GRANDPA","steam_id":76561197993550572,"connected_time":567000000000,"state":"active","ping":100},{"user_id":256,"name":"YahYeeterson","steam_id":76561198120480906,"connected_time":4090000000000,"state":"active","ping":73},{"user_id":282,"name":"strbry","steam_id":76561198155133601,"connected_time":2333000000000,"state":"active","ping":58},{"user_id":287,"name":"Patio","steam_id":76561197986082608,"connected_time":1699000000000,"state":"active","ping":55},{"user_id":303,"name":"Noodle's #1 Fan","steam_id":76561198847335567,"connected_time":226000000000,"state":"active","ping":61},{"user_id":299,"name":"Sh3ba Spaniel","steam_id":76561198047412394,"connected_time":552000000000,"state":"active","ping":115},{"user_id":278,"name":"Raydn","steam_id":76561198418414338,"connected_time":2560000000000,"state":"active","ping":102},{"user_id":300,"name":"Bendidy","steam_id":76561198041964300,"connected_time":538000000000,"state":"active","ping":83},{"user_id":262,"name":"Frogzilla","steam_id":76561198077657538,"connected_time":3872000000000,"state":"active","ping":78},{"user_id":285,"name":"Rocketface","steam_id":76561198043679540,"connected_time":1864000000000,"state":"active","ping":76},{"user_id":263,"name":"BionicApe","steam_id":76561198154637711,"connected_time":3855000000000,"state":"active","ping":48},{"user_id":302,"name":"Trash Boat","steam_id":76561198181586946,"connected_time":315000000000,"state":"active","ping":91},{"user_id":279,"name":"infiniteroman","steam_id":76561199231168620,"connected_time":2559000000000,"state":"active","ping":116},{"user_id":288,"name":"Florence Jenkins","steam_id":76561198023894049,"connected_time":1697000000000,"state":"active","ping":48},{"user_id":292,"name":"Joshzu","steam_id":76561198200521137,"connected_time":1058000000000,"state":"active","ping":57},{"user_id":290,"name":"comfycaffeine","steam_id":76561198058690096,"connected_time":1181000000000,"state":"active","ping":49},{"user_id":293,"name":"Agent86","steam_id":76561198046794593,"connected_time":636000000000,"state":"active","ping":108},{"user_id":254,"name":"WaffleWithNoToppings","steam_id":76561199088280111,"connected_time":4147000000000,"state":"active","ping":49},{"user_id":301,"name":"chilis baby back ribs","steam_id":76561198813516435,"connected_time":536000000000,"state":"active","ping":76},{"user_id":295,"name":"Cha' Brah","steam_id":76561197980385816,"connected_time":633000000000,"state":"active","ping":66},{"user_id":291,"name":"PokemzX","steam_id":76561198303574256,"connected_time":1158000000000,"state":"active","ping":43},{"user_id":286,"name":"knatspray","steam_id":76561198832507482,"connected_time":1853000000000,"state":"active","ping":98}]},{"server_id":406,"name":"Uncletopia | Seattle | 3 | Stopwatch Beta","name_short":"sea-3","host":"sea-1.us.uncletopia.com","port":27035,"enabled":true,"region":"us-west","cc":"us","latitude":47.608013,"longitude":-122.33517,"reserved":0,"last_update":"0001-01-01T00:00:00Z","name_a2s":"Uncletopia | Seattle | 3 | Stopwatch Beta","protocol":17,"map":"cp_sunshine","folder":"tf","game":"Team Fortress","app_id":440,"player_count":15,"max_players":24,"Bots":0,"server_type":"Dedicated","server_os":"Linux","password":true,"vac":true,"version":"7757534","steam_id":85568392924515217,"keywords":["cp","nocrits","nodmgspread","uncletopia"],"game_id":440,"stv_port":27036,"stv_name":"Uncletopia | Seattle | 3 | Stopwatch Beta | STV","players":[{"user_id":163,"name":"autumnal.messenger","steam_id":76561199345816635,"connected_time":493000000000,"state":"active","ping":52},{"user_id":158,"name":"Toddovan","steam_id":76561198143104883,"connected_time":658000000000,"state":"active","ping":172},{"user_id":90,"name":"[DATS‚û°] Sugar Meowth","steam_id":76561197995251793,"connected_time":4446000000000,"state":"active","ping":40},{"user_id":156,"name":"Mustachacre","steam_id":76561198056309992,"connected_time":759000000000,"state":"active","ping":55},{"user_id":164,"name":"uzr","steam_id":76561198799343084,"connected_time":334000000000,"state":"active","ping":71},{"user_id":165,"name":"John Wick's puppy","steam_id":76561198064662875,"connected_time":185000000000,"state":"active","ping":64},{"user_id":161,"name":"trackpad gaming | f2p","steam_id":76561198840414371,"connected_time":587000000000,"state":"active","ping":64},{"user_id":138,"name":"Dongus","steam_id":76561197979056451,"connected_time":1759000000000,"state":"active","ping":45},{"user_id":162,"name":"[shx]","steam_id":76561198070159233,"connected_time":544000000000,"state":"active","ping":90},{"user_id":166,"name":"FIRETROOP277","steam_id":76561198418201110,"connected_time":146000000000,"state":"active","ping":100},{"user_id":167,"name":"FutureSlyty","steam_id":76561198377973894,"connected_time":85000000000,"state":"active","ping":47},{"user_id":50,"name":"Geight","steam_id":76561197991645292,"connected_time":6246000000000,"state":"active","ping":62},{"user_id":143,"name":"Dynamo","steam_id":76561198057875639,"connected_time":1630000000000,"state":"active","ping":88},{"user_id":105,"name":"The Pepsi¬Æ Superbowl¬Æ!","steam_id":76561198080828981,"connected_time":3612000000000,"state":"active","ping":80},{"user_id":39,"name":"Cristanc99","steam_id":76561198114715810,"connected_time":6607000000000,"state":"active","ping":68}]},{"server_id":17,"name":"Uncletopia | San Francisco | 1 | All Maps","name_short":"sfo-1","host":"sfo-1.us.uncletopia.com","port":27015,"enabled":true,"region":"us-west","cc":"us","latitude":37.77397,"longitude":-122.4313,"reserved":0,"last_update":"0001-01-01T00:00:00Z","name_a2s":"Uncletopia | San Francisco | 1 | All Maps","protocol":17,"map":"cp_dustbowl","folder":"tf","game":"Team Fortress","app_id":440,"player_count":24,"max_players":24,"Bots":0,"server_type":"Dedicated","server_os":"Linux","password":true,"vac":true,"version":"7757534","steam_id":85568392924469999,"keywords":["cp","nocrits","nodmgspread","uncletopia"],"game_id":440,"stv_port":27016,"stv_name":"Uncletopia | San Francisco | 1 | All Maps | STV","players":[{"user_id":338,"name":"Penne","steam_id":76561198982393756,"connected_time":3983000000000,"state":"active","ping":55},{"user_id":373,"name":"dirty30","steam_id":76561198021226566,"connected_time":1929000000000,"state":"active","ping":70},{"user_id":384,"name":"Icy","steam_id":76561198125015366,"connected_time":720000000000,"state":"active","ping":81},{"user_id":291,"name":"Just_Bland","steam_id":76561198403482191,"connected_time":6160000000000,"state":"active","ping":61},{"user_id":361,"name":"Overmeme","steam_id":76561199455124144,"connected_time":2693000000000,"state":"active","ping":79},{"user_id":362,"name":"NOT Susie Deltarune (not real)","steam_id":76561199007365488,"connected_time":2618000000000,"state":"active","ping":96},{"user_id":385,"name":"Cheese","steam_id":76561199228445316,"connected_time":690000000000,"state":"active","ping":80},{"user_id":377,"name":"2Fort Cactus","steam_id":76561199273395913,"connected_time":1102000000000,"state":"active","ping":71},{"user_id":363,"name":"spamton from hit game undertale","steam_id":76561198355992431,"connected_time":2613000000000,"state":"active","ping":164},{"user_id":386,"name":"Apricot","steam_id":76561198355699935,"connected_time":502000000000,"state":"active","ping":115},{"user_id":382,"name":"Anthoneeee","steam_id":76561199209220671,"connected_time":877000000000,"state":"active","ping":88},{"user_id":387,"name":"The Sallymen","steam_id":76561198033238992,"connected_time":432000000000,"state":"active","ping":81},{"user_id":352,"name":"Leonardo Doujinshi","steam_id":76561198073531273,"connected_time":3335000000000,"state":"active","ping":56},{"user_id":374,"name":"pinhead","steam_id":76561198184285481,"connected_time":1775000000000,"state":"active","ping":118},{"user_id":369,"name":"vareh","steam_id":76561197993190926,"connected_time":2415000000000,"state":"active","ping":77},{"user_id":379,"name":"kr1tsurf3r","steam_id":76561198076402476,"connected_time":1054000000000,"state":"active","ping":70},{"user_id":344,"name":"Dietrich","steam_id":76561198028163840,"connected_time":3763000000000,"state":"active","ping":67},{"user_id":375,"name":"Sunny","steam_id":76561198261667312,"connected_time":1561000000000,"state":"active","ping":64},{"user_id":365,"name":"Dov-Ah-Bob","steam_id":76561198147798338,"connected_time":2575000000000,"state":"active","ping":66},{"user_id":346,"name":"Sprucelass","steam_id":76561197998391724,"connected_time":3706000000000,"state":"active","ping":111},{"user_id":321,"name":"charge me doc","steam_id":76561198805599998,"connected_time":5109000000000,"state":"active","ping":78},{"user_id":381,"name":"gurney_halleck","steam_id":76561198061841423,"connected_time":905000000000,"state":"active","ping":142},{"user_id":383,"name":"Eden","steam_id":76561198081284664,"connected_time":849000000000,"state":"active","ping":54},{"user_id":372,"name":"Engineer Gaming","steam_id":76561198840761529,"connected_time":2143000000000,"state":"active","ping":87}]},{"server_id":18,"name":"Uncletopia | San Francisco | 2 | All Maps","name_short":"sfo-2","host":"sfo-1.us.uncletopia.com","port":27025,"enabled":true,"region":"us-west","cc":"us","latitude":37.77397,"longitude":-122.4313,"reserved":0,"last_update":"0001-01-01T00:00:00Z","name_a2s":"Uncletopia | San Francisco | 2 | All Maps","protocol":17,"map":"pl_pier","folder":"tf","game":"Team Fortress","app_id":440,"player_count":24,"max_players":24,"Bots":0,"server_type":"Dedicated","server_os":"Linux","password":true,"vac":true,"version":"7757534","steam_id":85568392924470000,"keywords":["nocrits","nodmgspread","payload","uncletopia"],"game_id":440,"stv_port":27026,"stv_name":"Uncletopia | San Francisco | 2 | All Maps | STV","players":[{"user_id":56,"name":"DemoLiberTF2","steam_id":76561198095378689,"connected_time":648000000000,"state":"active","ping":90},{"user_id":57,"name":"ScoutSecoTF2","steam_id":76561198366212156,"connected_time":638000000000,"state":"active","ping":117},{"user_id":64,"name":"Motorbung87","steam_id":76561198976821898,"connected_time":527000000000,"state":"active","ping":57},{"user_id":70,"name":"_cza","steam_id":76561198079793576,"connected_time":189000000000,"state":"active","ping":66},{"user_id":46,"name":"Igrium","steam_id":76561198119549811,"connected_time":1157000000000,"state":"active","ping":58},{"user_id":12,"name":"Pheesh","steam_id":76561199227830838,"connected_time":3407000000000,"state":"active","ping":82},{"user_id":58,"name":"Seriously Bruh","steam_id":76561198070408485,"connected_time":637000000000,"state":"active","ping":74},{"user_id":36,"name":"Gabe","steam_id":76561198081153719,"connected_time":1814000000000,"state":"active","ping":51},{"user_id":63,"name":"now I'm gonna cry!","steam_id":76561198035698704,"connected_time":556000000000,"state":"active","ping":58},{"user_id":69,"name":"`o2","steam_id":76561197992030936,"connected_time":302000000000,"state":"active","ping":114},{"user_id":17,"name":"Mr.Z","steam_id":76561199251422541,"connected_time":2777000000000,"state":"active","ping":72},{"user_id":66,"name":"ShredMaan","steam_id":76561198429982138,"connected_time":450000000000,"state":"active","ping":65},{"user_id":60,"name":"Penguinammo","steam_id":76561198165774711,"connected_time":586000000000,"state":"active","ping":97},{"user_id":61,"name":"Lemon Luke","steam_id":76561199141696546,"connected_time":578000000000,"state":"active","ping":103},{"user_id":21,"name":"AceSea","steam_id":76561198851176490,"connected_time":2674000000000,"state":"active","ping":38},{"user_id":22,"name":"Renz","steam_id":76561198118995036,"connected_time":2609000000000,"state":"active","ping":72},{"user_id":71,"name":"fiend","steam_id":76561198122159645,"connected_time":75000000000,"state":"active","ping":70},{"user_id":54,"name":"megaroboleg","steam_id":76561198844644993,"connected_time":759000000000,"state":"active","ping":64},{"user_id":67,"name":"Gandalf's Old Man Farts","steam_id":76561198058300151,"connected_time":390000000000,"state":"active","ping":101},{"user_id":65,"name":"windyhawks1934","steam_id":76561199439732176,"connected_time":512000000000,"state":"active","ping":72},{"user_id":68,"name":"Ozyruz","steam_id":76561197998785161,"connected_time":348000000000,"state":"active","ping":63},{"user_id":32,"name":"land0","steam_id":76561198321264704,"connected_time":2055000000000,"state":"active","ping":64},{"user_id":37,"name":".9 lg","steam_id":76561198092238353,"connected_time":1677000000000,"state":"active","ping":76},{"user_id":31,"name":"Bikebrainz","steam_id":76561198294120670,"connected_time":2209000000000,"state":"active","ping":90}]},{"server_id":19,"name":"Uncletopia | San Francisco | 3 | Stopwatch Beta","name_short":"sfo-3","host":"sfo-1.us.uncletopia.com","port":27035,"enabled":true,"region":"us-west","cc":"us","latitude":37.77397,"longitude":-122.4313,"reserved":0,"last_update":"0001-01-01T00:00:00Z","name_a2s":"Uncletopia | San Francisco | 3 | Stopwatch Beta","protocol":17,"map":"workshop/cp_process_f12.ugc2302948105","folder":"tf","game":"Team Fortress","app_id":440,"player_count":0,"max_players":24,"Bots":0,"server_type":"Dedicated","server_os":"Linux","password":true,"vac":true,"version":"7757534","steam_id":85568392924742824,"keywords":["cp","nocrits","nodmgspread","uncletopia"],"game_id":440,"stv_port":27036,"stv_name":"Uncletopia | San Francisco | 3 | Stopwatch Beta | STV","players":null},{"server_id":20,"name":"Uncletopia | San Francisco | 4 | Community","name_short":"sfo-4","host":"sfo-1.us.uncletopia.com","port":27045,"enabled":true,"region":"us-west","cc":"us","latitude":37.77397,"longitude":-122.4313,"reserved":0,"last_update":"0001-01-01T00:00:00Z","name_a2s":"Uncletopia | San Francisco | 4 | Community","protocol":17,"map":"workshop/cp_sulfur_rc2.ugc619869471","folder":"tf","game":"Team Fortress","app_id":440,"player_count":0,"max_players":24,"Bots":0,"server_type":"Dedicated","server_os":"Linux","password":true,"vac":true,"version":"7757534","steam_id":85568392924742826,"keywords":["cp","nocrits","nodmgspread","uncletopia"],"game_id":440,"stv_port":27046,"stv_name":"Uncletopia | San Francisco | 4 | Community | STV","players":null},{"server_id":141,"name":"Uncletopia | Sydney | 1 | All Maps","name_short":"syd-1","host":"syd-1.au.uncletopia.com","port":27015,"enabled":true,"region":"au","cc":"au","latitude":-33.865143,"longitude":151.2099,"reserved":0,"last_update":"0001-01-01T00:00:00Z","name_a2s":"Uncletopia | Sydney | 1 | All Maps","protocol":17,"map":"pl_barnblitz","folder":"tf","game":"Team Fortress","app_id":440,"player_count":19,"max_players":24,"Bots":0,"server_type":"Dedicated","server_os":"Linux","password":true,"vac":true,"version":"7757534","steam_id":85568392924470001,"keywords":["nocrits","nodmgspread","payload","uncletopia"],"game_id":440,"stv_port":27016,"stv_name":"Uncletopia | Sydney | 1 | All Maps | STV","players":[{"user_id":5,"name":"SUSHIMAN","steam_id":76561199089989428,"connected_time":5913000000000,"state":"active","ping":90},{"user_id":13,"name":"Mr Mahal","steam_id":76561198123234137,"connected_time":4934000000000,"state":"active","ping":55},{"user_id":71,"name":"Sparky","steam_id":76561198117687688,"connected_time":101000000000,"state":"active","ping":65},{"user_id":16,"name":"modus","steam_id":76561198025099660,"connected_time":4462000000000,"state":"active","ping":31},{"user_id":56,"name":"George W. Bush","steam_id":76561198234013568,"connected_time":1145000000000,"state":"active","ping":46},{"user_id":44,"name":"neevnope","steam_id":76561198981004996,"connected_time":1734000000000,"state":"active","ping":59},{"user_id":18,"name":"alqwnq","steam_id":76561198133867907,"connected_time":4243000000000,"state":"active","ping":66},{"user_id":72,"name":"krandlez` (Any/All)","steam_id":76561198044839726,"connected_time":98000000000,"state":"active","ping":45},{"user_id":73,"name":"‚òÖ‚òÖthastephen‚òÖ‚òÖ","steam_id":76561198080289775,"connected_time":74000000000,"state":"active","ping":219},{"user_id":67,"name":"Warren","steam_id":76561198120350917,"connected_time":483000000000,"state":"active","ping":44},{"user_id":74,"name":"awesome","steam_id":76561198073922951,"connected_time":74000000000,"state":"active","ping":56},{"user_id":51,"name":"Critz Eastwood","steam_id":76561198050094688,"connected_time":1393000000000,"state":"active","ping":60},{"user_id":58,"name":"Raypest","steam_id":76561197980678745,"connected_time":1041000000000,"state":"active","ping":41},{"user_id":49,"name":"Stab Calloway","steam_id":76561198027827983,"connected_time":1499000000000,"state":"active","ping":40},{"user_id":54,"name":"Beehive","steam_id":76561199436707447,"connected_time":1158000000000,"state":"active","ping":58},{"user_id":63,"name":"trozechad","steam_id":76561198163570075,"connected_time":827000000000,"state":"active","ping":60},{"user_id":64,"name":"Pathetic Coward","steam_id":76561197968304462,"connected_time":761000000000,"state":"active","ping":54},{"user_id":65,"name":"PaperClip","steam_id":76561198348035778,"connected_time":631000000000,"state":"active","ping":56},{"user_id":66,"name":"Ling Ling From QLD","steam_id":76561198087759879,"connected_time":543000000000,"state":"active","ping":52}]},{"server_id":123,"name":"Uncletopia | Sydney | 2 | All Maps","name_short":"syd-2","host":"syd-1.au.uncletopia.com","port":27025,"enabled":true,"region":"au","cc":"au","latitude":-33.865143,"longitude":151.2099,"reserved":0,"last_update":"0001-01-01T00:00:00Z","name_a2s":"Uncletopia | Sydney | 2 | All Maps","protocol":17,"map":"koth_cascade","folder":"tf","game":"Team Fortress","app_id":440,"player_count":0,"max_players":24,"Bots":0,"server_type":"Dedicated","server_os":"Linux","password":true,"vac":true,"version":"7757534","steam_id":85568392924470002,"keywords":["cp","nocrits","nodmgspread","uncletopia"],"game_id":440,"stv_port":27026,"stv_name":"Uncletopia | Sydney | 2 | All Maps | STV","players":null},{"server_id":395,"name":"Uncletopia | Sydney | 3 | All Maps","name_short":"syd-3","host":"syd-1.au.uncletopia.com","port":27035,"enabled":true,"region":"au","cc":"au","latitude":-33.865143,"longitude":151.2099,"reserved":0,"last_update":"0001-01-01T00:00:00Z","name_a2s":"Uncletopia | Sydney | 3 | All Maps","protocol":17,"map":"cp_dustbowl","folder":"tf","game":"Team Fortress","app_id":440,"player_count":0,"max_players":24,"Bots":0,"server_type":"Dedicated","server_os":"Linux","password":true,"vac":true,"version":"7757534","steam_id":85568392925194467,"keywords":["cp","nocrits","nodmgspread","uncletopia"],"game_id":440,"stv_port":27036,"stv_name":"Uncletopia | Sydney | 3 | All Maps | STV","players":null},{"server_id":396,"name":"Uncletopia | Sydney | 4 | All Maps","name_short":"syd-4","host":"syd-1.au.uncletopia.com","port":27045,"enabled":true,"region":"au","cc":"au","latitude":-33.865143,"longitude":151.2099,"reserved":0,"last_update":"0001-01-01T00:00:00Z","name_a2s":"Uncletopia | Sydney | 4 | All Maps","protocol":17,"map":"koth_highpass","folder":"tf","game":"Team Fortress","app_id":440,"player_count":0,"max_players":24,"Bots":0,"server_type":"Dedicated","server_os":"Linux","password":true,"vac":true,"version":"7757534","steam_id":85568392925397958,"keywords":["cp","nocrits","nodmgspread","uncletopia"],"game_id":440,"stv_port":27046,"stv_name":"Uncletopia | Sydney | 4 | All Maps | STV","players":null},{"server_id":58,"name":"Uncletopia | Sydney | 5 | Stopwatch Beta","name_short":"syd-5","host":"syd-1.au.uncletopia.com","port":27055,"enabled":true,"region":"au","cc":"au","latitude":-33.865143,"longitude":151.2099,"reserved":0,"last_update":"0001-01-01T00:00:00Z","name_a2s":"Uncletopia | Sydney | 5 | Stopwatch Beta","protocol":17,"map":"koth_cascade","folder":"tf","game":"Team Fortress","app_id":440,"player_count":0,"max_players":24,"Bots":0,"server_type":"Dedicated","server_os":"Linux","password":true,"vac":true,"version":"7757534","steam_id":85568392925397959,"keywords":["cp","nocrits","nodmgspread","uncletopia"],"game_id":440,"stv_port":27056,"stv_name":"Uncletopia | Sydney | 5 | Stopwatch Beta | STV","players":null},{"server_id":59,"name":"Uncletopia | Sydney | 6 | Community","name_short":"syd-6","host":"syd-1.au.uncletopia.com","port":27065,"enabled":true,"region":"au","cc":"au","latitude":-33.865143,"longitude":151.2099,"reserved":0,"last_update":"0001-01-01T00:00:00Z","name_a2s":"Uncletopia | Sydney | 6 | Community","protocol":17,"map":"cp_snakewater_final1","folder":"tf","game":"Team Fortress","app_id":440,"player_count":0,"max_players":24,"Bots":0,"server_type":"Dedicated","server_os":"Linux","password":true,"vac":true,"version":"7757534","steam_id":85568392925397960,"keywords":["cp","nocrits","nodmgspread","uncletopia"],"game_id":440,"stv_port":27066,"stv_name":"Uncletopia | Sydney | 6 | Community | STV","players":null},{"server_id":49,"name":"Uncletopia | Warsaw | 1 | All Maps","name_short":"waw-1","host":"waw-1.pl.uncletopia.com","port":27015,"enabled":true,"region":"eu","cc":"pl","latitude":52.2297,"longitude":21.017532,"reserved":0,"last_update":"0001-01-01T00:00:00Z","name_a2s":"","protocol":0,"map":"","folder":"","game":"","app_id":0,"player_count":0,"max_players":0,"Bots":0,"server_type":"","server_os":"","password":false,"vac":false,"version":"","steam_id":0,"keywords":null,"game_id":0,"stv_port":0,"stv_name":"","players":null},{"server_id":50,"name":"Uncletopia | Warsaw | 2 | All Maps","name_short":"waw-2","host":"waw-1.pl.uncletopia.com","port":27025,"enabled":true,"region":"eu","cc":"pl","latitude":52.2297,"longitude":21.017532,"reserved":0,"last_update":"0001-01-01T00:00:00Z","name_a2s":"Uncletopia | Warsaw | 2 | All Maps","protocol":17,"map":"koth_viaduct","folder":"tf","game":"Team Fortress","app_id":440,"player_count":0,"max_players":24,"Bots":0,"server_type":"Dedicated","server_os":"Linux","password":true,"vac":true,"version":"7757534","steam_id":85568392925397851,"keywords":["cp","nocrits","nodmgspread","uncletopia"],"game_id":440,"stv_port":27026,"stv_name":"Uncletopia | Warsaw | 2 | All Maps | STV","players":null},{"server_id":51,"name":"Uncletopia | Warsaw | 3 | All Maps","name_short":"waw-3","host":"waw-1.pl.uncletopia.com","port":27035,"enabled":true,"region":"eu","cc":"pl","latitude":52.2297,"longitude":21.017532,"reserved":0,"last_update":"0001-01-01T00:00:00Z","name_a2s":"Uncletopia | Warsaw | 3 | All Maps","protocol":17,"map":"pl_pier","folder":"tf","game":"Team Fortress","app_id":440,"player_count":0,"max_players":24,"Bots":0,"server_type":"Dedicated","server_os":"Linux","password":true,"vac":true,"version":"7757534","steam_id":85568392925397852,"keywords":["nocrits","nodmgspread","payload","uncletopia"],"game_id":440,"stv_port":27036,"stv_name":"Uncletopia | Warsaw | 3 | All Maps | STV","players":null},{"server_id":52,"name":"Uncletopia | Warsaw | 4 | All Maps","name_short":"waw-4","host":"waw-1.pl.uncletopia.com","port":27045,"enabled":true,"region":"eu","cc":"pl","latitude":52.2297,"longitude":21.017532,"reserved":0,"last_update":"0001-01-01T00:00:00Z","name_a2s":"Uncletopia | Warsaw | 4 | All Maps","protocol":17,"map":"koth_lakeside_final","folder":"tf","game":"Team Fortress","app_id":440,"player_count":0,"max_players":24,"Bots":0,"server_type":"Dedicated","server_os":"Linux","password":true,"vac":true,"version":"7757534","steam_id":85568392925397853,"keywords":["cp","nocrits","nodmgspread","uncletopia"],"game_id":440,"stv_port":27046,"stv_name":"Uncletopia | Warsaw | 4 | All Maps | STV","players":null},{"server_id":53,"name":"Uncletopia | Warsaw | 5 | Stopwatch Beta","name_short":"waw-5","host":"waw-1.pl.uncletopia.com","port":27055,"enabled":true,"region":"eu","cc":"pl","latitude":52.2297,"longitude":21.017532,"reserved":0,"last_update":"0001-01-01T00:00:00Z","name_a2s":"Uncletopia | Warsaw | 5 | Stopwatch Beta","protocol":17,"map":"pl_borneo","folder":"tf","game":"Team Fortress","app_id":440,"player_count":0,"max_players":24,"Bots":0,"server_type":"Dedicated","server_os":"Linux","password":true,"vac":true,"version":"7757534","steam_id":85568392925397854,"keywords":["nocrits","nodmgspread","payload","uncletopia"],"game_id":440,"stv_port":27056,"stv_name":"Uncletopia | Warsaw | 5 | Stopwatch Beta | STV","players":null},{"server_id":54,"name":"Uncletopia | Warsaw | 6 | Community","name_short":"waw-6","host":"waw-1.pl.uncletopia.com","port":27065,"enabled":true,"region":"eu","cc":"pl","latitude":52.2297,"longitude":21.017532,"reserved":0,"last_update":"0001-01-01T00:00:00Z","name_a2s":"Uncletopia | Warsaw | 6 | Community","protocol":17,"map":"workshop/koth_synthetic_rc6a.ugc1549817316","folder":"tf","game":"Team Fortress","app_id":440,"player_count":0,"max_players":24,"Bots":0,"server_type":"Dedicated","server_os":"Linux","password":true,"vac":true,"version":"7757534","steam_id":85568392925397856,"keywords":["cp","nocrits","nodmgspread","uncletopia"],"game_id":440,"stv_port":27066,"stv_name":"Uncletopia | Warsaw | 6 | Community | STV","players":null}]}