{"status":true,"message":"","result":[{"server_id":9,"name":"Uncletopia | Atlanta | 1 | All Maps","name_short":"atl-1","host":"atl-1.us.uncletopia.com","port":27015,"enabled":true,"region":"us-east","cc":"us","latitude":33.753746,"longitude":-84.38633,"reserved":0,"last_update":"0001-01-01T00:00:00Z","name_a2s":"Uncletopia | Atlanta | 1 | All Maps","protocol":17,"map":"cp_foundry","folder":"tf","game":"Team Fortress","app_id":440,"player_count":24,"max_players":24,"Bots":0,"server_type":"Dedicated","server_os":"Linux","password":true,"vac":true,"version":"7757534","steam_id":85568392924469982,"keywords":["cp","nocrits","nodmgspread","uncletopia"],"game_id":440,"stv_port":27016,"stv_name":"Uncletopia | Atlanta | 1 | All Maps | STV","players":[{"user_id":153,"name":"Eden","steam_id":76561198075587475,"connected_time":1519000000000,"state":"active","ping":57},{"user_id":103,"name":"cow farmer","steam_id":76561198249206656,"connected_time":5361000000000,"state":"active","ping":80},{"user_id":6,"name":"700000 rabid Chihuahuas in Ohio","steam_id":76561198130772096,"connected_time":11570000000000,"state":"active","ping":53},{"user_id":170,"name":"LuciD","steam_id":76561198242842394,"connected_time":185000000000,"state":"active","ping":104},{"user_id":139,"name":"MyamE","steam_id":76561198133278462,"connected_time":2430000000000,"state":"active","ping":71},{"user_id":166,"name":"Eating Toast","steam_id":76561199168711796,"connected_time":741000000000,"state":"active","ping":69},{"user_id":132,"name":"N√∏rzaq","steam_id":76561198143188802,"connected_time":2580000000000,"state":"active","ping":115},{"user_id":171,"name":"Green_GarBear","steam_id":76561199468912415,"connected_time":47000000000,"state":"active","ping":106},{"user_id":167,"name":"g00bur","steam_id":76561197993622520,"connected_time":634000000000,"state":"active","ping":60},{"user_id":156,"name":"terrapieseven","steam_id":76561198072062415,"connected_time":1467000000000,"state":"active","ping":75},{"user_id":137,"name":"Walmart Employee","steam_id":76561198840373909,"connected_time":2499000000000,"state":"active","ping":70},{"user_id":87,"name":"Scorch","steam_id":76561198167024005,"connected_time":6235000000000,"state":"active","ping":64},{"user_id":138,"name":"Decepticon","steam_id":76561198047168548,"connected_time":2439000000000,"state":"active","ping":105},{"user_id":126,"name":"shadow wizard","steam_id":76561198165212575,"connected_time":3446000000000,"state":"active","ping":84},{"user_id":109,"name":"Sigma Spy","steam_id":76561198253181773,"connected_time":4767000000000,"state":"active","ping":55},{"user_id":147,"name":"Gotta get my ammo fix","steam_id":76561198039763676,"connected_time":2054000000000,"state":"active","ping":55},{"user_id":148,"name":"the world goes thunk","steam_id":76561198165567310,"connected_time":1994000000000,"state":"active","ping":54},{"user_id":162,"name":"Myn","steam_id":76561198055438857,"connected_time":932000000000,"state":"active","ping":76},{"user_id":157,"name":"AttackCommander","steam_id":76561198111522679,"connected_time":1430000000000,"state":"active","ping":85},{"user_id":163,"name":"squaggles!","steam_id":76561197994995011,"connected_time":899000000000,"state":"active","ping":38},{"user_id":124,"name":"You've made too many requests r","steam_id":76561198982810452,"connected_time":3901000000000,"state":"active","ping":80},{"user_id":161,"name":"radiohead enjoyer","steam_id":76561198397662124,"connected_time":993000000000,"state":"active","ping":91},{"user_id":145,"name":"Leandro","steam_id":76561198041358925,"connected_time":2315000000000,"state":"active","ping":54},{"user_id":169,"name":"teaf","steam_id":76561198406252824,"connected_time":347000000000,"state":"active","ping":117}]},{"server_id":400,"name":"Uncletopia | Atlanta | 3 | Community","name_short":"atl-3","host":"atl-1.us.uncletopia.com","port":27035,"enabled":true,"region":"us-east","cc":"us","latitude":33.753746,"longitude":-84.38633,"reserved":0,"last_update":"0001-01-01T00:00:00Z","name_a2s":"Uncletopia | Atlanta | 3 | Community","protocol":17,"map":"workshop/cp_snowbase_b18.ugc2081770490","folder":"tf","game":"Team Fortress","app_id":440,"player_count":0,"max_players":32,"Bots":0,"server_type":"Dedicated","server_os":"Linux","password":true,"vac":true,"version":"7757534","steam_id":85568392924515187,"keywords":["cp","increased_maxplayers","nocrits","nodmgspread","uncletopia"],"game_id":440,"stv_port":27036,"stv_name":"Uncletopia | Atlanta | 3 | Community | STV","players":null},{"server_id":401,"name":"Uncletopia | Atlanta | 4 | No Payload","name_short":"atl-4","host":"atl-1.us.uncletopia.com","port":27045,"enabled":true,"region":"us-east","cc":"us","latitude":33.753746,"longitude":-84.38633,"reserved":0,"last_update":"0001-01-01T00:00:00Z","name_a2s":"","protocol":0,"map":"","folder":"","game":"","app_id":0,"player_count":0,"max_players":0,"Bots":0,"server_type":"","server_os":"","password":false,"vac":false,"version":"","steam_id":0,"keywords":null,"game_id":0,"stv_port":0,"stv_name":"","players":null},{"server_id":2,"name":"Uncletopia | Chicago | 1 | All Maps","name_short":"chi-1","host":"chi-1.us.uncletopia.com","port":27015,"enabled":true,"region":"us-central","cc":"us","latitude":41.881832,"longitude":-87.62318,"reserved":0,"last_update":"0001-01-01T00:00:00Z","name_a2s":"Uncletopia | Chicago | 1 | All Maps","protocol":17,"map":"pl_upward","folder":"tf","game":"Team Fortress","app_id":440,"player_count":24,"max_players":24,"Bots":0,"server_type":"Dedicated","server_os":"Linux","password":true,"vac":true,"version":"7757534","steam_id":85568392924469984,"keywords":["nocrits","nodmgspread","payload","uncletopia"],"game_id":440,"stv_port":27016,"stv_name":"Uncletopia | Chicago | 1 | All Maps | STV","players":[{"user_id":87,"name":"Null","steam_id":76561198062791227,"connected_time":339000000000,"state":"active","ping":63},{"user_id":78,"name":"Mattron1","steam_id":76561198012270524,"connected_time":918000000000,"state":"active","ping":72},{"user_id":79,"name":"Based gamer","steam_id":76561198096346593,"connected_time":910000000000,"state":"active","ping":75},{"user_id":36,"name":"sax","steam_id":76561198094788852,"connected_time":2449000000000,"state":"active","ping":46},{"user_id":27,"name":"Monochi","steam_id":76561198093093118,"connected_time":2920000000000,"state":"active","ping":73},{"user_id":71,"name":"Speedy","steam_id":76561198080761661,"connected_time":1359000000000,"state":"active","ping":73},{"user_id":30,"name":"nastypass","steam_id":76561198002601054,"connected_time":2874000000000,"state":"active","ping":65},{"user_id":66,"name":"Big Phony","steam_id":76561199092395311,"connected_time":1636000000000,"state":"active","ping":50},{"user_id":32,"name":"GREG","steam_id":76561198073021168,"connected_time":2788000000000,"state":"active","ping":64},{"user_id":51,"name":"CoconutRice","steam_id":76561198114909164,"connected_time":2198000000000,"state":"active","ping":50},{"user_id":35,"name":"Shmebulock","steam_id":76561198046941925,"connected_time":2519000000000,"state":"active","ping":57},{"user_id":37,"name":"MoanfulMilk","steam_id":76561199229169396,"connected_time":2432000000000,"state":"active","ping":68},{"user_id":67,"name":"Furry Saul Goodman","steam_id":76561198069580305,"connected_time":1634000000000,"state":"active","ping":51},{"user_id":39,"name":"Bobby","steam_id":76561198164004939,"connected_time":2399000000000,"state":"active","ping":116},{"user_id":68,"name":"Fake Uncle","steam_id":76561198880227689,"connected_time":1529000000000,"state":"active","ping":70},{"user_id":80,"name":"boobies arc","steam_id":76561198316753540,"connected_time":909000000000,"state":"active","ping":60},{"user_id":75,"name":"Censing Auto, The Challenger","steam_id":76561198060926681,"connected_time":982000000000,"state":"active","ping":62},{"user_id":86,"name":"Dilo","steam_id":76561198799078414,"connected_time":384000000000,"state":"active","ping":74},{"user_id":44,"name":"Barthurs","steam_id":76561197993776122,"connected_time":2361000000000,"state":"active","ping":53},{"user_id":89,"name":"Theristes#SaveTf2","steam_id":76561198055947434,"connected_time":238000000000,"state":"active","ping":106},{"user_id":84,"name":"blue drink","steam_id":76561199260739414,"connected_time":765000000000,"state":"active","ping":79},{"user_id":85,"name":"WM1 PYRO","steam_id":76561198045893896,"connected_time":494000000000,"state":"active","ping":96},{"user_id":61,"name":"good_s1r","steam_id":76561199010842391,"connected_time":1984000000000,"state":"active","ping":56},{"user_id":63,"name":"Cheshire Cat","steam_id":76561198026034304,"connected_time":1930000000000,"state":"active","ping":83}]},{"server_id":106,"name":"Uncletopia | Chicago | 2 | All Maps","name_short":"chi-2","host":"chi-1.us.uncletopia.com","port":27025,"enabled":true,"region":"us-central","cc":"us","latitude":41.881832,"longitude":-87.62318,"reserved":0,"last_update":"0001-01-01T00:00:00Z","name_a2s":"Uncletopia | Chicago | 2 | All Maps","protocol":17,"map":"pl_barnblitz","folder":"tf","game":"Team Fortress","app_id":440,"player_count":24,"max_players":24,"Bots":0,"server_type":"Dedicated","server_os":"Linux","password":true,"vac":true,"version":"7757534","steam_id":85568392924469985,"keywords":["nocrits","nodmgspread","payload","uncletopia"],"game_id":440,"stv_port":27026,"stv_name":"Uncletopia | Chicago | 2 | All Maps | STV","players":[{"user_id":317,"name":"Goose","steam_id":76561198211113189,"connected_time":736000000000,"state":"active","ping":84},{"user_id":300,"name":"Black Engineer","steam_id":76561198980646053,"connected_time":1673000000000,"state":"active","ping":162},{"user_id":312,"name":"Drachma","steam_id":76561198007310514,"connected_time":1029000000000,"state":"active","ping":57},{"user_id":311,"name":"Firebug","steam_id":76561198081832157,"connected_time":1137000000000,"state":"active","ping":80},{"user_id":314,"name":"lynt","steam_id":76561198988333976,"connected_time":977000000000,"state":"active","ping":53},{"user_id":325,"name":"Spiderfight1","steam_id":76561199189991528,"connected_time":139000000000,"state":"active","ping":98},{"user_id":268,"name":"twitch.tv/frimpimy","steam_id":76561198142605675,"connected_time":4823000000000,"state":"active","ping":59},{"user_id":287,"name":"Kitt(eh) ‚àë:3","steam_id":76561198110858518,"connected_time":3228000000000,"state":"active","ping":57},{"user_id":303,"name":"daemon","steam_id":76561198001541433,"connected_time":1563000000000,"state":"active","ping":59},{"user_id":322,"name":"Asher","steam_id":76561198218499636,"connected_time":505000000000,"state":"active","ping":65},{"user_id":294,"name":"Young-OG","steam_id":76561198058800479,"connected_time":2093000000000,"state":"active","ping":77},{"user_id":310,"name":"kite","steam_id":76561198346516392,"connected_time":1145000000000,"state":"active","ping":75},{"user_id":320,"name":"ToasterWater","steam_id":76561198260121940,"connected_time":561000000000,"state":"active","ping":68},{"user_id":290,"name":"[PINGU‚Ñ¢] Tiny Tuna","steam_id":76561198193611579,"connected_time":2794000000000,"state":"active","ping":78},{"user_id":284,"name":"THESHITRIPPER","steam_id":76561198063099828,"connected_time":3587000000000,"state":"active","ping":54},{"user_id":313,"name":"God of bread","steam_id":76561198373688035,"connected_time":1026000000000,"state":"active","ping":63},{"user_id":323,"name":"Typhe‚Ñ¢","steam_id":76561198251528746,"connected_time":498000000000,"state":"active","ping":67},{"user_id":315,"name":"maS","steam_id":76561198033846407,"connected_time":839000000000,"state":"active","ping":61},{"user_id":316,"name":"choopo","steam_id":76561199202466365,"connected_time":819000000000,"state":"active","ping":62},{"user_id":324,"name":"Ostin","steam_id":76561197993726444,"connected_time":490000000000,"state":"active","ping":79},{"user_id":273,"name":"Popalofiti (medic arc)","steam_id":76561198081971317,"connected_time":4013000000000,"state":"active","ping":53},{"user_id":318,"name":"Godmode","steam_id":76561198076240365,"connected_time":675000000000,"state":"active","ping":62},{"user_id":292,"name":"Im High","steam_id":76561198049954886,"connected_time":2605000000000,"state":"active","ping":68},{"user_id":299,"name":"killswitch","steam_id":76561199243229769,"connected_time":1838000000000,"state":"active","ping":47}]},{"server_id":402,"name":"Uncletopia | Chicago | 3 | All Maps","name_short":"chi-3","host":"chi-1.us.uncletopia.com","port":27035,"enabled":true,"region":"us-central","cc":"us","latitude":41.881832,"longitude":-87.62318,"reserved":0,"last_update":"0001-01-01T00:00:00Z","name_a2s":"Uncletopia | Chicago | 3 | All Maps","protocol":17,"map":"koth_lakeside_final","folder":"tf","game":"Team Fortress","app_id":440,"player_count":1,"max_players":24,"Bots":0,"server_type":"Dedicated","server_os":"Linux","password":true,"vac":true,"version":"7757534","steam_id":85568392924515191,"keywords":["cp","nocrits","nodmgspread","uncletopia"],"game_id":440,"stv_port":27036,"stv_name":"Uncletopia | Chicago | 3 | All Maps | STV","players":[{"user_id":6,"name":"Mr0_0Knight","steam_id":76561199471338064,"connected_time":19000000000,"state":"active","ping":57}]},{"server_id":403,"name":"Uncletopia | Chicago | 4 | All Maps","name_short":"chi-4","host":"chi-1.us.uncletopia.com","port":27045,"enabled":true,"region":"us-central","cc":"us","latitude":41.881832,"longitude":-87.62318,"reserved":0,"last_update":"0001-01-01T00:00:00Z","name_a2s":"Uncletopia | Chicago | 4 | All Maps","protocol":17,"map":"pl_enclosure_final","folder":"tf","game":"Team Fortress","app_id":440,"player_count":23,"max_players":24,"Bots":0,"server_type":"Dedicated","server_os":"Linux","password":true,"vac":true,"version":"7757534","steam_id":85568392924515193,"keywords":["nocrits","nodmgspread","payload","uncletopia"],"game_id":440,"stv_port":27046,"stv_name":"Uncletopia | Chicago | 4 | All Maps | STV","players":[{"user_id":170,"name":"xXBigWingmanFanXx","steam_id":76561198067904392,"connected_time":853000000000,"state":"active","ping":62},{"user_id":172,"name":"wake up","steam_id":76561198072179483,"connected_time":783000000000,"state":"active","ping":90},{"user_id":126,"name":"uhooter","steam_id":76561198007829078,"connected_time":3021000000000,"state":"active","ping":48},{"user_id":88,"name":"Bozanimal","steam_id":76561198044096897,"connected_time":4248000000000,"state":"active","ping":60},{"user_id":175,"name":"Ashaman007","steam_id":76561198093354557,"connected_time":122000000000,"state":"active","ping":69},{"user_id":155,"name":"gib b","steam_id":76561198048425690,"connected_time":1660000000000,"state":"active","ping":49},{"user_id":156,"name":"b4rry","steam_id":76561198365887154,"connected_time":1659000000000,"state":"active","ping":68},{"user_id":178,"name":"big man","steam_id":76561198826715423,"connected_time":15000000000,"state":"active","ping":82},{"user_id":176,"name":"Jambi","steam_id":76561198846091685,"connected_time":107000000000,"state":"active","ping":60},{"user_id":136,"name":"Ejaculation Zach","steam_id":76561198203765200,"connected_time":2062000000000,"state":"active","ping":58},{"user_id":128,"name":"threethree","steam_id":76561198177354155,"connected_time":2609000000000,"state":"active","ping":69},{"user_id":157,"name":"FrumpyGoldsmith","steam_id":76561199036534127,"connected_time":1636000000000,"state":"active","ping":72},{"user_id":161,"name":"canakblasteran","steam_id":76561199472518822,"connected_time":1522000000000,"state":"active","ping":103},{"user_id":160,"name":"john","steam_id":76561198850447852,"connected_time":1550000000000,"state":"active","ping":75},{"user_id":174,"name":"he_who_grills","steam_id":76561198039626676,"connected_time":350000000000,"state":"active","ping":55},{"user_id":119,"name":"bary","steam_id":76561197988317087,"connected_time":3162000000000,"state":"active","ping":61},{"user_id":164,"name":"DoesntColder","steam_id":76561199181856975,"connected_time":1489000000000,"state":"active","ping":100},{"user_id":149,"name":"Doctor Hugo Z. Hackenbush","steam_id":76561198044064255,"connected_time":1784000000000,"state":"active","ping":75},{"user_id":169,"name":"ArcanianArcher","steam_id":76561198088445076,"connected_time":945000000000,"state":"active","ping":62},{"user_id":147,"name":"psy","steam_id":76561198013195018,"connected_time":1879000000000,"state":"active","ping":76},{"user_id":151,"name":"w a o w","steam_id":76561198060769385,"connected_time":1746000000000,"state":"active","ping":103},{"user_id":145,"name":"loyaldandan0764","steam_id":76561199231020424,"connected_time":1928000000000,"state":"active","ping":107},{"user_id":171,"name":"cheated on the pregnancy test","steam_id":76561199107068627,"connected_time":801000000000,"state":"active","ping":53}]},{"server_id":36,"name":"Uncletopia | Chicago | 5 | All Maps","name_short":"chi-5","host":"chi-2.us.uncletopia.com","port":27015,"enabled":true,"region":"us-central","cc":"us","latitude":41.881832,"longitude":-87.62318,"reserved":0,"last_update":"0001-01-01T00:00:00Z","name_a2s":"Uncletopia | Chicago | 5 | All Maps","protocol":17,"map":"koth_cascade","folder":"tf","game":"Team Fortress","app_id":440,"player_count":0,"max_players":24,"Bots":0,"server_type":"Dedicated","server_os":"Linux","password":true,"vac":true,"version":"7757534","steam_id":85568392924866362,"keywords":["cp","nocrits","nodmgspread","uncletopia"],"game_id":440,"stv_port":27016,"stv_name":"Uncletopia | Chicago | 5 | All Maps | STV","players":null},{"server_id":37,"name":"Uncletopia | Chicago | 6 | All Maps","name_short":"chi-6","host":"chi-2.us.uncletopia.com","port":27025,"enabled":true,"region":"us-central","cc":"us","latitude":41.881832,"longitude":-87.62318,"reserved":0,"last_update":"0001-01-01T00:00:00Z","name_a2s":"Uncletopia | Chicago | 6 | All Maps","protocol":17,"map":"koth_cascade","folder":"tf","game":"Team Fortress","app_id":440,"player_count":4,"max_players":24,"Bots":0,"server_type":"Dedicated","server_os":"Linux","password":true,"vac":true,"version":"7757534","steam_id":85568392924866363,"keywords":["cp","nocrits","nodmgspread","uncletopia"],"game_id":440,"stv_port":27026,"stv_name":"Uncletopia | Chicago | 6 | All Maps | STV","players":[{"user_id":7,"name":"magical_mage0","steam_id":76561198213271916,"connected_time":820000000000,"state":"active","ping":60},{"user_id":8,"name":"I like pasta","steam_id":76561199140303246,"connected_time":548000000000,"state":"active","ping":88},{"user_id":9,"name":"myspace girl","steam_id":76561198054925421,"connected_time":423000000000,"state":"active","ping":47},{"user_id":10,"name":"lite","steam_id":76561198300633951,"connected_time":262000000000,"state":"active","ping":102}]},{"server_id":38,"name":"Uncletopia | Chicago | 7 | Stopwatch Beta","name_short":"chi-7","host":"chi-2.us.uncletopia.com","port":27035,"enabled":true,"region":"us-central","cc":"us","latitude":41.881832,"longitude":-87.62318,"reserved":0,"last_update":"0001-01-01T00:00:00Z","name_a2s":"Uncletopia | Chicago | 7 | Stopwatch Beta","protocol":17,"map":"koth_highpass","folder":"tf","game":"Team Fortress","app_id":440,"player_count":2,"max_players":24,"Bots":0,"server_type":"Dedicated","server_os":"Linux","password":true,"vac":true,"version":"7757534","steam_id":85568392924866364,"keywords":["cp","nocrits","nodmgspread","uncletopia"],"game_id":440,"stv_port":27036,"stv_name":"Uncletopia | Chicago | 7 | Stopwatch Beta | STV","players":[{"user_id":4,"name":"RoboticPyroRobo","steam_id":76561198355732200,"connected_time":1866000000000,"state":"active","ping":70},{"user_id":5,"name":"spiderfat","steam_id":76561198957917221,"connected_time":1816000000000,"state":"active","ping":88}]},{"server_id":39,"name":"Uncletopia | Chicago | 8 | Community","name_short":"chi-8","host":"chi-2.us.uncletopia.com","port":27045,"enabled":true,"region":"us-central","cc":"us","latitude":41.881832,"longitude":-87.62318,"reserved":0,"last_update":"0001-01-01T00:00:00Z","name_a2s":"Uncletopia | Chicago | 8 | Community","protocol":17,"map":"pl_barnblitz","folder":"tf","game":"Team Fortress","app_id":440,"player_count":0,"max_players":24,"Bots":0,"server_type":"Dedicated","server_os":"Linux","password":true,"vac":true,"version":"7757534","steam_id":85568392924866365,"keywords":["nocrits","nodmgspread","payload","uncletopia"],"game_id":440,"stv_port":27046,"stv_name":"Uncletopia | Chicago | 8 | Community | STV","players":null},{"server_id":8,"name":"Uncletopia | Dallas | 1 | All Maps","name_short":"dal-1","host":"dal-1.us.uncletopia.com","port":27015,"enabled":true,"region":"us-central","cc":"us","latitude":32.779167,"longitude":-96.80889,"reserved":0,"last_update":"0001-01-01T00:00:00Z","name_a2s":"Uncletopia | Dallas | 1 | All Maps","protocol":17,"map":"pl_upward","folder":"tf","game":"Team Fortress","app_id":440,"player_count":24,"max_players":24,"Bots":0,"server_type":"Dedicated","server_os":"Linux","password":true,"vac":true,"version":"7757534","steam_id":85568392924469986,"keywords":["nocrits","nodmgspread","payload","uncletopia"],"game_id":440,"stv_port":27016,"stv_name":"Uncletopia | Dallas | 1 | All Maps | STV","players":[{"user_id":254,"name":"rico suave","steam_id":76561198093252989,"connected_time":535000000000,"state":"active","ping":48},{"user_id":261,"name":"deech","steam_id":76561198066429444,"connected_time":166000000000,"state":"active","ping":85},{"user_id":220,"name":"BitterSweet","steam_id":76561198161342377,"connected_time":2026000000000,"state":"active","ping":103},{"user_id":215,"name":"Sal Vulcano","steam_id":76561198016677665,"connected_time":2470000000000,"state":"active","ping":96},{"user_id":245,"name":"ThePirateKenway","steam_id":76561198115156181,"connected_time":1120000000000,"state":"active","ping":50},{"user_id":221,"name":"TheMoltenKnight","steam_id":76561198967874421,"connected_time":2016000000000,"state":"active","ping":75},{"user_id":260,"name":"RAGNAROK_VICTIM","steam_id":76561198841082777,"connected_time":177000000000,"state":"active","ping":88},{"user_id":149,"name":"girlboss","steam_id":76561197989019617,"connected_time":7984000000000,"state":"active","ping":62},{"user_id":250,"name":"BingoBingus","steam_id":76561198113401215,"connected_time":853000000000,"state":"active","ping":73},{"user_id":263,"name":"‚ô• Dolphinia ‚ô•","steam_id":76561199093367765,"connected_time":147000000000,"state":"active","ping":78},{"user_id":240,"name":"pleasehelpidonthavefingers","steam_id":76561199367935846,"connected_time":1301000000000,"state":"active","ping":72},{"user_id":256,"name":"Moirologist","steam_id":76561199474053926,"connected_time":341000000000,"state":"active","ping":53},{"user_id":264,"name":"Reisen","steam_id":76561199174579733,"connected_time":145000000000,"state":"active","ping":91},{"user_id":265,"name":"OCDkitty","steam_id":76561198266296221,"connected_time":136000000000,"state":"active","ping":49},{"user_id":248,"name":"GaMeRbOi","steam_id":76561199094353617,"connected_time":948000000000,"state":"active","ping":95},{"user_id":266,"name":"Wahter","steam_id":76561198068654532,"connected_time":134000000000,"state":"active","ping":92},{"user_id":242,"name":"FUNKY TOWN SLAYER","steam_id":76561198119489292,"connected_time":1265000000000,"state":"active","ping":120},{"user_id":268,"name":"jorjor wells","steam_id":76561199073429082,"connected_time":93000000000,"state":"active","ping":87},{"user_id":270,"name":"SturmTea","steam_id":76561198027371308,"connected_time":32000000000,"state":"active","ping":75},{"user_id":255,"name":"iluvtoust","steam_id":76561198869269207,"connected_time":406000000000,"state":"active","ping":54},{"user_id":252,"name":"BIG HOG","steam_id":76561198079923652,"connected_time":610000000000,"state":"active","ping":52},{"user_id":269,"name":"Frenemy \u003e:D","steam_id":76561198011363677,"connected_time":65000000000,"state":"active","ping":63},{"user_id":233,"name":"MancalaMadMan","steam_id":76561198347324053,"connected_time":1757000000000,"state":"active","ping":117},{"user_id":244,"name":"Put Dispenser Here","steam_id":76561198334676366,"connected_time":1214000000000,"state":"active","ping":41}]},{"server_id":108,"name":"Uncletopia | Dallas | 2 | All Maps","name_short":"dal-2","host":"dal-1.us.uncletopia.com","port":27025,"enabled":true,"region":"us-central","cc":"us","latitude":32.779167,"longitude":-96.80889,"reserved":0,"last_update":"0001-01-01T00:00:00Z","name_a2s":"Uncletopia | Dallas | 2 | All Maps","protocol":17,"map":"cp_snakewater_final1","folder":"tf","game":"Team Fortress","app_id":440,"player_count":0,"max_players":24,"Bots":0,"server_type":"Dedicated","server_os":"Linux","password":true,"vac":true,"version":"7757534","steam_id":85568392924469988,"keywords":["cp","nocrits","nodmgspread","uncletopia"],"game_id":440,"stv_port":27026,"stv_name":"Uncletopia | Dallas | 2 | All Maps | STV","players":null},{"server_id":5,"name":"Uncletopia | Frankfurt | 1 | All Maps","name_short":"frk-1","host":"frk-1.de.uncletopia.com","port":27015,"enabled":true,"region":"eu","cc":"de","latitude":50.110924,"longitude":8.682127,"reserved":0,"last_update":"0001-01-01T00:00:00Z","name_a2s":"Uncletopia | Frankfurt | 1 | All Maps","protocol":17,"map":"koth_lakeside_final","folder":"tf","game":"Team Fortress","app_id":440,"player_count":0,"max_players":24,"Bots":0,"server_type":"Dedicated","server_os":"Linux","password":true,"vac":true,"version":"7757534","steam_id":85568392924469989,"keywords":["cp","nocrits","nodmgspread","uncletopia"],"game_id":440,"stv_port":27016,"stv_name":"Uncletopia | Frankfurt | 1 | All Maps | STV","players":null},{"server_id":110,"name":"Uncletopia | Frankfurt | 2 | All Maps","name_short":"frk-2","host":"frk-1.de.uncletopia.com","port":27025,"enabled":true,"region":"eu","cc":"de","latitude":50.110924,"longitude":8.682127,"reserved":0,"last_update":"0001-01-01T00:00:00Z","name_a2s":"Uncletopia | Frankfurt | 2 | All Maps","protocol":17,"map":"pl_pier","folder":"tf","game":"Team Fortress","app_id":440,"player_count":24,"max_players":24,"Bots":0,"server_type":"Dedicated","server_os":"Linux","password":true,"vac":true,"version":"7757534","steam_id":85568392924469990,"keywords":["nocrits","nodmgspread","payload","uncletopia"],"game_id":440,"stv_port":27026,"stv_name":"Uncletopia | Frankfurt | 2 | All Maps | STV","players":[{"user_id":202,"name":"Ptahotep","steam_id":76561198008708645,"connected_time":308000000000,"state":"active","ping":64},{"user_id":206,"name":"Frask","steam_id":76561198021344975,"connected_time":267000000000,"state":"active","ping":72},{"user_id":201,"name":"Oceanic | tuesday maybe","steam_id":76561197979741827,"connected_time":390000000000,"state":"active","ping":61},{"user_id":183,"name":"etc","steam_id":76561197998394797,"connected_time":1438000000000,"state":"active","ping":54},{"user_id":207,"name":"skYle | joe +.+Íúù","steam_id":76561197981047264,"connected_time":260000000000,"state":"active","ping":43},{"user_id":124,"name":"yush","steam_id":76561198121688934,"connected_time":5553000000000,"state":"active","ping":75},{"user_id":168,"name":"WHUSSKEY","steam_id":76561198137827441,"connected_time":2365000000000,"state":"active","ping":66},{"user_id":188,"name":"B0r–µ–∞l","steam_id":76561198268369013,"connected_time":909000000000,"state":"active","ping":76},{"user_id":193,"name":"GIA","steam_id":76561199216124328,"connected_time":818000000000,"state":"active","ping":71},{"user_id":208,"name":"quickfast","steam_id":76561199438900919,"connected_time":250000000000,"state":"active","ping":60},{"user_id":143,"name":"‚ú™ qua ‚ú™","steam_id":76561198066408333,"connected_time":3868000000000,"state":"active","ping":73},{"user_id":190,"name":"–õ—ë—à–∞","steam_id":76561198284467812,"connected_time":877000000000,"state":"active","ping":87},{"user_id":181,"name":"niaerniopawrjnko","steam_id":76561198030408772,"connected_time":1640000000000,"state":"active","ping":55},{"user_id":197,"name":"Chambersite","steam_id":76561198197022399,"connected_time":779000000000,"state":"active","ping":62},{"user_id":191,"name":"Sgreff","steam_id":76561198036304365,"connected_time":861000000000,"state":"active","ping":59},{"user_id":52,"name":"Hoks","steam_id":76561198126442242,"connected_time":12078000000000,"state":"active","ping":120},{"user_id":173,"name":"A fish and sea","steam_id":76561198194745827,"connected_time":2253000000000,"state":"active","ping":52},{"user_id":54,"name":"I was good before.","steam_id":76561198187045217,"connected_time":12069000000000,"state":"active","ping":80},{"user_id":174,"name":"DELTA","steam_id":76561198208237017,"connected_time":2117000000000,"state":"active","ping":83},{"user_id":194,"name":"Pepperonipizza","steam_id":76561198044471610,"connected_time":803000000000,"state":"active","ping":73},{"user_id":211,"name":"LordTrap.exe","steam_id":76561198318089716,"connected_time":241000000000,"state":"active","ping":62},{"user_id":176,"name":"Fran","steam_id":76561199070516960,"connected_time":1989000000000,"state":"active","ping":65},{"user_id":217,"name":"dafydd","steam_id":76561198052200325,"connected_time":129000000000,"state":"active","ping":88},{"user_id":200,"name":"Dr. Uberschwein","steam_id":76561198111367431,"connected_time":580000000000,"state":"active","ping":83}]},{"server_id":308,"name":"Uncletopia | Frankfurt | 3 | All Maps","name_short":"frk-3","host":"frk-1.de.uncletopia.com","port":27035,"enabled":true,"region":"eu","cc":"de","latitude":50.110924,"longitude":8.682127,"reserved":0,"last_update":"0001-01-01T00:00:00Z","name_a2s":"Uncletopia | Frankfurt | 3 | All Maps","protocol":17,"map":"pl_pier","folder":"tf","game":"Team Fortress","app_id":440,"player_count":24,"max_players":24,"Bots":0,"server_type":"Dedicated","server_os":"Linux","password":true,"vac":true,"version":"7757534","steam_id":85568392924504274,"keywords":["nocrits","nodmgspread","payload","uncletopia"],"game_id":440,"stv_port":27036,"stv_name":"Uncletopia | Frankfurt | 3 | All Maps | STV","players":[{"user_id":515,"name":"ChaosMaster","steam_id":76561198360983155,"connected_time":615000000000,"state":"active","ping":64},{"user_id":456,"name":"Hexagon","steam_id":76561198151205758,"connected_time":5538000000000,"state":"active","ping":52},{"user_id":484,"name":"medium rare chicken enjoyer","steam_id":76561198050214002,"connected_time":3571000000000,"state":"active","ping":60},{"user_id":489,"name":"Francis Crabb","steam_id":76561198259082154,"connected_time":3428000000000,"state":"active","ping":100},{"user_id":521,"name":"sareena","steam_id":76561198810194062,"connected_time":210000000000,"state":"active","ping":75},{"user_id":497,"name":"Winter Guy","steam_id":76561198326593298,"connected_time":3304000000000,"state":"active","ping":43},{"user_id":486,"name":"Beni ü¶ßüçå","steam_id":76561198011340227,"connected_time":3512000000000,"state":"active","ping":63},{"user_id":505,"name":"MrEru1","steam_id":76561198105034495,"connected_time":2137000000000,"state":"active","ping":75},{"user_id":517,"name":"blindcinema_","steam_id":76561198026908105,"connected_time":572000000000,"state":"active","ping":60},{"user_id":506,"name":"jaunas blokas","steam_id":76561198082605002,"connected_time":2130000000000,"state":"active","ping":84},{"user_id":507,"name":"Senzorei","steam_id":76561198041929068,"connected_time":2119000000000,"state":"active","ping":94},{"user_id":488,"name":"dopamine enjoyer","steam_id":76561198140591983,"connected_time":3465000000000,"state":"active","ping":109},{"user_id":513,"name":"I am piss man","steam_id":76561198039209685,"connected_time":1203000000000,"state":"active","ping":55},{"user_id":512,"name":"Rambi","steam_id":76561199058078505,"connected_time":1463000000000,"state":"active","ping":152},{"user_id":473,"name":"Paulie Meatballie","steam_id":76561198094993151,"connected_time":4391000000000,"state":"active","ping":59},{"user_id":470,"name":"hourglass","steam_id":76561198166613799,"connected_time":4501000000000,"state":"active","ping":92},{"user_id":491,"name":"Gardvord","steam_id":76561198120715753,"connected_time":3403000000000,"state":"active","ping":81},{"user_id":479,"name":"REN","steam_id":76561198000596385,"connected_time":4100000000000,"state":"active","ping":63},{"user_id":518,"name":"I wanna be a lassie","steam_id":76561198131924713,"connected_time":560000000000,"state":"active","ping":58},{"user_id":508,"name":"personƒÅ≈æs","steam_id":76561198099989458,"connected_time":2114000000000,"state":"active","ping":64},{"user_id":509,"name":"zaleek69","steam_id":76561198058877595,"connected_time":2067000000000,"state":"active","ping":62},{"user_id":520,"name":"bigwish | bmod.tf","steam_id":76561197997859723,"connected_time":318000000000,"state":"active","ping":77},{"user_id":519,"name":"_Shkoot","steam_id":76561198318170398,"connected_time":433000000000,"state":"active","ping":51},{"user_id":478,"name":"Mr. Mundy","steam_id":76561198132008918,"connected_time":4237000000000,"state":"active","ping":74}]},{"server_id":309,"name":"Uncletopia | Frankfurt | 4 | All Maps","name_short":"frk-4","host":"frk-1.de.uncletopia.com","port":27045,"enabled":true,"region":"eu","cc":"de","latitude":50.110924,"longitude":8.682127,"reserved":0,"last_update":"0001-01-01T00:00:00Z","name_a2s":"Uncletopia | Frankfurt | 4 | All Maps","protocol":17,"map":"cp_process_final","folder":"tf","game":"Team Fortress","app_id":440,"player_count":24,"max_players":24,"Bots":0,"server_type":"Dedicated","server_os":"Linux","password":true,"vac":true,"version":"7757534","steam_id":85568392924504275,"keywords":["cp","nocrits","nodmgspread","uncletopia"],"game_id":440,"stv_port":27046,"stv_name":"Uncletopia | Frankfurt | 4 | All Maps | STV","players":[{"user_id":194,"name":"Edison Trent","steam_id":76561198067133145,"connected_time":1391000000000,"state":"active","ping":53},{"user_id":211,"name":"HEXXXXXXXXERII","steam_id":76561198149967445,"connected_time":410000000000,"state":"active","ping":46},{"user_id":208,"name":"TryTane","steam_id":76561198133293111,"connected_time":544000000000,"state":"active","ping":47},{"user_id":204,"name":"mimi","steam_id":76561198060648946,"connected_time":929000000000,"state":"active","ping":59},{"user_id":94,"name":"Fat Pigeon","steam_id":76561198817940142,"connected_time":9612000000000,"state":"active","ping":59},{"user_id":196,"name":"revengechicken2","steam_id":76561199051205627,"connected_time":1310000000000,"state":"active","ping":76},{"user_id":185,"name":"Sparky","steam_id":76561198036754195,"connected_time":1501000000000,"state":"active","ping":44},{"user_id":212,"name":"Layton","steam_id":76561198087221314,"connected_time":399000000000,"state":"active","ping":45},{"user_id":207,"name":"JoueurFran√ßais","steam_id":76561198108081068,"connected_time":611000000000,"state":"active","ping":67},{"user_id":190,"name":"Egor Pomidor","steam_id":76561199175688390,"connected_time":1436000000000,"state":"active","ping":75},{"user_id":213,"name":"¬ªMr. dnb¬´","steam_id":76561198045589570,"connected_time":397000000000,"state":"active","ping":79},{"user_id":167,"name":"‚ò£Strale‚ò£","steam_id":76561198026578820,"connected_time":2714000000000,"state":"active","ping":65},{"user_id":205,"name":"MSHA","steam_id":76561199099622202,"connected_time":879000000000,"state":"active","ping":87},{"user_id":146,"name":"cancer mouse","steam_id":76561198075068529,"connected_time":5063000000000,"state":"active","ping":56},{"user_id":206,"name":"daev","steam_id":76561198060060998,"connected_time":649000000000,"state":"active","ping":76},{"user_id":128,"name":"PizzaPete123","steam_id":76561198089478290,"connected_time":6166000000000,"state":"active","ping":53},{"user_id":210,"name":"goosebread358","steam_id":76561199261159640,"connected_time":524000000000,"state":"active","ping":96},{"user_id":193,"name":"Almaynax","steam_id":76561198039757994,"connected_time":1401000000000,"state":"active","ping":90},{"user_id":168,"name":"goodguydragg","steam_id":76561198305104891,"connected_time":2706000000000,"state":"active","ping":60},{"user_id":214,"name":"Modmelon","steam_id":76561198813630650,"connected_time":366000000000,"state":"active","ping":68},{"user_id":75,"name":"Welder","steam_id":76561198355300561,"connected_time":11322000000000,"state":"active","ping":68},{"user_id":215,"name":"BŒ£NZOIC","steam_id":76561198875665995,"connected_time":356000000000,"state":"active","ping":75},{"user_id":216,"name":"redditsexdefender","steam_id":76561198255904077,"connected_time":349000000000,"state":"active","ping":62},{"user_id":203,"name":"ArikMor","steam_id":76561199124472513,"connected_time":1028000000000,"state":"active","ping":181}]},{"server_id":310,"name":"Uncletopia | Frankfurt | 5 | All Maps","name_short":"frk-5","host":"frk-1.de.uncletopia.com","port":27055,"enabled":true,"region":"eu","cc":"de","latitude":50.110924,"longitude":8.682127,"reserved":0,"last_update":"0001-01-01T00:00:00Z","name_a2s":"Uncletopia | Frankfurt | 5 | All Maps","protocol":17,"map":"pl_barnblitz","folder":"tf","game":"Team Fortress","app_id":440,"player_count":24,"max_players":24,"Bots":0,"server_type":"Dedicated","server_os":"Linux","password":true,"vac":true,"version":"7757534","steam_id":85568392924504277,"keywords":["nocrits","nodmgspread","payload","uncletopia"],"game_id":440,"stv_port":27056,"stv_name":"Uncletopia | Frankfurt | 5 | All Maps | STV","players":[{"user_id":338,"name":"Luna","steam_id":76561199140738350,"connected_time":732000000000,"state":"active","ping":68},{"user_id":354,"name":"Toast","steam_id":76561198073226265,"connected_time":120000000000,"state":"active","ping":90},{"user_id":337,"name":"Magica","steam_id":76561198965200359,"connected_time":792000000000,"state":"active","ping":60},{"user_id":351,"name":"Clicking","steam_id":76561199360189459,"connected_time":285000000000,"state":"active","ping":76},{"user_id":282,"name":"night.s","steam_id":76561198326287823,"connected_time":3820000000000,"state":"active","ping":75},{"user_id":334,"name":"Ozzak","steam_id":76561198353664262,"connected_time":1031000000000,"state":"active","ping":45},{"user_id":355,"name":"BilaL","steam_id":76561199043740497,"connected_time":103000000000,"state":"active","ping":70},{"user_id":357,"name":"Hussite","steam_id":76561199293036742,"connected_time":63000000000,"state":"active","ping":56},{"user_id":302,"name":"ALARM","steam_id":76561198120686521,"connected_time":2964000000000,"state":"active","ping":52},{"user_id":358,"name":"Ardbeg","steam_id":76561197973483985,"connected_time":39000000000,"state":"active","ping":65},{"user_id":305,"name":"pond","steam_id":76561198214849363,"connected_time":2788000000000,"state":"active","ping":80},{"user_id":346,"name":"Sneaky boi","steam_id":76561199195985387,"connected_time":543000000000,"state":"active","ping":131},{"user_id":306,"name":"player","steam_id":76561198054474684,"connected_time":2740000000000,"state":"active","ping":75},{"user_id":333,"name":"SIR MEPHEDRONE","steam_id":76561198302623594,"connected_time":1061000000000,"state":"active","ping":93},{"user_id":353,"name":"gjhkgfkjfh","steam_id":76561198031181349,"connected_time":179000000000,"state":"active","ping":85},{"user_id":359,"name":"Spooksi45","steam_id":76561198314144073,"connected_time":35000000000,"state":"spawning","ping":74},{"user_id":330,"name":"Jughead","steam_id":76561198000355410,"connected_time":1184000000000,"state":"active","ping":69},{"user_id":349,"name":"Kowalski","steam_id":76561198004218740,"connected_time":411000000000,"state":"active","ping":74},{"user_id":310,"name":"—Å—ã–Ω_—Å—Ç–µ–ø–µ–π256","steam_id":76561198129314304,"connected_time":2557000000000,"state":"active","ping":138},{"user_id":360,"name":"No,Why?","steam_id":76561198888755969,"connected_time":30000000000,"state":"spawning","ping":77},{"user_id":341,"name":"Speedyjoestar","steam_id":76561198907130963,"connected_time":663000000000,"state":"active","ping":86},{"user_id":321,"name":"Avarus","steam_id":76561198040324008,"connected_time":1712000000000,"state":"active","ping":70},{"user_id":342,"name":"MeBandae","steam_id":76561198910770432,"connected_time":659000000000,"state":"active","ping":100},{"user_id":345,"name":"The Wolf Leader","steam_id":76561198038007462,"connected_time":640000000000,"state":"active","ping":69}]},{"server_id":311,"name":"Uncletopia | Frankfurt | 6 | All Maps","name_short":"frk-6","host":"frk-1.de.uncletopia.com","port":27065,"enabled":true,"region":"eu","cc":"de","latitude":50.110924,"longitude":8.682127,"reserved":0,"last_update":"0001-01-01T00:00:00Z","name_a2s":"Uncletopia | Frankfurt | 6 | All Maps","protocol":17,"map":"pl_borneo","folder":"tf","game":"Team Fortress","app_id":440,"player_count":24,"max_players":24,"Bots":0,"server_type":"Dedicated","server_os":"Linux","password":true,"vac":true,"version":"7757534","steam_id":85568392924504278,"keywords":["nocrits","nodmgspread","payload","uncletopia"],"game_id":440,"stv_port":27066,"stv_name":"Uncletopia | Frankfurt | 6 | All Maps | STV","players":[{"user_id":138,"name":"G6 sherlock","steam_id":76561198802967796,"connected_time":417000000000,"state":"active","ping":118},{"user_id":115,"name":"Dolcelatte","steam_id":76561198038501770,"connected_time":2080000000000,"state":"active","ping":56},{"user_id":61,"name":"citronous","steam_id":76561198093290934,"connected_time":4537000000000,"state":"active","ping":57},{"user_id":110,"name":"ChefMike","steam_id":76561198414034069,"connected_time":2468000000000,"state":"active","ping":162},{"user_id":52,"name":"Bat in a thousand","steam_id":76561198320506848,"connected_time":5555000000000,"state":"active","ping":58},{"user_id":53,"name":"AwZooom","steam_id":76561198154061149,"connected_time":5553000000000,"state":"active","ping":41},{"user_id":98,"name":"Vollys","steam_id":76561198018077773,"connected_time":3032000000000,"state":"active","ping":61},{"user_id":84,"name":"Ducky[WADZ]üê§","steam_id":76561198060341245,"connected_time":3463000000000,"state":"active","ping":73},{"user_id":65,"name":"Dasmonson","steam_id":76561199029771850,"connected_time":4014000000000,"state":"active","ping":129},{"user_id":87,"name":"estrogen deliver","steam_id":76561198190259726,"connected_time":3299000000000,"state":"active","ping":85},{"user_id":122,"name":"Clamor_","steam_id":76561198104368295,"connected_time":1746000000000,"state":"active","ping":73},{"user_id":135,"name":"Ragles","steam_id":76561198132454783,"connected_time":642000000000,"state":"active","ping":73},{"user_id":117,"name":"KLAMA  ‚ù§","steam_id":76561198351549661,"connected_time":1990000000000,"state":"active","ping":69},{"user_id":132,"name":"gfjhsdf","steam_id":76561198136736426,"connected_time":924000000000,"state":"active","ping":60},{"user_id":137,"name":"System","steam_id":76561199442503973,"connected_time":618000000000,"state":"active","ping":52},{"user_id":109,"name":"After8","steam_id":76561198090750865,"connected_time":2492000000000,"state":"active","ping":66},{"user_id":85,"name":"a fresh pan of lemon squares","steam_id":76561197984071376,"connected_time":3405000000000,"state":"active","ping":77},{"user_id":111,"name":"M4R1O","steam_id":76561198050528464,"connected_time":2437000000000,"state":"active","ping":60},{"user_id":113,"name":"generic alias","steam_id":76561198271607226,"connected_time":2200000000000,"state":"active","ping":100},{"user_id":123,"name":"R!not","steam_id":76561197986328786,"connected_time":1741000000000,"state":"active","ping":52},{"user_id":134,"name":"rizook","steam_id":76561198055010039,"connected_time":683000000000,"state":"active","ping":65},{"user_id":141,"name":"Mr. Business","steam_id":76561199059307109,"connected_time":148000000000,"state":"active","ping":60},{"user_id":130,"name":"RedFog","steam_id":76561198284713081,"connected_time":1374000000000,"state":"active","ping":45},{"user_id":140,"name":"glow","steam_id":76561198086654069,"connected_time":225000000000,"state":"active","ping":75}]},{"server_id":23,"name":"Uncletopia | Frankfurt | 7 | Stopwatch Beta","name_short":"frk-7","host":"frk-1.de.uncletopia.com","port":27075,"enabled":true,"region":"eu","cc":"de","latitude":50.110924,"longitude":8.682127,"reserved":0,"last_update":"0001-01-01T00:00:00Z","name_a2s":"Uncletopia | Frankfurt | 7 | Stopwatch Beta","protocol":17,"map":"pl_swiftwater_final1","folder":"tf","game":"Team Fortress","app_id":440,"player_count":9,"max_players":24,"Bots":0,"server_type":"Dedicated","server_os":"Linux","password":true,"vac":true,"version":"7757534","steam_id":85568392924742827,"keywords":["nocrits","nodmgspread","payload","uncletopia"],"game_id":440,"stv_port":27076,"stv_name":"Uncletopia | Frankfurt | 7 | Stopwatch Beta | STV","players":[{"user_id":36,"name":"fried","steam_id":76561198307522022,"connected_time":749000000000,"state":"active","ping":50},{"user_id":13,"name":"Putramandela","steam_id":76561199373932400,"connected_time":6080000000000,"state":"spawning","ping":315},{"user_id":37,"name":"JO√ÉO MIGUEL","steam_id":76561198066297489,"connected_time":546000000000,"state":"spawning","ping":79},{"user_id":28,"name":"RedPyro2009","steam_id":76561198935824363,"connected_time":2216000000000,"state":"spawning","ping":65},{"user_id":31,"name":"Osmo","steam_id":76561199286764992,"connected_time":1794000000000,"state":"spawning","ping":79},{"user_id":32,"name":"Mozzaza","steam_id":76561198156316111,"connected_time":1594000000000,"state":"spawning","ping":144},{"user_id":17,"name":"CODSWOLOP","steam_id":76561199114598660,"connected_time":5467000000000,"state":"spawning","ping":121},{"user_id":38,"name":"gaz","steam_id":76561198843714742,"connected_time":240000000000,"state":"spawning","ping":90},{"user_id":39,"name":"RAONICALIAS","steam_id":76561198847048146,"connected_time":71000000000,"state":"active","ping":74}]},{"server_id":24,"name":"Uncletopia | Frankfurt | 8 | Community","name_short":"frk-8","host":"frk-1.de.uncletopia.com","port":27085,"enabled":true,"region":"eu","cc":"de","latitude":50.110924,"longitude":8.682127,"reserved":0,"last_update":"0001-01-01T00:00:00Z","name_a2s":"Uncletopia | Frankfurt | 8 | Community","protocol":17,"map":"workshop/cp_hazyfort_rc6.ugc1365963729","folder":"tf","game":"Team Fortress","app_id":440,"player_count":0,"max_players":24,"Bots":0,"server_type":"Dedicated","server_os":"Linux","password":true,"vac":true,"version":"7757534","steam_id":85568392924742828,"keywords":["cp","nocrits","nodmgspread","uncletopia"],"game_id":440,"stv_port":27086,"stv_name":"Uncletopia | Frankfurt | 8 | Community | STV","players":null},{"server_id":202,"name":"Uncletopia | Hong Kong | 1 | All Maps","name_short":"hgk-1","host":"hgk-1.hk.uncletopia.com","port":27015,"enabled":true,"region":"asia","cc":"hk","latitude":22.302711,"longitude":114.177216,"reserved":0,"last_update":"0001-01-01T00:00:00Z","name_a2s":"Uncletopia | Hong Kong | 1 | All Maps","protocol":17,"map":"koth_highpass","folder":"tf","game":"Team Fortress","app_id":440,"player_count":0,"max_players":24,"Bots":0,"server_type":"Dedicated","server_os":"Linux","password":true,"vac":true,"version":"7757534","steam_id":85568392924494504,"keywords":["cp","nocrits","nodmgspread","uncletopia"],"game_id":440,"stv_port":27016,"stv_name":"Uncletopia | Hong Kong | 1 | All Maps | STV","players":null},{"server_id":1,"name":"Uncletopia | Los Angeles | 1 | All Maps","name_short":"lax-1","host":"lax-1.us.uncletopia.com","port":27015,"enabled":true,"region":"us-west","cc":"us","latitude":33.94279,"longitude":-118.41004,"reserved":0,"last_update":"0001-01-01T00:00:00Z","name_a2s":"Uncletopia | Los Angeles | 1 | All Maps","protocol":17,"map":"pl_upward","folder":"tf","game":"Team Fortress","app_id":440,"player_count":7,"max_players":24,"Bots":0,"server_type":"Dedicated","server_os":"Linux","password":true,"vac":true,"version":"7757534","steam_id":85568392924469991,"keywords":["nocrits","nodmgspread","payload","uncletopia"],"game_id":440,"stv_port":27016,"stv_name":"Uncletopia | Los Angeles | 1 | All Maps | STV","players":[{"user_id":23,"name":"benhameen","steam_id":76561198446837615,"connected_time":252000000000,"state":"active","ping":50},{"user_id":13,"name":"flycargodash1010","steam_id":76561199456589841,"connected_time":1660000000000,"state":"active","ping":56},{"user_id":18,"name":"CrackedSanity","steam_id":76561198279841251,"connected_time":1247000000000,"state":"active","ping":44},{"user_id":11,"name":"Bingsoy = Messiah","steam_id":76561199034585188,"connected_time":2264000000000,"state":"active","ping":66},{"user_id":25,"name":"berserker_tf2 ttv","steam_id":76561198303464488,"connected_time":187000000000,"state":"active","ping":67},{"user_id":24,"name":"DopeyTwink","steam_id":76561199326170824,"connected_time":217000000000,"state":"active","ping":98},{"user_id":22,"name":"motherfucker 2.0","steam_id":76561198141189209,"connected_time":556000000000,"state":"active","ping":62}]},{"server_id":112,"name":"Uncletopia | Los Angeles | 2 | All Maps","name_short":"lax-2","host":"lax-1.us.uncletopia.com","port":27025,"enabled":true,"region":"us-west","cc":"us","latitude":33.94279,"longitude":-118.41004,"reserved":0,"last_update":"0001-01-01T00:00:00Z","name_a2s":"Uncletopia | Los Angeles | 2 | All Maps","protocol":17,"map":"koth_cascade","folder":"tf","game":"Team Fortress","app_id":440,"player_count":0,"max_players":24,"Bots":0,"server_type":"Dedicated","server_os":"Linux","password":true,"vac":true,"version":"7757534","steam_id":85568392924469992,"keywords":["cp","nocrits","nodmgspread","uncletopia"],"game_id":440,"stv_port":27026,"stv_name":"Uncletopia | Los Angeles | 2 | All Maps | STV","players":null},{"server_id":324,"name":"Uncletopia | Los Angeles | 3 | All Maps","name_short":"lax-3","host":"lax-1.us.uncletopia.com","port":27035,"enabled":true,"region":"us-west","cc":"us","latitude":33.94279,"longitude":-118.41004,"reserved":0,"last_update":"0001-01-01T00:00:00Z","name_a2s":"Uncletopia | Los Angeles | 3 | All Maps","protocol":17,"map":"pl_pier","folder":"tf","game":"Team Fortress","app_id":440,"player_count":0,"max_players":24,"Bots":0,"server_type":"Dedicated","server_os":"Linux","password":true,"vac":true,"version":"7757534","steam_id":85568392924510198,"keywords":["nocrits","nodmgspread","payload","uncletopia"],"game_id":440,"stv_port":27036,"stv_name":"Uncletopia | Los Angeles | 3 | All Maps | STV","players":null},{"server_id":25,"name":"Uncletopia | Los Angeles | 4 | Stopwatch Beta","name_short":"lax-4","host":"lax-1.us.uncletopia.com","port":27045,"enabled":true,"region":"us-west","cc":"us","latitude":33.94279,"longitude":-118.41004,"reserved":0,"last_update":"0001-01-01T00:00:00Z","name_a2s":"Uncletopia | Los Angeles | 4 | Stopwatch Beta","protocol":17,"map":"pl_frontier_final","folder":"tf","game":"Team Fortress","app_id":440,"player_count":0,"max_players":24,"Bots":0,"server_type":"Dedicated","server_os":"Linux","password":true,"vac":true,"version":"7757534","steam_id":85568392924510199,"keywords":["nocrits","nodmgspread","payload","uncletopia"],"game_id":440,"stv_port":27046,"stv_name":"Uncletopia | Los Angeles | 4 | Stopwatch Beta | STV","players":null},{"server_id":11,"name":"Uncletopia | London | 1 | All Maps","name_short":"lon-1","host":"lon-1.uk.uncletopia.com","port":27015,"enabled":true,"region":"eu","cc":"gb","latitude":51.509865,"longitude":-0.118092,"reserved":0,"last_update":"0001-01-01T00:00:00Z","name_a2s":"Uncletopia | London | 1 | All Maps","protocol":17,"map":"pl_barnblitz","folder":"tf","game":"Team Fortress","app_id":440,"player_count":24,"max_players":24,"Bots":0,"server_type":"Dedicated","server_os":"Linux","password":true,"vac":true,"version":"7757534","steam_id":85568392924367362,"keywords":["nocrits","nodmgspread","payload","uncletopia"],"game_id":440,"stv_port":27016,"stv_name":"Uncletopia | London | 1 | All Maps | STV","players":[{"user_id":238,"name":"Son Goku","steam_id":76561199383437138,"connected_time":7051000000000,"state":"active","ping":116},{"user_id":298,"name":"MrXtr","steam_id":76561198966247397,"connected_time":1146000000000,"state":"active","ping":71},{"user_id":265,"name":"Below average Pybro","steam_id":76561198848650365,"connected_time":4845000000000,"state":"active","ping":118},{"user_id":306,"name":"Eternal_FAM","steam_id":76561198043013744,"connected_time":671000000000,"state":"active","ping":45},{"user_id":273,"name":"Hey, I¬¥m Andy!","steam_id":76561198060337777,"connected_time":4028000000000,"state":"active","ping":83},{"user_id":316,"name":"Tort","steam_id":76561198329646769,"connected_time":78000000000,"state":"active","ping":52},{"user_id":264,"name":"Dwevy","steam_id":76561198090379437,"connected_time":4865000000000,"state":"active","ping":46},{"user_id":286,"name":"Flash","steam_id":76561198067379855,"connected_time":1805000000000,"state":"active","ping":48},{"user_id":314,"name":"TheFlames","steam_id":76561198179314694,"connected_time":142000000000,"state":"active","ping":62},{"user_id":304,"name":"froggy","steam_id":76561198064115286,"connected_time":703000000000,"state":"active","ping":75},{"user_id":288,"name":"Atypical‚ô±Rila","steam_id":76561198244277732,"connected_time":1740000000000,"state":"active","ping":44},{"user_id":305,"name":"doopsuiker","steam_id":76561198025916703,"connected_time":697000000000,"state":"active","ping":71},{"user_id":307,"name":"·†å·†å ·†å ·†å ·†å ·†å ·†å·†å","steam_id":76561198139659854,"connected_time":670000000000,"state":"active","ping":82},{"user_id":308,"name":"poshtoo @_@","steam_id":76561198106182078,"connected_time":656000000000,"state":"active","ping":107},{"user_id":289,"name":"IROP","steam_id":76561198927764458,"connected_time":1721000000000,"state":"active","ping":85},{"user_id":309,"name":"benifis163","steam_id":76561198420973492,"connected_time":650000000000,"state":"active","ping":114},{"user_id":282,"name":"Fred","steam_id":76561198107137362,"connected_time":2823000000000,"state":"active","ping":49},{"user_id":310,"name":"Daniel Day-Lewis","steam_id":76561198147249160,"connected_time":649000000000,"state":"active","ping":110},{"user_id":272,"name":"dec","steam_id":76561198009660168,"connected_time":4135000000000,"state":"active","ping":59},{"user_id":312,"name":"giggler","steam_id":76561198203486600,"connected_time":602000000000,"state":"active","ping":52},{"user_id":296,"name":"VEH-DEH-VEH","steam_id":76561198010978989,"connected_time":1366000000000,"state":"active","ping":71},{"user_id":280,"name":"scouser1987","steam_id":76561198118844384,"connected_time":3129000000000,"state":"active","ping":88},{"user_id":313,"name":"setsunaamag√º√ßisteyen","steam_id":76561198118407436,"connected_time":219000000000,"state":"active","ping":45},{"user_id":297,"name":"Desj","steam_id":76561198114212636,"connected_time":1155000000000,"state":"active","ping":56}]},{"server_id":114,"name":"Uncletopia | London | 2 | All Maps","name_short":"lon-2","host":"lon-1.uk.uncletopia.com","port":27025,"enabled":true,"region":"eu","cc":"gb","latitude":51.509865,"longitude":-0.118092,"reserved":0,"last_update":"0001-01-01T00:00:00Z","name_a2s":"Uncletopia | London | 2 | All Maps","protocol":17,"map":"koth_highpass","folder":"tf","game":"Team Fortress","app_id":440,"player_count":0,"max_players":24,"Bots":0,"server_type":"Dedicated","server_os":"Linux","password":true,"vac":true,"version":"7757534","steam_id":85568392924470941,"keywords":["cp","nocrits","nodmgspread","uncletopia"],"game_id":440,"stv_port":27026,"stv_name":"Uncletopia | London | 2 | All Maps | STV","players":null},{"server_id":320,"name":"Uncletopia | London | 3 | All Maps","name_short":"lon-3","host":"lon-1.uk.uncletopia.com","port":27035,"enabled":true,"region":"eu","cc":"gb","latitude":51.509865,"longitude":-0.118092,"reserved":0,"last_update":"0001-01-01T00:00:00Z","name_a2s":"Uncletopia | London | 3 | All Maps","protocol":17,"map":"pl_borneo","folder":"tf","game":"Team Fortress","app_id":440,"player_count":22,"max_players":24,"Bots":0,"server_type":"Dedicated","server_os":"Linux","password":true,"vac":true,"version":"7757534","steam_id":85568392924510192,"keywords":["nocrits","nodmgspread","payload","uncletopia"],"game_id":440,"stv_port":27036,"stv_name":"Uncletopia | London | 3 | All Maps | STV","players":[{"user_id":403,"name":"Espa√±aa","steam_id":76561198879587832,"connected_time":1803000000000,"state":"active","ping":79},{"user_id":398,"name":"HanSwolo","steam_id":76561198137223316,"connected_time":1909000000000,"state":"active","ping":152},{"user_id":426,"name":"ChrisKyleFan2014","steam_id":76561198061548069,"connected_time":638000000000,"state":"active","ping":148},{"user_id":434,"name":"FairlyFatFungus","steam_id":76561199152828854,"connected_time":321000000000,"state":"active","ping":53},{"user_id":415,"name":"Topia","steam_id":76561198163571788,"connected_time":1190000000000,"state":"active","ping":104},{"user_id":428,"name":"Guy with squares as username","steam_id":76561198269524918,"connected_time":489000000000,"state":"active","ping":56},{"user_id":399,"name":"Michael","steam_id":76561198003146906,"connected_time":1906000000000,"state":"active","ping":46},{"user_id":408,"name":"Proud Jojo Fan #TF2SP","steam_id":76561198847327216,"connected_time":1586000000000,"state":"active","ping":74},{"user_id":422,"name":"rein","steam_id":76561198067856323,"connected_time":879000000000,"state":"active","ping":95},{"user_id":433,"name":"nky","steam_id":76561198086229832,"connected_time":375000000000,"state":"active","ping":62},{"user_id":421,"name":"Leonader","steam_id":76561198210711707,"connected_time":974000000000,"state":"active","ping":75},{"user_id":423,"name":"Solu","steam_id":76561198054652468,"connected_time":874000000000,"state":"active","ping":57},{"user_id":400,"name":"loudpisser","steam_id":76561198078802110,"connected_time":1895000000000,"state":"active","ping":155},{"user_id":391,"name":"quak","steam_id":76561198053928976,"connected_time":2874000000000,"state":"active","ping":96},{"user_id":436,"name":"Rezkey","steam_id":76561198206079048,"connected_time":288000000000,"state":"active","ping":59},{"user_id":437,"name":"WinsomeYapper9","steam_id":76561199275285546,"connected_time":248000000000,"state":"active","ping":110},{"user_id":431,"name":"X45Y","steam_id":76561198112534025,"connected_time":460000000000,"state":"active","ping":58},{"user_id":390,"name":"Circular","steam_id":76561198001536710,"connected_time":2964000000000,"state":"active","ping":45},{"user_id":388,"name":"dorthyhy","steam_id":76561198062578399,"connected_time":3115000000000,"state":"active","ping":51},{"user_id":432,"name":"83TB of Genshin Impact hentai","steam_id":76561198329640236,"connected_time":411000000000,"state":"active","ping":46},{"user_id":393,"name":"WiiSportKing","steam_id":76561198114139081,"connected_time":2287000000000,"state":"active","ping":58},{"user_id":406,"name":"golem","steam_id":76561198355040593,"connected_time":1792000000000,"state":"active","ping":126}]},{"server_id":321,"name":"Uncletopia | London | 4 | All Maps","name_short":"lon-4","host":"lon-1.uk.uncletopia.com","port":27045,"enabled":true,"region":"eu","cc":"gb","latitude":51.509865,"longitude":-0.118092,"reserved":0,"last_update":"0001-01-01T00:00:00Z","name_a2s":"Uncletopia | London | 4 | All Maps","protocol":17,"map":"ctf_2fort","folder":"tf","game":"Team Fortress","app_id":440,"player_count":0,"max_players":24,"Bots":0,"server_type":"Dedicated","server_os":"Linux","password":true,"vac":true,"version":"7757534","steam_id":85568392924510193,"keywords":["ctf","nocrits","nodmgspread","uncletopia"],"game_id":440,"stv_port":27046,"stv_name":"Uncletopia | London | 4 | All Maps | STV","players":null},{"server_id":21,"name":"Uncletopia | London | 5 | All Maps","name_short":"lon-5","host":"lon-1.uk.uncletopia.com","port":27055,"enabled":true,"region":"eu","cc":"gb","latitude":51.509865,"longitude":-0.118092,"reserved":0,"last_update":"0001-01-01T00:00:00Z","name_a2s":"Uncletopia | London | 5 | All Maps","protocol":17,"map":"cp_powerhouse","folder":"tf","game":"Team Fortress","app_id":440,"player_count":0,"max_players":24,"Bots":0,"server_type":"Dedicated","server_os":"Linux","password":true,"vac":true,"version":"7757534","steam_id":85568392924742829,"keywords":["cp","nocrits","nodmgspread","uncletopia"],"game_id":440,"stv_port":27056,"stv_name":"Uncletopia | London | 5 | All Maps | STV","players":null},{"server_id":22,"name":"Uncletopia | London | 6 | All Maps","name_short":"lon-6","host":"lon-1.uk.uncletopia.com","port":27065,"enabled":true,"region":"eu","cc":"gb","latitude":51.509865,"longitude":-0.118092,"reserved":0,"last_update":"0001-01-01T00:00:00Z","name_a2s":"Uncletopia | London | 6 | All Maps","protocol":17,"map":"koth_cascade","folder":"tf","game":"Team Fortress","app_id":440,"player_count":0,"max_players":24,"Bots":0,"server_type":"Dedicated","server_os":"Linux","password":true,"vac":true,"version":"7757534","steam_id":85568392924742830,"keywords":["cp","nocrits","nodmgspread","uncletopia"],"game_id":440,"stv_port":27066,"stv_name":"Uncletopia | London | 6 | All Maps | STV","players":null},{"server_id":40,"name":"Uncletopia | London | 7 | No Payload","name_short":"lon-7","host":"lon-1.uk.uncletopia.com","port":27075,"enabled":true,"region":"eu","cc":"gb","latitude":51.509865,"longitude":-0.118092,"reserved":0,"last_update":"0001-01-01T00:00:00Z","name_a2s":"Uncletopia | London | 7 | No Payload","protocol":17,"map":"ctf_turbine","folder":"tf","game":"Team Fortress","app_id":440,"player_count":22,"max_players":24,"Bots":0,"server_type":"Dedicated","server_os":"Linux","password":true,"vac":true,"version":"7757534","steam_id":85568392924964314,"keywords":["ctf","nocrits","nodmgspread","uncletopia"],"game_id":440,"stv_port":27076,"stv_name":"Uncletopia | London | 7 | No Payload | STV","players":[{"user_id":124,"name":"razmerus","steam_id":76561198105569706,"connected_time":246000000000,"state":"active","ping":162},{"user_id":125,"name":"sentient milk carton","steam_id":76561199033896073,"connected_time":242000000000,"state":"active","ping":149},{"user_id":90,"name":"loge","steam_id":76561198046307460,"connected_time":1425000000000,"state":"active","ping":38},{"user_id":119,"name":"‡∂ûbominasus 2137  #SaveTF2","steam_id":76561198030062981,"connected_time":336000000000,"state":"active","ping":73},{"user_id":132,"name":"Halfact","steam_id":76561198001665765,"connected_time":110000000000,"state":"active","ping":86},{"user_id":94,"name":"Fus in Boots","steam_id":76561198053897722,"connected_time":1250000000000,"state":"active","ping":41},{"user_id":127,"name":"Strandeus","steam_id":76561199233935432,"connected_time":215000000000,"state":"active","ping":100},{"user_id":58,"name":"when snack become gore","steam_id":76561199217530426,"connected_time":4933000000000,"state":"active","ping":119},{"user_id":120,"name":"The pot-bellied hobgoblin","steam_id":76561199190918059,"connected_time":308000000000,"state":"active","ping":56},{"user_id":97,"name":"eidis","steam_id":76561198314954479,"connected_time":1132000000000,"state":"active","ping":113},{"user_id":72,"name":"M.Bou","steam_id":76561199097750260,"connected_time":3466000000000,"state":"active","ping":116},{"user_id":101,"name":"Queazied","steam_id":76561198799924414,"connected_time":993000000000,"state":"active","ping":112},{"user_id":126,"name":"Koi-Koi","steam_id":76561198045527771,"connected_time":239000000000,"state":"active","ping":55},{"user_id":131,"name":"PicklesTRT","steam_id":76561198053440288,"connected_time":131000000000,"state":"active","ping":168},{"user_id":129,"name":"KidsAreCheese","steam_id":76561198309686491,"connected_time":156000000000,"state":"active","ping":74},{"user_id":103,"name":"Ralouze","steam_id":76561198001782665,"connected_time":959000000000,"state":"active","ping":59},{"user_id":104,"name":"Peroxot","steam_id":76561198387927289,"connected_time":955000000000,"state":"active","ping":70},{"user_id":105,"name":"lant420","steam_id":76561198206673920,"connected_time":934000000000,"state":"active","ping":94},{"user_id":130,"name":"Nobaddy","steam_id":76561198037871007,"connected_time":149000000000,"state":"active","ping":79},{"user_id":59,"name":"FUKAYU","steam_id":76561198380484033,"connected_time":4766000000000,"state":"active","ping":50},{"user_id":33,"name":"fody_stak","steam_id":76561199473037280,"connected_time":6076000000000,"state":"active","ping":106},{"user_id":133,"name":"Xx_„Åà„Å™„Å™„ÇìxX69","steam_id":76561199427679148,"connected_time":74000000000,"state":"active","ping":75}]},{"server_id":41,"name":"Uncletopia | London | 8 | Community","name_short":"lon-8","host":"lon-1.uk.uncletopia.com","port":27085,"enabled":true,"region":"eu","cc":"gb","latitude":51.509865,"longitude":-0.118092,"reserved":0,"last_update":"0001-01-01T00:00:00Z","name_a2s":"Uncletopia | London | 8 | Community","protocol":17,"map":"workshop/koth_slaughter_rc1.ugc1712845210","folder":"tf","game":"Team Fortress","app_id":440,"player_count":13,"max_players":24,"Bots":0,"server_type":"Dedicated","server_os":"Linux","password":true,"vac":true,"version":"7757534","steam_id":85568392924964315,"keywords":["cp","nocrits","nodmgspread","uncletopia"],"game_id":440,"stv_port":27086,"stv_name":"Uncletopia | London | 8 | Community | STV","players":[{"user_id":439,"name":"spyrofire13","steam_id":76561198848667537,"connected_time":615000000000,"state":"active","ping":76},{"user_id":437,"name":"EkmeK","steam_id":76561198077212595,"connected_time":869000000000,"state":"active","ping":117},{"user_id":416,"name":"chopsticks","steam_id":76561198045899345,"connected_time":2048000000000,"state":"active","ping":116},{"user_id":426,"name":"Wattoz","steam_id":76561198127779511,"connected_time":1490000000000,"state":"active","ping":55},{"user_id":417,"name":"Jonno","steam_id":76561198285144917,"connected_time":2034000000000,"state":"active","ping":123},{"user_id":441,"name":"AYE","steam_id":76561198181368101,"connected_time":316000000000,"state":"active","ping":62},{"user_id":443,"name":"_Chelik_","steam_id":76561199076069284,"connected_time":291000000000,"state":"active","ping":88},{"user_id":444,"name":"Pink Cheese","steam_id":76561198972186436,"connected_time":270000000000,"state":"active","ping":85},{"user_id":420,"name":"Chris","steam_id":76561198018626828,"connected_time":1929000000000,"state":"active","ping":55},{"user_id":367,"name":"Violett'Blossom","steam_id":76561198075582287,"connected_time":4720000000000,"state":"active","ping":60},{"user_id":447,"name":"jankomit","steam_id":76561198043024857,"connected_time":169000000000,"state":"active","ping":78},{"user_id":430,"name":"Boar Boy San","steam_id":76561199102381074,"connected_time":1454000000000,"state":"active","ping":62},{"user_id":432,"name":"Wigion1","steam_id":76561198899108901,"connected_time":1435000000000,"state":"active","ping":37}]},{"server_id":300,"name":"Uncletopia | Montr√©al | 1 | All Maps","name_short":"mtl-1","host":"mtl-1.ca.uncletopia.com","port":27015,"enabled":true,"region":"us-east","cc":"ca","latitude":45.50889,"longitude":-73.56167,"reserved":0,"last_update":"0001-01-01T00:00:00Z","name_a2s":"Uncletopia | Montr√©al | 1 | All Maps","protocol":17,"map":"pl_snowycoast","folder":"tf","game":"Team Fortress","app_id":440,"player_count":0,"max_players":24,"Bots":0,"server_type":"Dedicated","server_os":"Linux","password":true,"vac":true,"version":"7757534","steam_id":85568392924500087,"keywords":["nocrits","nodmgspread","payload","uncletopia"],"game_id":440,"stv_port":27016,"stv_name":"Uncletopia | Montr√©al | 1 | All Maps | STV","players":null},{"server_id":301,"name":"Uncletopia | Montr√©al | 2 | All Maps","name_short":"mtl-2","host":"mtl-1.ca.uncletopia.com","port":27025,"enabled":true,"region":"us-east","cc":"ca","latitude":45.50889,"longitude":-73.56167,"reserved":0,"last_update":"0001-01-01T00:00:00Z","name_a2s":"Uncletopia | Montr√©al | 2 | All Maps","protocol":17,"map":"pl_snowycoast","folder":"tf","game":"Team Fortress","app_id":440,"player_count":0,"max_players":24,"Bots":0,"server_type":"Dedicated","server_os":"Linux","password":true,"vac":true,"version":"7757534","steam_id":85568392924500088,"keywords":["nocrits","nodmgspread","payload","uncletopia"],"game_id":440,"stv_port":27026,"stv_name":"Uncletopia | Montr√©al | 2 | All Maps | STV","players":null},{"server_id":302,"name":"Uncletopia | Montr√©al | 3 | All Maps","name_short":"mtl-3","host":"mtl-1.ca.uncletopia.com","port":27035,"enabled":true,"region":"us-east","cc":"ca","latitude":45.50889,"longitude":-73.56167,"reserved":0,"last_update":"0001-01-01T00:00:00Z","name_a2s":"Uncletopia | Montr√©al | 3 | All Maps","protocol":17,"map":"cp_dustbowl","folder":"tf","game":"Team Fortress","app_id":440,"player_count":0,"max_players":24,"Bots":0,"server_type":"Dedicated","server_os":"Linux","password":true,"vac":true,"version":"7757534","steam_id":85568392924500089,"keywords":["cp","nocrits","nodmgspread","uncletopia"],"game_id":440,"stv_port":27036,"stv_name":"Uncletopia | Montr√©al | 3 | All Maps | STV","players":null},{"server_id":303,"name":"Uncletopia | Montr√©al | 4 | No Payload","name_short":"mtl-4","host":"mtl-1.ca.uncletopia.com","port":27045,"enabled":true,"region":"us-east","cc":"ca","latitude":45.50889,"longitude":-73.56167,"reserved":0,"last_update":"0001-01-01T00:00:00Z","name_a2s":"Uncletopia | Montr√©al | 4 | No Payload","protocol":17,"map":"pl_borneo","folder":"tf","game":"Team Fortress","app_id":440,"player_count":0,"max_players":24,"Bots":0,"server_type":"Dedicated","server_os":"Linux","password":true,"vac":true,"version":"7757534","steam_id":85568392924500090,"keywords":["nocrits","nodmgspread","payload","uncletopia"],"game_id":440,"stv_port":27046,"stv_name":"Uncletopia | Montr√©al | 4 | No Payload | STV","players":null},{"server_id":13,"name":"Uncletopia | New York City | 1 | All Maps","name_short":"nyc-1","host":"nyc-1.us.uncletopia.com","port":27015,"enabled":true,"region":"us-east","cc":"us","latitude":40.73061,"longitude":-73.93524,"reserved":0,"last_update":"0001-01-01T00:00:00Z","name_a2s":"Uncletopia | New York City | 1 | All Maps","protocol":17,"map":"pl_borneo","folder":"tf","game":"Team Fortress","app_id":440,"player_count":0,"max_players":24,"Bots":0,"server_type":"Dedicated","server_os":"Linux","password":true,"vac":true,"version":"7757534","steam_id":85568392924469993,"keywords":["nocrits","nodmgspread","payload","uncletopia"],"game_id":440,"stv_port":27016,"stv_name":"Uncletopia | New York City | 1 | All Maps | STV","players":null},{"server_id":14,"name":"Uncletopia | New York City | 2 | All Maps","name_short":"nyc-2","host":"nyc-1.us.uncletopia.com","port":27025,"enabled":true,"region":"us-east","cc":"us","latitude":40.73061,"longitude":-73.93524,"reserved":0,"last_update":"0001-01-01T00:00:00Z","name_a2s":"Uncletopia | New York City | 2 | All Maps","protocol":17,"map":"koth_suijin","folder":"tf","game":"Team Fortress","app_id":440,"player_count":24,"max_players":24,"Bots":0,"server_type":"Dedicated","server_os":"Linux","password":true,"vac":true,"version":"7757534","steam_id":85568392924469994,"keywords":["cp","nocrits","nodmgspread","uncletopia"],"game_id":440,"stv_port":27026,"stv_name":"Uncletopia | New York City | 2 | All Maps | STV","players":[{"user_id":119,"name":"Reisen","steam_id":76561197968832019,"connected_time":26000000000,"state":"active","ping":40},{"user_id":98,"name":"evan_is_sauce","steam_id":76561199086802383,"connected_time":1108000000000,"state":"active","ping":102},{"user_id":76,"name":"Chachi","steam_id":76561199045511890,"connected_time":2313000000000,"state":"active","ping":60},{"user_id":107,"name":"goose","steam_id":76561198139632880,"connected_time":359000000000,"state":"active","ping":58},{"user_id":109,"name":"Anthon","steam_id":76561199407040585,"connected_time":266000000000,"state":"active","ping":66},{"user_id":20,"name":"gghfgfgfg","steam_id":76561198064823861,"connected_time":5102000000000,"state":"active","ping":58},{"user_id":24,"name":"\\|)=|_|=(|/","steam_id":76561198171491110,"connected_time":5029000000000,"state":"active","ping":55},{"user_id":90,"name":"door","steam_id":76561198095111680,"connected_time":1585000000000,"state":"active","ping":49},{"user_id":74,"name":"crabapples","steam_id":76561198075818655,"connected_time":2365000000000,"state":"active","ping":67},{"user_id":110,"name":"Radioactive","steam_id":76561198051624414,"connected_time":260000000000,"state":"active","ping":167},{"user_id":89,"name":"Bambi's Mom","steam_id":76561199120483390,"connected_time":1709000000000,"state":"active","ping":99},{"user_id":111,"name":"CuSO4","steam_id":76561199278147589,"connected_time":259000000000,"state":"active","ping":58},{"user_id":112,"name":"xMystic_Fire","steam_id":76561198189961543,"connected_time":258000000000,"state":"active","ping":100},{"user_id":94,"name":"sneakyflamingo","steam_id":76561199093026056,"connected_time":1322000000000,"state":"active","ping":60},{"user_id":120,"name":"Skashur","steam_id":76561198364924060,"connected_time":14000000000,"state":"active","ping":86},{"user_id":81,"name":"PapaCheungus","steam_id":76561198052262520,"connected_time":2173000000000,"state":"active","ping":67},{"user_id":83,"name":"MedicGamingn't","steam_id":76561199002705871,"connected_time":2085000000000,"state":"active","ping":188},{"user_id":86,"name":"Carson","steam_id":76561198076771071,"connected_time":1814000000000,"state":"active","ping":71},{"user_id":113,"name":"too funky ·óúÀ¨·óú","steam_id":76561199120399776,"connected_time":221000000000,"state":"active","ping":121},{"user_id":114,"name":"Atlas","steam_id":76561198127975050,"connected_time":215000000000,"state":"active","ping":74},{"user_id":42,"name":"CrustyCapybara","steam_id":76561199450398030,"connected_time":4546000000000,"state":"active","ping":59},{"user_id":118,"name":"Dreysidehl","steam_id":76561198056496183,"connected_time":54000000000,"state":"active","ping":88},{"user_id":44,"name":"Pickle Chips","steam_id":76561198271951504,"connected_time":4504000000000,"state":"active","ping":45},{"user_id":97,"name":"DJ Chalice","steam_id":76561197974872458,"connected_time":1134000000000,"state":"active","ping":61}]},{"server_id":15,"name":"Uncletopia | New York City | 3 | Stopwatch Beta","name_short":"nyc-3","host":"nyc-1.us.uncletopia.com","port":27035,"enabled":true,"region":"us-east","cc":"us","latitude":40.73061,"longitude":-73.93524,"reserved":0,"last_update":"0001-01-01T00:00:00Z","name_a2s":"Uncletopia | New York City | 3 | Stopwatch Beta","protocol":17,"map":"cp_gullywash_final1","folder":"tf","game":"Team Fortress","app_id":440,"player_count":0,"max_players":24,"Bots":0,"server_type":"Dedicated","server_os":"Linux","password":true,"vac":true,"version":"7757534","steam_id":85568392924742820,"keywords":["cp","nocrits","nodmgspread","uncletopia"],"game_id":440,"stv_port":27036,"stv_name":"Uncletopia | New York City | 3 | Stopwatch Beta | STV","players":null},{"server_id":16,"name":"Uncletopia | New York City | 4 | Community","name_short":"nyc-4","host":"nyc-1.us.uncletopia.com","port":27045,"enabled":true,"region":"us-east","cc":"us","latitude":40.73061,"longitude":-73.93524,"reserved":0,"last_update":"0001-01-01T00:00:00Z","name_a2s":"Uncletopia | New York City | 4 | Community","protocol":17,"map":"workshop/pl_divulgence_b4b.ugc2884808746","folder":"tf","game":"Team Fortress","app_id":440,"player_count":11,"max_players":24,"Bots":0,"server_type":"Dedicated","server_os":"Linux","password":true,"vac":true,"version":"7757534","steam_id":85568392924742821,"keywords":["nocrits","nodmgspread","payload","uncletopia"],"game_id":440,"stv_port":27046,"stv_name":"Uncletopia | New York City | 4 | Community | STV","players":[{"user_id":5,"name":"Mallow the duck","steam_id":76561199192305279,"connected_time":2038000000000,"state":"active","ping":64},{"user_id":18,"name":"pissmas santa","steam_id":76561199056565538,"connected_time":35000000000,"state":"spawning","ping":282},{"user_id":8,"name":"slow foot","steam_id":76561199223275073,"connected_time":1452000000000,"state":"active","ping":268},{"user_id":9,"name":"error","steam_id":76561198848772355,"connected_time":1416000000000,"state":"active","ping":64},{"user_id":19,"name":"BudTuggly","steam_id":76561198026873580,"connected_time":8000000000,"state":"spawning","ping":111},{"user_id":11,"name":"Justario","steam_id":76561198016095410,"connected_time":842000000000,"state":"active","ping":39},{"user_id":12,"name":"Witch!","steam_id":76561198062763756,"connected_time":771000000000,"state":"active","ping":60},{"user_id":13,"name":"Olive","steam_id":76561198003474783,"connected_time":459000000000,"state":"active","ping":83},{"user_id":14,"name":"(VoodooMagicGuy)","steam_id":76561198271653436,"connected_time":321000000000,"state":"active","ping":75},{"user_id":16,"name":"cognitiveAfflatus","steam_id":76561198295181426,"connected_time":283000000000,"state":"active","ping":52},{"user_id":17,"name":"Vinny","steam_id":76561198394804517,"connected_time":281000000000,"state":"active","ping":51}]},{"server_id":142,"name":"Uncletopia | S√£o Paulo | 1 | All Maps","name_short":"sao-1","host":"sao-1.br.uncletopia.com","port":27015,"enabled":true,"region":"sa","cc":"br","latitude":-23.533773,"longitude":-46.62529,"reserved":0,"last_update":"0001-01-01T00:00:00Z","name_a2s":"Uncletopia | S√£o Paulo | 1 | All Maps","protocol":17,"map":"koth_highpass","folder":"tf","game":"Team Fortress","app_id":440,"player_count":1,"max_players":24,"Bots":0,"server_type":"Dedicated","server_os":"Linux","password":true,"vac":true,"version":"7757534","steam_id":85568392924469996,"keywords":["cp","nocrits","nodmgspread","uncletopia"],"game_id":440,"stv_port":27016,"stv_name":"Uncletopia | S√£o Paulo | 1 | All Maps | STV","players":[{"user_id":12,"name":"abacaxor","steam_id":76561198106518410,"connected_time":73000000000,"state":"spawning","ping":254}]},{"server_id":143,"name":"Uncletopia | S√£o Paulo | 2 | All Maps","name_short":"sao-2","host":"sao-2.br.uncletopia.com","port":27015,"enabled":true,"region":"sa","cc":"br","latitude":-23.533773,"longitude":-46.62529,"reserved":0,"last_update":"0001-01-01T00:00:00Z","name_a2s":"Uncletopia | S√£o Paulo | 2 | All Maps","protocol":17,"map":"pl_barnblitz","folder":"tf","game":"Team Fortress","app_id":440,"player_count":0,"max_players":24,"Bots":0,"server_type":"Dedicated","server_os":"Linux","password":true,"vac":true,"version":"7757534","steam_id":85568392924485349,"keywords":["nocrits","nodmgspread","payload","uncletopia"],"game_id":440,"stv_port":27016,"stv_name":"Uncletopia | S√£o Paulo | 2 | All Maps | STV","players":null},{"server_id":7,"name":"Uncletopia | Seattle | 1 | All Maps","name_short":"sea-1","host":"sea-1.us.uncletopia.com","port":27015,"enabled":true,"region":"us-west","cc":"us","latitude":47.608013,"longitude":-122.33517,"reserved":0,"last_update":"0001-01-01T00:00:00Z","name_a2s":"Uncletopia | Seattle | 1 | All Maps","protocol":17,"map":"pl_barnblitz","folder":"tf","game":"Team Fortress","app_id":440,"player_count":24,"max_players":24,"Bots":0,"server_type":"Dedicated","server_os":"Linux","password":true,"vac":true,"version":"7757534","steam_id":85568392924469997,"keywords":["nocrits","nodmgspread","payload","uncletopia"],"game_id":440,"stv_port":27016,"stv_name":"Uncletopia | Seattle | 1 | All Maps | STV","players":[{"user_id":128,"name":"Aux","steam_id":76561199091651065,"connected_time":1221000000000,"state":"active","ping":66},{"user_id":15,"name":"Little Linguine","steam_id":76561198816986370,"connected_time":8517000000000,"state":"active","ping":56},{"user_id":46,"name":"Zalafrizon","steam_id":76561198354513978,"connected_time":6298000000000,"state":"active","ping":132},{"user_id":123,"name":"HollowMan","steam_id":76561198967266827,"connected_time":1417000000000,"state":"active","ping":138},{"user_id":106,"name":"I HAVE A METAL DETECTOR","steam_id":76561199001748822,"connected_time":2059000000000,"state":"active","ping":51},{"user_id":146,"name":"Milotic","steam_id":76561198047995713,"connected_time":256000000000,"state":"active","ping":98},{"user_id":109,"name":"TheMagicMrWaffle","steam_id":76561198104357256,"connected_time":1788000000000,"state":"active","ping":69},{"user_id":140,"name":"Outcast_","steam_id":76561199122744740,"connected_time":687000000000,"state":"active","ping":131},{"user_id":124,"name":"Futureguy33","steam_id":76561198101336564,"connected_time":1398000000000,"state":"active","ping":133},{"user_id":125,"name":"daniel francesca","steam_id":76561198870764276,"connected_time":1388000000000,"state":"active","ping":194},{"user_id":74,"name":"eraser cat","steam_id":76561199045570463,"connected_time":3697000000000,"state":"active","ping":45},{"user_id":147,"name":"KitKat :)","steam_id":76561198191536489,"connected_time":94000000000,"state":"active","ping":88},{"user_id":135,"name":"Universal Knowledge Allah","steam_id":76561198855935442,"connected_time":1047000000000,"state":"active","ping":60},{"user_id":100,"name":"MacchuPeachu","steam_id":76561199093242587,"connected_time":2517000000000,"state":"active","ping":64},{"user_id":141,"name":"Bastee1021","steam_id":76561199456141163,"connected_time":460000000000,"state":"active","ping":104},{"user_id":149,"name":"doomshroom","steam_id":76561198092827250,"connected_time":65000000000,"state":"active","ping":57},{"user_id":59,"name":"tortoise","steam_id":76561198161809306,"connected_time":5420000000000,"state":"active","ping":116},{"user_id":127,"name":"mass Tech‚Ñ¢¬© EXTREME 2000","steam_id":76561198399115655,"connected_time":1293000000000,"state":"active","ping":83},{"user_id":142,"name":"J415","steam_id":76561199194276068,"connected_time":453000000000,"state":"active","ping":91},{"user_id":131,"name":"\u003c3Elise\u003c3","steam_id":76561198146435005,"connected_time":1172000000000,"state":"active","ping":70},{"user_id":134,"name":"HaphazardHazel","steam_id":76561198316812693,"connected_time":1059000000000,"state":"active","ping":135},{"user_id":75,"name":"resting neutral face","steam_id":76561197999259502,"connected_time":3382000000000,"state":"active","ping":61},{"user_id":144,"name":"TarSenpai","steam_id":76561199292143353,"connected_time":392000000000,"state":"active","ping":91},{"user_id":145,"name":"Kaluka","steam_id":76561198036861445,"connected_time":288000000000,"state":"active","ping":121}]},{"server_id":119,"name":"Uncletopia | Seattle | 2 | All Maps","name_short":"sea-2","host":"sea-1.us.uncletopia.com","port":27025,"enabled":true,"region":"us-west","cc":"us","latitude":47.608013,"longitude":-122.33517,"reserved":0,"last_update":"0001-01-01T00:00:00Z","name_a2s":"Uncletopia | Seattle | 2 | All Maps","protocol":17,"map":"koth_lakeside_final","folder":"tf","game":"Team Fortress","app_id":440,"player_count":0,"max_players":24,"Bots":0,"server_type":"Dedicated","server_os":"Linux","password":true,"vac":true,"version":"7757534","steam_id":85568392924469998,"keywords":["cp","nocrits","nodmgspread","uncletopia"],"game_id":440,"stv_port":27026,"stv_name":"Uncletopia | Seattle | 2 | All Maps | STV","players":null},{"server_id":406,"name":"Uncletopia | Seattle | 3 | Stopwatch Beta","name_short":"sea-3","host":"sea-1.us.uncletopia.com","port":27035,"enabled":true,"region":"us-west","cc":"us","latitude":47.608013,"longitude":-122.33517,"reserved":0,"last_update":"0001-01-01T00:00:00Z","name_a2s":"Uncletopia | Seattle | 3 | Stopwatch Beta","protocol":17,"map":"pl_barnblitz","folder":"tf","game":"Team Fortress","app_id":440,"player_count":0,"max_players":24,"Bots":0,"server_type":"Dedicated","server_os":"Linux","password":true,"vac":true,"version":"7757534","steam_id":85568392924515217,"keywords":["nocrits","nodmgspread","payload","uncletopia"],"game_id":440,"stv_port":27036,"stv_name":"Uncletopia | Seattle | 3 | Stopwatch Beta | STV","players":null},{"server_id":17,"name":"Uncletopia | San Francisco | 1 | All Maps","name_short":"sfo-1","host":"sfo-1.us.uncletopia.com","port":27015,"enabled":true,"region":"us-west","cc":"us","latitude":37.77397,"longitude":-122.4313,"reserved":0,"last_update":"0001-01-01T00:00:00Z","name_a2s":"Uncletopia | San Francisco | 1 | All Maps","protocol":17,"map":"koth_viaduct","folder":"tf","game":"Team Fortress","app_id":440,"player_count":0,"max_players":24,"Bots":0,"server_type":"Dedicated","server_os":"Linux","password":true,"vac":true,"version":"7757534","steam_id":85568392924469999,"keywords":["cp","nocrits","nodmgspread","uncletopia"],"game_id":440,"stv_port":27016,"stv_name":"Uncletopia | San Francisco | 1 | All Maps | STV","players":null},{"server_id":18,"name":"Uncletopia | San Francisco | 2 | All Maps","name_short":"sfo-2","host":"sfo-1.us.uncletopia.com","port":27025,"enabled":true,"region":"us-west","cc":"us","latitude":37.77397,"longitude":-122.4313,"reserved":0,"last_update":"0001-01-01T00:00:00Z","name_a2s":"Uncletopia | San Francisco | 2 | All Maps","protocol":17,"map":"cp_sunshine","folder":"tf","game":"Team Fortress","app_id":440,"player_count":0,"max_players":24,"Bots":0,"server_type":"Dedicated","server_os":"Linux","password":true,"vac":true,"version":"7757534","steam_id":85568392924470000,"keywords":["cp","nocrits","nodmgspread","uncletopia"],"game_id":440,"stv_port":27026,"stv_name":"Uncletopia | San Francisco | 2 | All Maps | STV","players":null},{"server_id":19,"name":"Uncletopia | San Francisco | 3 | Stopwatch Beta","name_short":"sfo-3","host":"sfo-1.us.uncletopia.com","port":27035,"enabled":true,"region":"us-west","cc":"us","latitude":37.77397,"longitude":-122.4313,"reserved":0,"last_update":"0001-01-01T00:00:00Z","name_a2s":"Uncletopia | San Francisco | 3 | Stopwatch Beta","protocol":17,"map":"pl_borneo","folder":"tf","game":"Team Fortress","app_id":440,"player_count":0,"max_players":24,"Bots":0,"server_type":"Dedicated","server_os":"Linux","password":true,"vac":true,"version":"7757534","steam_id":85568392924742824,"keywords":["nocrits","nodmgspread","payload","uncletopia"],"game_id":440,"stv_port":27036,"stv_name":"Uncletopia | San Francisco | 3 | Stopwatch Beta | STV","players":null},{"server_id":20,"name":"Uncletopia | San Francisco | 4 | Community","name_short":"sfo-4","host":"sfo-1.us.uncletopia.com","port":27045,"enabled":true,"region":"us-west","cc":"us","latitude":37.77397,"longitude":-122.4313,"reserved":0,"last_update":"0001-01-01T00:00:00Z","name_a2s":"Uncletopia | San Francisco | 4 | Community","protocol":17,"map":"koth_highpass","folder":"tf","game":"Team Fortress","app_id":440,"player_count":0,"max_players":24,"Bots":0,"server_type":"Dedicated","server_os":"Linux","password":true,"vac":true,"version":"7757534","steam_id":85568392924742826,"keywords":["cp","nocrits","nodmgspread","uncletopia"],"game_id":440,"stv_port":27046,"stv_name":"Uncletopia | San Francisco | 4 | Community | STV","players":null},{"server_id":141,"name":"Uncletopia | Sydney | 1 | All Maps","name_short":"syd-1","host":"syd-1.au.uncletopia.com","port":27015,"enabled":true,"region":"au","cc":"au","latitude":-33.865143,"longitude":151.2099,"reserved":0,"last_update":"0001-01-01T00:00:00Z","name_a2s":"Uncletopia | Sydney | 1 | All Maps","protocol":17,"map":"koth_highpass","folder":"tf","game":"Team Fortress","app_id":440,"player_count":0,"max_players":24,"Bots":0,"server_type":"Dedicated","server_os":"Linux","password":true,"vac":true,"version":"7757534","steam_id":85568392924470001,"keywords":["cp","nocrits","nodmgspread","uncletopia"],"game_id":440,"stv_port":27016,"stv_name":"Uncletopia | Sydney | 1 | All Maps | STV","players":null},{"server_id":123,"name":"Uncletopia | Sydney | 2 | All Maps","name_short":"syd-2","host":"syd-1.au.uncletopia.com","port":27025,"enabled":true,"region":"au","cc":"au","latitude":-33.865143,"longitude":151.2099,"reserved":0,"last_update":"0001-01-01T00:00:00Z","name_a2s":"Uncletopia | Sydney | 2 | All Maps","protocol":17,"map":"cp_dustbowl","folder":"tf","game":"Team Fortress","app_id":440,"player_count":0,"max_players":24,"Bots":0,"server_type":"Dedicated","server_os":"Linux","password":true,"vac":true,"version":"7757534","steam_id":85568392924470002,"keywords":["cp","nocrits","nodmgspread","uncletopia"],"game_id":440,"stv_port":27026,"stv_name":"Uncletopia | Sydney | 2 | All Maps | STV","players":null},{"server_id":395,"name":"Uncletopia | Sydney | 3 | All Maps","name_short":"syd-3","host":"syd-1.au.uncletopia.com","port":27035,"enabled":true,"region":"au","cc":"au","latitude":-33.865143,"longitude":151.2099,"reserved":0,"last_update":"0001-01-01T00:00:00Z","name_a2s":"Uncletopia | Sydney | 3 | All Maps","protocol":17,"map":"koth_viaduct","folder":"tf","game":"Team Fortress","app_id":440,"player_count":0,"max_players":24,"Bots":0,"server_type":"Dedicated","server_os":"Linux","password":true,"vac":true,"version":"7757534","steam_id":85568392925194467,"keywords":["cp","nocrits","nodmgspread","uncletopia"],"game_id":440,"stv_port":27036,"stv_name":"Uncletopia | Sydney | 3 | All Maps | STV","players":null},{"server_id":396,"name":"Uncletopia | Sydney | 4 | All Maps","name_short":"syd-4","host":"syd-1.au.uncletopia.com","port":27045,"enabled":true,"region":"au","cc":"au","latitude":-33.865143,"longitude":151.2099,"reserved":0,"last_update":"0001-01-01T00:00:00Z","name_a2s":"Uncletopia | Sydney | 4 | All Maps","protocol":17,"map":"pl_upward","folder":"tf","game":"Team Fortress","app_id":440,"player_count":0,"max_players":24,"Bots":0,"server_type":"Dedicated","server_os":"Linux","password":true,"vac":true,"version":"7757534","steam_id":85568392925397958,"keywords":["nocrits","nodmgspread","payload","uncletopia"],"game_id":440,"stv_port":27046,"stv_name":"Uncletopia | Sydney | 4 | All Maps | STV","players":null},{"server_id":58,"name":"Uncletopia | Sydney | 5 | Stopwatch Beta","name_short":"syd-5","host":"syd-1.au.uncletopia.com","port":27055,"enabled":true,"region":"au","cc":"au","latitude":-33.865143,"longitude":151.2099,"reserved":0,"last_update":"0001-01-01T00:00:00Z","name_a2s":"Uncletopia | Sydney | 5 | Stopwatch Beta","protocol":17,"map":"pl_swiftwater_final1","folder":"tf","game":"Team Fortress","app_id":440,"player_count":0,"max_players":24,"Bots":0,"server_type":"Dedicated","server_os":"Linux","password":true,"vac":true,"version":"7757534","steam_id":85568392925397959,"keywords":["nocrits","nodmgspread","payload","uncletopia"],"game_id":440,"stv_port":27056,"stv_name":"Uncletopia | Sydney | 5 | Stopwatch Beta | STV","players":null},{"server_id":59,"name":"Uncletopia | Sydney | 6 | Community","name_short":"syd-6","host":"syd-1.au.uncletopia.com","port":27065,"enabled":true,"region":"au","cc":"au","latitude":-33.865143,"longitude":151.2099,"reserved":0,"last_update":"0001-01-01T00:00:00Z","name_a2s":"Uncletopia | Sydney | 6 | Community","protocol":17,"map":"workshop/koth_synthetic_rc6a.ugc1549817316","folder":"tf","game":"Team Fortress","app_id":440,"player_count":0,"max_players":24,"Bots":0,"server_type":"Dedicated","server_os":"Linux","password":true,"vac":true,"version":"7757534","steam_id":85568392925397960,"keywords":["cp","nocrits","nodmgspread","uncletopia"],"game_id":440,"stv_port":27066,"stv_name":"Uncletopia | Sydney | 6 | Community | STV","players":null},{"server_id":49,"name":"Uncletopia | Warsaw | 1 | All Maps","name_short":"waw-1","host":"waw-1.pl.uncletopia.com","port":27015,"enabled":true,"region":"eu","cc":"pl","latitude":52.2297,"longitude":21.017532,"reserved":0,"last_update":"0001-01-01T00:00:00Z","name_a2s":"","protocol":0,"map":"","folder":"","game":"","app_id":0,"player_count":0,"max_players":0,"Bots":0,"server_type":"","server_os":"","password":false,"vac":false,"version":"","steam_id":0,"keywords":null,"game_id":0,"stv_port":0,"stv_name":"","players":null},{"server_id":50,"name":"Uncletopia | Warsaw | 2 | All Maps","name_short":"waw-2","host":"waw-1.pl.uncletopia.com","port":27025,"enabled":true,"region":"eu","cc":"pl","latitude":52.2297,"longitude":21.017532,"reserved":0,"last_update":"0001-01-01T00:00:00Z","name_a2s":"Uncletopia | Warsaw | 2 | All Maps","protocol":17,"map":"pl_swiftwater_final1","folder":"tf","game":"Team Fortress","app_id":440,"player_count":0,"max_players":24,"Bots":0,"server_type":"Dedicated","server_os":"Linux","password":true,"vac":true,"version":"7757534","steam_id":85568392925397851,"keywords":["nocrits","nodmgspread","payload","uncletopia"],"game_id":440,"stv_port":27026,"stv_name":"Uncletopia | Warsaw | 2 | All Maps | STV","players":null},{"server_id":51,"name":"Uncletopia | Warsaw | 3 | All Maps","name_short":"waw-3","host":"waw-1.pl.uncletopia.com","port":27035,"enabled":true,"region":"eu","cc":"pl","latitude":52.2297,"longitude":21.017532,"reserved":0,"last_update":"0001-01-01T00:00:00Z","name_a2s":"Uncletopia | Warsaw | 3 | All Maps","protocol":17,"map":"pl_barnblitz","folder":"tf","game":"Team Fortress","app_id":440,"player_count":0,"max_players":24,"Bots":0,"server_type":"Dedicated","server_os":"Linux","password":true,"vac":true,"version":"7757534","steam_id":85568392925397852,"keywords":["nocrits","nodmgspread","payload","uncletopia"],"game_id":440,"stv_port":27036,"stv_name":"Uncletopia | Warsaw | 3 | All Maps | STV","players":null},{"server_id":52,"name":"Uncletopia | Warsaw | 4 | All Maps","name_short":"waw-4","host":"waw-1.pl.uncletopia.com","port":27045,"enabled":true,"region":"eu","cc":"pl","latitude":52.2297,"longitude":21.017532,"reserved":0,"last_update":"0001-01-01T00:00:00Z","name_a2s":"Uncletopia | Warsaw | 4 | All Maps","protocol":17,"map":"pl_snowycoast","folder":"tf","game":"Team Fortress","app_id":440,"player_count":0,"max_players":24,"Bots":0,"server_type":"Dedicated","server_os":"Linux","password":true,"vac":true,"version":"7757534","steam_id":85568392925397853,"keywords":["nocrits","nodmgspread","payload","uncletopia"],"game_id":440,"stv_port":27046,"stv_name":"Uncletopia | Warsaw | 4 | All Maps | STV","players":null},{"server_id":53,"name":"Uncletopia | Warsaw | 5 | Stopwatch Beta","name_short":"waw-5","host":"waw-1.pl.uncletopia.com","port":27055,"enabled":true,"region":"eu","cc":"pl","latitude":52.2297,"longitude":21.017532,"reserved":0,"last_update":"0001-01-01T00:00:00Z","name_a2s":"Uncletopia | Warsaw | 5 | Stopwatch Beta","protocol":17,"map":"pl_barnblitz","folder":"tf","game":"Team Fortress","app_id":440,"player_count":0,"max_players":24,"Bots":0,"server_type":"Dedicated","server_os":"Linux","password":true,"vac":true,"version":"7757534","steam_id":85568392925397854,"keywords":["nocrits","nodmgspread","payload","uncletopia"],"game_id":440,"stv_port":27056,"stv_name":"Uncletopia | Warsaw | 5 | Stopwatch Beta | STV","players":null},{"server_id":54,"name":"Uncletopia | Warsaw | 6 | Community","name_short":"waw-6","host":"waw-1.pl.uncletopia.com","port":27065,"enabled":true,"region":"eu","cc":"pl","latitude":52.2297,"longitude":21.017532,"reserved":0,"last_update":"0001-01-01T00:00:00Z","name_a2s":"Uncletopia | Warsaw | 6 | Community","protocol":17,"map":"workshop/koth_trenchfoot_b1a.ugc731436616","folder":"tf","game":"Team Fortress","app_id":440,"player_count":0,"max_players":24,"Bots":0,"server_type":"Dedicated","server_os":"Linux","password":true,"vac":true,"version":"7757534","steam_id":85568392925397856,"keywords":["cp","nocrits","nodmgspread","uncletopia"],"game_id":440,"stv_port":27066,"stv_name":"Uncletopia | Warsaw | 6 | Community | STV","players":null}]}