{"status":true,"message":"","result":[{"server_id":9,"name":"Uncletopia | Atlanta | 1 | All Maps","name_short":"atl-1","host":"atl-1.us.uncletopia.com","port":27015,"enabled":true,"region":"us-east","cc":"us","latitude":33.753746,"longitude":-84.38633,"reserved":0,"last_update":"0001-01-01T00:00:00Z","name_a2s":"Uncletopia | Atlanta | 1 | All Maps","protocol":17,"map":"cp_process_final","folder":"tf","game":"Team Fortress","app_id":440,"player_count":23,"max_players":24,"Bots":0,"server_type":"Dedicated","server_os":"Linux","password":true,"vac":true,"version":"7708610","steam_id":85568392924469982,"keywords":["cp","nocrits","nodmgspread","uncletopia"],"game_id":440,"stv_port":27016,"stv_name":"Uncletopia | Atlanta | 1 | All Maps | STV","players":[{"user_id":274,"name":"Danipp","steam_id":76561198027147377,"connected_time":6432000000000,"state":"active","ping":169},{"user_id":310,"name":"ATL1 | a very merry ma0re","steam_id":76561199231971506,"connected_time":3067000000000,"state":"active","ping":62},{"user_id":318,"name":"Min Seniour","steam_id":76561198370193847,"connected_time":2724000000000,"state":"active","ping":146},{"user_id":344,"name":"Festliche √Ñtzend","steam_id":76561198033384990,"connected_time":465000000000,"state":"active","ping":46},{"user_id":327,"name":"noelle","steam_id":76561198386344068,"connected_time":1645000000000,"state":"active","ping":69},{"user_id":293,"name":"Urbanzpinapple","steam_id":76561198115426938,"connected_time":4426000000000,"state":"active","ping":108},{"user_id":287,"name":"Towns","steam_id":76561198984662863,"connected_time":4892000000000,"state":"active","ping":105},{"user_id":236,"name":"Shuual","steam_id":76561198004395256,"connected_time":10343000000000,"state":"active","ping":60},{"user_id":297,"name":"gretchling","steam_id":76561198046111695,"connected_time":4099000000000,"state":"active","ping":68},{"user_id":346,"name":"Shame","steam_id":76561198100490994,"connected_time":434000000000,"state":"active","ping":71},{"user_id":338,"name":"spoonful","steam_id":76561198927517471,"connected_time":1312000000000,"state":"active","ping":45},{"user_id":325,"name":"ATL1 | Mayhem","steam_id":76561199246637881,"connected_time":1685000000000,"state":"active","ping":55},{"user_id":347,"name":"Spriteacola","steam_id":76561198218886668,"connected_time":432000000000,"state":"active","ping":61},{"user_id":329,"name":"strategic dier","steam_id":76561197999257178,"connected_time":1629000000000,"state":"active","ping":89},{"user_id":331,"name":"com lag","steam_id":76561198019019392,"connected_time":1584000000000,"state":"active","ping":60},{"user_id":317,"name":"hood.com/jockstrap","steam_id":76561198073269122,"connected_time":2792000000000,"state":"active","ping":75},{"user_id":266,"name":"timestew","steam_id":76561198367583372,"connected_time":7209000000000,"state":"active","ping":76},{"user_id":305,"name":"coffee bagel","steam_id":76561198141198352,"connected_time":3491000000000,"state":"active","ping":60},{"user_id":332,"name":"Alison \u003c3","steam_id":76561198126211191,"connected_time":1568000000000,"state":"active","ping":103},{"user_id":333,"name":"snoops","steam_id":76561197986760351,"connected_time":1555000000000,"state":"active","ping":75},{"user_id":342,"name":"V!CT!M","steam_id":76561198962721502,"connected_time":1055000000000,"state":"active","ping":80},{"user_id":207,"name":"ATL1 | Lancer Fan Club","steam_id":76561198355495948,"connected_time":13747000000000,"state":"active","ping":88},{"user_id":296,"name":"ATL1 | p4ka","steam_id":76561198315291317,"connected_time":4124000000000,"state":"active","ping":77}]},{"server_id":400,"name":"Uncletopia | Atlanta | 3 | All Maps","name_short":"atl-3","host":"atl-1.us.uncletopia.com","port":27035,"enabled":true,"region":"us-east","cc":"us","latitude":33.753746,"longitude":-84.38633,"reserved":0,"last_update":"0001-01-01T00:00:00Z","name_a2s":"Uncletopia | Atlanta | 3 | All Maps","protocol":17,"map":"pl_badwater","folder":"tf","game":"Team Fortress","app_id":440,"player_count":21,"max_players":24,"Bots":0,"server_type":"Dedicated","server_os":"Linux","password":true,"vac":true,"version":"7708610","steam_id":85568392924515187,"keywords":["nocrits","nodmgspread","payload","uncletopia"],"game_id":440,"stv_port":27036,"stv_name":"Uncletopia | Atlanta | 3 | All Maps | STV","players":[{"user_id":267,"name":"BigBubble42","steam_id":76561198136286123,"connected_time":791000000000,"state":"active","ping":49},{"user_id":279,"name":"beefandriceconsumer666","steam_id":76561198232617936,"connected_time":41000000000,"state":"active","ping":64},{"user_id":280,"name":"Spectre","steam_id":76561198020088922,"connected_time":30000000000,"state":"active","ping":60},{"user_id":276,"name":"Devinish","steam_id":76561198024927243,"connected_time":135000000000,"state":"active","ping":60},{"user_id":251,"name":"Rex","steam_id":76561198138365053,"connected_time":1437000000000,"state":"active","ping":115},{"user_id":275,"name":"The Big Cheese","steam_id":76561198023187585,"connected_time":157000000000,"state":"active","ping":76},{"user_id":204,"name":"Young-OG","steam_id":76561198058800479,"connected_time":5554000000000,"state":"active","ping":62},{"user_id":208,"name":"Mr.Oxiclean","steam_id":76561198144729009,"connected_time":5446000000000,"state":"active","ping":49},{"user_id":270,"name":"Meatwad","steam_id":76561198803721236,"connected_time":544000000000,"state":"active","ping":57},{"user_id":269,"name":"Dullahan","steam_id":76561198119668908,"connected_time":601000000000,"state":"active","ping":95},{"user_id":281,"name":"Spoonastic","steam_id":76561198343838009,"connected_time":21000000000,"state":"active","ping":116},{"user_id":254,"name":"Kapreesi","steam_id":76561198163361200,"connected_time":1380000000000,"state":"active","ping":77},{"user_id":186,"name":"Medic","steam_id":76561198067869016,"connected_time":6838000000000,"state":"active","ping":68},{"user_id":271,"name":"Kolmourn","steam_id":76561198373680035,"connected_time":507000000000,"state":"active","ping":91},{"user_id":257,"name":"TheChickenChuck","steam_id":76561199192686708,"connected_time":1334000000000,"state":"active","ping":106},{"user_id":268,"name":"fransam","steam_id":76561198383924939,"connected_time":634000000000,"state":"active","ping":60},{"user_id":261,"name":"willpstackhouse","steam_id":76561199429341254,"connected_time":1096000000000,"state":"active","ping":68},{"user_id":278,"name":"BurgerPizza","steam_id":76561198151256410,"connected_time":75000000000,"state":"active","ping":123},{"user_id":277,"name":"dnl","steam_id":76561198096413059,"connected_time":86000000000,"state":"active","ping":126},{"user_id":265,"name":"dan","steam_id":76561198061589465,"connected_time":888000000000,"state":"active","ping":59},{"user_id":234,"name":"Juanelo","steam_id":76561199096390505,"connected_time":3439000000000,"state":"active","ping":77}]},{"server_id":401,"name":"Uncletopia | Atlanta | 4 | No Payload","name_short":"atl-4","host":"atl-1.us.uncletopia.com","port":27045,"enabled":true,"region":"us-east","cc":"us","latitude":33.753746,"longitude":-84.38633,"reserved":0,"last_update":"0001-01-01T00:00:00Z","name_a2s":"Uncletopia | Atlanta | 4 | No Payload","protocol":17,"map":"plr_bananabay","folder":"tf","game":"Team Fortress","app_id":440,"player_count":0,"max_players":24,"Bots":0,"server_type":"Dedicated","server_os":"Linux","password":true,"vac":true,"version":"7708610","steam_id":85568392924515188,"keywords":["nocrits","nodmgspread","payload","uncletopia"],"game_id":440,"stv_port":27046,"stv_name":"Uncletopia | Atlanta | 4 | No Payload | STV","players":null},{"server_id":2,"name":"Uncletopia | Chicago | 1 | All Maps","name_short":"chi-1","host":"chi-1.us.uncletopia.com","port":27015,"enabled":true,"region":"us-central","cc":"us","latitude":41.881832,"longitude":-87.62318,"reserved":0,"last_update":"0001-01-01T00:00:00Z","name_a2s":"Uncletopia | Chicago | 1 | All Maps","protocol":17,"map":"cp_frostwatch","folder":"tf","game":"Team Fortress","app_id":440,"player_count":24,"max_players":24,"Bots":0,"server_type":"Dedicated","server_os":"Linux","password":true,"vac":true,"version":"7708610","steam_id":85568392924469984,"keywords":["cp","nocrits","nodmgspread","uncletopia"],"game_id":440,"stv_port":27016,"stv_name":"Uncletopia | Chicago | 1 | All Maps | STV","players":[{"user_id":175,"name":"KOOSTIFF","steam_id":76561198053727976,"connected_time":452000000000,"state":"active","ping":72},{"user_id":166,"name":"Dr. Game and Watch","steam_id":76561197999615565,"connected_time":1229000000000,"state":"active","ping":74},{"user_id":170,"name":"‚ô• Femboy‚ô•Ventily ‚ô•","steam_id":76561198157260335,"connected_time":1029000000000,"state":"active","ping":52},{"user_id":167,"name":"Reindeer Poacher","steam_id":76561198867626964,"connected_time":1222000000000,"state":"active","ping":115},{"user_id":171,"name":"swozzel","steam_id":76561198079285108,"connected_time":967000000000,"state":"active","ping":59},{"user_id":62,"name":"Dude Named Bob","steam_id":76561198310448093,"connected_time":8710000000000,"state":"active","ping":51},{"user_id":119,"name":"Sigiferd","steam_id":76561198148788110,"connected_time":3978000000000,"state":"active","ping":132},{"user_id":176,"name":"EpitapH","steam_id":76561198211642559,"connected_time":452000000000,"state":"active","ping":45},{"user_id":172,"name":"Room_237","steam_id":76561199135081315,"connected_time":929000000000,"state":"active","ping":77},{"user_id":178,"name":"GREG","steam_id":76561198073021168,"connected_time":192000000000,"state":"active","ping":69},{"user_id":174,"name":"spaaaaace","steam_id":76561199085974120,"connected_time":551000000000,"state":"active","ping":63},{"user_id":169,"name":"Mr.Pan","steam_id":76561198069030613,"connected_time":1054000000000,"state":"active","ping":71},{"user_id":114,"name":"Killroy NQP ‚ù§","steam_id":76561198006983771,"connected_time":4410000000000,"state":"active","ping":76},{"user_id":144,"name":"sketchesgallore","steam_id":76561198331254794,"connected_time":2324000000000,"state":"active","ping":100},{"user_id":111,"name":"{[F.H]} Hydroida","steam_id":76561197999797274,"connected_time":4651000000000,"state":"active","ping":58},{"user_id":179,"name":"InstantSnowcone","steam_id":76561198067556825,"connected_time":128000000000,"state":"active","ping":84},{"user_id":135,"name":"Ras","steam_id":76561198123546775,"connected_time":3082000000000,"state":"active","ping":65},{"user_id":143,"name":"-œÄ- BakaD","steam_id":76561197960559169,"connected_time":2489000000000,"state":"active","ping":55},{"user_id":145,"name":"silly","steam_id":76561199009200975,"connected_time":2250000000000,"state":"active","ping":82},{"user_id":139,"name":"altra","steam_id":76561198117148323,"connected_time":2679000000000,"state":"active","ping":60},{"user_id":113,"name":"Amy Roxwell","steam_id":76561198303391830,"connected_time":4534000000000,"state":"active","ping":130},{"user_id":177,"name":"Jota borl","steam_id":76561198125150775,"connected_time":375000000000,"state":"active","ping":138},{"user_id":173,"name":"yogurt","steam_id":76561198094246376,"connected_time":689000000000,"state":"active","ping":67},{"user_id":140,"name":"scarybroccoli","steam_id":76561198296440084,"connected_time":2647000000000,"state":"active","ping":79}]},{"server_id":106,"name":"Uncletopia | Chicago | 2 | All Maps","name_short":"chi-2","host":"chi-1.us.uncletopia.com","port":27025,"enabled":true,"region":"us-central","cc":"us","latitude":41.881832,"longitude":-87.62318,"reserved":0,"last_update":"0001-01-01T00:00:00Z","name_a2s":"Uncletopia | Chicago | 2 | All Maps","protocol":17,"map":"pl_frontier_final","folder":"tf","game":"Team Fortress","app_id":440,"player_count":24,"max_players":24,"Bots":0,"server_type":"Dedicated","server_os":"Linux","password":true,"vac":true,"version":"7708610","steam_id":85568392924469985,"keywords":["nocrits","nodmgspread","payload","uncletopia"],"game_id":440,"stv_port":27026,"stv_name":"Uncletopia | Chicago | 2 | All Maps | STV","players":[{"user_id":110,"name":"--_Cook_--","steam_id":76561198080855748,"connected_time":182000000000,"state":"active","ping":45},{"user_id":91,"name":"Turnups","steam_id":76561199078299198,"connected_time":1139000000000,"state":"active","ping":82},{"user_id":96,"name":"Le","steam_id":76561198817754233,"connected_time":1021000000000,"state":"active","ping":52},{"user_id":16,"name":"Skeedie","steam_id":76561198268591634,"connected_time":7266000000000,"state":"active","ping":75},{"user_id":17,"name":"the ape","steam_id":76561198097847998,"connected_time":7235000000000,"state":"active","ping":68},{"user_id":18,"name":"Malleo777","steam_id":76561198097995505,"connected_time":7012000000000,"state":"active","ping":78},{"user_id":115,"name":"thecal","steam_id":76561198307893384,"connected_time":86000000000,"state":"active","ping":51},{"user_id":101,"name":"komi","steam_id":76561198321442747,"connected_time":720000000000,"state":"active","ping":78},{"user_id":113,"name":"abomination","steam_id":76561198167974713,"connected_time":100000000000,"state":"active","ping":74},{"user_id":69,"name":"Satori Komeiji","steam_id":76561198158211423,"connected_time":2646000000000,"state":"active","ping":93},{"user_id":108,"name":"KORF","steam_id":76561197981904410,"connected_time":465000000000,"state":"active","ping":75},{"user_id":79,"name":"AdmiralSharpie","steam_id":76561198066394239,"connected_time":1880000000000,"state":"active","ping":65},{"user_id":81,"name":"stryker","steam_id":76561198373409641,"connected_time":1839000000000,"state":"active","ping":68},{"user_id":93,"name":"Civic Wayfinder","steam_id":76561198060320953,"connected_time":1104000000000,"state":"active","ping":63},{"user_id":68,"name":"asfd","steam_id":76561198012566405,"connected_time":2703000000000,"state":"active","ping":69},{"user_id":83,"name":"Turtle","steam_id":76561198262110064,"connected_time":1810000000000,"state":"active","ping":100},{"user_id":102,"name":"‡∂û","steam_id":76561198212111977,"connected_time":705000000000,"state":"active","ping":115},{"user_id":109,"name":"GreekGoat_Coffee","steam_id":76561198129331088,"connected_time":420000000000,"state":"active","ping":45},{"user_id":104,"name":"Plasic74x","steam_id":76561199058981206,"connected_time":570000000000,"state":"active","ping":82},{"user_id":114,"name":"Fitts1099","steam_id":76561198044986906,"connected_time":98000000000,"state":"active","ping":46},{"user_id":103,"name":"Female Gamer","steam_id":76561199366482682,"connected_time":697000000000,"state":"active","ping":97},{"user_id":78,"name":"Dingoid","steam_id":76561198065665995,"connected_time":1986000000000,"state":"active","ping":81},{"user_id":67,"name":"Sir Tea","steam_id":76561198353912752,"connected_time":2734000000000,"state":"active","ping":59},{"user_id":116,"name":"Potential E-girl","steam_id":76561198154447075,"connected_time":82000000000,"state":"active","ping":67}]},{"server_id":402,"name":"Uncletopia | Chicago | 3 | All Maps","name_short":"chi-3","host":"chi-1.us.uncletopia.com","port":27035,"enabled":true,"region":"us-central","cc":"us","latitude":41.881832,"longitude":-87.62318,"reserved":0,"last_update":"0001-01-01T00:00:00Z","name_a2s":"Uncletopia | Chicago | 3 | All Maps","protocol":17,"map":"koth_viaduct","folder":"tf","game":"Team Fortress","app_id":440,"player_count":0,"max_players":24,"Bots":0,"server_type":"Dedicated","server_os":"Linux","password":true,"vac":true,"version":"7708610","steam_id":85568392924515191,"keywords":["cp","nocrits","nodmgspread","uncletopia"],"game_id":440,"stv_port":27036,"stv_name":"Uncletopia | Chicago | 3 | All Maps | STV","players":null},{"server_id":403,"name":"Uncletopia | Chicago | 4 | All Maps","name_short":"chi-4","host":"chi-1.us.uncletopia.com","port":27045,"enabled":true,"region":"us-central","cc":"us","latitude":41.881832,"longitude":-87.62318,"reserved":0,"last_update":"0001-01-01T00:00:00Z","name_a2s":"Uncletopia | Chicago | 4 | All Maps","protocol":17,"map":"pl_upward","folder":"tf","game":"Team Fortress","app_id":440,"player_count":24,"max_players":24,"Bots":0,"server_type":"Dedicated","server_os":"Linux","password":true,"vac":true,"version":"7708610","steam_id":85568392924515193,"keywords":["nocrits","nodmgspread","payload","uncletopia"],"game_id":440,"stv_port":27046,"stv_name":"Uncletopia | Chicago | 4 | All Maps | STV","players":[{"user_id":86,"name":"OKB-812","steam_id":76561199172118456,"connected_time":202000000000,"state":"active","ping":59},{"user_id":85,"name":"herb","steam_id":76561198185980055,"connected_time":230000000000,"state":"active","ping":62},{"user_id":76,"name":"the12xu","steam_id":76561198197086561,"connected_time":964000000000,"state":"active","ping":57},{"user_id":38,"name":"Fresh Lychee","steam_id":76561198045399559,"connected_time":3557000000000,"state":"active","ping":54},{"user_id":14,"name":"The World's Softest Sandwich","steam_id":76561198015577707,"connected_time":4925000000000,"state":"active","ping":75},{"user_id":52,"name":"SortOfABigDeal","steam_id":76561198323397375,"connected_time":2924000000000,"state":"active","ping":76},{"user_id":19,"name":"Lohskyl","steam_id":76561199193237621,"connected_time":4253000000000,"state":"active","ping":61},{"user_id":68,"name":"steakfarmasian","steam_id":76561198212754036,"connected_time":1587000000000,"state":"active","ping":60},{"user_id":83,"name":"vinny6","steam_id":76561198386735728,"connected_time":319000000000,"state":"active","ping":76},{"user_id":88,"name":"twitch.tv/Young_Sanity","steam_id":76561198395766307,"connected_time":83000000000,"state":"active","ping":46},{"user_id":30,"name":"workin for snapple","steam_id":76561198013732450,"connected_time":3830000000000,"state":"active","ping":49},{"user_id":33,"name":"jolo","steam_id":76561198042831480,"connected_time":3742000000000,"state":"active","ping":74},{"user_id":66,"name":"PintoVero","steam_id":76561198088369252,"connected_time":1649000000000,"state":"active","ping":60},{"user_id":81,"name":"Neil Degrassy","steam_id":76561198132980934,"connected_time":401000000000,"state":"active","ping":55},{"user_id":80,"name":"Talented","steam_id":76561198800259660,"connected_time":609000000000,"state":"active","ping":72},{"user_id":87,"name":"MenacingMekhet","steam_id":76561198053165462,"connected_time":171000000000,"state":"active","ping":67},{"user_id":73,"name":"Dewgong (real)","steam_id":76561198045999391,"connected_time":1197000000000,"state":"active","ping":73},{"user_id":75,"name":"chexo4","steam_id":76561198150532531,"connected_time":1116000000000,"state":"active","ping":70},{"user_id":74,"name":"john Bloodborne","steam_id":76561199002452936,"connected_time":1179000000000,"state":"active","ping":54},{"user_id":79,"name":"Gorky Gaming","steam_id":76561198438511115,"connected_time":737000000000,"state":"active","ping":68},{"user_id":43,"name":"Antreuse","steam_id":76561198219721132,"connected_time":3355000000000,"state":"active","ping":110},{"user_id":44,"name":"GreatColorGreen","steam_id":76561198284546954,"connected_time":3351000000000,"state":"active","ping":50},{"user_id":65,"name":"OneTrueCorvid","steam_id":76561199012953221,"connected_time":2033000000000,"state":"active","ping":88},{"user_id":48,"name":"masterjioncooperyah","steam_id":76561198119090832,"connected_time":3287000000000,"state":"active","ping":65}]},{"server_id":36,"name":"Uncletopia | Chicago | 5 | All Maps","name_short":"chi-5","host":"chi-2.us.uncletopia.com","port":27015,"enabled":true,"region":"us-central","cc":"us","latitude":41.881832,"longitude":-87.62318,"reserved":0,"last_update":"0001-01-01T00:00:00Z","name_a2s":"Uncletopia | Chicago | 5 | All Maps","protocol":17,"map":"cp_snakewater_final1","folder":"tf","game":"Team Fortress","app_id":440,"player_count":0,"max_players":24,"Bots":0,"server_type":"Dedicated","server_os":"Linux","password":true,"vac":true,"version":"7708610","steam_id":85568392924866362,"keywords":["cp","nocrits","nodmgspread","uncletopia"],"game_id":440,"stv_port":0,"stv_name":"","players":null},{"server_id":37,"name":"Uncletopia | Chicago | 6 | All Maps","name_short":"chi-6","host":"chi-2.us.uncletopia.com","port":27025,"enabled":true,"region":"us-central","cc":"us","latitude":41.881832,"longitude":-87.62318,"reserved":0,"last_update":"0001-01-01T00:00:00Z","name_a2s":"Uncletopia | Chicago | 6 | All Maps","protocol":17,"map":"koth_cascade","folder":"tf","game":"Team Fortress","app_id":440,"player_count":0,"max_players":24,"Bots":0,"server_type":"Dedicated","server_os":"Linux","password":true,"vac":true,"version":"7708610","steam_id":85568392924866363,"keywords":["cp","nocrits","nodmgspread","uncletopia"],"game_id":440,"stv_port":0,"stv_name":"","players":null},{"server_id":38,"name":"Uncletopia | Chicago | 7 | No Payload","name_short":"chi-7","host":"chi-2.us.uncletopia.com","port":27035,"enabled":true,"region":"us-central","cc":"us","latitude":41.881832,"longitude":-87.62318,"reserved":0,"last_update":"0001-01-01T00:00:00Z","name_a2s":"Uncletopia | Chicago | 7 | No Payload","protocol":17,"map":"koth_viaduct","folder":"tf","game":"Team Fortress","app_id":440,"player_count":0,"max_players":24,"Bots":0,"server_type":"Dedicated","server_os":"Linux","password":true,"vac":true,"version":"7708610","steam_id":85568392924866364,"keywords":["cp","nocrits","nodmgspread","uncletopia"],"game_id":440,"stv_port":0,"stv_name":"","players":null},{"server_id":39,"name":"Uncletopia | Chicago | 8 | Community","name_short":"chi-8","host":"chi-2.us.uncletopia.com","port":27045,"enabled":true,"region":"us-central","cc":"us","latitude":41.881832,"longitude":-87.62318,"reserved":0,"last_update":"0001-01-01T00:00:00Z","name_a2s":"Uncletopia | Chicago | 8 | Community","protocol":17,"map":"workshop/koth_bagel_rc5.ugc2514036946","folder":"tf","game":"Team Fortress","app_id":440,"player_count":0,"max_players":24,"Bots":0,"server_type":"Dedicated","server_os":"Linux","password":true,"vac":true,"version":"7708610","steam_id":85568392924866365,"keywords":["cp","nocrits","nodmgspread","uncletopia"],"game_id":440,"stv_port":27046,"stv_name":"Uncletopia | Chicago | 8 | Community | STV","players":null},{"server_id":8,"name":"Uncletopia | Dallas | 1 | All Maps","name_short":"dal-1","host":"dal-1.us.uncletopia.com","port":27015,"enabled":true,"region":"us-central","cc":"us","latitude":32.779167,"longitude":-96.80889,"reserved":0,"last_update":"0001-01-01T00:00:00Z","name_a2s":"Uncletopia | Dallas | 1 | All Maps","protocol":17,"map":"pl_borneo","folder":"tf","game":"Team Fortress","app_id":440,"player_count":23,"max_players":24,"Bots":0,"server_type":"Dedicated","server_os":"Linux","password":true,"vac":true,"version":"7708610","steam_id":85568392924469986,"keywords":["nocrits","nodmgspread","payload","uncletopia"],"game_id":440,"stv_port":27016,"stv_name":"Uncletopia | Dallas | 1 | All Maps | STV","players":[{"user_id":232,"name":"CHIEF","steam_id":76561198011209422,"connected_time":3348000000000,"state":"active","ping":46},{"user_id":251,"name":"Goofbal1","steam_id":76561199090368452,"connected_time":729000000000,"state":"active","ping":92},{"user_id":255,"name":"Killer Cream","steam_id":76561199081796951,"connected_time":449000000000,"state":"active","ping":73},{"user_id":215,"name":"groda_spel","steam_id":76561198121349387,"connected_time":5121000000000,"state":"active","ping":54},{"user_id":207,"name":"moe","steam_id":76561198929586245,"connected_time":5559000000000,"state":"active","ping":69},{"user_id":187,"name":"oct9ber f9rever","steam_id":76561198036283992,"connected_time":7033000000000,"state":"active","ping":75},{"user_id":269,"name":"Hyperion","steam_id":76561198362095672,"connected_time":203000000000,"state":"active","ping":84},{"user_id":257,"name":"Nevu","steam_id":76561198378240571,"connected_time":448000000000,"state":"active","ping":120},{"user_id":270,"name":"Zorlovo","steam_id":76561198006443283,"connected_time":153000000000,"state":"active","ping":74},{"user_id":239,"name":"A Random Guy","steam_id":76561198282519457,"connected_time":2019000000000,"state":"active","ping":54},{"user_id":267,"name":"rampu","steam_id":76561198355756412,"connected_time":304000000000,"state":"active","ping":74},{"user_id":237,"name":"Passive-Aggressive Land Whale","steam_id":76561198058057999,"connected_time":3125000000000,"state":"active","ping":66},{"user_id":271,"name":"Gnat","steam_id":76561198109747863,"connected_time":124000000000,"state":"active","ping":45},{"user_id":249,"name":"Wump ‡ßπ¬∞ :·µõ‚ó† ∑ ‚Çí¬∞‡ßπ","steam_id":76561197997817642,"connected_time":1225000000000,"state":"active","ping":87},{"user_id":252,"name":"Mr.Indian Jokar","steam_id":76561198381343086,"connected_time":679000000000,"state":"active","ping":73},{"user_id":264,"name":"The Krinkler","steam_id":76561198020308956,"connected_time":371000000000,"state":"active","ping":60},{"user_id":219,"name":"Spazz","steam_id":76561198036167494,"connected_time":4621000000000,"state":"active","ping":54},{"user_id":244,"name":"jayv","steam_id":76561198210215504,"connected_time":1420000000000,"state":"active","ping":44},{"user_id":227,"name":"manbearswineflu","steam_id":76561198083945137,"connected_time":3861000000000,"state":"active","ping":65},{"user_id":245,"name":"Braixen","steam_id":76561198354314389,"connected_time":1415000000000,"state":"active","ping":70},{"user_id":272,"name":"[LINUX] F2P=S*(M/B)+H || Spy!","steam_id":76561198093538786,"connected_time":112000000000,"state":"active","ping":45},{"user_id":206,"name":"Big Yoshi","steam_id":76561199160576376,"connected_time":5702000000000,"state":"active","ping":97},{"user_id":247,"name":"Crusty Demons [REAL]","steam_id":76561198094620058,"connected_time":1348000000000,"state":"active","ping":43}]},{"server_id":108,"name":"Uncletopia | Dallas | 2 | All Maps","name_short":"dal-2","host":"dal-1.us.uncletopia.com","port":27025,"enabled":true,"region":"us-central","cc":"us","latitude":32.779167,"longitude":-96.80889,"reserved":0,"last_update":"0001-01-01T00:00:00Z","name_a2s":"Uncletopia | Dallas | 2 | All Maps","protocol":17,"map":"cp_dustbowl","folder":"tf","game":"Team Fortress","app_id":440,"player_count":24,"max_players":24,"Bots":0,"server_type":"Dedicated","server_os":"Linux","password":true,"vac":true,"version":"7708610","steam_id":85568392924469988,"keywords":["cp","nocrits","nodmgspread","uncletopia"],"game_id":440,"stv_port":27026,"stv_name":"Uncletopia | Dallas | 2 | All Maps | STV","players":[{"user_id":94,"name":"Lospolloshermano","steam_id":76561199157627437,"connected_time":718000000000,"state":"active","ping":72},{"user_id":92,"name":"plutonium isotope","steam_id":76561198319442494,"connected_time":745000000000,"state":"active","ping":115},{"user_id":79,"name":"TeriyakiDynamite","steam_id":76561198050049346,"connected_time":2595000000000,"state":"active","ping":88},{"user_id":110,"name":"anabolic steroids","steam_id":76561199097771720,"connected_time":232000000000,"state":"active","ping":83},{"user_id":117,"name":"PapaBluss","steam_id":76561198023499564,"connected_time":128000000000,"state":"active","ping":71},{"user_id":113,"name":"I Swallowed Shampoo","steam_id":76561198075130050,"connected_time":190000000000,"state":"active","ping":69},{"user_id":93,"name":"Lolxdloldx","steam_id":76561198136887125,"connected_time":744000000000,"state":"active","ping":76},{"user_id":118,"name":"MrLeftTurn","steam_id":76561198856743969,"connected_time":75000000000,"state":"active","ping":139},{"user_id":90,"name":"filthycasual","steam_id":76561199138226238,"connected_time":848000000000,"state":"active","ping":106},{"user_id":81,"name":"Samrizo el Chorizo","steam_id":76561198009838162,"connected_time":2237000000000,"state":"active","ping":87},{"user_id":34,"name":"Owl Pacino","steam_id":76561197979970666,"connected_time":4941000000000,"state":"active","ping":74},{"user_id":96,"name":"nolife","steam_id":76561198414300607,"connected_time":653000000000,"state":"active","ping":81},{"user_id":115,"name":"You can now play as Luigi","steam_id":76561198280123746,"connected_time":152000000000,"state":"active","ping":105},{"user_id":97,"name":"Moonflower ‚ú¶","steam_id":76561198191782483,"connected_time":646000000000,"state":"active","ping":48},{"user_id":98,"name":"Go Away","steam_id":76561199213453506,"connected_time":643000000000,"state":"active","ping":107},{"user_id":99,"name":"Lord_Manship","steam_id":76561198045168765,"connected_time":631000000000,"state":"active","ping":99},{"user_id":80,"name":"Agent Bowtie","steam_id":76561198175839279,"connected_time":2533000000000,"state":"active","ping":53},{"user_id":101,"name":"Pathara44","steam_id":76561198048238620,"connected_time":592000000000,"state":"active","ping":57},{"user_id":84,"name":"soft G","steam_id":76561198109876007,"connected_time":1971000000000,"state":"active","ping":107},{"user_id":59,"name":"tingle shitmouth","steam_id":76561198055109192,"connected_time":4129000000000,"state":"active","ping":90},{"user_id":82,"name":"Shalom","steam_id":76561198410005222,"connected_time":2226000000000,"state":"active","ping":61},{"user_id":76,"name":"A Bic Lighter","steam_id":76561198070606068,"connected_time":2700000000000,"state":"active","ping":75},{"user_id":116,"name":"Nightfall","steam_id":76561198169718867,"connected_time":139000000000,"state":"active","ping":107},{"user_id":109,"name":"Zephon","steam_id":76561198023552881,"connected_time":324000000000,"state":"active","ping":91}]},{"server_id":5,"name":"Uncletopia | Frankfurt | 1 | All Maps","name_short":"frk-1","host":"frk-1.de.uncletopia.com","port":27015,"enabled":true,"region":"eu","cc":"de","latitude":50.110924,"longitude":8.682127,"reserved":0,"last_update":"0001-01-01T00:00:00Z","name_a2s":"Uncletopia | Frankfurt | 1 | All Maps","protocol":17,"map":"koth_viaduct","folder":"tf","game":"Team Fortress","app_id":440,"player_count":10,"max_players":24,"Bots":0,"server_type":"Dedicated","server_os":"Linux","password":true,"vac":true,"version":"7708610","steam_id":85568392924469989,"keywords":["cp","nocrits","nodmgspread","uncletopia"],"game_id":440,"stv_port":27016,"stv_name":"Uncletopia | Frankfurt | 1 | All Maps | STV","players":[{"user_id":495,"name":"PierraNova","steam_id":76561198145686102,"connected_time":322000000000,"state":"active","ping":54},{"user_id":492,"name":"Lime","steam_id":76561198166474281,"connected_time":410000000000,"state":"active","ping":43},{"user_id":499,"name":"shuffler12","steam_id":76561198083063005,"connected_time":128000000000,"state":"active","ping":57},{"user_id":500,"name":"üåº POWER_Hugee","steam_id":76561198245495152,"connected_time":121000000000,"state":"active","ping":62},{"user_id":501,"name":"jacob rothschild","steam_id":76561198870764276,"connected_time":102000000000,"state":"active","ping":70},{"user_id":502,"name":"JoueurFran√ßais","steam_id":76561198108081068,"connected_time":49000000000,"state":"active","ping":52},{"user_id":503,"name":"Mata","steam_id":76561198308191713,"connected_time":42000000000,"state":"active","ping":98},{"user_id":481,"name":"Nikkis","steam_id":76561198190420055,"connected_time":1290000000000,"state":"active","ping":60},{"user_id":469,"name":"Caskye","steam_id":76561198165430888,"connected_time":1800000000000,"state":"active","ping":70},{"user_id":474,"name":"PoisonedPC","steam_id":76561198280169179,"connected_time":1692000000000,"state":"active","ping":79}]},{"server_id":110,"name":"Uncletopia | Frankfurt | 2 | All Maps","name_short":"frk-2","host":"frk-1.de.uncletopia.com","port":27025,"enabled":true,"region":"eu","cc":"de","latitude":50.110924,"longitude":8.682127,"reserved":0,"last_update":"0001-01-01T00:00:00Z","name_a2s":"Uncletopia | Frankfurt | 2 | All Maps","protocol":17,"map":"pl_chilly","folder":"tf","game":"Team Fortress","app_id":440,"player_count":24,"max_players":24,"Bots":0,"server_type":"Dedicated","server_os":"Linux","password":true,"vac":true,"version":"7708610","steam_id":85568392924469990,"keywords":["nocrits","nodmgspread","payload","uncletopia"],"game_id":440,"stv_port":27026,"stv_name":"Uncletopia | Frankfurt | 2 | All Maps | STV","players":[{"user_id":354,"name":"Mister Sam","steam_id":76561198791782220,"connected_time":2174000000000,"state":"active","ping":134},{"user_id":382,"name":"Moebius","steam_id":76561198045069988,"connected_time":693000000000,"state":"active","ping":59},{"user_id":397,"name":"wasps","steam_id":76561198049485054,"connected_time":222000000000,"state":"active","ping":80},{"user_id":386,"name":"Ampiong99","steam_id":76561199245197481,"connected_time":466000000000,"state":"active","ping":60},{"user_id":377,"name":"Lamission","steam_id":76561198802762169,"connected_time":1069000000000,"state":"active","ping":133},{"user_id":393,"name":"Novitia","steam_id":76561198236422680,"connected_time":275000000000,"state":"active","ping":45},{"user_id":378,"name":"Madeen","steam_id":76561198051120288,"connected_time":1061000000000,"state":"active","ping":49},{"user_id":394,"name":"Enforcer02","steam_id":76561197966045944,"connected_time":262000000000,"state":"active","ping":58},{"user_id":379,"name":"presidentialAIDS","steam_id":76561199257284077,"connected_time":1045000000000,"state":"active","ping":134},{"user_id":395,"name":"Troodon","steam_id":76561198223648788,"connected_time":251000000000,"state":"active","ping":106},{"user_id":360,"name":"amberkleurig","steam_id":76561198394582460,"connected_time":1990000000000,"state":"active","ping":60},{"user_id":263,"name":"0xDEADBEEF","steam_id":76561199075416111,"connected_time":8198000000000,"state":"active","ping":82},{"user_id":361,"name":"Martin","steam_id":76561198350826913,"connected_time":1971000000000,"state":"active","ping":52},{"user_id":344,"name":"freemantel30","steam_id":76561198065669800,"connected_time":2972000000000,"state":"active","ping":49},{"user_id":322,"name":"Shynii","steam_id":76561198194682105,"connected_time":4266000000000,"state":"active","ping":68},{"user_id":362,"name":"Bancsli (Help me pls)","steam_id":76561198144783422,"connected_time":1970000000000,"state":"active","ping":65},{"user_id":384,"name":"C++","steam_id":76561198214855155,"connected_time":670000000000,"state":"active","ping":74},{"user_id":284,"name":":)","steam_id":76561198039964082,"connected_time":6841000000000,"state":"active","ping":57},{"user_id":364,"name":"Marko Rutto","steam_id":76561198124226614,"connected_time":1951000000000,"state":"active","ping":61},{"user_id":349,"name":"RingSound","steam_id":76561198078341462,"connected_time":2795000000000,"state":"active","ping":101},{"user_id":365,"name":"Evelyn","steam_id":76561199168560115,"connected_time":1943000000000,"state":"active","ping":54},{"user_id":374,"name":"Alfred2.2","steam_id":76561198339314744,"connected_time":1228000000000,"state":"active","ping":54},{"user_id":242,"name":"The Wolf Leader","steam_id":76561198038007462,"connected_time":10122000000000,"state":"active","ping":59},{"user_id":398,"name":"I Break Mirrors With My Face","steam_id":76561198983900735,"connected_time":195000000000,"state":"active","ping":55}]},{"server_id":308,"name":"Uncletopia | Frankfurt | 3 | All Maps","name_short":"frk-3","host":"frk-1.de.uncletopia.com","port":27035,"enabled":true,"region":"eu","cc":"de","latitude":50.110924,"longitude":8.682127,"reserved":0,"last_update":"0001-01-01T00:00:00Z","name_a2s":"Uncletopia | Frankfurt | 3 | All Maps","protocol":17,"map":"pl_frontier_final","folder":"tf","game":"Team Fortress","app_id":440,"player_count":24,"max_players":24,"Bots":0,"server_type":"Dedicated","server_os":"Linux","password":true,"vac":true,"version":"7708610","steam_id":85568392924504274,"keywords":["nocrits","nodmgspread","payload","uncletopia"],"game_id":440,"stv_port":27036,"stv_name":"Uncletopia | Frankfurt | 3 | All Maps | STV","players":[{"user_id":456,"name":"deri100","steam_id":76561198397588574,"connected_time":4289000000000,"state":"active","ping":65},{"user_id":501,"name":"Phiphler","steam_id":76561197994055715,"connected_time":1616000000000,"state":"active","ping":58},{"user_id":507,"name":"blindentity","steam_id":76561199240783683,"connected_time":1450000000000,"state":"active","ping":183},{"user_id":498,"name":"gorrian","steam_id":76561198278199225,"connected_time":1823000000000,"state":"active","ping":78},{"user_id":480,"name":"‚Ñã‚Ñá·ºÇ·πº‡¥¥","steam_id":76561199062259389,"connected_time":2789000000000,"state":"active","ping":139},{"user_id":475,"name":"Pain","steam_id":76561198106997949,"connected_time":2970000000000,"state":"active","ping":74},{"user_id":499,"name":"JimJam","steam_id":76561199002957746,"connected_time":1795000000000,"state":"active","ping":69},{"user_id":493,"name":"Baklava Enjoyer","steam_id":76561198990679631,"connected_time":2253000000000,"state":"active","ping":129},{"user_id":478,"name":"kyzzie-O","steam_id":76561198099021004,"connected_time":2892000000000,"state":"active","ping":107},{"user_id":448,"name":"Welder","steam_id":76561198355300561,"connected_time":4717000000000,"state":"active","ping":66},{"user_id":491,"name":"Musicano","steam_id":76561198114541088,"connected_time":2373000000000,"state":"active","ping":90},{"user_id":502,"name":"slippys","steam_id":76561198389760428,"connected_time":1595000000000,"state":"active","ping":62},{"user_id":494,"name":"Pachakamakk","steam_id":76561197989010401,"connected_time":2193000000000,"state":"active","ping":57},{"user_id":450,"name":"Dark Lord","steam_id":76561198047359132,"connected_time":4679000000000,"state":"active","ping":74},{"user_id":495,"name":"Raeews","steam_id":76561198254646517,"connected_time":2123000000000,"state":"active","ping":46},{"user_id":509,"name":"Senator Armstrong","steam_id":76561198984346408,"connected_time":1427000000000,"state":"active","ping":74},{"user_id":514,"name":"Numbe","steam_id":76561198269614930,"connected_time":608000000000,"state":"active","ping":92},{"user_id":483,"name":"Luke SpyWalker","steam_id":76561198008643276,"connected_time":2713000000000,"state":"active","ping":61},{"user_id":489,"name":"DiDi","steam_id":76561198125563537,"connected_time":2443000000000,"state":"active","ping":95},{"user_id":515,"name":"Le Unabomber","steam_id":76561198869003596,"connected_time":603000000000,"state":"active","ping":82},{"user_id":508,"name":"padillacampos","steam_id":76561198161923970,"connected_time":1447000000000,"state":"active","ping":85},{"user_id":512,"name":"chopeur par l'corb","steam_id":76561198072093365,"connected_time":1237000000000,"state":"active","ping":55},{"user_id":513,"name":"zZz","steam_id":76561199135518221,"connected_time":1207000000000,"state":"active","ping":74}]},{"server_id":309,"name":"Uncletopia | Frankfurt | 4 | All Maps","name_short":"frk-4","host":"frk-1.de.uncletopia.com","port":27045,"enabled":true,"region":"eu","cc":"de","latitude":50.110924,"longitude":8.682127,"reserved":0,"last_update":"0001-01-01T00:00:00Z","name_a2s":"Uncletopia | Frankfurt | 4 | All Maps","protocol":17,"map":"pl_upward","folder":"tf","game":"Team Fortress","app_id":440,"player_count":24,"max_players":24,"Bots":0,"server_type":"Dedicated","server_os":"Linux","password":true,"vac":true,"version":"7708610","steam_id":85568392924504275,"keywords":["nocrits","nodmgspread","payload","uncletopia"],"game_id":440,"stv_port":27046,"stv_name":"Uncletopia | Frankfurt | 4 | All Maps | STV","players":[{"user_id":556,"name":"Aoshi","steam_id":76561198043868358,"connected_time":795000000000,"state":"active","ping":60},{"user_id":551,"name":"Mklavzovc","steam_id":76561198305794970,"connected_time":1045000000000,"state":"active","ping":73},{"user_id":543,"name":"After8","steam_id":76561198090750865,"connected_time":1991000000000,"state":"active","ping":63},{"user_id":504,"name":"Henk_de_Patatman","steam_id":76561198070103191,"connected_time":4331000000000,"state":"active","ping":44},{"user_id":495,"name":"The Ilusive Man","steam_id":76561198332917045,"connected_time":5331000000000,"state":"active","ping":102},{"user_id":541,"name":"Shlyk","steam_id":76561198333387103,"connected_time":2500000000000,"state":"active","ping":98},{"user_id":514,"name":"Nyreen Nebula","steam_id":76561199437842841,"connected_time":3678000000000,"state":"active","ping":109},{"user_id":549,"name":"Floppa-z","steam_id":76561199385382550,"connected_time":1285000000000,"state":"active","ping":112},{"user_id":554,"name":"walpurgis","steam_id":76561199117720299,"connected_time":914000000000,"state":"active","ping":51},{"user_id":562,"name":"?","steam_id":76561199114927025,"connected_time":22000000000,"state":"spawning","ping":122},{"user_id":547,"name":"miszcz2137 (Don't uber me)","steam_id":76561198432568243,"connected_time":1697000000000,"state":"active","ping":117},{"user_id":552,"name":"NatP","steam_id":76561198012083811,"connected_time":1006000000000,"state":"active","ping":75},{"user_id":546,"name":"Galzra87","steam_id":76561198063414443,"connected_time":1813000000000,"state":"active","ping":72},{"user_id":407,"name":"–ó–∞–¥–Ω–µ–ø—Ä–æ—Ö–æ–¥–µ—Ü","steam_id":76561198059741978,"connected_time":11311000000000,"state":"active","ping":77},{"user_id":517,"name":"Rohlc","steam_id":76561199056443047,"connected_time":3601000000000,"state":"active","ping":60},{"user_id":524,"name":"T1 (ted1)","steam_id":76561199229022826,"connected_time":3386000000000,"state":"active","ping":95},{"user_id":519,"name":"Bob Salami","steam_id":76561198150681340,"connected_time":3538000000000,"state":"active","ping":90},{"user_id":558,"name":"steve","steam_id":76561198076135756,"connected_time":292000000000,"state":"active","ping":54},{"user_id":538,"name":"—Ç—É–∫–∫—É –∏—Ä–º–∞","steam_id":76561197998715016,"connected_time":2774000000000,"state":"active","ping":60},{"user_id":523,"name":"Wildfap","steam_id":76561198075816743,"connected_time":3429000000000,"state":"active","ping":74},{"user_id":537,"name":"Pabs :D","steam_id":76561198000016962,"connected_time":2831000000000,"state":"active","ping":62},{"user_id":526,"name":"regen","steam_id":76561198037550223,"connected_time":3340000000000,"state":"active","ping":111},{"user_id":529,"name":"DocTwoEight","steam_id":76561198153488940,"connected_time":3208000000000,"state":"active","ping":66},{"user_id":561,"name":"Perci","steam_id":76561198097789669,"connected_time":109000000000,"state":"active","ping":63}]},{"server_id":310,"name":"Uncletopia | Frankfurt | 5 | All Maps","name_short":"frk-5","host":"frk-1.de.uncletopia.com","port":27055,"enabled":true,"region":"eu","cc":"de","latitude":50.110924,"longitude":8.682127,"reserved":0,"last_update":"0001-01-01T00:00:00Z","name_a2s":"Uncletopia | Frankfurt | 5 | All Maps","protocol":17,"map":"pl_snowycoast","folder":"tf","game":"Team Fortress","app_id":440,"player_count":24,"max_players":24,"Bots":0,"server_type":"Dedicated","server_os":"Linux","password":true,"vac":true,"version":"7708610","steam_id":85568392924504277,"keywords":["nocrits","nodmgspread","payload","uncletopia"],"game_id":440,"stv_port":27056,"stv_name":"Uncletopia | Frankfurt | 5 | All Maps | STV","players":[{"user_id":545,"name":"Jingleboob's Elf","steam_id":76561198067204908,"connected_time":86000000000,"state":"active","ping":69},{"user_id":534,"name":"Cardbrige","steam_id":76561198294453886,"connected_time":782000000000,"state":"active","ping":49},{"user_id":528,"name":"GGabesz","steam_id":76561198117199068,"connected_time":858000000000,"state":"active","ping":75},{"user_id":519,"name":"Kane","steam_id":76561198447582701,"connected_time":1804000000000,"state":"active","ping":53},{"user_id":529,"name":"KAZAM | Tervez","steam_id":76561198045459068,"connected_time":829000000000,"state":"active","ping":90},{"user_id":517,"name":"–ß–µ–ª–æ–≤–µ–∫ —è–π—Ü–∞","steam_id":76561198277599844,"connected_time":2044000000000,"state":"active","ping":99},{"user_id":521,"name":"zaleek69","steam_id":76561198058877595,"connected_time":1608000000000,"state":"active","ping":66},{"user_id":542,"name":"Light601","steam_id":76561198134998492,"connected_time":593000000000,"state":"active","ping":96},{"user_id":370,"name":"PlebCord","steam_id":76561198120685803,"connected_time":10053000000000,"state":"active","ping":84},{"user_id":530,"name":"jingleboob","steam_id":76561198097507847,"connected_time":826000000000,"state":"active","ping":75},{"user_id":531,"name":"kamekame","steam_id":76561198047108054,"connected_time":825000000000,"state":"active","ping":80},{"user_id":541,"name":"The 4th Doctor","steam_id":76561198191516706,"connected_time":677000000000,"state":"active","ping":59},{"user_id":535,"name":"scout gaming","steam_id":76561199380974466,"connected_time":781000000000,"state":"active","ping":94},{"user_id":485,"name":"linkinparkfan123","steam_id":76561199033782005,"connected_time":3802000000000,"state":"active","ping":87},{"user_id":504,"name":"Salih","steam_id":76561198287934839,"connected_time":3120000000000,"state":"active","ping":47},{"user_id":544,"name":"Hey, I¬¥m Andy!","steam_id":76561198060337777,"connected_time":156000000000,"state":"active","ping":63},{"user_id":516,"name":"SoupeurConscient","steam_id":76561199404717904,"connected_time":2096000000000,"state":"active","ping":77},{"user_id":538,"name":"Mr. Huntsman","steam_id":76561197981910397,"connected_time":746000000000,"state":"active","ping":63},{"user_id":539,"name":"prcg","steam_id":76561198047619456,"connected_time":743000000000,"state":"active","ping":73},{"user_id":513,"name":"Unusual Pseudo","steam_id":76561198001209810,"connected_time":2458000000000,"state":"active","ping":66},{"user_id":518,"name":"Der Herr Doktor","steam_id":76561198119476089,"connected_time":1973000000000,"state":"active","ping":62},{"user_id":540,"name":"lolimsogreat21","steam_id":76561199052033788,"connected_time":729000000000,"state":"active","ping":64},{"user_id":524,"name":"Wolframen","steam_id":76561198074103958,"connected_time":1219000000000,"state":"active","ping":67},{"user_id":523,"name":"FreeZ","steam_id":76561199070093469,"connected_time":1437000000000,"state":"active","ping":75}]},{"server_id":311,"name":"Uncletopia | Frankfurt | 6 | All Maps","name_short":"frk-6","host":"frk-1.de.uncletopia.com","port":27065,"enabled":true,"region":"eu","cc":"de","latitude":50.110924,"longitude":8.682127,"reserved":0,"last_update":"0001-01-01T00:00:00Z","name_a2s":"Uncletopia | Frankfurt | 6 | All Maps","protocol":17,"map":"pl_borneo","folder":"tf","game":"Team Fortress","app_id":440,"player_count":24,"max_players":24,"Bots":0,"server_type":"Dedicated","server_os":"Linux","password":true,"vac":true,"version":"7708610","steam_id":85568392924504278,"keywords":["nocrits","nodmgspread","payload","uncletopia"],"game_id":440,"stv_port":27066,"stv_name":"Uncletopia | Frankfurt | 6 | All Maps | STV","players":[{"user_id":161,"name":"garbage mikuknight","steam_id":76561198361819054,"connected_time":626000000000,"state":"active","ping":104},{"user_id":166,"name":"„Çπ„Éë„Ç§","steam_id":76561198393756976,"connected_time":402000000000,"state":"active","ping":88},{"user_id":175,"name":"Brick Samson","steam_id":76561198019076104,"connected_time":298000000000,"state":"active","ping":101},{"user_id":162,"name":"TNT 8412","steam_id":76561198847492398,"connected_time":604000000000,"state":"active","ping":64},{"user_id":145,"name":"TheBeardedM1G","steam_id":76561198040208946,"connected_time":2403000000000,"state":"active","ping":60},{"user_id":163,"name":"Nummi","steam_id":76561198980901935,"connected_time":495000000000,"state":"active","ping":86},{"user_id":148,"name":"Fat Pigeon","steam_id":76561198817940142,"connected_time":2296000000000,"state":"active","ping":49},{"user_id":158,"name":"AFon","steam_id":76561198080783287,"connected_time":1319000000000,"state":"active","ping":92},{"user_id":164,"name":"Whitebeard #Save TF2","steam_id":76561199136969991,"connected_time":487000000000,"state":"active","ping":83},{"user_id":165,"name":"Ivun","steam_id":76561198250199228,"connected_time":433000000000,"state":"active","ping":144},{"user_id":87,"name":"MagicTITIKAKA","steam_id":76561198129509548,"connected_time":5589000000000,"state":"active","ping":107},{"user_id":176,"name":"‚ôö Invictus ‚ôö","steam_id":76561198095692476,"connected_time":291000000000,"state":"active","ping":60},{"user_id":187,"name":"M√®re-Lachaiselongue","steam_id":76561198261094295,"connected_time":189000000000,"state":"active","ping":64},{"user_id":189,"name":"Muppburg","steam_id":76561198031070682,"connected_time":85000000000,"state":"active","ping":74},{"user_id":174,"name":"benifis163","steam_id":76561198420973492,"connected_time":330000000000,"state":"active","ping":99},{"user_id":177,"name":"Thors","steam_id":76561197968739075,"connected_time":276000000000,"state":"active","ping":45},{"user_id":180,"name":"Chysa","steam_id":76561198131794145,"connected_time":244000000000,"state":"active","ping":60},{"user_id":181,"name":"Realist 40","steam_id":76561198052476979,"connected_time":236000000000,"state":"active","ping":76},{"user_id":152,"name":"Swedde","steam_id":76561198297296440,"connected_time":2012000000000,"state":"active","ping":75},{"user_id":188,"name":"=OKB= P4NTH3R","steam_id":76561197999204603,"connected_time":124000000000,"state":"active","ping":57},{"user_id":190,"name":"Edla","steam_id":76561198062815315,"connected_time":84000000000,"state":"active","ping":99},{"user_id":185,"name":"JustNoSkill","steam_id":76561198399115995,"connected_time":196000000000,"state":"active","ping":58},{"user_id":140,"name":"Doriian","steam_id":76561198071438810,"connected_time":2673000000000,"state":"active","ping":85},{"user_id":186,"name":"not paying alimony emily","steam_id":76561198124416621,"connected_time":196000000000,"state":"active","ping":78}]},{"server_id":23,"name":"Uncletopia | Frankfurt | 7 | No Payload","name_short":"frk-7","host":"frk-1.de.uncletopia.com","port":27075,"enabled":true,"region":"eu","cc":"de","latitude":50.110924,"longitude":8.682127,"reserved":0,"last_update":"0001-01-01T00:00:00Z","name_a2s":"Uncletopia | Frankfurt | 7 | No Payload","protocol":17,"map":"cp_powerhouse","folder":"tf","game":"Team Fortress","app_id":440,"player_count":19,"max_players":24,"Bots":0,"server_type":"Dedicated","server_os":"Linux","password":true,"vac":true,"version":"7708610","steam_id":85568392924742827,"keywords":["cp","nocrits","nodmgspread","uncletopia"],"game_id":440,"stv_port":27076,"stv_name":"Uncletopia | Frankfurt | 7 | No Payload | STV","players":[{"user_id":32,"name":"Daan77","steam_id":76561198129940468,"connected_time":2612000000000,"state":"active","ping":65},{"user_id":61,"name":"Larry Penus","steam_id":76561198207546233,"connected_time":105000000000,"state":"active","ping":59},{"user_id":55,"name":"Delab Le Fou","steam_id":76561198846356572,"connected_time":154000000000,"state":"active","ping":120},{"user_id":56,"name":"Lizardly","steam_id":76561198176750238,"connected_time":153000000000,"state":"active","ping":69},{"user_id":34,"name":"Yobopan","steam_id":76561198088064860,"connected_time":2443000000000,"state":"active","ping":63},{"user_id":39,"name":"„ÉÜ„Éàgeo„É°„ÉÑ","steam_id":76561198118294331,"connected_time":1196000000000,"state":"active","ping":45},{"user_id":46,"name":"clems17","steam_id":76561199420685482,"connected_time":908000000000,"state":"active","ping":53},{"user_id":37,"name":"mustafacaliskan66","steam_id":76561199196348232,"connected_time":1737000000000,"state":"active","ping":109},{"user_id":68,"name":"Glam Stachee‚òÜ","steam_id":76561198115252607,"connected_time":23000000000,"state":"active","ping":82},{"user_id":42,"name":"aaaaa aa aaa","steam_id":76561198377289568,"connected_time":1143000000000,"state":"active","ping":49},{"user_id":48,"name":"Sklandu Rausis","steam_id":76561198150212823,"connected_time":635000000000,"state":"active","ping":85},{"user_id":59,"name":"Lady Maria","steam_id":76561198953210459,"connected_time":131000000000,"state":"active","ping":95},{"user_id":60,"name":"Communisam extremist","steam_id":76561199034293112,"connected_time":109000000000,"state":"active","ping":89},{"user_id":51,"name":"Mogwai","steam_id":76561198078832314,"connected_time":609000000000,"state":"active","ping":76},{"user_id":62,"name":"Walle","steam_id":76561197995148937,"connected_time":102000000000,"state":"active","ping":61},{"user_id":63,"name":"Supercle26","steam_id":76561199027147631,"connected_time":62000000000,"state":"active","ping":49},{"user_id":65,"name":"Valido ProsT√°ta","steam_id":76561198036118959,"connected_time":48000000000,"state":"active","ping":98},{"user_id":66,"name":"Blat","steam_id":76561199013233409,"connected_time":45000000000,"state":"active","ping":68},{"user_id":67,"name":"Markein","steam_id":76561198360754280,"connected_time":45000000000,"state":"spawning","ping":90}]},{"server_id":24,"name":"Uncletopia | Frankfurt | 8 | Community","name_short":"frk-8","host":"frk-1.de.uncletopia.com","port":27085,"enabled":true,"region":"eu","cc":"de","latitude":50.110924,"longitude":8.682127,"reserved":0,"last_update":"0001-01-01T00:00:00Z","name_a2s":"Uncletopia | Frankfurt | 8 | Community","protocol":17,"map":"workshop/koth_ashville_final.ugc2130459942","folder":"tf","game":"Team Fortress","app_id":440,"player_count":0,"max_players":24,"Bots":0,"server_type":"Dedicated","server_os":"Linux","password":true,"vac":true,"version":"7708610","steam_id":85568392924742828,"keywords":["cp","nocrits","nodmgspread","uncletopia"],"game_id":440,"stv_port":27086,"stv_name":"Uncletopia | Frankfurt | 8 | Community | STV","players":null},{"server_id":202,"name":"Uncletopia | Hong Kong | 1 | All Maps","name_short":"hgk-1","host":"hgk-1.hk.uncletopia.com","port":27015,"enabled":true,"region":"asia","cc":"hk","latitude":22.302711,"longitude":114.177216,"reserved":0,"last_update":"0001-01-01T00:00:00Z","name_a2s":"Uncletopia | Hong Kong | 1 | All Maps","protocol":17,"map":"plr_bananabay","folder":"tf","game":"Team Fortress","app_id":440,"player_count":0,"max_players":24,"Bots":0,"server_type":"Dedicated","server_os":"Linux","password":true,"vac":true,"version":"7708610","steam_id":85568392924494504,"keywords":["nocrits","nodmgspread","payload","uncletopia"],"game_id":440,"stv_port":27016,"stv_name":"Uncletopia | Hong Kong | 1 | All Maps | STV","players":null},{"server_id":1,"name":"Uncletopia | Los Angeles | 1 | All Maps","name_short":"lax-1","host":"lax-1.us.uncletopia.com","port":27015,"enabled":true,"region":"us-west","cc":"us","latitude":33.94279,"longitude":-118.41004,"reserved":0,"last_update":"0001-01-01T00:00:00Z","name_a2s":"Uncletopia | Los Angeles | 1 | All Maps","protocol":17,"map":"pl_frontier_final","folder":"tf","game":"Team Fortress","app_id":440,"player_count":0,"max_players":24,"Bots":0,"server_type":"Dedicated","server_os":"Linux","password":true,"vac":true,"version":"7708610","steam_id":85568392924469991,"keywords":["nocrits","nodmgspread","payload","uncletopia"],"game_id":440,"stv_port":27016,"stv_name":"Uncletopia | Los Angeles | 1 | All Maps | STV","players":null},{"server_id":112,"name":"Uncletopia | Los Angeles | 2 | All Maps","name_short":"lax-2","host":"lax-1.us.uncletopia.com","port":27025,"enabled":true,"region":"us-west","cc":"us","latitude":33.94279,"longitude":-118.41004,"reserved":0,"last_update":"0001-01-01T00:00:00Z","name_a2s":"Uncletopia | Los Angeles | 2 | All Maps","protocol":17,"map":"cp_altitude","folder":"tf","game":"Team Fortress","app_id":440,"player_count":0,"max_players":24,"Bots":0,"server_type":"Dedicated","server_os":"Linux","password":true,"vac":true,"version":"7708610","steam_id":85568392924469992,"keywords":["cp","nocrits","nodmgspread","uncletopia"],"game_id":440,"stv_port":0,"stv_name":"","players":null},{"server_id":324,"name":"Uncletopia | Los Angeles | 3 | All Maps","name_short":"lax-3","host":"lax-1.us.uncletopia.com","port":27035,"enabled":true,"region":"us-west","cc":"us","latitude":33.94279,"longitude":-118.41004,"reserved":0,"last_update":"0001-01-01T00:00:00Z","name_a2s":"Uncletopia | Los Angeles | 3 | All Maps","protocol":17,"map":"cp_altitude","folder":"tf","game":"Team Fortress","app_id":440,"player_count":0,"max_players":24,"Bots":0,"server_type":"Dedicated","server_os":"Linux","password":true,"vac":true,"version":"7708610","steam_id":85568392924510198,"keywords":["cp","nocrits","nodmgspread","uncletopia"],"game_id":440,"stv_port":0,"stv_name":"","players":null},{"server_id":25,"name":"Uncletopia | Los Angeles | 4 | No Payload","name_short":"lax-4","host":"lax-1.us.uncletopia.com","port":27045,"enabled":true,"region":"us-west","cc":"us","latitude":33.94279,"longitude":-118.41004,"reserved":0,"last_update":"0001-01-01T00:00:00Z","name_a2s":"Uncletopia | Los Angeles | 4 | No Payload","protocol":17,"map":"pl_upward","folder":"tf","game":"Team Fortress","app_id":440,"player_count":0,"max_players":24,"Bots":0,"server_type":"Dedicated","server_os":"Linux","password":true,"vac":true,"version":"7708610","steam_id":85568392924510199,"keywords":["nocrits","nodmgspread","payload","uncletopia"],"game_id":440,"stv_port":0,"stv_name":"","players":null},{"server_id":11,"name":"Uncletopia | London | 1 | All Maps","name_short":"lon-1","host":"lon-1.uk.uncletopia.com","port":27015,"enabled":true,"region":"eu","cc":"gb","latitude":51.509865,"longitude":-0.118092,"reserved":0,"last_update":"0001-01-01T00:00:00Z","name_a2s":"Uncletopia | London | 1 | All Maps","protocol":17,"map":"cp_altitude","folder":"tf","game":"Team Fortress","app_id":440,"player_count":24,"max_players":24,"Bots":0,"server_type":"Dedicated","server_os":"Linux","password":true,"vac":true,"version":"7708610","steam_id":85568392924367362,"keywords":["cp","nocrits","nodmgspread","uncletopia"],"game_id":440,"stv_port":27016,"stv_name":"Uncletopia | London | 1 | All Maps | STV","players":[{"user_id":375,"name":"venomew2","steam_id":76561198327081077,"connected_time":4487000000000,"state":"active","ping":167},{"user_id":404,"name":"Jam","steam_id":76561198090409013,"connected_time":1676000000000,"state":"active","ping":85},{"user_id":418,"name":"( ]KROAN[ )","steam_id":76561198022840710,"connected_time":367000000000,"state":"active","ping":74},{"user_id":410,"name":"9TByron","steam_id":76561198086730020,"connected_time":1217000000000,"state":"active","ping":41},{"user_id":425,"name":"redder","steam_id":76561198168231617,"connected_time":5000000000,"state":"spawning","ping":59},{"user_id":408,"name":"Ecton","steam_id":76561198025103720,"connected_time":1228000000000,"state":"active","ping":53},{"user_id":371,"name":"G6 sherlock","steam_id":76561198802967796,"connected_time":4899000000000,"state":"active","ping":107},{"user_id":398,"name":"STANISLAV","steam_id":76561198007394937,"connected_time":2516000000000,"state":"active","ping":84},{"user_id":424,"name":"Clitorina","steam_id":76561198077570815,"connected_time":122000000000,"state":"active","ping":41},{"user_id":420,"name":"Hero8171","steam_id":76561199239824271,"connected_time":324000000000,"state":"active","ping":139},{"user_id":383,"name":"Bonca","steam_id":76561198137503531,"connected_time":3714000000000,"state":"active","ping":74},{"user_id":405,"name":"whimsmas.","steam_id":76561198878171763,"connected_time":1565000000000,"state":"active","ping":46},{"user_id":385,"name":"Eleos","steam_id":76561198011040796,"connected_time":3679000000000,"state":"active","ping":77},{"user_id":381,"name":"chrissymas","steam_id":76561198096547662,"connected_time":3719000000000,"state":"active","ping":50},{"user_id":415,"name":"Dingus","steam_id":76561198140514058,"connected_time":447000000000,"state":"active","ping":38},{"user_id":395,"name":"greatest legal mind i ever knew","steam_id":76561199234889615,"connected_time":2606000000000,"state":"active","ping":59},{"user_id":384,"name":"eggslut","steam_id":76561198010752241,"connected_time":3704000000000,"state":"active","ping":68},{"user_id":390,"name":"Mama Freya","steam_id":76561198014573797,"connected_time":3004000000000,"state":"active","ping":77},{"user_id":422,"name":"kuidaskunagi","steam_id":76561198044697096,"connected_time":266000000000,"state":"active","ping":86},{"user_id":364,"name":"Sorky","steam_id":76561198007502339,"connected_time":5376000000000,"state":"active","ping":75},{"user_id":394,"name":"SuperBob103","steam_id":76561199175360012,"connected_time":2633000000000,"state":"active","ping":59},{"user_id":423,"name":"Staffy","steam_id":76561198859722036,"connected_time":243000000000,"state":"active","ping":93},{"user_id":403,"name":"Zateske","steam_id":76561198047446276,"connected_time":1901000000000,"state":"active","ping":62},{"user_id":373,"name":"peshay studio set 1996","steam_id":76561199026097466,"connected_time":4720000000000,"state":"active","ping":76}]},{"server_id":114,"name":"Uncletopia | London | 2 | All Maps","name_short":"lon-2","host":"lon-1.uk.uncletopia.com","port":27025,"enabled":true,"region":"eu","cc":"gb","latitude":51.509865,"longitude":-0.118092,"reserved":0,"last_update":"0001-01-01T00:00:00Z","name_a2s":"Uncletopia | London | 2 | All Maps","protocol":17,"map":"ctf_turbine","folder":"tf","game":"Team Fortress","app_id":440,"player_count":3,"max_players":24,"Bots":0,"server_type":"Dedicated","server_os":"Linux","password":true,"vac":true,"version":"7708610","steam_id":85568392924470941,"keywords":["ctf","nocrits","nodmgspread","uncletopia"],"game_id":440,"stv_port":27026,"stv_name":"Uncletopia | London | 2 | All Maps | STV","players":[{"user_id":200,"name":"„Éá„ÉÉ„Éâ„É™„É≥„Ç¨„Éº","steam_id":76561198984227952,"connected_time":690000000000,"state":"active","ping":77},{"user_id":201,"name":"BIGGEST MAC","steam_id":76561198847517098,"connected_time":592000000000,"state":"active","ping":136},{"user_id":206,"name":"SuperflameGP","steam_id":76561198256506294,"connected_time":56000000000,"state":"spawning","ping":103}]},{"server_id":320,"name":"Uncletopia | London | 3 | All Maps","name_short":"lon-3","host":"lon-1.uk.uncletopia.com","port":27035,"enabled":true,"region":"eu","cc":"gb","latitude":51.509865,"longitude":-0.118092,"reserved":0,"last_update":"0001-01-01T00:00:00Z","name_a2s":"Uncletopia | London | 3 | All Maps","protocol":17,"map":"pl_swiftwater_final1","folder":"tf","game":"Team Fortress","app_id":440,"player_count":24,"max_players":24,"Bots":0,"server_type":"Dedicated","server_os":"Linux","password":true,"vac":true,"version":"7708610","steam_id":85568392924510192,"keywords":["nocrits","nodmgspread","payload","uncletopia"],"game_id":440,"stv_port":27036,"stv_name":"Uncletopia | London | 3 | All Maps | STV","players":[{"user_id":235,"name":"amateur gangman","steam_id":76561198186366599,"connected_time":2797000000000,"state":"active","ping":86},{"user_id":255,"name":"jaMie","steam_id":76561198170148783,"connected_time":1439000000000,"state":"active","ping":56},{"user_id":240,"name":"Agarwaen","steam_id":76561198110221637,"connected_time":2564000000000,"state":"active","ping":91},{"user_id":236,"name":"man who smells like sand","steam_id":76561199012566222,"connected_time":2635000000000,"state":"active","ping":63},{"user_id":275,"name":"Œî*Alpha.","steam_id":76561197974129208,"connected_time":280000000000,"state":"active","ping":60},{"user_id":268,"name":"Crisps","steam_id":76561198088973774,"connected_time":490000000000,"state":"active","ping":56},{"user_id":266,"name":"„Äå‚óÜRaku‚Ä¢ „Äç","steam_id":76561198059283183,"connected_time":508000000000,"state":"active","ping":85},{"user_id":256,"name":"mineblast99","steam_id":76561199065648954,"connected_time":1320000000000,"state":"active","ping":144},{"user_id":274,"name":"majorseamen","steam_id":76561198998806007,"connected_time":337000000000,"state":"active","ping":110},{"user_id":265,"name":"\u003c3","steam_id":76561197993508562,"connected_time":519000000000,"state":"active","ping":68},{"user_id":276,"name":"Autism","steam_id":76561197988822029,"connected_time":217000000000,"state":"active","ping":74},{"user_id":243,"name":"Dr. Funkenstein","steam_id":76561197977816210,"connected_time":2379000000000,"state":"active","ping":56},{"user_id":211,"name":"ran is running","steam_id":76561199443185667,"connected_time":5791000000000,"state":"active","ping":120},{"user_id":263,"name":"agsd37","steam_id":76561199064567309,"connected_time":695000000000,"state":"active","ping":71},{"user_id":271,"name":"Accident","steam_id":76561198115160396,"connected_time":365000000000,"state":"active","ping":81},{"user_id":259,"name":"SaltyPig","steam_id":76561198213643013,"connected_time":1300000000000,"state":"active","ping":55},{"user_id":203,"name":"Just Navlis","steam_id":76561198090479609,"connected_time":6043000000000,"state":"active","ping":57},{"user_id":261,"name":"ducks","steam_id":76561198166148685,"connected_time":1215000000000,"state":"active","ping":30},{"user_id":273,"name":"Aggressive Pedestrian","steam_id":76561199229771413,"connected_time":352000000000,"state":"active","ping":143},{"user_id":225,"name":"Dr Sex","steam_id":76561198029044617,"connected_time":4706000000000,"state":"active","ping":53},{"user_id":234,"name":"99 spanking","steam_id":76561198044981124,"connected_time":3201000000000,"state":"active","ping":52},{"user_id":260,"name":"Boloq","steam_id":76561198329146004,"connected_time":1288000000000,"state":"active","ping":55},{"user_id":253,"name":"Mor'du","steam_id":76561198274105878,"connected_time":1755000000000,"state":"active","ping":90},{"user_id":238,"name":"meriones","steam_id":76561198034234373,"connected_time":2598000000000,"state":"active","ping":43}]},{"server_id":321,"name":"Uncletopia | London | 4 | All Maps","name_short":"lon-4","host":"lon-1.uk.uncletopia.com","port":27045,"enabled":true,"region":"eu","cc":"gb","latitude":51.509865,"longitude":-0.118092,"reserved":0,"last_update":"0001-01-01T00:00:00Z","name_a2s":"Uncletopia | London | 4 | All Maps","protocol":17,"map":"cp_process_final","folder":"tf","game":"Team Fortress","app_id":440,"player_count":24,"max_players":24,"Bots":0,"server_type":"Dedicated","server_os":"Linux","password":true,"vac":true,"version":"7708610","steam_id":85568392924510193,"keywords":["cp","nocrits","nodmgspread","uncletopia"],"game_id":440,"stv_port":27046,"stv_name":"Uncletopia | London | 4 | All Maps | STV","players":[{"user_id":634,"name":"Brent","steam_id":76561198010769596,"connected_time":207000000000,"state":"active","ping":47},{"user_id":583,"name":"player","steam_id":76561198054474684,"connected_time":2624000000000,"state":"active","ping":89},{"user_id":590,"name":"twitch.tv/vision515","steam_id":76561198065293729,"connected_time":2039000000000,"state":"active","ping":163},{"user_id":621,"name":"Varro_Sicarius","steam_id":76561198062130113,"connected_time":535000000000,"state":"active","ping":58},{"user_id":610,"name":"twitch.tv/thewerelizard","steam_id":76561198060638325,"connected_time":1011000000000,"state":"active","ping":53},{"user_id":615,"name":"gamer man","steam_id":76561198436817109,"connected_time":966000000000,"state":"active","ping":46},{"user_id":605,"name":"MEDiUM","steam_id":76561198112328561,"connected_time":1219000000000,"state":"active","ping":81},{"user_id":514,"name":"Goshujinsama üåí","steam_id":76561198111706076,"connected_time":5986000000000,"state":"active","ping":47},{"user_id":539,"name":"lulu","steam_id":76561199147764133,"connected_time":5107000000000,"state":"active","ping":69},{"user_id":597,"name":"LadyMissfit","steam_id":76561198042236349,"connected_time":1596000000000,"state":"active","ping":77},{"user_id":611,"name":"Sniddies","steam_id":76561198208740557,"connected_time":1004000000000,"state":"active","ping":61},{"user_id":553,"name":"Jeans Plus","steam_id":76561198052125103,"connected_time":4182000000000,"state":"active","ping":50},{"user_id":606,"name":"Pizza/Cheese/Pepperoni","steam_id":76561198174510235,"connected_time":1179000000000,"state":"active","ping":49},{"user_id":625,"name":"Well","steam_id":76561198411337640,"connected_time":392000000000,"state":"active","ping":105},{"user_id":612,"name":"Smissmin","steam_id":76561198005342133,"connected_time":1002000000000,"state":"active","ping":44},{"user_id":630,"name":"Acher","steam_id":76561198117843951,"connected_time":289000000000,"state":"active","ping":120},{"user_id":622,"name":"dylanm0909","steam_id":76561198042433442,"connected_time":534000000000,"state":"active","ping":52},{"user_id":637,"name":"snoowbrigade","steam_id":76561197989507394,"connected_time":75000000000,"state":"active","ping":73},{"user_id":601,"name":"SilverSteel","steam_id":76561198153690579,"connected_time":1520000000000,"state":"active","ping":42},{"user_id":632,"name":"hi guys","steam_id":76561198139303045,"connected_time":266000000000,"state":"active","ping":93},{"user_id":628,"name":"Ziltoid","steam_id":76561198020753675,"connected_time":321000000000,"state":"active","ping":75},{"user_id":618,"name":"Kanny","steam_id":76561198058810184,"connected_time":664000000000,"state":"active","ping":62},{"user_id":636,"name":"Kratac","steam_id":76561198026239462,"connected_time":82000000000,"state":"active","ping":73},{"user_id":602,"name":"Pancreas Enjoyer","steam_id":76561199438598904,"connected_time":1510000000000,"state":"active","ping":169}]},{"server_id":21,"name":"Uncletopia | London | 5 | All Maps","name_short":"lon-5","host":"lon-1.uk.uncletopia.com","port":27055,"enabled":true,"region":"eu","cc":"gb","latitude":51.509865,"longitude":-0.118092,"reserved":0,"last_update":"0001-01-01T00:00:00Z","name_a2s":"Uncletopia | London | 5 | All Maps","protocol":17,"map":"koth_highpass","folder":"tf","game":"Team Fortress","app_id":440,"player_count":0,"max_players":24,"Bots":0,"server_type":"Dedicated","server_os":"Linux","password":true,"vac":true,"version":"7708610","steam_id":85568392924742829,"keywords":["cp","nocrits","nodmgspread","uncletopia"],"game_id":440,"stv_port":27056,"stv_name":"Uncletopia | London | 5 | All Maps | STV","players":null},{"server_id":22,"name":"Uncletopia | London | 6 | All Maps","name_short":"lon-6","host":"lon-1.uk.uncletopia.com","port":27065,"enabled":true,"region":"eu","cc":"gb","latitude":51.509865,"longitude":-0.118092,"reserved":0,"last_update":"0001-01-01T00:00:00Z","name_a2s":"Uncletopia | London | 6 | All Maps","protocol":17,"map":"cp_steel","folder":"tf","game":"Team Fortress","app_id":440,"player_count":0,"max_players":24,"Bots":0,"server_type":"Dedicated","server_os":"Linux","password":true,"vac":true,"version":"7708610","steam_id":85568392924742830,"keywords":["cp","nocrits","nodmgspread","uncletopia"],"game_id":440,"stv_port":27066,"stv_name":"Uncletopia | London | 6 | All Maps | STV","players":null},{"server_id":40,"name":"Uncletopia | London | 7 | No Payload","name_short":"lon-7","host":"lon-1.uk.uncletopia.com","port":27075,"enabled":true,"region":"eu","cc":"gb","latitude":51.509865,"longitude":-0.118092,"reserved":0,"last_update":"0001-01-01T00:00:00Z","name_a2s":"Uncletopia | London | 7 | No Payload","protocol":17,"map":"koth_king","folder":"tf","game":"Team Fortress","app_id":440,"player_count":2,"max_players":24,"Bots":0,"server_type":"Dedicated","server_os":"Linux","password":true,"vac":true,"version":"7708610","steam_id":85568392924964314,"keywords":["cp","nocrits","nodmgspread","uncletopia"],"game_id":440,"stv_port":27076,"stv_name":"Uncletopia | London | 7 | No Payload | STV","players":[{"user_id":15,"name":"‚ô• Cirno ‚ô•","steam_id":76561198834982738,"connected_time":154000000000,"state":"active","ping":47},{"user_id":16,"name":"Random Cap","steam_id":76561198129271321,"connected_time":129000000000,"state":"active","ping":61}]},{"server_id":41,"name":"Uncletopia | London | 8 | Community","name_short":"lon-8","host":"lon-1.uk.uncletopia.com","port":27085,"enabled":true,"region":"eu","cc":"gb","latitude":51.509865,"longitude":-0.118092,"reserved":0,"last_update":"0001-01-01T00:00:00Z","name_a2s":"Uncletopia | London | 8 | Community","protocol":17,"map":"workshop/pl_vigil_rc9.ugc1266210012","folder":"tf","game":"Team Fortress","app_id":440,"player_count":0,"max_players":24,"Bots":0,"server_type":"Dedicated","server_os":"Linux","password":true,"vac":true,"version":"7708610","steam_id":85568392924964315,"keywords":["nocrits","nodmgspread","payload","uncletopia"],"game_id":440,"stv_port":27086,"stv_name":"Uncletopia | London | 8 | Community | STV","players":null},{"server_id":300,"name":"Uncletopia | Montr√©al | 1 | All Maps","name_short":"mtl-1","host":"mtl-1.ca.uncletopia.com","port":27015,"enabled":true,"region":"us-east","cc":"ca","latitude":45.50889,"longitude":-73.56167,"reserved":0,"last_update":"0001-01-01T00:00:00Z","name_a2s":"Uncletopia | Montr√©al | 1 | All Maps","protocol":17,"map":"pl_barnblitz","folder":"tf","game":"Team Fortress","app_id":440,"player_count":0,"max_players":24,"Bots":0,"server_type":"Dedicated","server_os":"Linux","password":true,"vac":true,"version":"7708610","steam_id":85568392924500087,"keywords":["nocrits","nodmgspread","payload","uncletopia"],"game_id":440,"stv_port":0,"stv_name":"","players":null},{"server_id":301,"name":"Uncletopia | Montr√©al | 2 | All Maps","name_short":"mtl-2","host":"mtl-1.ca.uncletopia.com","port":27025,"enabled":true,"region":"us-east","cc":"ca","latitude":45.50889,"longitude":-73.56167,"reserved":0,"last_update":"0001-01-01T00:00:00Z","name_a2s":"Uncletopia | Montr√©al | 2 | All Maps","protocol":17,"map":"pl_frontier_final","folder":"tf","game":"Team Fortress","app_id":440,"player_count":0,"max_players":24,"Bots":0,"server_type":"Dedicated","server_os":"Linux","password":true,"vac":true,"version":"7708610","steam_id":85568392924500088,"keywords":["nocrits","nodmgspread","payload","uncletopia"],"game_id":440,"stv_port":0,"stv_name":"","players":null},{"server_id":302,"name":"Uncletopia | Montr√©al | 3 | All Maps","name_short":"mtl-3","host":"mtl-1.ca.uncletopia.com","port":27035,"enabled":true,"region":"us-east","cc":"ca","latitude":45.50889,"longitude":-73.56167,"reserved":0,"last_update":"0001-01-01T00:00:00Z","name_a2s":"Uncletopia | Montr√©al | 3 | All Maps","protocol":17,"map":"cp_sunshine","folder":"tf","game":"Team Fortress","app_id":440,"player_count":0,"max_players":24,"Bots":0,"server_type":"Dedicated","server_os":"Linux","password":true,"vac":true,"version":"7708610","steam_id":85568392924500089,"keywords":["cp","nocrits","nodmgspread","uncletopia"],"game_id":440,"stv_port":27036,"stv_name":"Uncletopia | Montr√©al | 3 | All Maps | STV","players":null},{"server_id":303,"name":"Uncletopia | Montr√©al | 4 | No Payload","name_short":"mtl-4","host":"mtl-1.ca.uncletopia.com","port":27045,"enabled":true,"region":"us-east","cc":"ca","latitude":45.50889,"longitude":-73.56167,"reserved":0,"last_update":"0001-01-01T00:00:00Z","name_a2s":"Uncletopia | Montr√©al | 4 | No Payload","protocol":17,"map":"pl_frontier_final","folder":"tf","game":"Team Fortress","app_id":440,"player_count":0,"max_players":24,"Bots":0,"server_type":"Dedicated","server_os":"Linux","password":true,"vac":true,"version":"7708610","steam_id":85568392924500090,"keywords":["nocrits","nodmgspread","payload","uncletopia"],"game_id":440,"stv_port":0,"stv_name":"","players":null},{"server_id":13,"name":"Uncletopia | New York City | 1 | All Maps","name_short":"nyc-1","host":"nyc-1.us.uncletopia.com","port":27015,"enabled":true,"region":"us-east","cc":"us","latitude":40.73061,"longitude":-73.93524,"reserved":0,"last_update":"0001-01-01T00:00:00Z","name_a2s":"Uncletopia | New York City | 1 | All Maps","protocol":17,"map":"pl_borneo","folder":"tf","game":"Team Fortress","app_id":440,"player_count":24,"max_players":24,"Bots":0,"server_type":"Dedicated","server_os":"Linux","password":true,"vac":true,"version":"7708610","steam_id":85568392924469993,"keywords":["nocrits","nodmgspread","payload","uncletopia"],"game_id":440,"stv_port":27016,"stv_name":"Uncletopia | New York City | 1 | All Maps | STV","players":[{"user_id":151,"name":"Portizz","steam_id":76561198095732366,"connected_time":4080000000000,"state":"active","ping":64},{"user_id":177,"name":"dearender","steam_id":76561199427644498,"connected_time":2218000000000,"state":"active","ping":123},{"user_id":163,"name":"NoonCity","steam_id":76561198010165479,"connected_time":3352000000000,"state":"active","ping":45},{"user_id":191,"name":"Herr M√ºller","steam_id":76561198064876829,"connected_time":1360000000000,"state":"active","ping":98},{"user_id":175,"name":"ShiddyKong","steam_id":76561198189742189,"connected_time":2327000000000,"state":"active","ping":83},{"user_id":203,"name":"Banjo","steam_id":76561198004652853,"connected_time":358000000000,"state":"active","ping":119},{"user_id":202,"name":"Lish","steam_id":76561198133985045,"connected_time":711000000000,"state":"active","ping":48},{"user_id":208,"name":"Justario","steam_id":76561198016095410,"connected_time":136000000000,"state":"active","ping":58},{"user_id":188,"name":"√û√≥rr v√≠gi","steam_id":76561198026281887,"connected_time":1890000000000,"state":"active","ping":73},{"user_id":189,"name":"6*10^6 bees","steam_id":76561198400438007,"connected_time":1688000000000,"state":"active","ping":77},{"user_id":179,"name":"fal901","steam_id":76561198288491241,"connected_time":2048000000000,"state":"active","ping":54},{"user_id":166,"name":"Jude","steam_id":76561198041832304,"connected_time":3231000000000,"state":"active","ping":64},{"user_id":169,"name":".:ckm:.","steam_id":76561197997611221,"connected_time":2998000000000,"state":"active","ping":67},{"user_id":180,"name":"‡πá","steam_id":76561198039763676,"connected_time":2045000000000,"state":"active","ping":76},{"user_id":185,"name":"Provocator","steam_id":76561197961830410,"connected_time":2009000000000,"state":"active","ping":94},{"user_id":194,"name":"Voodoo","steam_id":76561198052338728,"connected_time":974000000000,"state":"active","ping":52},{"user_id":199,"name":"IPlayGamez","steam_id":76561198041387508,"connected_time":872000000000,"state":"active","ping":52},{"user_id":190,"name":"Princess_Of_Pillows","steam_id":76561199304796706,"connected_time":1665000000000,"state":"active","ping":65},{"user_id":195,"name":"SirJellyRolls","steam_id":76561198119277244,"connected_time":949000000000,"state":"active","ping":88},{"user_id":209,"name":"Good Seed","steam_id":76561198013443319,"connected_time":37000000000,"state":"active","ping":55},{"user_id":210,"name":"Seller of Waffles","steam_id":76561198296018138,"connected_time":22000000000,"state":"active","ping":95},{"user_id":206,"name":"SaucyAlfredo","steam_id":76561198814854234,"connected_time":229000000000,"state":"active","ping":63},{"user_id":197,"name":"Cottontail","steam_id":76561198213634567,"connected_time":939000000000,"state":"active","ping":119},{"user_id":200,"name":"rolt bagger","steam_id":76561198026664629,"connected_time":856000000000,"state":"active","ping":53}]},{"server_id":14,"name":"Uncletopia | New York City | 2 | All Maps","name_short":"nyc-2","host":"nyc-1.us.uncletopia.com","port":27025,"enabled":true,"region":"us-east","cc":"us","latitude":40.73061,"longitude":-73.93524,"reserved":0,"last_update":"0001-01-01T00:00:00Z","name_a2s":"Uncletopia | New York City | 2 | All Maps","protocol":17,"map":"pl_snowycoast","folder":"tf","game":"Team Fortress","app_id":440,"player_count":24,"max_players":24,"Bots":0,"server_type":"Dedicated","server_os":"Linux","password":true,"vac":true,"version":"7708610","steam_id":85568392924469994,"keywords":["nocrits","nodmgspread","payload","uncletopia"],"game_id":440,"stv_port":27026,"stv_name":"Uncletopia | New York City | 2 | All Maps | STV","players":[{"user_id":105,"name":"The Fortress From Team Fortress","steam_id":76561198081422503,"connected_time":2916000000000,"state":"active","ping":87},{"user_id":123,"name":"Raid (lavender scent)","steam_id":76561199205213473,"connected_time":1025000000000,"state":"active","ping":74},{"user_id":98,"name":"Moe the lawn \u003c3","steam_id":76561198195620945,"connected_time":3670000000000,"state":"active","ping":67},{"user_id":74,"name":"RyanDCB [Real]","steam_id":76561198040138739,"connected_time":5529000000000,"state":"active","ping":62},{"user_id":41,"name":"ToeSniffer1992","steam_id":76561199134895220,"connected_time":6897000000000,"state":"active","ping":55},{"user_id":126,"name":"Spiteful_Guru","steam_id":76561199227572419,"connected_time":760000000000,"state":"active","ping":67},{"user_id":99,"name":"Nibelsnarf","steam_id":76561198137642054,"connected_time":3600000000000,"state":"active","ping":55},{"user_id":104,"name":"Frosty The Swoleman","steam_id":76561198066433404,"connected_time":3510000000000,"state":"active","ping":88},{"user_id":107,"name":"shadow6","steam_id":76561197979807910,"connected_time":2898000000000,"state":"active","ping":101},{"user_id":120,"name":"Sicko Mode (Chris Pratt Cover)","steam_id":76561198315786174,"connected_time":1468000000000,"state":"active","ping":52},{"user_id":127,"name":":3","steam_id":76561198078721142,"connected_time":760000000000,"state":"active","ping":69},{"user_id":110,"name":"Lost (14)","steam_id":76561198093713427,"connected_time":1728000000000,"state":"active","ping":75},{"user_id":89,"name":"chef","steam_id":76561198883310035,"connected_time":4276000000000,"state":"active","ping":68},{"user_id":124,"name":"Philip Screwdriver","steam_id":76561198073874193,"connected_time":784000000000,"state":"active","ping":61},{"user_id":114,"name":"TrashCanGaming","steam_id":76561199150746424,"connected_time":1664000000000,"state":"active","ping":79},{"user_id":129,"name":"ZenkoZSprite","steam_id":76561198190132250,"connected_time":639000000000,"state":"active","ping":70},{"user_id":125,"name":"Sleepy Brady","steam_id":76561198867378129,"connected_time":784000000000,"state":"active","ping":88},{"user_id":116,"name":"Mackola","steam_id":76561198125958792,"connected_time":1641000000000,"state":"active","ping":62},{"user_id":117,"name":"KRELLAH","steam_id":76561198287045069,"connected_time":1611000000000,"state":"active","ping":60},{"user_id":102,"name":"drywall puncher","steam_id":76561198050340736,"connected_time":3543000000000,"state":"active","ping":78},{"user_id":133,"name":"ExtraSoap","steam_id":76561198008712409,"connected_time":136000000000,"state":"active","ping":58},{"user_id":103,"name":"Amar Adi the IV","steam_id":76561199030160932,"connected_time":3536000000000,"state":"active","ping":89},{"user_id":90,"name":"igbygames","steam_id":76561199169224041,"connected_time":4108000000000,"state":"active","ping":87},{"user_id":132,"name":"Arkusz","steam_id":76561198967517342,"connected_time":178000000000,"state":"active","ping":149}]},{"server_id":15,"name":"Uncletopia | New York City | 3 | All Maps","name_short":"nyc-3","host":"nyc-1.us.uncletopia.com","port":27035,"enabled":true,"region":"us-east","cc":"us","latitude":40.73061,"longitude":-73.93524,"reserved":0,"last_update":"0001-01-01T00:00:00Z","name_a2s":"Uncletopia | New York City | 3 | All Maps","protocol":17,"map":"koth_viaduct","folder":"tf","game":"Team Fortress","app_id":440,"player_count":0,"max_players":24,"Bots":0,"server_type":"Dedicated","server_os":"Linux","password":true,"vac":true,"version":"7708610","steam_id":85568392924742820,"keywords":["cp","nocrits","nodmgspread","uncletopia"],"game_id":440,"stv_port":27036,"stv_name":"Uncletopia | New York City | 3 | All Maps | STV","players":null},{"server_id":16,"name":"Uncletopia | New York City | 4 | Community","name_short":"nyc-4","host":"nyc-1.us.uncletopia.com","port":27045,"enabled":true,"region":"us-east","cc":"us","latitude":40.73061,"longitude":-73.93524,"reserved":0,"last_update":"0001-01-01T00:00:00Z","name_a2s":"Uncletopia | New York City | 4 | Community","protocol":17,"map":"pl_badwater","folder":"tf","game":"Team Fortress","app_id":440,"player_count":0,"max_players":24,"Bots":0,"server_type":"Dedicated","server_os":"Linux","password":true,"vac":true,"version":"7708610","steam_id":85568392924742821,"keywords":["nocrits","nodmgspread","payload","uncletopia"],"game_id":440,"stv_port":0,"stv_name":"","players":null},{"server_id":142,"name":"Uncletopia | S√£o Paulo | 1 | All Maps","name_short":"sao-1","host":"sao-1.br.uncletopia.com","port":27015,"enabled":true,"region":"sa","cc":"br","latitude":-23.533773,"longitude":-46.62529,"reserved":0,"last_update":"0001-01-01T00:00:00Z","name_a2s":"Uncletopia | S√£o Paulo | 1 | All Maps","protocol":17,"map":"pl_snowycoast","folder":"tf","game":"Team Fortress","app_id":440,"player_count":19,"max_players":24,"Bots":0,"server_type":"Dedicated","server_os":"Linux","password":true,"vac":true,"version":"7708610","steam_id":85568392924469996,"keywords":["nocrits","nodmgspread","payload","uncletopia"],"game_id":440,"stv_port":27016,"stv_name":"Uncletopia | S√£o Paulo | 1 | All Maps | STV","players":[{"user_id":169,"name":"burrildo_11","steam_id":76561199163140389,"connected_time":1270000000000,"state":"active","ping":50},{"user_id":107,"name":"[-LC-] Sir Crusher","steam_id":76561198124065641,"connected_time":5881000000000,"state":"active","ping":56},{"user_id":184,"name":"bababoue","steam_id":76561199227589222,"connected_time":235000000000,"state":"active","ping":147},{"user_id":180,"name":"Vaegir Guard","steam_id":76561198028786416,"connected_time":471000000000,"state":"active","ping":63},{"user_id":189,"name":"Beppi sem exa","steam_id":76561198097691073,"connected_time":77000000000,"state":"active","ping":47},{"user_id":155,"name":"Marmo \u003e_","steam_id":76561198213744979,"connected_time":2364000000000,"state":"active","ping":59},{"user_id":171,"name":"b1doof","steam_id":76561198078934921,"connected_time":1097000000000,"state":"active","ping":45},{"user_id":188,"name":"vinisaurus","steam_id":76561198112127509,"connected_time":184000000000,"state":"active","ping":71},{"user_id":183,"name":"Pyrobro","steam_id":76561198155061020,"connected_time":289000000000,"state":"active","ping":59},{"user_id":175,"name":"‚ô•nott‚ô•","steam_id":76561198289358663,"connected_time":773000000000,"state":"active","ping":50},{"user_id":186,"name":"gar√ßom na pol√≠cia federal","steam_id":76561198188487862,"connected_time":228000000000,"state":"active","ping":66},{"user_id":187,"name":"Architect","steam_id":76561198895061602,"connected_time":224000000000,"state":"active","ping":109},{"user_id":94,"name":"niruma","steam_id":76561198067799345,"connected_time":6260000000000,"state":"active","ping":43},{"user_id":140,"name":"ShinGojira[BR]","steam_id":76561199199037141,"connected_time":3467000000000,"state":"active","ping":97},{"user_id":108,"name":"Pathetic","steam_id":76561198051056987,"connected_time":5709000000000,"state":"active","ping":60},{"user_id":177,"name":"Emisu","steam_id":76561198278086794,"connected_time":622000000000,"state":"active","ping":65},{"user_id":181,"name":"Toti","steam_id":76561198275364952,"connected_time":412000000000,"state":"active","ping":97},{"user_id":173,"name":"Every year is getting shorter","steam_id":76561198026672557,"connected_time":1033000000000,"state":"active","ping":45},{"user_id":174,"name":"Recruit_Zer0   #savetf2","steam_id":76561198388655256,"connected_time":965000000000,"state":"active","ping":109}]},{"server_id":143,"name":"Uncletopia | S√£o Paulo | 2 | All Maps","name_short":"sao-2","host":"sao-2.br.uncletopia.com","port":27015,"enabled":true,"region":"sa","cc":"br","latitude":-23.533773,"longitude":-46.62529,"reserved":0,"last_update":"0001-01-01T00:00:00Z","name_a2s":"Uncletopia | S√£o Paulo | 2 | All Maps","protocol":17,"map":"cp_process_final","folder":"tf","game":"Team Fortress","app_id":440,"player_count":2,"max_players":24,"Bots":0,"server_type":"Dedicated","server_os":"Linux","password":true,"vac":true,"version":"7708610","steam_id":85568392924485349,"keywords":["cp","nocrits","nodmgspread","uncletopia"],"game_id":440,"stv_port":27016,"stv_name":"Uncletopia | S√£o Paulo | 2 | All Maps | STV","players":[{"user_id":13,"name":"funny","steam_id":76561198372020358,"connected_time":3241000000000,"state":"active","ping":31},{"user_id":23,"name":"henrique.silva","steam_id":76561199179261634,"connected_time":1052000000000,"state":"active","ping":72}]},{"server_id":7,"name":"Uncletopia | Seattle | 1 | All Maps","name_short":"sea-1","host":"sea-1.us.uncletopia.com","port":27015,"enabled":true,"region":"us-west","cc":"us","latitude":47.608013,"longitude":-122.33517,"reserved":0,"last_update":"0001-01-01T00:00:00Z","name_a2s":"Uncletopia | Seattle | 1 | All Maps","protocol":17,"map":"cp_mercenarypark","folder":"tf","game":"Team Fortress","app_id":440,"player_count":24,"max_players":24,"Bots":0,"server_type":"Dedicated","server_os":"Linux","password":true,"vac":true,"version":"7708610","steam_id":85568392924469997,"keywords":["cp","nocrits","nodmgspread","uncletopia"],"game_id":440,"stv_port":27016,"stv_name":"Uncletopia | Seattle | 1 | All Maps | STV","players":[{"user_id":72,"name":"Grill Skills","steam_id":76561198053575147,"connected_time":1270000000000,"state":"active","ping":92},{"user_id":14,"name":"Mom","steam_id":76561198207936000,"connected_time":4246000000000,"state":"active","ping":77},{"user_id":90,"name":"Nolan","steam_id":76561198169648081,"connected_time":265000000000,"state":"active","ping":93},{"user_id":79,"name":"frutiger aero","steam_id":76561198116337540,"connected_time":1051000000000,"state":"active","ping":82},{"user_id":50,"name":"Dedlock","steam_id":76561198046290002,"connected_time":2433000000000,"state":"active","ping":55},{"user_id":73,"name":"Fremond Games","steam_id":76561198847910046,"connected_time":1179000000000,"state":"active","ping":86},{"user_id":60,"name":"Diesel","steam_id":76561198448815852,"connected_time":2009000000000,"state":"active","ping":62},{"user_id":91,"name":"yup","steam_id":76561199190800520,"connected_time":119000000000,"state":"active","ping":42},{"user_id":81,"name":"XzachTLY","steam_id":76561198145534604,"connected_time":943000000000,"state":"active","ping":76},{"user_id":82,"name":"bigindarug","steam_id":76561198165784818,"connected_time":921000000000,"state":"active","ping":71},{"user_id":83,"name":"sniffy","steam_id":76561198184933255,"connected_time":871000000000,"state":"active","ping":78},{"user_id":52,"name":"SesataPomang","steam_id":76561198145133059,"connected_time":2406000000000,"state":"active","ping":100},{"user_id":71,"name":"Aux","steam_id":76561199091651065,"connected_time":1352000000000,"state":"active","ping":65},{"user_id":88,"name":"Grognak","steam_id":76561198044710527,"connected_time":393000000000,"state":"active","ping":47},{"user_id":57,"name":"ZEKKER","steam_id":76561197967968980,"connected_time":2178000000000,"state":"active","ping":46},{"user_id":36,"name":"dust","steam_id":76561198045218909,"connected_time":3196000000000,"state":"active","ping":39},{"user_id":63,"name":"Loogie","steam_id":76561198858732642,"connected_time":1858000000000,"state":"active","ping":60},{"user_id":74,"name":"DJHyper777","steam_id":76561198304548526,"connected_time":1168000000000,"state":"active","ping":66},{"user_id":78,"name":"Mike","steam_id":76561198408747483,"connected_time":1083000000000,"state":"active","ping":105},{"user_id":42,"name":"FizeePop","steam_id":76561199088679205,"connected_time":2965000000000,"state":"active","ping":76},{"user_id":84,"name":"gamerNOTgirl2000","steam_id":76561198968095376,"connected_time":840000000000,"state":"active","ping":109},{"user_id":85,"name":"ubiquitous man","steam_id":76561198073782350,"connected_time":781000000000,"state":"active","ping":92},{"user_id":66,"name":"trackpad gaming | f2p","steam_id":76561198840414371,"connected_time":1755000000000,"state":"active","ping":52},{"user_id":87,"name":"klevin","steam_id":76561198799106535,"connected_time":422000000000,"state":"active","ping":94}]},{"server_id":119,"name":"Uncletopia | Seattle | 2 | All Maps","name_short":"sea-2","host":"sea-1.us.uncletopia.com","port":27025,"enabled":true,"region":"us-west","cc":"us","latitude":47.608013,"longitude":-122.33517,"reserved":0,"last_update":"0001-01-01T00:00:00Z","name_a2s":"Uncletopia | Seattle | 2 | All Maps","protocol":17,"map":"cp_mountainlab","folder":"tf","game":"Team Fortress","app_id":440,"player_count":1,"max_players":24,"Bots":0,"server_type":"Dedicated","server_os":"Linux","password":true,"vac":true,"version":"7708610","steam_id":85568392924469998,"keywords":["cp","nocrits","nodmgspread","uncletopia"],"game_id":440,"stv_port":27026,"stv_name":"Uncletopia | Seattle | 2 | All Maps | STV","players":[{"user_id":6,"name":"midnight-AG","steam_id":76561198115714484,"connected_time":191000000000,"state":"active","ping":58}]},{"server_id":17,"name":"Uncletopia | San Francisco | 1 | All Maps","name_short":"sfo-1","host":"sfo-1.us.uncletopia.com","port":27015,"enabled":true,"region":"us-west","cc":"us","latitude":37.77397,"longitude":-122.4313,"reserved":0,"last_update":"0001-01-01T00:00:00Z","name_a2s":"Uncletopia | San Francisco | 1 | All Maps","protocol":17,"map":"cp_sunshine","folder":"tf","game":"Team Fortress","app_id":440,"player_count":0,"max_players":24,"Bots":0,"server_type":"Dedicated","server_os":"Linux","password":true,"vac":true,"version":"7708610","steam_id":85568392924469999,"keywords":["cp","nocrits","nodmgspread","uncletopia"],"game_id":440,"stv_port":0,"stv_name":"","players":null},{"server_id":18,"name":"Uncletopia | San Francisco | 2 | All Maps","name_short":"sfo-2","host":"sfo-1.us.uncletopia.com","port":27025,"enabled":true,"region":"us-west","cc":"us","latitude":37.77397,"longitude":-122.4313,"reserved":0,"last_update":"0001-01-01T00:00:00Z","name_a2s":"Uncletopia | San Francisco | 2 | All Maps","protocol":17,"map":"koth_cascade","folder":"tf","game":"Team Fortress","app_id":440,"player_count":0,"max_players":24,"Bots":0,"server_type":"Dedicated","server_os":"Linux","password":true,"vac":true,"version":"7708610","steam_id":85568392924470000,"keywords":["cp","nocrits","nodmgspread","uncletopia"],"game_id":440,"stv_port":0,"stv_name":"","players":null},{"server_id":19,"name":"Uncletopia | San Francisco | 3 | No Payload","name_short":"sfo-3","host":"sfo-1.us.uncletopia.com","port":27035,"enabled":true,"region":"us-west","cc":"us","latitude":37.77397,"longitude":-122.4313,"reserved":0,"last_update":"0001-01-01T00:00:00Z","name_a2s":"Uncletopia | San Francisco | 3 | No Payload","protocol":17,"map":"cp_snakewater_final1","folder":"tf","game":"Team Fortress","app_id":440,"player_count":0,"max_players":24,"Bots":0,"server_type":"Dedicated","server_os":"Linux","password":true,"vac":true,"version":"7708610","steam_id":85568392924742824,"keywords":["cp","nocrits","nodmgspread","uncletopia"],"game_id":440,"stv_port":0,"stv_name":"","players":null},{"server_id":20,"name":"Uncletopia | San Francisco | 4 | Community","name_short":"sfo-4","host":"sfo-1.us.uncletopia.com","port":27045,"enabled":true,"region":"us-west","cc":"us","latitude":37.77397,"longitude":-122.4313,"reserved":0,"last_update":"0001-01-01T00:00:00Z","name_a2s":"Uncletopia | San Francisco | 4 | Community","protocol":17,"map":"pl_barnblitz","folder":"tf","game":"Team Fortress","app_id":440,"player_count":0,"max_players":24,"Bots":0,"server_type":"Dedicated","server_os":"Linux","password":true,"vac":true,"version":"7708610","steam_id":85568392924742826,"keywords":["nocrits","nodmgspread","payload","uncletopia"],"game_id":440,"stv_port":0,"stv_name":"","players":null},{"server_id":141,"name":"Uncletopia | Sydney | 1 | All Maps","name_short":"syd-1","host":"syd-1.au.uncletopia.com","port":27015,"enabled":true,"region":"au","cc":"au","latitude":-33.865143,"longitude":151.2099,"reserved":0,"last_update":"0001-01-01T00:00:00Z","name_a2s":"Uncletopia | Sydney | 1 | All Maps","protocol":17,"map":"pl_pier","folder":"tf","game":"Team Fortress","app_id":440,"player_count":0,"max_players":24,"Bots":0,"server_type":"Dedicated","server_os":"Linux","password":true,"vac":true,"version":"7708610","steam_id":85568392924470001,"keywords":["nocrits","nodmgspread","payload","uncletopia"],"game_id":440,"stv_port":0,"stv_name":"","players":null},{"server_id":123,"name":"Uncletopia | Sydney | 2 | All Maps","name_short":"syd-2","host":"syd-1.au.uncletopia.com","port":27025,"enabled":true,"region":"au","cc":"au","latitude":-33.865143,"longitude":151.2099,"reserved":0,"last_update":"0001-01-01T00:00:00Z","name_a2s":"Uncletopia | Sydney | 2 | All Maps","protocol":17,"map":"pl_snowycoast","folder":"tf","game":"Team Fortress","app_id":440,"player_count":0,"max_players":24,"Bots":0,"server_type":"Dedicated","server_os":"Linux","password":true,"vac":true,"version":"7708610","steam_id":85568392924470002,"keywords":["nocrits","nodmgspread","payload","uncletopia"],"game_id":440,"stv_port":0,"stv_name":"","players":null},{"server_id":395,"name":"Uncletopia | Sydney | 3 | All Maps","name_short":"syd-3","host":"syd-1.au.uncletopia.com","port":27035,"enabled":true,"region":"au","cc":"au","latitude":-33.865143,"longitude":151.2099,"reserved":0,"last_update":"0001-01-01T00:00:00Z","name_a2s":"Uncletopia | Sydney | 3 | All Maps","protocol":17,"map":"pl_badwater","folder":"tf","game":"Team Fortress","app_id":440,"player_count":0,"max_players":24,"Bots":0,"server_type":"Dedicated","server_os":"Linux","password":true,"vac":true,"version":"7708610","steam_id":85568392925194467,"keywords":["nocrits","nodmgspread","payload","uncletopia"],"game_id":440,"stv_port":0,"stv_name":"","players":null},{"server_id":396,"name":"Uncletopia | Sydney | 4 | All Maps","name_short":"syd-4","host":"syd-1.au.uncletopia.com","port":27045,"enabled":true,"region":"au","cc":"au","latitude":-33.865143,"longitude":151.2099,"reserved":0,"last_update":"0001-01-01T00:00:00Z","name_a2s":"Uncletopia | Sydney | 4 | All Maps","protocol":17,"map":"koth_lakeside_final","folder":"tf","game":"Team Fortress","app_id":440,"player_count":0,"max_players":24,"Bots":0,"server_type":"Dedicated","server_os":"Linux","password":true,"vac":true,"version":"7708610","steam_id":85568392925397958,"keywords":["cp","nocrits","nodmgspread","uncletopia"],"game_id":440,"stv_port":0,"stv_name":"","players":null},{"server_id":58,"name":"Uncletopia | Sydney | 5 | No Payload","name_short":"syd-5","host":"syd-1.au.uncletopia.com","port":27055,"enabled":true,"region":"au","cc":"au","latitude":-33.865143,"longitude":151.2099,"reserved":0,"last_update":"0001-01-01T00:00:00Z","name_a2s":"Uncletopia | Sydney | 5 | No Payload","protocol":17,"map":"koth_cascade","folder":"tf","game":"Team Fortress","app_id":440,"player_count":0,"max_players":24,"Bots":0,"server_type":"Dedicated","server_os":"Linux","password":true,"vac":true,"version":"7708610","steam_id":85568392925397959,"keywords":["cp","nocrits","nodmgspread","uncletopia"],"game_id":440,"stv_port":0,"stv_name":"","players":null},{"server_id":59,"name":"Uncletopia | Sydney | 6 | Community","name_short":"syd-6","host":"syd-1.au.uncletopia.com","port":27065,"enabled":true,"region":"au","cc":"au","latitude":-33.865143,"longitude":151.2099,"reserved":0,"last_update":"0001-01-01T00:00:00Z","name_a2s":"Uncletopia | Sydney | 6 | Community","protocol":17,"map":"pl_borneo","folder":"tf","game":"Team Fortress","app_id":440,"player_count":0,"max_players":24,"Bots":0,"server_type":"Dedicated","server_os":"Linux","password":true,"vac":true,"version":"7708610","steam_id":85568392925397960,"keywords":["nocrits","nodmgspread","payload","uncletopia"],"game_id":440,"stv_port":0,"stv_name":"","players":null},{"server_id":49,"name":"Uncletopia | Warsaw | 1 | All Maps","name_short":"waw-1","host":"waw-1.pl.uncletopia.com","port":27015,"enabled":true,"region":"eu","cc":"pl","latitude":52.2297,"longitude":21.017532,"reserved":0,"last_update":"0001-01-01T00:00:00Z","name_a2s":"Uncletopia | Warsaw | 1 | All Maps","protocol":17,"map":"pl_barnblitz","folder":"tf","game":"Team Fortress","app_id":440,"player_count":0,"max_players":24,"Bots":0,"server_type":"Dedicated","server_os":"Linux","password":true,"vac":true,"version":"7708610","steam_id":85568392925397850,"keywords":["nocrits","nodmgspread","payload","uncletopia"],"game_id":440,"stv_port":27016,"stv_name":"Uncletopia | Warsaw | 1 | All Maps | STV","players":null},{"server_id":50,"name":"Uncletopia | Warsaw | 2 | All Maps","name_short":"waw-2","host":"waw-1.pl.uncletopia.com","port":27025,"enabled":true,"region":"eu","cc":"pl","latitude":52.2297,"longitude":21.017532,"reserved":0,"last_update":"0001-01-01T00:00:00Z","name_a2s":"Uncletopia | Warsaw | 2 | All Maps","protocol":17,"map":"koth_highpass","folder":"tf","game":"Team Fortress","app_id":440,"player_count":0,"max_players":24,"Bots":0,"server_type":"Dedicated","server_os":"Linux","password":true,"vac":true,"version":"7708610","steam_id":85568392925397851,"keywords":["cp","nocrits","nodmgspread","uncletopia"],"game_id":440,"stv_port":27026,"stv_name":"Uncletopia | Warsaw | 2 | All Maps | STV","players":null},{"server_id":51,"name":"Uncletopia | Warsaw | 3 | All Maps","name_short":"waw-3","host":"waw-1.pl.uncletopia.com","port":27035,"enabled":true,"region":"eu","cc":"pl","latitude":52.2297,"longitude":21.017532,"reserved":0,"last_update":"0001-01-01T00:00:00Z","name_a2s":"Uncletopia | Warsaw | 3 | All Maps","protocol":17,"map":"koth_cascade","folder":"tf","game":"Team Fortress","app_id":440,"player_count":0,"max_players":24,"Bots":0,"server_type":"Dedicated","server_os":"Linux","password":true,"vac":true,"version":"7708610","steam_id":85568392925397852,"keywords":["cp","nocrits","nodmgspread","uncletopia"],"game_id":440,"stv_port":0,"stv_name":"","players":null},{"server_id":52,"name":"Uncletopia | Warsaw | 4 | All Maps","name_short":"waw-4","host":"waw-1.pl.uncletopia.com","port":27045,"enabled":true,"region":"eu","cc":"pl","latitude":52.2297,"longitude":21.017532,"reserved":0,"last_update":"0001-01-01T00:00:00Z","name_a2s":"Uncletopia | Warsaw | 4 | All Maps","protocol":17,"map":"cp_process_final","folder":"tf","game":"Team Fortress","app_id":440,"player_count":0,"max_players":24,"Bots":0,"server_type":"Dedicated","server_os":"Linux","password":true,"vac":true,"version":"7708610","steam_id":85568392925397853,"keywords":["cp","nocrits","nodmgspread","uncletopia"],"game_id":440,"stv_port":27046,"stv_name":"Uncletopia | Warsaw | 4 | All Maps | STV","players":null},{"server_id":53,"name":"Uncletopia | Warsaw | 5 | No Payload","name_short":"waw-5","host":"waw-1.pl.uncletopia.com","port":27055,"enabled":true,"region":"eu","cc":"pl","latitude":52.2297,"longitude":21.017532,"reserved":0,"last_update":"0001-01-01T00:00:00Z","name_a2s":"Uncletopia | Warsaw | 5 | No Payload","protocol":17,"map":"cp_steel","folder":"tf","game":"Team Fortress","app_id":440,"player_count":0,"max_players":24,"Bots":0,"server_type":"Dedicated","server_os":"Linux","password":true,"vac":true,"version":"7708610","steam_id":85568392925397854,"keywords":["cp","nocrits","nodmgspread","uncletopia"],"game_id":440,"stv_port":27056,"stv_name":"Uncletopia | Warsaw | 5 | No Payload | STV","players":null},{"server_id":54,"name":"Uncletopia | Warsaw | 6 | Community","name_short":"waw-6","host":"waw-1.pl.uncletopia.com","port":27065,"enabled":true,"region":"eu","cc":"pl","latitude":52.2297,"longitude":21.017532,"reserved":0,"last_update":"0001-01-01T00:00:00Z","name_a2s":"Uncletopia | Warsaw | 6 | Community","protocol":17,"map":"koth_highpass","folder":"tf","game":"Team Fortress","app_id":440,"player_count":0,"max_players":24,"Bots":0,"server_type":"Dedicated","server_os":"Linux","password":true,"vac":true,"version":"7708610","steam_id":85568392925397856,"keywords":["cp","nocrits","nodmgspread","uncletopia"],"game_id":440,"stv_port":0,"stv_name":"","players":null}]}