{"status":true,"message":"","result":[{"server_id":9,"name":"Uncletopia | Atlanta | 1 | All Maps","name_short":"atl-1","host":"atl-1.us.uncletopia.com","port":27015,"enabled":true,"region":"us-east","cc":"us","latitude":33.753746,"longitude":-84.38633,"reserved":0,"last_update":"0001-01-01T00:00:00Z","name_a2s":"Uncletopia | Atlanta | 1 | All Maps","protocol":17,"map":"pl_badwater","folder":"tf","game":"Team Fortress","app_id":440,"player_count":24,"max_players":24,"Bots":0,"server_type":"Dedicated","server_os":"Linux","password":true,"vac":true,"version":"7757534","steam_id":85568392924469982,"keywords":["nocrits","nodmgspread","payload","uncletopia"],"game_id":440,"stv_port":27016,"stv_name":"Uncletopia | Atlanta | 1 | All Maps | STV","players":[{"user_id":114,"name":"Nebula","steam_id":76561198795878862,"connected_time":1170000000000,"state":"active","ping":86},{"user_id":122,"name":"Dillon Planter","steam_id":76561198118903188,"connected_time":164000000000,"state":"active","ping":79},{"user_id":91,"name":"AJsurfer","steam_id":76561198897045252,"connected_time":1953000000000,"state":"active","ping":36},{"user_id":95,"name":"new and improved washing machin","steam_id":76561199160873100,"connected_time":1860000000000,"state":"active","ping":90},{"user_id":121,"name":"mio","steam_id":76561198239286750,"connected_time":175000000000,"state":"active","ping":70},{"user_id":92,"name":"I have a dream... mrNiceguy","steam_id":76561198053176402,"connected_time":1927000000000,"state":"active","ping":174},{"user_id":123,"name":"AMC LFP","steam_id":76561197999501056,"connected_time":155000000000,"state":"active","ping":83},{"user_id":124,"name":"TrashMann","steam_id":76561198040969743,"connected_time":145000000000,"state":"active","ping":58},{"user_id":103,"name":"Good Horsey","steam_id":76561198237193302,"connected_time":1483000000000,"state":"active","ping":120},{"user_id":101,"name":"cheeser","steam_id":76561198281772700,"connected_time":1556000000000,"state":"active","ping":54},{"user_id":40,"name":"luxin","steam_id":76561198399383047,"connected_time":6023000000000,"state":"active","ping":53},{"user_id":115,"name":"RarestGuide","steam_id":76561198050338923,"connected_time":1101000000000,"state":"active","ping":71},{"user_id":84,"name":"superprogamerman2009","steam_id":76561199393831863,"connected_time":2851000000000,"state":"active","ping":130},{"user_id":63,"name":"CPUnit","steam_id":76561198162881878,"connected_time":4511000000000,"state":"active","ping":63},{"user_id":127,"name":"Trey The Awesome","steam_id":76561198370718264,"connected_time":122000000000,"state":"active","ping":55},{"user_id":120,"name":"Toonice","steam_id":76561198402994885,"connected_time":676000000000,"state":"active","ping":83},{"user_id":126,"name":"Zyzx","steam_id":76561198054177355,"connected_time":133000000000,"state":"active","ping":59},{"user_id":116,"name":"SeaBass","steam_id":76561198278914206,"connected_time":1099000000000,"state":"active","ping":57},{"user_id":117,"name":"town.midi","steam_id":76561198059041027,"connected_time":1086000000000,"state":"active","ping":115},{"user_id":110,"name":"TheSquirrelofHuscurl","steam_id":76561198073379623,"connected_time":1285000000000,"state":"active","ping":64},{"user_id":112,"name":"C.E.O Of Power","steam_id":76561198173051462,"connected_time":1245000000000,"state":"active","ping":117},{"user_id":53,"name":"scuba doo warfare","steam_id":76561198018761740,"connected_time":4955000000000,"state":"active","ping":75},{"user_id":119,"name":"lil hog","steam_id":76561199230929836,"connected_time":937000000000,"state":"active","ping":79},{"user_id":78,"name":"Oopsie Daisy ‚ùã","steam_id":76561198042144492,"connected_time":3310000000000,"state":"active","ping":55}]},{"server_id":104,"name":"Uncletopia | Atlanta | 2 | All Maps","name_short":"atl-2","host":"atl-1.us.uncletopia.com","port":27025,"enabled":true,"region":"us-east","cc":"us","latitude":33.753746,"longitude":-84.38633,"reserved":0,"last_update":"0001-01-01T00:00:00Z","name_a2s":"Uncletopia | Atlanta | 2 | All Maps","protocol":17,"map":"pl_barnblitz","folder":"tf","game":"Team Fortress","app_id":440,"player_count":0,"max_players":24,"Bots":0,"server_type":"Dedicated","server_os":"Linux","password":true,"vac":true,"version":"7757534","steam_id":85568392924469983,"keywords":["nocrits","nodmgspread","payload","uncletopia"],"game_id":440,"stv_port":27026,"stv_name":"Uncletopia | Atlanta | 2 | All Maps | STV","players":null},{"server_id":400,"name":"Uncletopia | Atlanta | 3 | Community","name_short":"atl-3","host":"atl-1.us.uncletopia.com","port":27035,"enabled":true,"region":"us-east","cc":"us","latitude":33.753746,"longitude":-84.38633,"reserved":0,"last_update":"0001-01-01T00:00:00Z","name_a2s":"Uncletopia | Atlanta | 3 | Community","protocol":17,"map":"workshop/cp_hazyfort_rc6.ugc1365963729","folder":"tf","game":"Team Fortress","app_id":440,"player_count":0,"max_players":24,"Bots":0,"server_type":"Dedicated","server_os":"Linux","password":true,"vac":true,"version":"7757534","steam_id":85568392924515187,"keywords":["cp","nocrits","nodmgspread","uncletopia"],"game_id":440,"stv_port":27036,"stv_name":"Uncletopia | Atlanta | 3 | Community | STV","players":null},{"server_id":401,"name":"Uncletopia | Atlanta | 4 | No Payload","name_short":"atl-4","host":"atl-1.us.uncletopia.com","port":27045,"enabled":true,"region":"us-east","cc":"us","latitude":33.753746,"longitude":-84.38633,"reserved":0,"last_update":"0001-01-01T00:00:00Z","name_a2s":"","protocol":0,"map":"","folder":"","game":"","app_id":0,"player_count":0,"max_players":0,"Bots":0,"server_type":"","server_os":"","password":false,"vac":false,"version":"","steam_id":0,"keywords":null,"game_id":0,"stv_port":0,"stv_name":"","players":null},{"server_id":2,"name":"Uncletopia | Chicago | 1 | All Maps","name_short":"chi-1","host":"chi-1.us.uncletopia.com","port":27015,"enabled":true,"region":"us-central","cc":"us","latitude":41.881832,"longitude":-87.62318,"reserved":0,"last_update":"0001-01-01T00:00:00Z","name_a2s":"Uncletopia | Chicago | 1 | All Maps","protocol":17,"map":"koth_highpass","folder":"tf","game":"Team Fortress","app_id":440,"player_count":0,"max_players":24,"Bots":0,"server_type":"Dedicated","server_os":"Linux","password":true,"vac":true,"version":"7757534","steam_id":85568392924469984,"keywords":["cp","nocrits","nodmgspread","uncletopia"],"game_id":440,"stv_port":27016,"stv_name":"Uncletopia | Chicago | 1 | All Maps | STV","players":null},{"server_id":106,"name":"Uncletopia | Chicago | 2 | All Maps","name_short":"chi-2","host":"chi-1.us.uncletopia.com","port":27025,"enabled":true,"region":"us-central","cc":"us","latitude":41.881832,"longitude":-87.62318,"reserved":0,"last_update":"0001-01-01T00:00:00Z","name_a2s":"Uncletopia | Chicago | 2 | All Maps","protocol":17,"map":"koth_nucleus","folder":"tf","game":"Team Fortress","app_id":440,"player_count":0,"max_players":24,"Bots":0,"server_type":"Dedicated","server_os":"Linux","password":true,"vac":true,"version":"7757534","steam_id":85568392924469985,"keywords":["cp","nocrits","nodmgspread","uncletopia"],"game_id":440,"stv_port":27026,"stv_name":"Uncletopia | Chicago | 2 | All Maps | STV","players":null},{"server_id":402,"name":"Uncletopia | Chicago | 3 | All Maps","name_short":"chi-3","host":"chi-1.us.uncletopia.com","port":27035,"enabled":true,"region":"us-central","cc":"us","latitude":41.881832,"longitude":-87.62318,"reserved":0,"last_update":"0001-01-01T00:00:00Z","name_a2s":"Uncletopia | Chicago | 3 | All Maps","protocol":17,"map":"pl_swiftwater_final1","folder":"tf","game":"Team Fortress","app_id":440,"player_count":23,"max_players":24,"Bots":0,"server_type":"Dedicated","server_os":"Linux","password":true,"vac":true,"version":"7757534","steam_id":85568392924515191,"keywords":["nocrits","nodmgspread","payload","uncletopia"],"game_id":440,"stv_port":27036,"stv_name":"Uncletopia | Chicago | 3 | All Maps | STV","players":[{"user_id":203,"name":"Gandalf Gaming","steam_id":76561198368151490,"connected_time":378000000000,"state":"active","ping":58},{"user_id":96,"name":"Shamrock Shake Oct.10.2020 @8pm","steam_id":76561198833313201,"connected_time":8564000000000,"state":"active","ping":112},{"user_id":208,"name":"Macko","steam_id":76561198452005461,"connected_time":72000000000,"state":"active","ping":79},{"user_id":181,"name":"DOMO_MR_ROBOTO","steam_id":76561198077108345,"connected_time":1868000000000,"state":"active","ping":93},{"user_id":187,"name":"bojack from the show bojack hor","steam_id":76561198053006712,"connected_time":1488000000000,"state":"active","ping":60},{"user_id":209,"name":"The Return","steam_id":76561198202187684,"connected_time":64000000000,"state":"active","ping":76},{"user_id":186,"name":"quint","steam_id":76561198046797995,"connected_time":1569000000000,"state":"active","ping":60},{"user_id":163,"name":"pepsibobby","steam_id":76561198853864511,"connected_time":3460000000000,"state":"active","ping":77},{"user_id":201,"name":"Uncle","steam_id":76561197988647705,"connected_time":499000000000,"state":"active","ping":55},{"user_id":150,"name":"¬¨‚Äø¬¨","steam_id":76561198325526945,"connected_time":4113000000000,"state":"active","ping":68},{"user_id":183,"name":"Joshua31704","steam_id":76561198125898714,"connected_time":1834000000000,"state":"active","ping":69},{"user_id":210,"name":"Dom","steam_id":76561198043992490,"connected_time":56000000000,"state":"active","ping":90},{"user_id":109,"name":"Suns","steam_id":76561198272323195,"connected_time":7614000000000,"state":"active","ping":99},{"user_id":192,"name":"Highground","steam_id":76561199197544789,"connected_time":1128000000000,"state":"active","ping":111},{"user_id":188,"name":"Yam Jazzy Jim","steam_id":76561198000788950,"connected_time":1465000000000,"state":"active","ping":60},{"user_id":155,"name":"!! BRO IS FLABBERGASTED !!","steam_id":76561198135036396,"connected_time":3811000000000,"state":"active","ping":81},{"user_id":185,"name":"The Land Admiral","steam_id":76561198159356609,"connected_time":1631000000000,"state":"active","ping":71},{"user_id":174,"name":"Sir Galahad","steam_id":76561198195999859,"connected_time":2292000000000,"state":"active","ping":115},{"user_id":205,"name":"Plain Toast","steam_id":76561198451580251,"connected_time":286000000000,"state":"active","ping":71},{"user_id":130,"name":"m√•lingen","steam_id":76561198035014807,"connected_time":5981000000000,"state":"active","ping":117},{"user_id":190,"name":"guess","steam_id":76561198140846580,"connected_time":1383000000000,"state":"active","ping":63},{"user_id":166,"name":"Ejaculation Zach","steam_id":76561198203765200,"connected_time":2948000000000,"state":"active","ping":58},{"user_id":200,"name":"Ground Control to Majortom","steam_id":76561198065589126,"connected_time":770000000000,"state":"active","ping":87}]},{"server_id":403,"name":"Uncletopia | Chicago | 4 | All Maps","name_short":"chi-4","host":"chi-1.us.uncletopia.com","port":27045,"enabled":true,"region":"us-central","cc":"us","latitude":41.881832,"longitude":-87.62318,"reserved":0,"last_update":"0001-01-01T00:00:00Z","name_a2s":"Uncletopia | Chicago | 4 | All Maps","protocol":17,"map":"pl_borneo","folder":"tf","game":"Team Fortress","app_id":440,"player_count":24,"max_players":24,"Bots":0,"server_type":"Dedicated","server_os":"Linux","password":true,"vac":true,"version":"7757534","steam_id":85568392924515193,"keywords":["nocrits","nodmgspread","payload","uncletopia"],"game_id":440,"stv_port":27046,"stv_name":"Uncletopia | Chicago | 4 | All Maps | STV","players":[{"user_id":369,"name":"Loogey03","steam_id":76561198155483586,"connected_time":1198000000000,"state":"active","ping":56},{"user_id":333,"name":"PeopleOrderOurPatties","steam_id":76561198323144922,"connected_time":3338000000000,"state":"active","ping":78},{"user_id":371,"name":"defcon","steam_id":76561198100656328,"connected_time":1062000000000,"state":"active","ping":78},{"user_id":363,"name":"Vegerot","steam_id":76561197997843710,"connected_time":1539000000000,"state":"active","ping":59},{"user_id":370,"name":"Dad","steam_id":76561199091290729,"connected_time":1155000000000,"state":"active","ping":75},{"user_id":367,"name":"DiscoTraveler","steam_id":76561199240168088,"connected_time":1308000000000,"state":"active","ping":71},{"user_id":372,"name":"Raptor","steam_id":76561198105613110,"connected_time":1038000000000,"state":"active","ping":103},{"user_id":379,"name":"hbmack","steam_id":76561199109097602,"connected_time":184000000000,"state":"active","ping":77},{"user_id":362,"name":"6t26j","steam_id":76561198278282836,"connected_time":1590000000000,"state":"active","ping":59},{"user_id":364,"name":"kametro4","steam_id":76561198835430429,"connected_time":1506000000000,"state":"active","ping":82},{"user_id":381,"name":"shweet","steam_id":76561198240046822,"connected_time":130000000000,"state":"active","ping":66},{"user_id":373,"name":"Bird","steam_id":76561198247484514,"connected_time":1021000000000,"state":"active","ping":83},{"user_id":313,"name":"Sprit ‚ô•","steam_id":76561198268780781,"connected_time":4978000000000,"state":"active","ping":51},{"user_id":377,"name":"glenn swagmire","steam_id":76561199101981082,"connected_time":693000000000,"state":"active","ping":62},{"user_id":354,"name":"yahoo.com warrior","steam_id":76561198152818418,"connected_time":2146000000000,"state":"active","ping":86},{"user_id":356,"name":"Yandex.RU Mercenary","steam_id":76561198202254225,"connected_time":2083000000000,"state":"active","ping":90},{"user_id":361,"name":"avantime","steam_id":76561199203175541,"connected_time":1750000000000,"state":"active","ping":85},{"user_id":315,"name":"Goldensliv","steam_id":76561198161673891,"connected_time":4958000000000,"state":"active","ping":90},{"user_id":374,"name":"ÔºîÔºê Ôº¶Ôº∞Ôº≥","steam_id":76561198272394965,"connected_time":1015000000000,"state":"active","ping":135},{"user_id":322,"name":"maze","steam_id":76561198068443860,"connected_time":4703000000000,"state":"active","ping":45},{"user_id":366,"name":"HavocGDI","steam_id":76561199388371914,"connected_time":1402000000000,"state":"active","ping":90},{"user_id":376,"name":"Clyde","steam_id":76561198158206236,"connected_time":742000000000,"state":"active","ping":105},{"user_id":375,"name":"Panckakebro","steam_id":76561198106419992,"connected_time":987000000000,"state":"active","ping":77},{"user_id":303,"name":"Kaluka","steam_id":76561198036861445,"connected_time":6313000000000,"state":"active","ping":61}]},{"server_id":36,"name":"Uncletopia | Chicago | 5 | All Maps","name_short":"chi-5","host":"chi-2.us.uncletopia.com","port":27015,"enabled":true,"region":"us-central","cc":"us","latitude":41.881832,"longitude":-87.62318,"reserved":0,"last_update":"0001-01-01T00:00:00Z","name_a2s":"Uncletopia | Chicago | 5 | All Maps","protocol":17,"map":"koth_cascade","folder":"tf","game":"Team Fortress","app_id":440,"player_count":0,"max_players":24,"Bots":0,"server_type":"Dedicated","server_os":"Linux","password":true,"vac":true,"version":"7757534","steam_id":85568392924866362,"keywords":["cp","nocrits","nodmgspread","uncletopia"],"game_id":440,"stv_port":27016,"stv_name":"Uncletopia | Chicago | 5 | All Maps | STV","players":null},{"server_id":37,"name":"Uncletopia | Chicago | 6 | All Maps","name_short":"chi-6","host":"chi-2.us.uncletopia.com","port":27025,"enabled":true,"region":"us-central","cc":"us","latitude":41.881832,"longitude":-87.62318,"reserved":0,"last_update":"0001-01-01T00:00:00Z","name_a2s":"Uncletopia | Chicago | 6 | All Maps","protocol":17,"map":"koth_viaduct","folder":"tf","game":"Team Fortress","app_id":440,"player_count":22,"max_players":24,"Bots":0,"server_type":"Dedicated","server_os":"Linux","password":true,"vac":true,"version":"7757534","steam_id":85568392924866363,"keywords":["cp","nocrits","nodmgspread","uncletopia"],"game_id":440,"stv_port":27026,"stv_name":"Uncletopia | Chicago | 6 | All Maps | STV","players":[{"user_id":251,"name":"im here to frag","steam_id":76561198392539722,"connected_time":210000000000,"state":"active","ping":77},{"user_id":223,"name":"Ben-Shapiro-Gaming","steam_id":76561198133520011,"connected_time":1314000000000,"state":"active","ping":68},{"user_id":240,"name":"sasharudzik","steam_id":76561199126617781,"connected_time":579000000000,"state":"active","ping":70},{"user_id":229,"name":"brandoncg04","steam_id":76561199189398427,"connected_time":801000000000,"state":"active","ping":66},{"user_id":226,"name":"hummus in my tummus","steam_id":76561199438698036,"connected_time":1014000000000,"state":"active","ping":68},{"user_id":252,"name":"Waffle Wannabe","steam_id":76561198064510650,"connected_time":138000000000,"state":"active","ping":68},{"user_id":254,"name":"DerrickHenryFan2012","steam_id":76561198254452687,"connected_time":113000000000,"state":"active","ping":102},{"user_id":255,"name":"discord kitten","steam_id":76561197997961542,"connected_time":97000000000,"state":"active","ping":69},{"user_id":256,"name":"Joe Biden hates trade.tf","steam_id":76561199057481839,"connected_time":66000000000,"state":"active","ping":73},{"user_id":227,"name":"SC|Formuoli","steam_id":76561198254354595,"connected_time":910000000000,"state":"active","ping":39},{"user_id":231,"name":"A Puppy","steam_id":76561198828184456,"connected_time":753000000000,"state":"active","ping":59},{"user_id":247,"name":"Meta","steam_id":76561198226438284,"connected_time":486000000000,"state":"active","ping":55},{"user_id":235,"name":"Grand Wizard King","steam_id":76561198099802660,"connected_time":630000000000,"state":"active","ping":80},{"user_id":237,"name":"craf","steam_id":76561198163535075,"connected_time":622000000000,"state":"active","ping":72},{"user_id":238,"name":"Matisguy","steam_id":76561199020903681,"connected_time":609000000000,"state":"active","ping":86},{"user_id":239,"name":"UNIT 220","steam_id":76561198042243497,"connected_time":602000000000,"state":"active","ping":78},{"user_id":241,"name":"FarLogicDreamer","steam_id":76561198251736808,"connected_time":575000000000,"state":"active","ping":80},{"user_id":257,"name":"john","steam_id":76561198850447852,"connected_time":54000000000,"state":"active","ping":73},{"user_id":258,"name":"Peter Popoff","steam_id":76561198027171160,"connected_time":50000000000,"state":"active","ping":51},{"user_id":244,"name":"The magic doo bus","steam_id":76561198243387974,"connected_time":534000000000,"state":"active","ping":73},{"user_id":245,"name":"The Italian Stig","steam_id":76561198246480090,"connected_time":516000000000,"state":"active","ping":69},{"user_id":259,"name":"debin","steam_id":76561198070711217,"connected_time":46000000000,"state":"active","ping":51}]},{"server_id":38,"name":"Uncletopia | Chicago | 7 | Stopwatch Beta","name_short":"chi-7","host":"chi-2.us.uncletopia.com","port":27035,"enabled":true,"region":"us-central","cc":"us","latitude":41.881832,"longitude":-87.62318,"reserved":0,"last_update":"0001-01-01T00:00:00Z","name_a2s":"Uncletopia | Chicago | 7 | Stopwatch Beta","protocol":17,"map":"pl_barnblitz","folder":"tf","game":"Team Fortress","app_id":440,"player_count":0,"max_players":24,"Bots":0,"server_type":"Dedicated","server_os":"Linux","password":true,"vac":true,"version":"7757534","steam_id":85568392924866364,"keywords":["nocrits","nodmgspread","payload","uncletopia"],"game_id":440,"stv_port":27036,"stv_name":"Uncletopia | Chicago | 7 | Stopwatch Beta | STV","players":null},{"server_id":39,"name":"Uncletopia | Chicago | 8 | Community","name_short":"chi-8","host":"chi-2.us.uncletopia.com","port":27045,"enabled":true,"region":"us-central","cc":"us","latitude":41.881832,"longitude":-87.62318,"reserved":0,"last_update":"0001-01-01T00:00:00Z","name_a2s":"Uncletopia | Chicago | 8 | Community","protocol":17,"map":"koth_cascade","folder":"tf","game":"Team Fortress","app_id":440,"player_count":0,"max_players":24,"Bots":0,"server_type":"Dedicated","server_os":"Linux","password":true,"vac":true,"version":"7757534","steam_id":85568392924866365,"keywords":["cp","nocrits","nodmgspread","uncletopia"],"game_id":440,"stv_port":27046,"stv_name":"Uncletopia | Chicago | 8 | Community | STV","players":null},{"server_id":8,"name":"Uncletopia | Dallas | 1 | All Maps","name_short":"dal-1","host":"dal-1.us.uncletopia.com","port":27015,"enabled":true,"region":"us-central","cc":"us","latitude":32.779167,"longitude":-96.80889,"reserved":0,"last_update":"0001-01-01T00:00:00Z","name_a2s":"Uncletopia | Dallas | 1 | All Maps","protocol":17,"map":"koth_cascade","folder":"tf","game":"Team Fortress","app_id":440,"player_count":6,"max_players":24,"Bots":0,"server_type":"Dedicated","server_os":"Linux","password":true,"vac":true,"version":"7757534","steam_id":85568392924469986,"keywords":["cp","nocrits","nodmgspread","uncletopia"],"game_id":440,"stv_port":27016,"stv_name":"Uncletopia | Dallas | 1 | All Maps | STV","players":[{"user_id":14,"name":"Baby gaming","steam_id":76561198867319323,"connected_time":2866000000000,"state":"active","ping":83},{"user_id":23,"name":"Antknee","steam_id":76561198263793809,"connected_time":343000000000,"state":"active","ping":70},{"user_id":16,"name":"thetroupegang","steam_id":76561198340510098,"connected_time":2821000000000,"state":"active","ping":44},{"user_id":24,"name":"Joyous Jenny","steam_id":76561198127998866,"connected_time":324000000000,"state":"active","ping":68},{"user_id":25,"name":"bob","steam_id":76561198261060542,"connected_time":236000000000,"state":"active","ping":97},{"user_id":26,"name":"tesagi","steam_id":76561198026664629,"connected_time":235000000000,"state":"active","ping":69}]},{"server_id":108,"name":"Uncletopia | Dallas | 2 | All Maps","name_short":"dal-2","host":"dal-1.us.uncletopia.com","port":27025,"enabled":true,"region":"us-central","cc":"us","latitude":32.779167,"longitude":-96.80889,"reserved":0,"last_update":"0001-01-01T00:00:00Z","name_a2s":"Uncletopia | Dallas | 2 | All Maps","protocol":17,"map":"pl_snowycoast","folder":"tf","game":"Team Fortress","app_id":440,"player_count":20,"max_players":24,"Bots":0,"server_type":"Dedicated","server_os":"Linux","password":true,"vac":true,"version":"7757534","steam_id":85568392924469988,"keywords":["nocrits","nodmgspread","payload","uncletopia"],"game_id":440,"stv_port":27026,"stv_name":"Uncletopia | Dallas | 2 | All Maps | STV","players":[{"user_id":307,"name":"ice spice wormhole","steam_id":76561198061497429,"connected_time":77000000000,"state":"active","ping":48},{"user_id":306,"name":"adam0o0","steam_id":76561198052250279,"connected_time":151000000000,"state":"active","ping":63},{"user_id":288,"name":"Female Gamer","steam_id":76561199366482682,"connected_time":1605000000000,"state":"active","ping":116},{"user_id":308,"name":"radicalPolio","steam_id":76561197961561855,"connected_time":25000000000,"state":"spawning","ping":44},{"user_id":285,"name":"Brown_Dream","steam_id":76561198975766145,"connected_time":1952000000000,"state":"active","ping":89},{"user_id":295,"name":"VioletChan She/Her","steam_id":76561198074713124,"connected_time":1364000000000,"state":"active","ping":41},{"user_id":198,"name":"Cinnifox","steam_id":76561198068773971,"connected_time":7391000000000,"state":"active","ping":72},{"user_id":119,"name":"Romanian Officer B Dingling","steam_id":76561198831997540,"connected_time":11344000000000,"state":"spawning","ping":136},{"user_id":309,"name":"Gaiduk","steam_id":76561198112323877,"connected_time":7000000000,"state":"spawning","ping":88},{"user_id":292,"name":"carol in HR","steam_id":76561198071775268,"connected_time":1505000000000,"state":"active","ping":83},{"user_id":281,"name":"Damiano","steam_id":76561198065585796,"connected_time":2387000000000,"state":"active","ping":80},{"user_id":296,"name":"vividbot","steam_id":76561198158980015,"connected_time":1353000000000,"state":"active","ping":77},{"user_id":280,"name":"DocLucky","steam_id":76561199093899249,"connected_time":2445000000000,"state":"active","ping":163},{"user_id":107,"name":"Joe Swanson","steam_id":76561199089907740,"connected_time":12684000000000,"state":"active","ping":67},{"user_id":297,"name":"Squatter1","steam_id":76561198078987734,"connected_time":1343000000000,"state":"active","ping":77},{"user_id":298,"name":"BladeeFann","steam_id":76561198164439110,"connected_time":1317000000000,"state":"active","ping":77},{"user_id":286,"name":"nothing happened in Venice","steam_id":76561198936412406,"connected_time":1740000000000,"state":"active","ping":75},{"user_id":213,"name":"weebloser","steam_id":76561198155571316,"connected_time":6840000000000,"state":"active","ping":72},{"user_id":304,"name":"Multi289","steam_id":76561198063923434,"connected_time":900000000000,"state":"active","ping":152},{"user_id":300,"name":"Mediarch","steam_id":76561198050765729,"connected_time":1272000000000,"state":"active","ping":94}]},{"server_id":5,"name":"Uncletopia | Frankfurt | 1 | All Maps","name_short":"frk-1","host":"frk-1.de.uncletopia.com","port":27015,"enabled":true,"region":"eu","cc":"de","latitude":50.110924,"longitude":8.682127,"reserved":0,"last_update":"0001-01-01T00:00:00Z","name_a2s":"Uncletopia | Frankfurt | 1 | All Maps","protocol":17,"map":"pl_swiftwater_final1","folder":"tf","game":"Team Fortress","app_id":440,"player_count":24,"max_players":24,"Bots":0,"server_type":"Dedicated","server_os":"Linux","password":true,"vac":true,"version":"7757534","steam_id":85568392924469989,"keywords":["nocrits","nodmgspread","payload","uncletopia"],"game_id":440,"stv_port":27016,"stv_name":"Uncletopia | Frankfurt | 1 | All Maps | STV","players":[{"user_id":717,"name":"Fofenho","steam_id":76561198436817109,"connected_time":895000000000,"state":"active","ping":61},{"user_id":685,"name":"Walle","steam_id":76561197995148937,"connected_time":4389000000000,"state":"active","ping":68},{"user_id":690,"name":"Er Pomata","steam_id":76561198133085347,"connected_time":2849000000000,"state":"active","ping":56},{"user_id":715,"name":"Testicular torsion","steam_id":76561198119547399,"connected_time":931000000000,"state":"active","ping":50},{"user_id":709,"name":"Pats","steam_id":76561198418538887,"connected_time":2086000000000,"state":"active","ping":92},{"user_id":666,"name":"Datenegassie","steam_id":76561198089417032,"connected_time":5657000000000,"state":"active","ping":70},{"user_id":725,"name":"k","steam_id":76561198089342103,"connected_time":711000000000,"state":"active","ping":79},{"user_id":726,"name":"Sparrow","steam_id":76561199289555797,"connected_time":690000000000,"state":"active","ping":90},{"user_id":716,"name":"Lord Aerial","steam_id":76561198288157281,"connected_time":915000000000,"state":"active","ping":65},{"user_id":710,"name":"Thors","steam_id":76561197968739075,"connected_time":1824000000000,"state":"active","ping":46},{"user_id":679,"name":"Svilar","steam_id":76561198828348612,"connected_time":5088000000000,"state":"active","ping":95},{"user_id":412,"name":"grandpa's post-mortem photo","steam_id":76561198130116078,"connected_time":22546000000000,"state":"active","ping":92},{"user_id":728,"name":"Selmu (She/Her)","steam_id":76561198119496209,"connected_time":608000000000,"state":"active","ping":64},{"user_id":729,"name":"Moxxie","steam_id":76561199032241509,"connected_time":365000000000,"state":"active","ping":48},{"user_id":712,"name":"flappi","steam_id":76561198072892783,"connected_time":1385000000000,"state":"active","ping":59},{"user_id":708,"name":"Arti","steam_id":76561197983352845,"connected_time":2107000000000,"state":"active","ping":70},{"user_id":687,"name":"Seeker","steam_id":76561198873052772,"connected_time":4151000000000,"state":"active","ping":70},{"user_id":713,"name":"‚ô• Aura ‚ô•","steam_id":76561198066258544,"connected_time":1317000000000,"state":"active","ping":48},{"user_id":722,"name":"Larry Penus","steam_id":76561198207546233,"connected_time":855000000000,"state":"active","ping":57},{"user_id":730,"name":"Fran","steam_id":76561199070516960,"connected_time":67000000000,"state":"active","ping":67},{"user_id":724,"name":"78","steam_id":76561198208328357,"connected_time":774000000000,"state":"active","ping":87},{"user_id":689,"name":"Myrmodion","steam_id":76561198054746247,"connected_time":3173000000000,"state":"active","ping":68},{"user_id":688,"name":"yung arzneimittel","steam_id":76561198044165284,"connected_time":3722000000000,"state":"active","ping":45},{"user_id":681,"name":"‚òÖpoyo‚òÖ","steam_id":76561198150078959,"connected_time":5037000000000,"state":"active","ping":82}]},{"server_id":110,"name":"Uncletopia | Frankfurt | 2 | All Maps","name_short":"frk-2","host":"frk-1.de.uncletopia.com","port":27025,"enabled":true,"region":"eu","cc":"de","latitude":50.110924,"longitude":8.682127,"reserved":0,"last_update":"0001-01-01T00:00:00Z","name_a2s":"Uncletopia | Frankfurt | 2 | All Maps","protocol":17,"map":"pl_pier","folder":"tf","game":"Team Fortress","app_id":440,"player_count":24,"max_players":24,"Bots":0,"server_type":"Dedicated","server_os":"Linux","password":true,"vac":true,"version":"7757534","steam_id":85568392924469990,"keywords":["nocrits","nodmgspread","payload","uncletopia"],"game_id":440,"stv_port":27026,"stv_name":"Uncletopia | Frankfurt | 2 | All Maps | STV","players":[{"user_id":394,"name":"etc","steam_id":76561197998394797,"connected_time":4197000000000,"state":"active","ping":59},{"user_id":414,"name":"kamikaze bat enjoyer","steam_id":76561198865364180,"connected_time":1965000000000,"state":"active","ping":60},{"user_id":427,"name":"FJADL","steam_id":76561198237008214,"connected_time":1287000000000,"state":"active","ping":61},{"user_id":400,"name":"weed fairy","steam_id":76561197998843096,"connected_time":2948000000000,"state":"active","ping":71},{"user_id":435,"name":"Ducky[WADZ]","steam_id":76561198060341245,"connected_time":876000000000,"state":"active","ping":58},{"user_id":443,"name":"Cornelius Shacklebart","steam_id":76561198000735878,"connected_time":152000000000,"state":"active","ping":62},{"user_id":378,"name":"Solymr ibn Wali Barad","steam_id":76561198044008976,"connected_time":4913000000000,"state":"active","ping":74},{"user_id":379,"name":"Mor'du","steam_id":76561198274105878,"connected_time":4907000000000,"state":"active","ping":100},{"user_id":381,"name":"zek","steam_id":76561198862763731,"connected_time":4759000000000,"state":"active","ping":55},{"user_id":425,"name":"Flint","steam_id":76561197995920776,"connected_time":1376000000000,"state":"active","ping":44},{"user_id":430,"name":"Robs","steam_id":76561198078355830,"connected_time":922000000000,"state":"active","ping":78},{"user_id":424,"name":"David \"Crash\" Murphy","steam_id":76561198292845505,"connected_time":1399000000000,"state":"active","ping":91},{"user_id":442,"name":"Seron-Lowell","steam_id":76561198070291347,"connected_time":247000000000,"state":"active","ping":46},{"user_id":431,"name":"redddz","steam_id":76561198065593840,"connected_time":919000000000,"state":"active","ping":90},{"user_id":433,"name":"medicinal man","steam_id":76561198202668788,"connected_time":895000000000,"state":"active","ping":59},{"user_id":438,"name":"Latgaul","steam_id":76561199009145544,"connected_time":744000000000,"state":"active","ping":95},{"user_id":406,"name":"FluffyFoxxo69","steam_id":76561198254582506,"connected_time":2571000000000,"state":"active","ping":61},{"user_id":368,"name":"S_ApplePie","steam_id":76561198106947669,"connected_time":5792000000000,"state":"active","ping":87},{"user_id":407,"name":"Tort","steam_id":76561198329646769,"connected_time":2558000000000,"state":"active","ping":71},{"user_id":413,"name":"Bone Photogarapher","steam_id":76561198799953945,"connected_time":2132000000000,"state":"active","ping":60},{"user_id":418,"name":"Merc","steam_id":76561198044864067,"connected_time":1882000000000,"state":"active","ping":84},{"user_id":434,"name":"day","steam_id":76561198260265302,"connected_time":891000000000,"state":"active","ping":53},{"user_id":437,"name":"mona che sbatte le porte gaming","steam_id":76561198115904548,"connected_time":817000000000,"state":"active","ping":96},{"user_id":441,"name":"Tadamichi Kuribayashi","steam_id":76561198963841479,"connected_time":527000000000,"state":"active","ping":79}]},{"server_id":308,"name":"Uncletopia | Frankfurt | 3 | All Maps","name_short":"frk-3","host":"frk-1.de.uncletopia.com","port":27035,"enabled":true,"region":"eu","cc":"de","latitude":50.110924,"longitude":8.682127,"reserved":0,"last_update":"0001-01-01T00:00:00Z","name_a2s":"Uncletopia | Frankfurt | 3 | All Maps","protocol":17,"map":"pl_barnblitz","folder":"tf","game":"Team Fortress","app_id":440,"player_count":0,"max_players":24,"Bots":0,"server_type":"Dedicated","server_os":"Linux","password":true,"vac":true,"version":"7757534","steam_id":85568392924504274,"keywords":["nocrits","nodmgspread","payload","uncletopia"],"game_id":440,"stv_port":27036,"stv_name":"Uncletopia | Frankfurt | 3 | All Maps | STV","players":null},{"server_id":309,"name":"Uncletopia | Frankfurt | 4 | All Maps","name_short":"frk-4","host":"frk-1.de.uncletopia.com","port":27045,"enabled":true,"region":"eu","cc":"de","latitude":50.110924,"longitude":8.682127,"reserved":0,"last_update":"0001-01-01T00:00:00Z","name_a2s":"Uncletopia | Frankfurt | 4 | All Maps","protocol":17,"map":"cp_5gorge","folder":"tf","game":"Team Fortress","app_id":440,"player_count":24,"max_players":24,"Bots":0,"server_type":"Dedicated","server_os":"Linux","password":true,"vac":true,"version":"7757534","steam_id":85568392924504275,"keywords":["cp","nocrits","nodmgspread","uncletopia"],"game_id":440,"stv_port":27046,"stv_name":"Uncletopia | Frankfurt | 4 | All Maps | STV","players":[{"user_id":326,"name":"Scorvy","steam_id":76561198853673332,"connected_time":46000000000,"state":"active","ping":89},{"user_id":320,"name":"Swedde","steam_id":76561198297296440,"connected_time":152000000000,"state":"active","ping":82},{"user_id":281,"name":"W√ºstenfuchs","steam_id":76561198453885708,"connected_time":3688000000000,"state":"active","ping":70},{"user_id":196,"name":"–ü–µ–Ω—å","steam_id":76561198103127918,"connected_time":9812000000000,"state":"active","ping":98},{"user_id":321,"name":"milan","steam_id":76561198858509678,"connected_time":133000000000,"state":"active","ping":64},{"user_id":235,"name":"InariTPG (They Them)","steam_id":76561198872670782,"connected_time":6605000000000,"state":"active","ping":76},{"user_id":259,"name":"diam","steam_id":76561198015364262,"connected_time":5007000000000,"state":"active","ping":58},{"user_id":323,"name":"Lyell","steam_id":76561198350329389,"connected_time":112000000000,"state":"active","ping":76},{"user_id":306,"name":"jo","steam_id":76561198109074418,"connected_time":1215000000000,"state":"active","ping":61},{"user_id":324,"name":"Usame bin Muhammed bin Avad bin","steam_id":76561199198844185,"connected_time":112000000000,"state":"active","ping":285},{"user_id":277,"name":"Surplus Rice","steam_id":76561198181097561,"connected_time":4058000000000,"state":"active","ping":70},{"user_id":278,"name":"bonehead","steam_id":76561198261870384,"connected_time":3769000000000,"state":"active","ping":71},{"user_id":325,"name":"Nithle","steam_id":76561198025372740,"connected_time":98000000000,"state":"active","ping":53},{"user_id":327,"name":"Egor Pomidor","steam_id":76561199175688390,"connected_time":44000000000,"state":"active","ping":76},{"user_id":276,"name":"Wyro","steam_id":76561199176835169,"connected_time":4219000000000,"state":"active","ping":66},{"user_id":313,"name":"AWJ ÀÜ-ÀÜ","steam_id":76561198053628243,"connected_time":712000000000,"state":"active","ping":55},{"user_id":303,"name":"le big mac #queue4passtime","steam_id":76561199026378253,"connected_time":1378000000000,"state":"active","ping":52},{"user_id":262,"name":"Baki ‡∂û","steam_id":76561198193615529,"connected_time":4953000000000,"state":"active","ping":60},{"user_id":317,"name":"Saint","steam_id":76561198003296382,"connected_time":523000000000,"state":"active","ping":61},{"user_id":268,"name":"roblan11","steam_id":76561198066839258,"connected_time":4563000000000,"state":"active","ping":45},{"user_id":304,"name":"Matael","steam_id":76561198452200894,"connected_time":1375000000000,"state":"active","ping":63},{"user_id":294,"name":"Hendriks","steam_id":76561198446347617,"connected_time":2240000000000,"state":"active","ping":46},{"user_id":291,"name":"Kleiner Engel","steam_id":76561198009922500,"connected_time":2877000000000,"state":"active","ping":103},{"user_id":305,"name":"WatchingTriple/Twitch.tv","steam_id":76561198189375493,"connected_time":1352000000000,"state":"active","ping":82}]},{"server_id":310,"name":"Uncletopia | Frankfurt | 5 | All Maps","name_short":"frk-5","host":"frk-1.de.uncletopia.com","port":27055,"enabled":true,"region":"eu","cc":"de","latitude":50.110924,"longitude":8.682127,"reserved":0,"last_update":"0001-01-01T00:00:00Z","name_a2s":"Uncletopia | Frankfurt | 5 | All Maps","protocol":17,"map":"pl_swiftwater_final1","folder":"tf","game":"Team Fortress","app_id":440,"player_count":24,"max_players":24,"Bots":0,"server_type":"Dedicated","server_os":"Linux","password":true,"vac":true,"version":"7757534","steam_id":85568392924504277,"keywords":["nocrits","nodmgspread","payload","uncletopia"],"game_id":440,"stv_port":27056,"stv_name":"Uncletopia | Frankfurt | 5 | All Maps | STV","players":[{"user_id":124,"name":"RIFT","steam_id":76561198991622379,"connected_time":1207000000000,"state":"active","ping":54},{"user_id":83,"name":"Renard pos4","steam_id":76561197998908594,"connected_time":3485000000000,"state":"active","ping":69},{"user_id":77,"name":"Chucky.","steam_id":76561197969361063,"connected_time":3689000000000,"state":"active","ping":90},{"user_id":118,"name":"w presser","steam_id":76561197994600818,"connected_time":1953000000000,"state":"active","ping":46},{"user_id":132,"name":"Cringe Guillotine User","steam_id":76561198997067030,"connected_time":465000000000,"state":"active","ping":191},{"user_id":112,"name":"THE TUNNEL IS INCOMPLETE","steam_id":76561198183949987,"connected_time":2418000000000,"state":"active","ping":68},{"user_id":125,"name":"possiblename","steam_id":76561199064350902,"connected_time":1186000000000,"state":"active","ping":103},{"user_id":97,"name":"Walter Griffin","steam_id":76561199415989636,"connected_time":3150000000000,"state":"active","ping":107},{"user_id":129,"name":"Kraiti","steam_id":76561198847296908,"connected_time":889000000000,"state":"active","ping":72},{"user_id":127,"name":"Ben UFO","steam_id":76561198001648348,"connected_time":1021000000000,"state":"active","ping":62},{"user_id":123,"name":"Cuthbert","steam_id":76561198204649481,"connected_time":1468000000000,"state":"active","ping":99},{"user_id":130,"name":"a Regurar Barroon","steam_id":76561198834913692,"connected_time":811000000000,"state":"active","ping":70},{"user_id":116,"name":"cringey d","steam_id":76561197991829888,"connected_time":2307000000000,"state":"active","ping":86},{"user_id":84,"name":"Minimi","steam_id":76561198873850443,"connected_time":3464000000000,"state":"active","ping":58},{"user_id":111,"name":"Nobody","steam_id":76561198157416665,"connected_time":2463000000000,"state":"active","ping":75},{"user_id":95,"name":"Fifourche","steam_id":76561198078209480,"connected_time":3234000000000,"state":"active","ping":62},{"user_id":131,"name":"LawrenceFishdom","steam_id":76561199190918059,"connected_time":768000000000,"state":"active","ping":69},{"user_id":133,"name":"Dasnoiper","steam_id":76561198258596731,"connected_time":431000000000,"state":"active","ping":56},{"user_id":108,"name":"Laxslow","steam_id":76561198065361846,"connected_time":2484000000000,"state":"active","ping":58},{"user_id":51,"name":"Nyhde","steam_id":76561198012771416,"connected_time":5084000000000,"state":"active","ping":89},{"user_id":109,"name":"üç≠ùí¶ùëíùìÅùìÅùìéüç≠‚ù§","steam_id":76561198092156531,"connected_time":2469000000000,"state":"active","ping":61},{"user_id":134,"name":"X_Gabrieloff_X","steam_id":76561198978979440,"connected_time":173000000000,"state":"active","ping":88},{"user_id":62,"name":"[HOL] Solringen","steam_id":76561198003584681,"connected_time":4544000000000,"state":"active","ping":63},{"user_id":113,"name":"goblinninja110","steam_id":76561198269159354,"connected_time":2418000000000,"state":"active","ping":68}]},{"server_id":311,"name":"Uncletopia | Frankfurt | 6 | All Maps","name_short":"frk-6","host":"frk-1.de.uncletopia.com","port":27065,"enabled":true,"region":"eu","cc":"de","latitude":50.110924,"longitude":8.682127,"reserved":0,"last_update":"0001-01-01T00:00:00Z","name_a2s":"Uncletopia | Frankfurt | 6 | All Maps","protocol":17,"map":"plr_nightfall_final","folder":"tf","game":"Team Fortress","app_id":440,"player_count":17,"max_players":24,"Bots":0,"server_type":"Dedicated","server_os":"Linux","password":true,"vac":true,"version":"7757534","steam_id":85568392924504278,"keywords":["nocrits","nodmgspread","payload","uncletopia"],"game_id":440,"stv_port":27066,"stv_name":"Uncletopia | Frankfurt | 6 | All Maps | STV","players":[{"user_id":216,"name":"zak","steam_id":76561197998895428,"connected_time":1161000000000,"state":"active","ping":59},{"user_id":207,"name":"Carrot Arc","steam_id":76561198164957006,"connected_time":2355000000000,"state":"active","ping":85},{"user_id":228,"name":"Staffy #CommunityServers‚ô°‚ô°","steam_id":76561198859722036,"connected_time":236000000000,"state":"active","ping":92},{"user_id":229,"name":"The Stig","steam_id":76561198103908668,"connected_time":153000000000,"state":"active","ping":70},{"user_id":179,"name":"Sirzen","steam_id":76561198170155434,"connected_time":4082000000000,"state":"active","ping":57},{"user_id":176,"name":"Ross from F.R.I.E.N.D.S.","steam_id":76561198008511665,"connected_time":4427000000000,"state":"active","ping":59},{"user_id":119,"name":"After8","steam_id":76561198090750865,"connected_time":7317000000000,"state":"active","ping":60},{"user_id":232,"name":"Kneh","steam_id":76561198121744739,"connected_time":49000000000,"state":"active","ping":73},{"user_id":213,"name":"Ecton","steam_id":76561198025103720,"connected_time":1747000000000,"state":"active","ping":61},{"user_id":233,"name":"Palettenbrett","steam_id":76561198124162943,"connected_time":47000000000,"state":"active","ping":78},{"user_id":226,"name":"Shaiva","steam_id":76561198034677706,"connected_time":611000000000,"state":"active","ping":76},{"user_id":193,"name":"Yuzu","steam_id":76561198121694613,"connected_time":3104000000000,"state":"active","ping":53},{"user_id":209,"name":"FrostKnight","steam_id":76561199174561702,"connected_time":2272000000000,"state":"active","ping":65},{"user_id":195,"name":"Well, off to hang myself","steam_id":76561198053374944,"connected_time":3085000000000,"state":"active","ping":71},{"user_id":199,"name":"Spicemanishere","steam_id":76561199237231482,"connected_time":2924000000000,"state":"active","ping":72},{"user_id":220,"name":"Shelk0","steam_id":76561198153349968,"connected_time":1089000000000,"state":"active","ping":84},{"user_id":223,"name":"nekfresh","steam_id":76561198074821089,"connected_time":716000000000,"state":"active","ping":62}]},{"server_id":23,"name":"Uncletopia | Frankfurt | 7 | Stopwatch Beta","name_short":"frk-7","host":"frk-1.de.uncletopia.com","port":27075,"enabled":true,"region":"eu","cc":"de","latitude":50.110924,"longitude":8.682127,"reserved":0,"last_update":"0001-01-01T00:00:00Z","name_a2s":"Uncletopia | Frankfurt | 7 | Stopwatch Beta","protocol":17,"map":"workshop/koth_clearcut_b15.ugc2107050255","folder":"tf","game":"Team Fortress","app_id":440,"player_count":0,"max_players":24,"Bots":0,"server_type":"Dedicated","server_os":"Linux","password":true,"vac":true,"version":"7757534","steam_id":85568392924742827,"keywords":["cp","nocrits","nodmgspread","uncletopia"],"game_id":440,"stv_port":27076,"stv_name":"Uncletopia | Frankfurt | 7 | Stopwatch Beta | STV","players":null},{"server_id":24,"name":"Uncletopia | Frankfurt | 8 | Community","name_short":"frk-8","host":"frk-1.de.uncletopia.com","port":27085,"enabled":true,"region":"eu","cc":"de","latitude":50.110924,"longitude":8.682127,"reserved":0,"last_update":"0001-01-01T00:00:00Z","name_a2s":"Uncletopia | Frankfurt | 8 | Community","protocol":17,"map":"workshop/koth_kemptown_rc1.ugc767410655","folder":"tf","game":"Team Fortress","app_id":440,"player_count":9,"max_players":24,"Bots":0,"server_type":"Dedicated","server_os":"Linux","password":true,"vac":true,"version":"7757534","steam_id":85568392924742828,"keywords":["cp","nocrits","nodmgspread","uncletopia"],"game_id":440,"stv_port":27086,"stv_name":"Uncletopia | Frankfurt | 8 | Community | STV","players":[{"user_id":283,"name":"El Goblino","steam_id":76561198232877396,"connected_time":1054000000000,"state":"active","ping":98},{"user_id":284,"name":"GamliRaudur1","steam_id":76561199179181105,"connected_time":1046000000000,"state":"active","ping":99},{"user_id":275,"name":"Brainfart08","steam_id":76561198170156079,"connected_time":1850000000000,"state":"active","ping":100},{"user_id":276,"name":"Larynx","steam_id":76561199425162651,"connected_time":1520000000000,"state":"active","ping":81},{"user_id":280,"name":"boss of the lgbtq+","steam_id":76561198106079915,"connected_time":1304000000000,"state":"active","ping":74},{"user_id":287,"name":"F","steam_id":76561199149462792,"connected_time":528000000000,"state":"active","ping":64},{"user_id":288,"name":"BONAX","steam_id":76561198159123994,"connected_time":286000000000,"state":"active","ping":64},{"user_id":289,"name":"Sir Skyber","steam_id":76561198064440004,"connected_time":93000000000,"state":"active","ping":91},{"user_id":229,"name":"KonehoChicken.","steam_id":76561198167116467,"connected_time":5378000000000,"state":"active","ping":96}]},{"server_id":202,"name":"Uncletopia | Hong Kong | 1 | All Maps","name_short":"hgk-1","host":"hgk-1.hk.uncletopia.com","port":27015,"enabled":true,"region":"asia","cc":"hk","latitude":22.302711,"longitude":114.177216,"reserved":0,"last_update":"0001-01-01T00:00:00Z","name_a2s":"Uncletopia | Hong Kong | 1 | All Maps","protocol":17,"map":"koth_lakeside_final","folder":"tf","game":"Team Fortress","app_id":440,"player_count":0,"max_players":24,"Bots":0,"server_type":"Dedicated","server_os":"Linux","password":true,"vac":true,"version":"7757534","steam_id":85568392924494504,"keywords":["cp","nocrits","nodmgspread","uncletopia"],"game_id":440,"stv_port":27016,"stv_name":"Uncletopia | Hong Kong | 1 | All Maps | STV","players":null},{"server_id":1,"name":"Uncletopia | Los Angeles | 1 | All Maps","name_short":"lax-1","host":"lax-1.us.uncletopia.com","port":27015,"enabled":true,"region":"us-west","cc":"us","latitude":33.94279,"longitude":-118.41004,"reserved":0,"last_update":"0001-01-01T00:00:00Z","name_a2s":"Uncletopia | Los Angeles | 1 | All Maps","protocol":17,"map":"koth_lakeside_final","folder":"tf","game":"Team Fortress","app_id":440,"player_count":0,"max_players":24,"Bots":0,"server_type":"Dedicated","server_os":"Linux","password":true,"vac":true,"version":"7757534","steam_id":85568392924469991,"keywords":["cp","nocrits","nodmgspread","uncletopia"],"game_id":440,"stv_port":27016,"stv_name":"Uncletopia | Los Angeles | 1 | All Maps | STV","players":null},{"server_id":112,"name":"Uncletopia | Los Angeles | 2 | All Maps","name_short":"lax-2","host":"lax-1.us.uncletopia.com","port":27025,"enabled":true,"region":"us-west","cc":"us","latitude":33.94279,"longitude":-118.41004,"reserved":0,"last_update":"0001-01-01T00:00:00Z","name_a2s":"Uncletopia | Los Angeles | 2 | All Maps","protocol":17,"map":"pl_badwater","folder":"tf","game":"Team Fortress","app_id":440,"player_count":0,"max_players":24,"Bots":0,"server_type":"Dedicated","server_os":"Linux","password":true,"vac":true,"version":"7757534","steam_id":85568392924469992,"keywords":["nocrits","nodmgspread","payload","uncletopia"],"game_id":440,"stv_port":27026,"stv_name":"Uncletopia | Los Angeles | 2 | All Maps | STV","players":null},{"server_id":324,"name":"Uncletopia | Los Angeles | 3 | All Maps","name_short":"lax-3","host":"lax-1.us.uncletopia.com","port":27035,"enabled":true,"region":"us-west","cc":"us","latitude":33.94279,"longitude":-118.41004,"reserved":0,"last_update":"0001-01-01T00:00:00Z","name_a2s":"Uncletopia | Los Angeles | 3 | All Maps","protocol":17,"map":"pl_barnblitz","folder":"tf","game":"Team Fortress","app_id":440,"player_count":0,"max_players":24,"Bots":0,"server_type":"Dedicated","server_os":"Linux","password":true,"vac":true,"version":"7757534","steam_id":85568392924510198,"keywords":["nocrits","nodmgspread","payload","uncletopia"],"game_id":440,"stv_port":27036,"stv_name":"Uncletopia | Los Angeles | 3 | All Maps | STV","players":null},{"server_id":25,"name":"Uncletopia | Los Angeles | 4 | Stopwatch Beta","name_short":"lax-4","host":"lax-1.us.uncletopia.com","port":27045,"enabled":true,"region":"us-west","cc":"us","latitude":33.94279,"longitude":-118.41004,"reserved":0,"last_update":"0001-01-01T00:00:00Z","name_a2s":"Uncletopia | Los Angeles | 4 | Stopwatch Beta","protocol":17,"map":"pl_swiftwater_final1","folder":"tf","game":"Team Fortress","app_id":440,"player_count":0,"max_players":24,"Bots":0,"server_type":"Dedicated","server_os":"Linux","password":true,"vac":true,"version":"7757534","steam_id":85568392924510199,"keywords":["nocrits","nodmgspread","payload","uncletopia"],"game_id":440,"stv_port":27046,"stv_name":"Uncletopia | Los Angeles | 4 | Stopwatch Beta | STV","players":null},{"server_id":11,"name":"Uncletopia | London | 1 | All Maps","name_short":"lon-1","host":"lon-1.uk.uncletopia.com","port":27015,"enabled":true,"region":"eu","cc":"gb","latitude":51.509865,"longitude":-0.118092,"reserved":0,"last_update":"0001-01-01T00:00:00Z","name_a2s":"Uncletopia | London | 1 | All Maps","protocol":17,"map":"pl_pier","folder":"tf","game":"Team Fortress","app_id":440,"player_count":24,"max_players":24,"Bots":0,"server_type":"Dedicated","server_os":"Linux","password":true,"vac":true,"version":"7757534","steam_id":85568392924367362,"keywords":["nocrits","nodmgspread","payload","uncletopia"],"game_id":440,"stv_port":27016,"stv_name":"Uncletopia | London | 1 | All Maps | STV","players":[{"user_id":528,"name":"mt","steam_id":76561197961319303,"connected_time":2013000000000,"state":"active","ping":59},{"user_id":543,"name":"Son Goku","steam_id":76561199383437138,"connected_time":1221000000000,"state":"active","ping":130},{"user_id":551,"name":"thespe","steam_id":76561198088225107,"connected_time":214000000000,"state":"active","ping":65},{"user_id":513,"name":"Lewylow","steam_id":76561198005425686,"connected_time":4108000000000,"state":"active","ping":56},{"user_id":552,"name":"silicon based life form","steam_id":76561199127121346,"connected_time":213000000000,"state":"active","ping":54},{"user_id":553,"name":"My left foot itches","steam_id":76561198078411001,"connected_time":202000000000,"state":"active","ping":87},{"user_id":544,"name":"Fwebbie","steam_id":76561199006875621,"connected_time":1201000000000,"state":"active","ping":64},{"user_id":526,"name":"shooer","steam_id":76561198110531281,"connected_time":2945000000000,"state":"active","ping":77},{"user_id":550,"name":"General Petrov","steam_id":76561198027204104,"connected_time":227000000000,"state":"active","ping":75},{"user_id":546,"name":"Prome","steam_id":76561199050383942,"connected_time":789000000000,"state":"active","ping":61},{"user_id":542,"name":"Koli","steam_id":76561197992428783,"connected_time":1546000000000,"state":"active","ping":60},{"user_id":545,"name":"Tryrex","steam_id":76561198157824042,"connected_time":1199000000000,"state":"active","ping":49},{"user_id":533,"name":"Chad","steam_id":76561198037309490,"connected_time":2000000000000,"state":"active","ping":81},{"user_id":549,"name":"Seaney","steam_id":76561198059138839,"connected_time":233000000000,"state":"active","ping":65},{"user_id":477,"name":"willus212","steam_id":76561199182615246,"connected_time":5692000000000,"state":"active","ping":73},{"user_id":531,"name":"Cosmoraptor","steam_id":76561198127852173,"connected_time":2009000000000,"state":"active","ping":61},{"user_id":538,"name":"dec","steam_id":76561198009660168,"connected_time":1831000000000,"state":"active","ping":48},{"user_id":534,"name":"Dwevy","steam_id":76561198090379437,"connected_time":2000000000000,"state":"active","ping":54},{"user_id":554,"name":"Sippie","steam_id":76561198130393388,"connected_time":177000000000,"state":"active","ping":70},{"user_id":506,"name":"Kretur","steam_id":76561198161086266,"connected_time":4421000000000,"state":"active","ping":103},{"user_id":516,"name":"FoOzTV","steam_id":76561197998636728,"connected_time":4079000000000,"state":"active","ping":71},{"user_id":548,"name":"Majsco","steam_id":76561197988710485,"connected_time":518000000000,"state":"active","ping":52},{"user_id":495,"name":"NonProphet","steam_id":76561198280149820,"connected_time":5324000000000,"state":"active","ping":61},{"user_id":527,"name":"Azi ‚ò¢","steam_id":76561198124563460,"connected_time":2024000000000,"state":"active","ping":49}]},{"server_id":114,"name":"Uncletopia | London | 2 | All Maps","name_short":"lon-2","host":"lon-1.uk.uncletopia.com","port":27025,"enabled":true,"region":"eu","cc":"gb","latitude":51.509865,"longitude":-0.118092,"reserved":0,"last_update":"0001-01-01T00:00:00Z","name_a2s":"Uncletopia | London | 2 | All Maps","protocol":17,"map":"pl_thundermountain","folder":"tf","game":"Team Fortress","app_id":440,"player_count":24,"max_players":24,"Bots":0,"server_type":"Dedicated","server_os":"Linux","password":true,"vac":true,"version":"7757534","steam_id":85568392924470941,"keywords":["nocrits","nodmgspread","payload","uncletopia"],"game_id":440,"stv_port":27026,"stv_name":"Uncletopia | London | 2 | All Maps | STV","players":[{"user_id":27,"name":"Ixsus\u003c3","steam_id":76561198094756869,"connected_time":3789000000000,"state":"active","ping":64},{"user_id":130,"name":"Raldow","steam_id":76561198021389301,"connected_time":1477000000000,"state":"active","ping":59},{"user_id":132,"name":"worm","steam_id":76561198345744589,"connected_time":1336000000000,"state":"active","ping":66},{"user_id":109,"name":"Proto-arc","steam_id":76561198012776747,"connected_time":1868000000000,"state":"active","ping":59},{"user_id":136,"name":"Burpman","steam_id":76561198022897937,"connected_time":1028000000000,"state":"active","ping":46},{"user_id":135,"name":"Cynosure","steam_id":76561198121286517,"connected_time":1139000000000,"state":"active","ping":43},{"user_id":112,"name":"gRUBY","steam_id":76561198040429367,"connected_time":1752000000000,"state":"active","ping":95},{"user_id":84,"name":"nyanezt","steam_id":76561198253734265,"connected_time":2424000000000,"state":"active","ping":121},{"user_id":119,"name":"Een schaap zonder slaap","steam_id":76561198084808410,"connected_time":1646000000000,"state":"active","ping":56},{"user_id":74,"name":"Harpenden, Harpenden, Harpenden","steam_id":76561198118138546,"connected_time":2620000000000,"state":"active","ping":42},{"user_id":115,"name":"Cornmac","steam_id":76561198104780569,"connected_time":1726000000000,"state":"active","ping":70},{"user_id":139,"name":"Carrot","steam_id":76561198119340863,"connected_time":254000000000,"state":"active","ping":45},{"user_id":131,"name":"melter","steam_id":76561199303622823,"connected_time":1399000000000,"state":"active","ping":54},{"user_id":48,"name":"Pershing[GER]","steam_id":76561197970330818,"connected_time":3201000000000,"state":"active","ping":72},{"user_id":125,"name":"dotdotdot","steam_id":76561198057628751,"connected_time":1542000000000,"state":"active","ping":70},{"user_id":121,"name":"Twisted Logic ‚àû","steam_id":76561198002245428,"connected_time":1616000000000,"state":"active","ping":41},{"user_id":122,"name":"eeeeee","steam_id":76561198017786875,"connected_time":1607000000000,"state":"active","ping":68},{"user_id":123,"name":"Carrotcracker","steam_id":76561198034862396,"connected_time":1600000000000,"state":"active","ping":85},{"user_id":124,"name":"Piellino","steam_id":76561198156873276,"connected_time":1575000000000,"state":"active","ping":106},{"user_id":126,"name":"noodlehairronaldoprime","steam_id":76561199471954402,"connected_time":1534000000000,"state":"active","ping":70},{"user_id":68,"name":"„Åà„Å™„Å™„Çì","steam_id":76561199427679148,"connected_time":2755000000000,"state":"active","ping":114},{"user_id":138,"name":"FeminineAtom [LOS]","steam_id":76561198311208470,"connected_time":1001000000000,"state":"active","ping":60},{"user_id":128,"name":"Penis Contortionist","steam_id":76561198073663784,"connected_time":1523000000000,"state":"active","ping":34},{"user_id":129,"name":"Lil' Oil Spill","steam_id":76561198102361237,"connected_time":1523000000000,"state":"active","ping":57}]},{"server_id":320,"name":"Uncletopia | London | 3 | All Maps","name_short":"lon-3","host":"lon-1.uk.uncletopia.com","port":27035,"enabled":true,"region":"eu","cc":"gb","latitude":51.509865,"longitude":-0.118092,"reserved":0,"last_update":"0001-01-01T00:00:00Z","name_a2s":"Uncletopia | London | 3 | All Maps","protocol":17,"map":"pl_upward","folder":"tf","game":"Team Fortress","app_id":440,"player_count":24,"max_players":24,"Bots":0,"server_type":"Dedicated","server_os":"Linux","password":true,"vac":true,"version":"7757534","steam_id":85568392924510192,"keywords":["nocrits","nodmgspread","payload","uncletopia"],"game_id":440,"stv_port":27036,"stv_name":"Uncletopia | London | 3 | All Maps | STV","players":[{"user_id":537,"name":"Blobbaz","steam_id":76561198031076278,"connected_time":131000000000,"state":"active","ping":49},{"user_id":528,"name":"pansexual","steam_id":76561198047778351,"connected_time":356000000000,"state":"active","ping":44},{"user_id":534,"name":"schmick","steam_id":76561198039537958,"connected_time":247000000000,"state":"active","ping":46},{"user_id":478,"name":"Excessive Clownery","steam_id":76561198130404188,"connected_time":3177000000000,"state":"active","ping":55},{"user_id":504,"name":"Jesus Enjoyer","steam_id":76561198840259819,"connected_time":723000000000,"state":"active","ping":60},{"user_id":516,"name":"X-tis","steam_id":76561198043837480,"connected_time":525000000000,"state":"active","ping":70},{"user_id":482,"name":"Dr Sex","steam_id":76561198029044617,"connected_time":2613000000000,"state":"active","ping":45},{"user_id":533,"name":"FunynMan","steam_id":76561198070387328,"connected_time":298000000000,"state":"active","ping":60},{"user_id":486,"name":"static","steam_id":76561198836825741,"connected_time":2212000000000,"state":"active","ping":44},{"user_id":501,"name":"washed up","steam_id":76561198275742101,"connected_time":950000000000,"state":"active","ping":69},{"user_id":523,"name":"Neytan","steam_id":76561198027024747,"connected_time":392000000000,"state":"active","ping":126},{"user_id":527,"name":"nirakya","steam_id":76561198024488584,"connected_time":365000000000,"state":"active","ping":45},{"user_id":529,"name":"morgan","steam_id":76561198322124999,"connected_time":346000000000,"state":"active","ping":80},{"user_id":519,"name":"NitPig","steam_id":76561198212991935,"connected_time":441000000000,"state":"active","ping":104},{"user_id":530,"name":"ohmiclaser","steam_id":76561198356393376,"connected_time":327000000000,"state":"active","ping":45},{"user_id":521,"name":"Mad_Doge","steam_id":76561198055373907,"connected_time":423000000000,"state":"active","ping":77},{"user_id":509,"name":"Nope.avi","steam_id":76561198396687651,"connected_time":666000000000,"state":"active","ping":91},{"user_id":524,"name":"OffMilky","steam_id":76561198831440921,"connected_time":384000000000,"state":"active","ping":25},{"user_id":531,"name":"The Weakest Brazilian Male","steam_id":76561198273215396,"connected_time":325000000000,"state":"active","ping":44},{"user_id":536,"name":"randompixel","steam_id":76561198003941207,"connected_time":140000000000,"state":"active","ping":56},{"user_id":484,"name":"Warlord Zira","steam_id":76561198044174757,"connected_time":2580000000000,"state":"active","ping":99},{"user_id":510,"name":"Vertex","steam_id":76561198001350332,"connected_time":659000000000,"state":"active","ping":62},{"user_id":500,"name":"Fat Pigeon","steam_id":76561198817940142,"connected_time":1066000000000,"state":"active","ping":45},{"user_id":526,"name":"ChPerette","steam_id":76561198060004887,"connected_time":378000000000,"state":"active","ping":49}]},{"server_id":321,"name":"Uncletopia | London | 4 | All Maps","name_short":"lon-4","host":"lon-1.uk.uncletopia.com","port":27045,"enabled":true,"region":"eu","cc":"gb","latitude":51.509865,"longitude":-0.118092,"reserved":0,"last_update":"0001-01-01T00:00:00Z","name_a2s":"Uncletopia | London | 4 | All Maps","protocol":17,"map":"pl_frontier_final","folder":"tf","game":"Team Fortress","app_id":440,"player_count":9,"max_players":24,"Bots":0,"server_type":"Dedicated","server_os":"Linux","password":true,"vac":true,"version":"7757534","steam_id":85568392924510193,"keywords":["nocrits","nodmgspread","payload","uncletopia"],"game_id":440,"stv_port":27046,"stv_name":"Uncletopia | London | 4 | All Maps | STV","players":[{"user_id":45,"name":"Dudu58lc","steam_id":76561199192216191,"connected_time":1311000000000,"state":"active","ping":83},{"user_id":46,"name":"Azury","steam_id":76561198321669372,"connected_time":1286000000000,"state":"active","ping":46},{"user_id":47,"name":"Ins@nity621","steam_id":76561198030799865,"connected_time":1281000000000,"state":"active","ping":69},{"user_id":48,"name":"Doctor Sniper","steam_id":76561198299578884,"connected_time":1278000000000,"state":"active","ping":45},{"user_id":49,"name":"Ritz","steam_id":76561198222317440,"connected_time":1258000000000,"state":"active","ping":57},{"user_id":50,"name":"Vanille‚Ñ¢","steam_id":76561198008102959,"connected_time":1254000000000,"state":"active","ping":52},{"user_id":52,"name":"Davey","steam_id":76561198256879107,"connected_time":791000000000,"state":"active","ping":75},{"user_id":53,"name":"limbicsystem","steam_id":76561198025612680,"connected_time":561000000000,"state":"active","ping":55},{"user_id":54,"name":"Krim","steam_id":76561199070070579,"connected_time":68000000000,"state":"active","ping":67}]},{"server_id":21,"name":"Uncletopia | London | 5 | All Maps","name_short":"lon-5","host":"lon-1.uk.uncletopia.com","port":27055,"enabled":true,"region":"eu","cc":"gb","latitude":51.509865,"longitude":-0.118092,"reserved":0,"last_update":"0001-01-01T00:00:00Z","name_a2s":"Uncletopia | London | 5 | All Maps","protocol":17,"map":"pl_barnblitz","folder":"tf","game":"Team Fortress","app_id":440,"player_count":24,"max_players":24,"Bots":0,"server_type":"Dedicated","server_os":"Linux","password":true,"vac":true,"version":"7757534","steam_id":85568392924742829,"keywords":["nocrits","nodmgspread","payload","uncletopia"],"game_id":440,"stv_port":27056,"stv_name":"Uncletopia | London | 5 | All Maps | STV","players":[{"user_id":225,"name":"Harex3360 #Savetf2","steam_id":76561199122302529,"connected_time":864000000000,"state":"active","ping":53},{"user_id":156,"name":"Oga","steam_id":76561197999060660,"connected_time":4439000000000,"state":"active","ping":95},{"user_id":132,"name":"New","steam_id":76561198402195911,"connected_time":5552000000000,"state":"active","ping":117},{"user_id":189,"name":"fshfkr","steam_id":76561198095979282,"connected_time":2488000000000,"state":"active","ping":38},{"user_id":227,"name":"DjinnKinn","steam_id":76561198029913860,"connected_time":748000000000,"state":"active","ping":67},{"user_id":209,"name":"monke","steam_id":76561199098819786,"connected_time":1274000000000,"state":"active","ping":54},{"user_id":231,"name":"MAKENTAKEN","steam_id":76561199127359587,"connected_time":139000000000,"state":"active","ping":106},{"user_id":220,"name":"Misctek","steam_id":76561199037541925,"connected_time":973000000000,"state":"active","ping":74},{"user_id":224,"name":"hud_saytext_time 0","steam_id":76561198010327228,"connected_time":891000000000,"state":"active","ping":87},{"user_id":230,"name":"Mango-Man","steam_id":76561198840558687,"connected_time":227000000000,"state":"active","ping":68},{"user_id":192,"name":"Oak","steam_id":76561198067315672,"connected_time":2415000000000,"state":"active","ping":47},{"user_id":191,"name":"‚ô• Hurt Me Plenty ‚ô• | P.U.R.","steam_id":76561198965998351,"connected_time":2438000000000,"state":"active","ping":81},{"user_id":193,"name":"RLCrazyCat3","steam_id":76561197983757878,"connected_time":2378000000000,"state":"active","ping":66},{"user_id":228,"name":"Mukbang Mercy Killing","steam_id":76561198043988179,"connected_time":692000000000,"state":"active","ping":69},{"user_id":203,"name":"Big Al","steam_id":76561198079585198,"connected_time":2029000000000,"state":"active","ping":55},{"user_id":232,"name":"AXAL","steam_id":76561198178250598,"connected_time":59000000000,"state":"active","ping":55},{"user_id":215,"name":"Noku","steam_id":76561198064158697,"connected_time":1123000000000,"state":"active","ping":81},{"user_id":229,"name":"feed and seed","steam_id":76561199088046420,"connected_time":421000000000,"state":"active","ping":51},{"user_id":198,"name":"Spliffendor","steam_id":76561198144020209,"connected_time":2265000000000,"state":"active","ping":51},{"user_id":199,"name":"Roe Jogan","steam_id":76561198871991529,"connected_time":2263000000000,"state":"active","ping":65},{"user_id":217,"name":"kilo","steam_id":76561198015641339,"connected_time":1060000000000,"state":"active","ping":75},{"user_id":226,"name":"MovingIsOverRated","steam_id":76561198385633292,"connected_time":861000000000,"state":"active","ping":86},{"user_id":223,"name":"cherry coal","steam_id":76561198822725169,"connected_time":927000000000,"state":"active","ping":60},{"user_id":204,"name":"gabagool","steam_id":76561198307111838,"connected_time":1847000000000,"state":"active","ping":46}]},{"server_id":22,"name":"Uncletopia | London | 6 | All Maps","name_short":"lon-6","host":"lon-1.uk.uncletopia.com","port":27065,"enabled":true,"region":"eu","cc":"gb","latitude":51.509865,"longitude":-0.118092,"reserved":0,"last_update":"0001-01-01T00:00:00Z","name_a2s":"Uncletopia | London | 6 | All Maps","protocol":17,"map":"koth_highpass","folder":"tf","game":"Team Fortress","app_id":440,"player_count":0,"max_players":24,"Bots":0,"server_type":"Dedicated","server_os":"Linux","password":true,"vac":true,"version":"7757534","steam_id":85568392924742830,"keywords":["cp","nocrits","nodmgspread","uncletopia"],"game_id":440,"stv_port":27066,"stv_name":"Uncletopia | London | 6 | All Maps | STV","players":null},{"server_id":40,"name":"Uncletopia | London | 7 | No Payload","name_short":"lon-7","host":"lon-1.uk.uncletopia.com","port":27075,"enabled":true,"region":"eu","cc":"gb","latitude":51.509865,"longitude":-0.118092,"reserved":0,"last_update":"0001-01-01T00:00:00Z","name_a2s":"Uncletopia | London | 7 | No Payload","protocol":17,"map":"cp_5gorge","folder":"tf","game":"Team Fortress","app_id":440,"player_count":0,"max_players":24,"Bots":0,"server_type":"Dedicated","server_os":"Linux","password":true,"vac":true,"version":"7757534","steam_id":85568392924964314,"keywords":["cp","nocrits","nodmgspread","uncletopia"],"game_id":440,"stv_port":27076,"stv_name":"Uncletopia | London | 7 | No Payload | STV","players":null},{"server_id":41,"name":"Uncletopia | London | 8 | Community","name_short":"lon-8","host":"lon-1.uk.uncletopia.com","port":27085,"enabled":true,"region":"eu","cc":"gb","latitude":51.509865,"longitude":-0.118092,"reserved":0,"last_update":"0001-01-01T00:00:00Z","name_a2s":"Uncletopia | London | 8 | Community","protocol":17,"map":"workshop/pl_cactuscanyon_redux_final1.ugc2579644293","folder":"tf","game":"Team Fortress","app_id":440,"player_count":2,"max_players":24,"Bots":0,"server_type":"Dedicated","server_os":"Linux","password":true,"vac":true,"version":"7757534","steam_id":85568392924964315,"keywords":["nocrits","nodmgspread","payload","uncletopia"],"game_id":440,"stv_port":27086,"stv_name":"Uncletopia | London | 8 | Community | STV","players":[{"user_id":30,"name":"Jack.Orlando","steam_id":76561198802400236,"connected_time":1997000000000,"state":"active","ping":75},{"user_id":11,"name":"fried","steam_id":76561198307522022,"connected_time":6766000000000,"state":"active","ping":46}]},{"server_id":300,"name":"Uncletopia | Montr√©al | 1 | All Maps","name_short":"mtl-1","host":"mtl-1.ca.uncletopia.com","port":27015,"enabled":true,"region":"us-east","cc":"ca","latitude":45.50889,"longitude":-73.56167,"reserved":0,"last_update":"0001-01-01T00:00:00Z","name_a2s":"Uncletopia | Montr√©al | 1 | All Maps","protocol":17,"map":"pl_upward","folder":"tf","game":"Team Fortress","app_id":440,"player_count":1,"max_players":24,"Bots":0,"server_type":"Dedicated","server_os":"Linux","password":true,"vac":true,"version":"7757534","steam_id":85568392924500087,"keywords":["nocrits","nodmgspread","payload","uncletopia"],"game_id":440,"stv_port":27016,"stv_name":"Uncletopia | Montr√©al | 1 | All Maps | STV","players":[{"user_id":5,"name":"Bazroar","steam_id":76561198277322063,"connected_time":126000000000,"state":"active","ping":69}]},{"server_id":301,"name":"Uncletopia | Montr√©al | 2 | All Maps","name_short":"mtl-2","host":"mtl-1.ca.uncletopia.com","port":27025,"enabled":true,"region":"us-east","cc":"ca","latitude":45.50889,"longitude":-73.56167,"reserved":0,"last_update":"0001-01-01T00:00:00Z","name_a2s":"Uncletopia | Montr√©al | 2 | All Maps","protocol":17,"map":"pl_snowycoast","folder":"tf","game":"Team Fortress","app_id":440,"player_count":0,"max_players":24,"Bots":0,"server_type":"Dedicated","server_os":"Linux","password":true,"vac":true,"version":"7757534","steam_id":85568392924500088,"keywords":["nocrits","nodmgspread","payload","uncletopia"],"game_id":440,"stv_port":27026,"stv_name":"Uncletopia | Montr√©al | 2 | All Maps | STV","players":null},{"server_id":302,"name":"Uncletopia | Montr√©al | 3 | All Maps","name_short":"mtl-3","host":"mtl-1.ca.uncletopia.com","port":27035,"enabled":true,"region":"us-east","cc":"ca","latitude":45.50889,"longitude":-73.56167,"reserved":0,"last_update":"0001-01-01T00:00:00Z","name_a2s":"Uncletopia | Montr√©al | 3 | All Maps","protocol":17,"map":"pl_swiftwater_final1","folder":"tf","game":"Team Fortress","app_id":440,"player_count":0,"max_players":24,"Bots":0,"server_type":"Dedicated","server_os":"Linux","password":true,"vac":true,"version":"7757534","steam_id":85568392924500089,"keywords":["nocrits","nodmgspread","payload","uncletopia"],"game_id":440,"stv_port":27036,"stv_name":"Uncletopia | Montr√©al | 3 | All Maps | STV","players":null},{"server_id":303,"name":"Uncletopia | Montr√©al | 4 | No Payload","name_short":"mtl-4","host":"mtl-1.ca.uncletopia.com","port":27045,"enabled":true,"region":"us-east","cc":"ca","latitude":45.50889,"longitude":-73.56167,"reserved":0,"last_update":"0001-01-01T00:00:00Z","name_a2s":"Uncletopia | Montr√©al | 4 | No Payload","protocol":17,"map":"cp_mercenarypark","folder":"tf","game":"Team Fortress","app_id":440,"player_count":0,"max_players":24,"Bots":0,"server_type":"Dedicated","server_os":"Linux","password":true,"vac":true,"version":"7757534","steam_id":85568392924500090,"keywords":["cp","nocrits","nodmgspread","uncletopia"],"game_id":440,"stv_port":27046,"stv_name":"Uncletopia | Montr√©al | 4 | No Payload | STV","players":null},{"server_id":13,"name":"Uncletopia | New York City | 1 | All Maps","name_short":"nyc-1","host":"nyc-1.us.uncletopia.com","port":27015,"enabled":true,"region":"us-east","cc":"us","latitude":40.73061,"longitude":-73.93524,"reserved":0,"last_update":"0001-01-01T00:00:00Z","name_a2s":"Uncletopia | New York City | 1 | All Maps","protocol":17,"map":"koth_viaduct","folder":"tf","game":"Team Fortress","app_id":440,"player_count":0,"max_players":24,"Bots":0,"server_type":"Dedicated","server_os":"Linux","password":true,"vac":true,"version":"7757534","steam_id":85568392924469993,"keywords":["cp","nocrits","nodmgspread","uncletopia"],"game_id":440,"stv_port":27016,"stv_name":"Uncletopia | New York City | 1 | All Maps | STV","players":null},{"server_id":14,"name":"Uncletopia | New York City | 2 | All Maps","name_short":"nyc-2","host":"nyc-1.us.uncletopia.com","port":27025,"enabled":true,"region":"us-east","cc":"us","latitude":40.73061,"longitude":-73.93524,"reserved":0,"last_update":"0001-01-01T00:00:00Z","name_a2s":"Uncletopia | New York City | 2 | All Maps","protocol":17,"map":"koth_lakeside_final","folder":"tf","game":"Team Fortress","app_id":440,"player_count":0,"max_players":24,"Bots":0,"server_type":"Dedicated","server_os":"Linux","password":true,"vac":true,"version":"7757534","steam_id":85568392924469994,"keywords":["cp","nocrits","nodmgspread","uncletopia"],"game_id":440,"stv_port":27026,"stv_name":"Uncletopia | New York City | 2 | All Maps | STV","players":null},{"server_id":15,"name":"Uncletopia | New York City | 3 | Stopwatch Beta","name_short":"nyc-3","host":"nyc-1.us.uncletopia.com","port":27035,"enabled":true,"region":"us-east","cc":"us","latitude":40.73061,"longitude":-73.93524,"reserved":0,"last_update":"0001-01-01T00:00:00Z","name_a2s":"Uncletopia | New York City | 3 | Stopwatch Beta","protocol":17,"map":"pl_upward","folder":"tf","game":"Team Fortress","app_id":440,"player_count":0,"max_players":24,"Bots":0,"server_type":"Dedicated","server_os":"Linux","password":true,"vac":true,"version":"7757534","steam_id":85568392924742820,"keywords":["nocrits","nodmgspread","payload","uncletopia"],"game_id":440,"stv_port":27036,"stv_name":"Uncletopia | New York City | 3 | Stopwatch Beta | STV","players":null},{"server_id":16,"name":"Uncletopia | New York City | 4 | Community","name_short":"nyc-4","host":"nyc-1.us.uncletopia.com","port":27045,"enabled":true,"region":"us-east","cc":"us","latitude":40.73061,"longitude":-73.93524,"reserved":0,"last_update":"0001-01-01T00:00:00Z","name_a2s":"Uncletopia | New York City | 4 | Community","protocol":17,"map":"workshop/koth_kemptown_rc1.ugc767410655","folder":"tf","game":"Team Fortress","app_id":440,"player_count":0,"max_players":24,"Bots":0,"server_type":"Dedicated","server_os":"Linux","password":true,"vac":true,"version":"7757534","steam_id":85568392924742821,"keywords":["cp","nocrits","nodmgspread","uncletopia"],"game_id":440,"stv_port":27046,"stv_name":"Uncletopia | New York City | 4 | Community | STV","players":null},{"server_id":142,"name":"Uncletopia | S√£o Paulo | 1 | All Maps","name_short":"sao-1","host":"sao-1.br.uncletopia.com","port":27015,"enabled":true,"region":"sa","cc":"br","latitude":-23.533773,"longitude":-46.62529,"reserved":0,"last_update":"0001-01-01T00:00:00Z","name_a2s":"Uncletopia | S√£o Paulo | 1 | All Maps","protocol":17,"map":"koth_lakeside_final","folder":"tf","game":"Team Fortress","app_id":440,"player_count":0,"max_players":24,"Bots":0,"server_type":"Dedicated","server_os":"Linux","password":true,"vac":true,"version":"7757534","steam_id":85568392924469996,"keywords":["cp","nocrits","nodmgspread","uncletopia"],"game_id":440,"stv_port":27016,"stv_name":"Uncletopia | S√£o Paulo | 1 | All Maps | STV","players":null},{"server_id":143,"name":"Uncletopia | S√£o Paulo | 2 | All Maps","name_short":"sao-2","host":"sao-2.br.uncletopia.com","port":27015,"enabled":true,"region":"sa","cc":"br","latitude":-23.533773,"longitude":-46.62529,"reserved":0,"last_update":"0001-01-01T00:00:00Z","name_a2s":"Uncletopia | S√£o Paulo | 2 | All Maps","protocol":17,"map":"koth_viaduct","folder":"tf","game":"Team Fortress","app_id":440,"player_count":0,"max_players":24,"Bots":0,"server_type":"Dedicated","server_os":"Linux","password":true,"vac":true,"version":"7757534","steam_id":85568392924485349,"keywords":["cp","nocrits","nodmgspread","uncletopia"],"game_id":440,"stv_port":27016,"stv_name":"Uncletopia | S√£o Paulo | 2 | All Maps | STV","players":null},{"server_id":7,"name":"Uncletopia | Seattle | 1 | All Maps","name_short":"sea-1","host":"sea-1.us.uncletopia.com","port":27015,"enabled":true,"region":"us-west","cc":"us","latitude":47.608013,"longitude":-122.33517,"reserved":0,"last_update":"0001-01-01T00:00:00Z","name_a2s":"Uncletopia | Seattle | 1 | All Maps","protocol":17,"map":"pl_snowycoast","folder":"tf","game":"Team Fortress","app_id":440,"player_count":24,"max_players":24,"Bots":0,"server_type":"Dedicated","server_os":"Linux","password":true,"vac":true,"version":"7757534","steam_id":85568392924469997,"keywords":["nocrits","nodmgspread","payload","uncletopia"],"game_id":440,"stv_port":27016,"stv_name":"Uncletopia | Seattle | 1 | All Maps | STV","players":[{"user_id":333,"name":"pluto","steam_id":76561198199079731,"connected_time":797000000000,"state":"active","ping":90},{"user_id":331,"name":"SneekiCheekiQbone","steam_id":76561198045077980,"connected_time":1036000000000,"state":"active","ping":78},{"user_id":329,"name":"Maid 'n' China","steam_id":76561198423392976,"connected_time":1370000000000,"state":"active","ping":101},{"user_id":334,"name":"panpanpanpanpan","steam_id":76561198277478746,"connected_time":770000000000,"state":"active","ping":87},{"user_id":335,"name":"Got Poop in my Soup","steam_id":76561198059678425,"connected_time":696000000000,"state":"active","ping":104},{"user_id":312,"name":"monkey squirts","steam_id":76561197983101644,"connected_time":2598000000000,"state":"active","ping":66},{"user_id":346,"name":"‚òÖLarimore‚òÖ","steam_id":76561198258279528,"connected_time":179000000000,"state":"active","ping":104},{"user_id":345,"name":"Mignyanne :3","steam_id":76561198048754056,"connected_time":194000000000,"state":"active","ping":68},{"user_id":295,"name":"cool beans","steam_id":76561198045758072,"connected_time":4235000000000,"state":"active","ping":67},{"user_id":343,"name":"June","steam_id":76561198141803658,"connected_time":535000000000,"state":"active","ping":75},{"user_id":254,"name":"Blitzy","steam_id":76561198149472890,"connected_time":7389000000000,"state":"active","ping":63},{"user_id":328,"name":"SÃ∏ÃÄÕî ÃµÃãÃòCÃµÕóÃ± ÃµÃçÃßUÃ¥","steam_id":76561198135662712,"connected_time":1635000000000,"state":"active","ping":94},{"user_id":324,"name":"John16Mark","steam_id":76561198119445407,"connected_time":1819000000000,"state":"active","ping":127},{"user_id":247,"name":"MORE BOUNCE TO THE OUNCE","steam_id":76561198243399336,"connected_time":7901000000000,"state":"active","ping":85},{"user_id":255,"name":"üÖúüÖîüÖîüÖöüÖ¢üÖ£üÖî\ufffd\ufffd\ufffd","steam_id":76561197999748343,"connected_time":7374000000000,"state":"active","ping":90},{"user_id":338,"name":"Jovo","steam_id":76561197993265970,"connected_time":637000000000,"state":"active","ping":44},{"user_id":326,"name":"Gilgamesh","steam_id":76561198317113179,"connected_time":1783000000000,"state":"active","ping":104},{"user_id":339,"name":"your–¥—Ä—É–≥","steam_id":76561198317927140,"connected_time":627000000000,"state":"active","ping":104},{"user_id":347,"name":"yaldabaoth","steam_id":76561198084606869,"connected_time":151000000000,"state":"active","ping":90},{"user_id":321,"name":"ratie","steam_id":76561198059399661,"connected_time":1958000000000,"state":"active","ping":88},{"user_id":344,"name":"keithykeithers","steam_id":76561197995552615,"connected_time":342000000000,"state":"active","ping":47},{"user_id":349,"name":"jop.p.ing","steam_id":76561197999150236,"connected_time":29000000000,"state":"active","ping":40},{"user_id":332,"name":"Lazy-assed Prophet","steam_id":76561198214400452,"connected_time":1019000000000,"state":"active","ping":69},{"user_id":348,"name":"Elongated Muskrat","steam_id":76561198314501346,"connected_time":142000000000,"state":"active","ping":49}]},{"server_id":119,"name":"Uncletopia | Seattle | 2 | All Maps","name_short":"sea-2","host":"sea-1.us.uncletopia.com","port":27025,"enabled":true,"region":"us-west","cc":"us","latitude":47.608013,"longitude":-122.33517,"reserved":0,"last_update":"0001-01-01T00:00:00Z","name_a2s":"Uncletopia | Seattle | 2 | All Maps","protocol":17,"map":"cp_dustbowl","folder":"tf","game":"Team Fortress","app_id":440,"player_count":16,"max_players":24,"Bots":0,"server_type":"Dedicated","server_os":"Linux","password":true,"vac":true,"version":"7757534","steam_id":85568392924469998,"keywords":["cp","nocrits","nodmgspread","uncletopia"],"game_id":440,"stv_port":27026,"stv_name":"Uncletopia | Seattle | 2 | All Maps | STV","players":[{"user_id":77,"name":"skogg yenseii","steam_id":76561198304265800,"connected_time":28000000000,"state":"active","ping":88},{"user_id":16,"name":"Len","steam_id":76561199141913673,"connected_time":3734000000000,"state":"active","ping":49},{"user_id":79,"name":"mango cafe","steam_id":76561198142328193,"connected_time":10000000000,"state":"spawning","ping":44},{"user_id":66,"name":"Nym|Profile Under Renovation|","steam_id":76561199075958360,"connected_time":991000000000,"state":"active","ping":169},{"user_id":67,"name":"roanoke‚Ä∫","steam_id":76561198048007844,"connected_time":934000000000,"state":"active","ping":60},{"user_id":68,"name":"fire retarded","steam_id":76561198383636396,"connected_time":872000000000,"state":"active","ping":109},{"user_id":51,"name":"H4V0C","steam_id":76561199129350925,"connected_time":1925000000000,"state":"active","ping":53},{"user_id":70,"name":"AreDaneel","steam_id":76561198204560201,"connected_time":724000000000,"state":"active","ping":130},{"user_id":71,"name":"HeisenBurger","steam_id":76561198040632080,"connected_time":716000000000,"state":"active","ping":90},{"user_id":50,"name":"ghostFireGloom","steam_id":76561198385231745,"connected_time":1937000000000,"state":"active","ping":62},{"user_id":32,"name":"A Glazed Donut","steam_id":76561198297536267,"connected_time":2587000000000,"state":"active","ping":84},{"user_id":76,"name":"Chicken","steam_id":76561198065890499,"connected_time":136000000000,"state":"active","ping":59},{"user_id":35,"name":"box","steam_id":76561198049531483,"connected_time":2503000000000,"state":"active","ping":105},{"user_id":49,"name":"Boyaredeen","steam_id":76561198880492636,"connected_time":1963000000000,"state":"active","ping":45},{"user_id":75,"name":"Red","steam_id":76561198001939529,"connected_time":366000000000,"state":"active","ping":132},{"user_id":43,"name":"old birb man","steam_id":76561199410269097,"connected_time":2213000000000,"state":"active","ping":107}]},{"server_id":406,"name":"Uncletopia | Seattle | 3 | Stopwatch Beta","name_short":"sea-3","host":"sea-1.us.uncletopia.com","port":27035,"enabled":true,"region":"us-west","cc":"us","latitude":47.608013,"longitude":-122.33517,"reserved":0,"last_update":"0001-01-01T00:00:00Z","name_a2s":"Uncletopia | Seattle | 3 | Stopwatch Beta","protocol":17,"map":"cp_dustbowl","folder":"tf","game":"Team Fortress","app_id":440,"player_count":0,"max_players":24,"Bots":0,"server_type":"Dedicated","server_os":"Linux","password":true,"vac":true,"version":"7757534","steam_id":85568392924515217,"keywords":["cp","nocrits","nodmgspread","uncletopia"],"game_id":440,"stv_port":27036,"stv_name":"Uncletopia | Seattle | 3 | Stopwatch Beta | STV","players":null},{"server_id":17,"name":"Uncletopia | San Francisco | 1 | All Maps","name_short":"sfo-1","host":"sfo-1.us.uncletopia.com","port":27015,"enabled":true,"region":"us-west","cc":"us","latitude":37.77397,"longitude":-122.4313,"reserved":0,"last_update":"0001-01-01T00:00:00Z","name_a2s":"Uncletopia | San Francisco | 1 | All Maps","protocol":17,"map":"cp_process_final","folder":"tf","game":"Team Fortress","app_id":440,"player_count":0,"max_players":24,"Bots":0,"server_type":"Dedicated","server_os":"Linux","password":true,"vac":true,"version":"7757534","steam_id":85568392924469999,"keywords":["cp","nocrits","nodmgspread","uncletopia"],"game_id":440,"stv_port":27016,"stv_name":"Uncletopia | San Francisco | 1 | All Maps | STV","players":null},{"server_id":18,"name":"Uncletopia | San Francisco | 2 | All Maps","name_short":"sfo-2","host":"sfo-1.us.uncletopia.com","port":27025,"enabled":true,"region":"us-west","cc":"us","latitude":37.77397,"longitude":-122.4313,"reserved":0,"last_update":"0001-01-01T00:00:00Z","name_a2s":"Uncletopia | San Francisco | 2 | All Maps","protocol":17,"map":"cp_altitude","folder":"tf","game":"Team Fortress","app_id":440,"player_count":18,"max_players":24,"Bots":0,"server_type":"Dedicated","server_os":"Linux","password":true,"vac":true,"version":"7757534","steam_id":85568392924470000,"keywords":["cp","nocrits","nodmgspread","uncletopia"],"game_id":440,"stv_port":27026,"stv_name":"Uncletopia | San Francisco | 2 | All Maps | STV","players":[{"user_id":5,"name":"Harmful Opinions","steam_id":76561197988602648,"connected_time":1779000000000,"state":"active","ping":197},{"user_id":38,"name":"Doofus","steam_id":76561198121219171,"connected_time":112000000000,"state":"active","ping":60},{"user_id":39,"name":"dead eye","steam_id":76561199082433078,"connected_time":44000000000,"state":"active","ping":217},{"user_id":8,"name":"P4rty","steam_id":76561197968203129,"connected_time":1759000000000,"state":"active","ping":87},{"user_id":14,"name":"GRIM GAMING","steam_id":76561198107491637,"connected_time":1175000000000,"state":"active","ping":90},{"user_id":40,"name":"ausrad","steam_id":76561199478402120,"connected_time":39000000000,"state":"active","ping":250},{"user_id":11,"name":"Revenant","steam_id":76561198010234486,"connected_time":1568000000000,"state":"active","ping":117},{"user_id":33,"name":"Els (F2P)","steam_id":76561199129761684,"connected_time":237000000000,"state":"active","ping":114},{"user_id":41,"name":"Okonell[HUN]","steam_id":76561198032216617,"connected_time":4000000000,"state":"spawning","ping":214},{"user_id":37,"name":"Yoel Roth","steam_id":76561197993472634,"connected_time":177000000000,"state":"active","ping":234},{"user_id":31,"name":"Training Arc","steam_id":76561198038832034,"connected_time":276000000000,"state":"active","ping":75},{"user_id":21,"name":"Mmp","steam_id":76561198280596275,"connected_time":405000000000,"state":"active","ping":76},{"user_id":23,"name":"sara, boylady","steam_id":76561198283462369,"connected_time":381000000000,"state":"active","ping":58},{"user_id":24,"name":"^2Moving^1shadoW","steam_id":76561198078674411,"connected_time":339000000000,"state":"active","ping":105},{"user_id":25,"name":"kees","steam_id":76561198115798074,"connected_time":332000000000,"state":"active","ping":76},{"user_id":26,"name":"A Aron","steam_id":76561198044701629,"connected_time":330000000000,"state":"active","ping":66},{"user_id":27,"name":"YJET","steam_id":76561198057070173,"connected_time":318000000000,"state":"active","ping":56},{"user_id":28,"name":"Sir_DankToast","steam_id":76561198385093022,"connected_time":312000000000,"state":"active","ping":59}]},{"server_id":19,"name":"Uncletopia | San Francisco | 3 | Stopwatch Beta","name_short":"sfo-3","host":"sfo-1.us.uncletopia.com","port":27035,"enabled":true,"region":"us-west","cc":"us","latitude":37.77397,"longitude":-122.4313,"reserved":0,"last_update":"0001-01-01T00:00:00Z","name_a2s":"Uncletopia | San Francisco | 3 | Stopwatch Beta","protocol":17,"map":"koth_lakeside_final","folder":"tf","game":"Team Fortress","app_id":440,"player_count":0,"max_players":24,"Bots":0,"server_type":"Dedicated","server_os":"Linux","password":true,"vac":true,"version":"7757534","steam_id":85568392924742824,"keywords":["cp","nocrits","nodmgspread","uncletopia"],"game_id":440,"stv_port":27036,"stv_name":"Uncletopia | San Francisco | 3 | Stopwatch Beta | STV","players":null},{"server_id":20,"name":"Uncletopia | San Francisco | 4 | Community","name_short":"sfo-4","host":"sfo-1.us.uncletopia.com","port":27045,"enabled":true,"region":"us-west","cc":"us","latitude":37.77397,"longitude":-122.4313,"reserved":0,"last_update":"0001-01-01T00:00:00Z","name_a2s":"Uncletopia | San Francisco | 4 | Community","protocol":17,"map":"workshop/pl_cactuscanyon_redux_final1.ugc2579644293","folder":"tf","game":"Team Fortress","app_id":440,"player_count":11,"max_players":24,"Bots":0,"server_type":"Dedicated","server_os":"Linux","password":true,"vac":true,"version":"7757534","steam_id":85568392924742826,"keywords":["nocrits","nodmgspread","payload","uncletopia"],"game_id":440,"stv_port":27046,"stv_name":"Uncletopia | San Francisco | 4 | Community | STV","players":[{"user_id":3,"name":"G.bo","steam_id":76561198085176270,"connected_time":5536000000000,"state":"active","ping":66},{"user_id":27,"name":"family jewels","steam_id":76561198355068405,"connected_time":2180000000000,"state":"active","ping":121},{"user_id":39,"name":"Jeck","steam_id":76561198012275276,"connected_time":516000000000,"state":"active","ping":56},{"user_id":41,"name":"Le0901","steam_id":76561198372891244,"connected_time":293000000000,"state":"active","ping":114},{"user_id":36,"name":"hoodclips","steam_id":76561198253706796,"connected_time":1084000000000,"state":"active","ping":57},{"user_id":40,"name":"AJones97","steam_id":76561198028973438,"connected_time":370000000000,"state":"active","ping":110},{"user_id":29,"name":"Dr. FeelGoose","steam_id":76561198029496191,"connected_time":1758000000000,"state":"active","ping":101},{"user_id":37,"name":"big fish","steam_id":76561198186479818,"connected_time":1008000000000,"state":"active","ping":66},{"user_id":33,"name":"Boasta' Berry","steam_id":76561198029015179,"connected_time":1399000000000,"state":"active","ping":115},{"user_id":34,"name":"Buswolley","steam_id":76561197995205571,"connected_time":1345000000000,"state":"active","ping":52},{"user_id":35,"name":"Shark Sandwich","steam_id":76561198025007938,"connected_time":1272000000000,"state":"active","ping":72}]},{"server_id":141,"name":"Uncletopia | Sydney | 1 | All Maps","name_short":"syd-1","host":"syd-1.au.uncletopia.com","port":27015,"enabled":true,"region":"au","cc":"au","latitude":-33.865143,"longitude":151.2099,"reserved":0,"last_update":"0001-01-01T00:00:00Z","name_a2s":"Uncletopia | Sydney | 1 | All Maps","protocol":17,"map":"koth_viaduct","folder":"tf","game":"Team Fortress","app_id":440,"player_count":0,"max_players":24,"Bots":0,"server_type":"Dedicated","server_os":"Linux","password":true,"vac":true,"version":"7757534","steam_id":85568392924470001,"keywords":["cp","nocrits","nodmgspread","uncletopia"],"game_id":440,"stv_port":27016,"stv_name":"Uncletopia | Sydney | 1 | All Maps | STV","players":null},{"server_id":123,"name":"Uncletopia | Sydney | 2 | All Maps","name_short":"syd-2","host":"syd-1.au.uncletopia.com","port":27025,"enabled":true,"region":"au","cc":"au","latitude":-33.865143,"longitude":151.2099,"reserved":0,"last_update":"0001-01-01T00:00:00Z","name_a2s":"Uncletopia | Sydney | 2 | All Maps","protocol":17,"map":"cp_process_final","folder":"tf","game":"Team Fortress","app_id":440,"player_count":0,"max_players":24,"Bots":0,"server_type":"Dedicated","server_os":"Linux","password":true,"vac":true,"version":"7757534","steam_id":85568392924470002,"keywords":["cp","nocrits","nodmgspread","uncletopia"],"game_id":440,"stv_port":27026,"stv_name":"Uncletopia | Sydney | 2 | All Maps | STV","players":null},{"server_id":395,"name":"Uncletopia | Sydney | 3 | All Maps","name_short":"syd-3","host":"syd-1.au.uncletopia.com","port":27035,"enabled":true,"region":"au","cc":"au","latitude":-33.865143,"longitude":151.2099,"reserved":0,"last_update":"0001-01-01T00:00:00Z","name_a2s":"Uncletopia | Sydney | 3 | All Maps","protocol":17,"map":"pl_swiftwater_final1","folder":"tf","game":"Team Fortress","app_id":440,"player_count":0,"max_players":24,"Bots":0,"server_type":"Dedicated","server_os":"Linux","password":true,"vac":true,"version":"7757534","steam_id":85568392925194467,"keywords":["nocrits","nodmgspread","payload","uncletopia"],"game_id":440,"stv_port":27036,"stv_name":"Uncletopia | Sydney | 3 | All Maps | STV","players":null},{"server_id":396,"name":"Uncletopia | Sydney | 4 | All Maps","name_short":"syd-4","host":"syd-1.au.uncletopia.com","port":27045,"enabled":true,"region":"au","cc":"au","latitude":-33.865143,"longitude":151.2099,"reserved":0,"last_update":"0001-01-01T00:00:00Z","name_a2s":"Uncletopia | Sydney | 4 | All Maps","protocol":17,"map":"koth_highpass","folder":"tf","game":"Team Fortress","app_id":440,"player_count":0,"max_players":24,"Bots":0,"server_type":"Dedicated","server_os":"Linux","password":true,"vac":true,"version":"7757534","steam_id":85568392925397958,"keywords":["cp","nocrits","nodmgspread","uncletopia"],"game_id":440,"stv_port":27046,"stv_name":"Uncletopia | Sydney | 4 | All Maps | STV","players":null},{"server_id":58,"name":"Uncletopia | Sydney | 5 | Stopwatch Beta","name_short":"syd-5","host":"syd-1.au.uncletopia.com","port":27055,"enabled":true,"region":"au","cc":"au","latitude":-33.865143,"longitude":151.2099,"reserved":0,"last_update":"0001-01-01T00:00:00Z","name_a2s":"Uncletopia | Sydney | 5 | Stopwatch Beta","protocol":17,"map":"koth_cascade","folder":"tf","game":"Team Fortress","app_id":440,"player_count":0,"max_players":24,"Bots":0,"server_type":"Dedicated","server_os":"Linux","password":true,"vac":true,"version":"7757534","steam_id":85568392925397959,"keywords":["cp","nocrits","nodmgspread","uncletopia"],"game_id":440,"stv_port":27056,"stv_name":"Uncletopia | Sydney | 5 | Stopwatch Beta | STV","players":null},{"server_id":59,"name":"Uncletopia | Sydney | 6 | Community","name_short":"syd-6","host":"syd-1.au.uncletopia.com","port":27065,"enabled":true,"region":"au","cc":"au","latitude":-33.865143,"longitude":151.2099,"reserved":0,"last_update":"0001-01-01T00:00:00Z","name_a2s":"Uncletopia | Sydney | 6 | Community","protocol":17,"map":"cp_snakewater_final1","folder":"tf","game":"Team Fortress","app_id":440,"player_count":0,"max_players":24,"Bots":0,"server_type":"Dedicated","server_os":"Linux","password":true,"vac":true,"version":"7757534","steam_id":85568392925397960,"keywords":["cp","nocrits","nodmgspread","uncletopia"],"game_id":440,"stv_port":27066,"stv_name":"Uncletopia | Sydney | 6 | Community | STV","players":null},{"server_id":49,"name":"Uncletopia | Warsaw | 1 | All Maps","name_short":"waw-1","host":"waw-1.pl.uncletopia.com","port":27015,"enabled":true,"region":"eu","cc":"pl","latitude":52.2297,"longitude":21.017532,"reserved":0,"last_update":"0001-01-01T00:00:00Z","name_a2s":"","protocol":0,"map":"","folder":"","game":"","app_id":0,"player_count":0,"max_players":0,"Bots":0,"server_type":"","server_os":"","password":false,"vac":false,"version":"","steam_id":0,"keywords":null,"game_id":0,"stv_port":0,"stv_name":"","players":null},{"server_id":50,"name":"Uncletopia | Warsaw | 2 | All Maps","name_short":"waw-2","host":"waw-1.pl.uncletopia.com","port":27025,"enabled":true,"region":"eu","cc":"pl","latitude":52.2297,"longitude":21.017532,"reserved":0,"last_update":"0001-01-01T00:00:00Z","name_a2s":"Uncletopia | Warsaw | 2 | All Maps","protocol":17,"map":"pl_barnblitz","folder":"tf","game":"Team Fortress","app_id":440,"player_count":0,"max_players":24,"Bots":0,"server_type":"Dedicated","server_os":"Linux","password":true,"vac":true,"version":"7757534","steam_id":85568392925397851,"keywords":["nocrits","nodmgspread","payload","uncletopia"],"game_id":440,"stv_port":27026,"stv_name":"Uncletopia | Warsaw | 2 | All Maps | STV","players":null},{"server_id":51,"name":"Uncletopia | Warsaw | 3 | All Maps","name_short":"waw-3","host":"waw-1.pl.uncletopia.com","port":27035,"enabled":true,"region":"eu","cc":"pl","latitude":52.2297,"longitude":21.017532,"reserved":0,"last_update":"0001-01-01T00:00:00Z","name_a2s":"Uncletopia | Warsaw | 3 | All Maps","protocol":17,"map":"koth_lakeside_final","folder":"tf","game":"Team Fortress","app_id":440,"player_count":0,"max_players":24,"Bots":0,"server_type":"Dedicated","server_os":"Linux","password":true,"vac":true,"version":"7757534","steam_id":85568392925397852,"keywords":["cp","nocrits","nodmgspread","uncletopia"],"game_id":440,"stv_port":27036,"stv_name":"Uncletopia | Warsaw | 3 | All Maps | STV","players":null},{"server_id":52,"name":"Uncletopia | Warsaw | 4 | All Maps","name_short":"waw-4","host":"waw-1.pl.uncletopia.com","port":27045,"enabled":true,"region":"eu","cc":"pl","latitude":52.2297,"longitude":21.017532,"reserved":0,"last_update":"0001-01-01T00:00:00Z","name_a2s":"Uncletopia | Warsaw | 4 | All Maps","protocol":17,"map":"koth_lakeside_final","folder":"tf","game":"Team Fortress","app_id":440,"player_count":0,"max_players":24,"Bots":0,"server_type":"Dedicated","server_os":"Linux","password":true,"vac":true,"version":"7757534","steam_id":85568392925397853,"keywords":["cp","nocrits","nodmgspread","uncletopia"],"game_id":440,"stv_port":27046,"stv_name":"Uncletopia | Warsaw | 4 | All Maps | STV","players":null},{"server_id":53,"name":"Uncletopia | Warsaw | 5 | Stopwatch Beta","name_short":"waw-5","host":"waw-1.pl.uncletopia.com","port":27055,"enabled":true,"region":"eu","cc":"pl","latitude":52.2297,"longitude":21.017532,"reserved":0,"last_update":"0001-01-01T00:00:00Z","name_a2s":"Uncletopia | Warsaw | 5 | Stopwatch Beta","protocol":17,"map":"pl_borneo","folder":"tf","game":"Team Fortress","app_id":440,"player_count":0,"max_players":24,"Bots":0,"server_type":"Dedicated","server_os":"Linux","password":true,"vac":true,"version":"7757534","steam_id":85568392925397854,"keywords":["nocrits","nodmgspread","payload","uncletopia"],"game_id":440,"stv_port":27056,"stv_name":"Uncletopia | Warsaw | 5 | Stopwatch Beta | STV","players":null},{"server_id":54,"name":"Uncletopia | Warsaw | 6 | Community","name_short":"waw-6","host":"waw-1.pl.uncletopia.com","port":27065,"enabled":true,"region":"eu","cc":"pl","latitude":52.2297,"longitude":21.017532,"reserved":0,"last_update":"0001-01-01T00:00:00Z","name_a2s":"Uncletopia | Warsaw | 6 | Community","protocol":17,"map":"koth_lakeside_final","folder":"tf","game":"Team Fortress","app_id":440,"player_count":0,"max_players":24,"Bots":0,"server_type":"Dedicated","server_os":"Linux","password":true,"vac":true,"version":"7757534","steam_id":85568392925397856,"keywords":["cp","nocrits","nodmgspread","uncletopia"],"game_id":440,"stv_port":27066,"stv_name":"Uncletopia | Warsaw | 6 | Community | STV","players":null}]}