{"status":true,"message":"","result":[{"server_id":9,"name":"Uncletopia | Atlanta | 1 | All Maps","name_short":"atl-1","host":"atl-1.us.uncletopia.com","port":27015,"enabled":true,"region":"us-east","cc":"us","latitude":33.753746,"longitude":-84.38633,"reserved":0,"last_update":"0001-01-01T00:00:00Z","name_a2s":"Uncletopia | Atlanta | 1 | All Maps","protocol":17,"map":"pl_snowycoast","folder":"tf","game":"Team Fortress","app_id":440,"player_count":24,"max_players":24,"Bots":0,"server_type":"Dedicated","server_os":"Linux","password":true,"vac":true,"version":"7757534","steam_id":85568392924469982,"keywords":["nocrits","nodmgspread","payload","uncletopia"],"game_id":440,"stv_port":27016,"stv_name":"Uncletopia | Atlanta | 1 | All Maps | STV","players":[{"user_id":672,"name":"Dr. drippenstein","steam_id":76561198209380493,"connected_time":3229000000000,"state":"active","ping":60},{"user_id":683,"name":"shaderoses","steam_id":76561198070800500,"connected_time":1023000000000,"state":"active","ping":62},{"user_id":700,"name":"Ghetto Smosh Fan","steam_id":76561198097272509,"connected_time":66000000000,"state":"spawning","ping":36},{"user_id":541,"name":"Darkdrake","steam_id":76561198107200600,"connected_time":15196000000000,"state":"active","ping":54},{"user_id":695,"name":"eish","steam_id":76561198089463603,"connected_time":134000000000,"state":"active","ping":118},{"user_id":684,"name":"♥Bunny♥Slut♥","steam_id":76561198206376851,"connected_time":1022000000000,"state":"active","ping":151},{"user_id":698,"name":"ATL1 | Bandi","steam_id":76561198432036026,"connected_time":128000000000,"state":"active","ping":51},{"user_id":542,"name":"KBoneski ♡","steam_id":76561198307409065,"connected_time":15174000000000,"state":"active","ping":96},{"user_id":699,"name":"craven","steam_id":76561198088191503,"connected_time":127000000000,"state":"active","ping":68},{"user_id":666,"name":"Moonglass Kaiju","steam_id":76561198043431819,"connected_time":3540000000000,"state":"active","ping":71},{"user_id":689,"name":"mayhem","steam_id":76561199246637881,"connected_time":948000000000,"state":"active","ping":59},{"user_id":663,"name":"SparkStorm","steam_id":76561198095817025,"connected_time":3845000000000,"state":"active","ping":40},{"user_id":613,"name":"Onyx","steam_id":76561198275349640,"connected_time":8910000000000,"state":"active","ping":90},{"user_id":685,"name":"morphine","steam_id":76561198072124799,"connected_time":1022000000000,"state":"active","ping":96},{"user_id":696,"name":"basil","steam_id":76561198075758026,"connected_time":133000000000,"state":"active","ping":68},{"user_id":674,"name":"T Jit","steam_id":76561197993371179,"connected_time":3006000000000,"state":"active","ping":46},{"user_id":675,"name":"ATL1 | Vee (very cool)","steam_id":76561198330432889,"connected_time":2278000000000,"state":"active","ping":62},{"user_id":686,"name":"Sm0ky","steam_id":76561198418262145,"connected_time":1020000000000,"state":"active","ping":115},{"user_id":642,"name":"Nox(She/They)","steam_id":76561198141950842,"connected_time":6374000000000,"state":"active","ping":47},{"user_id":697,"name":"xX_HimboSwallower_Xx","steam_id":76561198016029965,"connected_time":133000000000,"state":"active","ping":67},{"user_id":682,"name":"Intro Bonito","steam_id":76561198119478838,"connected_time":1055000000000,"state":"active","ping":46},{"user_id":694,"name":"Albino Jellyfish","steam_id":76561198208561097,"connected_time":179000000000,"state":"active","ping":71},{"user_id":679,"name":"big shoe lmfao","steam_id":76561198079416036,"connected_time":1194000000000,"state":"active","ping":73},{"user_id":650,"name":"PinkLemonade","steam_id":76561198799286228,"connected_time":5588000000000,"state":"active","ping":81}]},{"server_id":104,"name":"Uncletopia | Atlanta | 2 | All Maps","name_short":"atl-2","host":"atl-1.us.uncletopia.com","port":27025,"enabled":true,"region":"us-east","cc":"us","latitude":33.753746,"longitude":-84.38633,"reserved":0,"last_update":"0001-01-01T00:00:00Z","name_a2s":"Uncletopia | Atlanta | 2 | All Maps","protocol":17,"map":"pl_thundermountain","folder":"tf","game":"Team Fortress","app_id":440,"player_count":24,"max_players":24,"Bots":0,"server_type":"Dedicated","server_os":"Linux","password":true,"vac":true,"version":"7757534","steam_id":85568392924469983,"keywords":["nocrits","nodmgspread","payload","uncletopia"],"game_id":440,"stv_port":27026,"stv_name":"Uncletopia | Atlanta | 2 | All Maps | STV","players":[{"user_id":503,"name":"Plague Roach","steam_id":76561198037953356,"connected_time":1641000000000,"state":"active","ping":114},{"user_id":511,"name":"Aegis","steam_id":76561198272052750,"connected_time":934000000000,"state":"active","ping":70},{"user_id":413,"name":"sardien","steam_id":76561198256184467,"connected_time":8065000000000,"state":"active","ping":66},{"user_id":517,"name":"Jerry Seinfeld","steam_id":76561199205226507,"connected_time":201000000000,"state":"active","ping":89},{"user_id":490,"name":"sweatshirt","steam_id":76561198277477109,"connected_time":2508000000000,"state":"active","ping":54},{"user_id":431,"name":"Meringue","steam_id":76561198067899943,"connected_time":6722000000000,"state":"active","ping":68},{"user_id":512,"name":"TwizzstedLlama","steam_id":76561198054021548,"connected_time":917000000000,"state":"active","ping":71},{"user_id":476,"name":"TURTLEPOOL21","steam_id":76561198278212264,"connected_time":3611000000000,"state":"active","ping":40},{"user_id":484,"name":"Hey, It's Me! Goku!","steam_id":76561199103120314,"connected_time":2672000000000,"state":"active","ping":126},{"user_id":450,"name":"Bread","steam_id":76561198032938731,"connected_time":5440000000000,"state":"active","ping":54},{"user_id":498,"name":"Wang of Wall St","steam_id":76561198047460598,"connected_time":1940000000000,"state":"active","ping":75},{"user_id":518,"name":"el muchacho","steam_id":76561198282632562,"connected_time":169000000000,"state":"active","ping":86},{"user_id":513,"name":"Dededoo","steam_id":76561198279033471,"connected_time":912000000000,"state":"active","ping":133},{"user_id":520,"name":"footoftheday","steam_id":76561198052712449,"connected_time":44000000000,"state":"active","ping":76},{"user_id":514,"name":"WillieMakit","steam_id":76561197985391684,"connected_time":875000000000,"state":"active","ping":119},{"user_id":510,"name":"Kid named download","steam_id":76561199192074448,"connected_time":1211000000000,"state":"active","ping":100},{"user_id":468,"name":"Monkey Mode","steam_id":76561197961267543,"connected_time":4640000000000,"state":"active","ping":55},{"user_id":485,"name":"cactus eater","steam_id":76561199107499844,"connected_time":2665000000000,"state":"active","ping":131},{"user_id":515,"name":"incredirocks","steam_id":76561198061079993,"connected_time":870000000000,"state":"active","ping":68},{"user_id":495,"name":"jandajanda","steam_id":76561198235722476,"connected_time":2252000000000,"state":"active","ping":52},{"user_id":440,"name":"TheAilingSword","steam_id":76561198250350844,"connected_time":6494000000000,"state":"active","ping":68},{"user_id":516,"name":"roman","steam_id":76561198170066797,"connected_time":805000000000,"state":"active","ping":65},{"user_id":509,"name":"Big Time Bobby","steam_id":76561198935266162,"connected_time":1255000000000,"state":"active","ping":51},{"user_id":519,"name":"Capitalist","steam_id":76561198054534866,"connected_time":84000000000,"state":"active","ping":97}]},{"server_id":400,"name":"Uncletopia | Atlanta | 3 | Community","name_short":"atl-3","host":"atl-1.us.uncletopia.com","port":27035,"enabled":true,"region":"us-east","cc":"us","latitude":33.753746,"longitude":-84.38633,"reserved":0,"last_update":"0001-01-01T00:00:00Z","name_a2s":"Uncletopia | Atlanta | 3 | Community","protocol":17,"map":"workshop/cp_sulfur_rc2.ugc619869471","folder":"tf","game":"Team Fortress","app_id":440,"player_count":0,"max_players":24,"Bots":0,"server_type":"Dedicated","server_os":"Linux","password":true,"vac":true,"version":"7757534","steam_id":85568392924515187,"keywords":["cp","nocrits","nodmgspread","uncletopia"],"game_id":440,"stv_port":27036,"stv_name":"Uncletopia | Atlanta | 3 | Community | STV","players":null},{"server_id":401,"name":"Uncletopia | Atlanta | 4 | No Payload","name_short":"atl-4","host":"atl-1.us.uncletopia.com","port":27045,"enabled":true,"region":"us-east","cc":"us","latitude":33.753746,"longitude":-84.38633,"reserved":0,"last_update":"0001-01-01T00:00:00Z","name_a2s":"","protocol":0,"map":"","folder":"","game":"","app_id":0,"player_count":0,"max_players":0,"Bots":0,"server_type":"","server_os":"","password":false,"vac":false,"version":"","steam_id":0,"keywords":null,"game_id":0,"stv_port":0,"stv_name":"","players":null},{"server_id":2,"name":"Uncletopia | Chicago | 1 | All Maps","name_short":"chi-1","host":"chi-1.us.uncletopia.com","port":27015,"enabled":true,"region":"us-central","cc":"us","latitude":41.881832,"longitude":-87.62318,"reserved":0,"last_update":"0001-01-01T00:00:00Z","name_a2s":"Uncletopia | Chicago | 1 | All Maps","protocol":17,"map":"pl_pier","folder":"tf","game":"Team Fortress","app_id":440,"player_count":24,"max_players":24,"Bots":0,"server_type":"Dedicated","server_os":"Linux","password":true,"vac":true,"version":"7757534","steam_id":85568392924469984,"keywords":["nocrits","nodmgspread","payload","uncletopia"],"game_id":440,"stv_port":27016,"stv_name":"Uncletopia | Chicago | 1 | All Maps | STV","players":[{"user_id":738,"name":"Ehttri","steam_id":76561198170138667,"connected_time":1810000000000,"state":"active","ping":106},{"user_id":701,"name":"Dr. Dick","steam_id":76561198138011922,"connected_time":4047000000000,"state":"active","ping":82},{"user_id":710,"name":"Chili","steam_id":76561198042942046,"connected_time":3535000000000,"state":"active","ping":68},{"user_id":742,"name":"Captain Bug","steam_id":76561198137763878,"connected_time":1665000000000,"state":"active","ping":86},{"user_id":660,"name":"Pohnut","steam_id":76561198087831690,"connected_time":5694000000000,"state":"active","ping":143},{"user_id":706,"name":"Crumpets EVERYWHERE","steam_id":76561198880711743,"connected_time":3909000000000,"state":"active","ping":81},{"user_id":755,"name":"Scooby1961","steam_id":76561198019444443,"connected_time":614000000000,"state":"active","ping":81},{"user_id":750,"name":"Captain","steam_id":76561198003428369,"connected_time":1122000000000,"state":"active","ping":89},{"user_id":747,"name":"cheetaz","steam_id":76561198224614084,"connected_time":1147000000000,"state":"active","ping":60},{"user_id":759,"name":"{FITH}™ Halcyon","steam_id":76561198049132808,"connected_time":111000000000,"state":"active","ping":111},{"user_id":671,"name":"h20verdrive","steam_id":76561198115957085,"connected_time":5325000000000,"state":"active","ping":97},{"user_id":761,"name":"Interesting Man","steam_id":76561197991322325,"connected_time":75000000000,"state":"active","ping":98},{"user_id":700,"name":"Discourse","steam_id":76561198984286678,"connected_time":4287000000000,"state":"active","ping":56},{"user_id":752,"name":"blob","steam_id":76561198122375328,"connected_time":965000000000,"state":"active","ping":60},{"user_id":741,"name":"B)","steam_id":76561198093921290,"connected_time":1695000000000,"state":"active","ping":53},{"user_id":702,"name":"Prowler","steam_id":76561198202868782,"connected_time":4031000000000,"state":"active","ping":56},{"user_id":566,"name":"doctor large","steam_id":76561199195836752,"connected_time":13804000000000,"state":"active","ping":67},{"user_id":743,"name":"Xii","steam_id":76561198860209947,"connected_time":1645000000000,"state":"active","ping":50},{"user_id":746,"name":"An Axe Man With An Axe Plan","steam_id":76561199031265293,"connected_time":1334000000000,"state":"active","ping":73},{"user_id":722,"name":"Scuff1e","steam_id":76561198272995728,"connected_time":2823000000000,"state":"active","ping":78},{"user_id":758,"name":"Iggy Dogg","steam_id":76561198059602545,"connected_time":166000000000,"state":"active","ping":57},{"user_id":749,"name":"vcx","steam_id":76561198139371143,"connected_time":1139000000000,"state":"active","ping":76},{"user_id":696,"name":"Ademar","steam_id":76561199391802581,"connected_time":4553000000000,"state":"active","ping":55},{"user_id":734,"name":"Lia_Rein","steam_id":76561198151569597,"connected_time":2204000000000,"state":"active","ping":141}]},{"server_id":106,"name":"Uncletopia | Chicago | 2 | All Maps","name_short":"chi-2","host":"chi-1.us.uncletopia.com","port":27025,"enabled":true,"region":"us-central","cc":"us","latitude":41.881832,"longitude":-87.62318,"reserved":0,"last_update":"0001-01-01T00:00:00Z","name_a2s":"Uncletopia | Chicago | 2 | All Maps","protocol":17,"map":"pl_frontier_final","folder":"tf","game":"Team Fortress","app_id":440,"player_count":24,"max_players":24,"Bots":0,"server_type":"Dedicated","server_os":"Linux","password":true,"vac":true,"version":"7757534","steam_id":85568392924469985,"keywords":["nocrits","nodmgspread","payload","uncletopia"],"game_id":440,"stv_port":27026,"stv_name":"Uncletopia | Chicago | 2 | All Maps | STV","players":[{"user_id":654,"name":"i eat pallet","steam_id":76561198101378377,"connected_time":11406000000000,"state":"active","ping":78},{"user_id":795,"name":"bobby peanstalk","steam_id":76561198040495463,"connected_time":1693000000000,"state":"active","ping":69},{"user_id":792,"name":"C.A.S.S.I.E (real)","steam_id":76561199040892651,"connected_time":2018000000000,"state":"active","ping":65},{"user_id":816,"name":"Mburesh","steam_id":76561198137460717,"connected_time":209000000000,"state":"active","ping":52},{"user_id":716,"name":"I Came","steam_id":76561198082938358,"connected_time":7475000000000,"state":"active","ping":62},{"user_id":817,"name":"tom brady","steam_id":76561198320718416,"connected_time":109000000000,"state":"active","ping":110},{"user_id":814,"name":"shibaba bababool","steam_id":76561197972601902,"connected_time":645000000000,"state":"active","ping":83},{"user_id":818,"name":"LightBulbGlue #SaveTF2","steam_id":76561198329573529,"connected_time":79000000000,"state":"active","ping":71},{"user_id":760,"name":"dog","steam_id":76561198263873491,"connected_time":4504000000000,"state":"active","ping":37},{"user_id":734,"name":"consider shucking","steam_id":76561198042682297,"connected_time":6380000000000,"state":"active","ping":55},{"user_id":785,"name":"EvilMrPotoo ｡◕‿◕｡","steam_id":76561198012566870,"connected_time":3209000000000,"state":"active","ping":73},{"user_id":784,"name":"J.G. Klaus","steam_id":76561198001111196,"connected_time":3246000000000,"state":"active","ping":67},{"user_id":815,"name":"Thndr_","steam_id":76561198113242036,"connected_time":642000000000,"state":"active","ping":117},{"user_id":768,"name":"Ka Xin Yu","steam_id":76561198057116531,"connected_time":4325000000000,"state":"active","ping":54},{"user_id":783,"name":"Rymank","steam_id":76561198051497372,"connected_time":3248000000000,"state":"active","ping":72},{"user_id":790,"name":"Blake Belladonna","steam_id":76561198010169911,"connected_time":2360000000000,"state":"active","ping":89},{"user_id":771,"name":"Thirty-Two Double-Yoos","steam_id":76561198068231069,"connected_time":3730000000000,"state":"active","ping":88},{"user_id":804,"name":"cakepunk","steam_id":76561198041528364,"connected_time":1433000000000,"state":"active","ping":92},{"user_id":800,"name":"so low my halo","steam_id":76561198034141393,"connected_time":1634000000000,"state":"active","ping":79},{"user_id":797,"name":"sweaterfan","steam_id":76561199389567214,"connected_time":1681000000000,"state":"active","ping":66},{"user_id":812,"name":"olivia","steam_id":76561198288130849,"connected_time":788000000000,"state":"active","ping":82},{"user_id":640,"name":"Jake from FedEx","steam_id":76561198051258256,"connected_time":13779000000000,"state":"active","ping":91},{"user_id":801,"name":"Thundermonkey (SMOKE)","steam_id":76561198017631728,"connected_time":1572000000000,"state":"active","ping":66},{"user_id":808,"name":"Baka!⑨⑨⑨⑨","steam_id":76561198152948254,"connected_time":1212000000000,"state":"active","ping":76}]},{"server_id":402,"name":"Uncletopia | Chicago | 3 | All Maps","name_short":"chi-3","host":"chi-1.us.uncletopia.com","port":27035,"enabled":true,"region":"us-central","cc":"us","latitude":41.881832,"longitude":-87.62318,"reserved":0,"last_update":"0001-01-01T00:00:00Z","name_a2s":"Uncletopia | Chicago | 3 | All Maps","protocol":17,"map":"pl_badwater","folder":"tf","game":"Team Fortress","app_id":440,"player_count":24,"max_players":24,"Bots":0,"server_type":"Dedicated","server_os":"Linux","password":true,"vac":true,"version":"7757534","steam_id":85568392924515191,"keywords":["nocrits","nodmgspread","payload","uncletopia"],"game_id":440,"stv_port":27036,"stv_name":"Uncletopia | Chicago | 3 | All Maps | STV","players":[{"user_id":425,"name":"Ant","steam_id":76561198451837849,"connected_time":1489000000000,"state":"active","ping":68},{"user_id":373,"name":"Snow_Squid","steam_id":76561198180840049,"connected_time":5794000000000,"state":"active","ping":83},{"user_id":359,"name":"enmgxcltayiqoacx","steam_id":76561197974965536,"connected_time":6170000000000,"state":"active","ping":59},{"user_id":409,"name":"vettacon","steam_id":76561198063550709,"connected_time":2827000000000,"state":"active","ping":64},{"user_id":423,"name":"Pan-Demonica","steam_id":76561198294350105,"connected_time":1508000000000,"state":"active","ping":87},{"user_id":433,"name":"phroliax","steam_id":76561198207075529,"connected_time":600000000000,"state":"active","ping":93},{"user_id":434,"name":"Poyo Boyo","steam_id":76561198010201227,"connected_time":595000000000,"state":"active","ping":73},{"user_id":399,"name":"JUST ONE PEPSI","steam_id":76561198084334538,"connected_time":3622000000000,"state":"active","ping":83},{"user_id":321,"name":"roast pig with apple in mouth","steam_id":76561198051353647,"connected_time":8690000000000,"state":"active","ping":60},{"user_id":408,"name":"saga","steam_id":76561198130671890,"connected_time":2839000000000,"state":"active","ping":43},{"user_id":415,"name":"c00kie","steam_id":76561198418178297,"connected_time":2241000000000,"state":"active","ping":45},{"user_id":406,"name":"froGG moist","steam_id":76561198301176077,"connected_time":3424000000000,"state":"active","ping":71},{"user_id":427,"name":"Mary Poppins","steam_id":76561199040141750,"connected_time":1405000000000,"state":"active","ping":109},{"user_id":424,"name":"Spoon.","steam_id":76561198383523581,"connected_time":1506000000000,"state":"active","ping":79},{"user_id":436,"name":"DOGE??","steam_id":76561198331098675,"connected_time":541000000000,"state":"active","ping":89},{"user_id":426,"name":"PTR","steam_id":76561198237253772,"connected_time":1475000000000,"state":"active","ping":74},{"user_id":411,"name":"the nuisance","steam_id":76561198396326793,"connected_time":2640000000000,"state":"active","ping":94},{"user_id":432,"name":"Inpecular","steam_id":76561198096571237,"connected_time":808000000000,"state":"active","ping":89},{"user_id":419,"name":"WhoIsFrosty","steam_id":76561198880588117,"connected_time":2177000000000,"state":"active","ping":70},{"user_id":428,"name":"BugferBrains","steam_id":76561198963206238,"connected_time":1384000000000,"state":"active","ping":86},{"user_id":385,"name":"Craf227","steam_id":76561198196211121,"connected_time":5457000000000,"state":"active","ping":83},{"user_id":431,"name":"Streetwise","steam_id":76561197971684268,"connected_time":1265000000000,"state":"active","ping":80},{"user_id":430,"name":"attention","steam_id":76561198129682583,"connected_time":1340000000000,"state":"active","ping":75},{"user_id":435,"name":"Chin","steam_id":76561198953123833,"connected_time":595000000000,"state":"active","ping":124}]},{"server_id":403,"name":"Uncletopia | Chicago | 4 | All Maps","name_short":"chi-4","host":"chi-1.us.uncletopia.com","port":27045,"enabled":true,"region":"us-central","cc":"us","latitude":41.881832,"longitude":-87.62318,"reserved":0,"last_update":"0001-01-01T00:00:00Z","name_a2s":"Uncletopia | Chicago | 4 | All Maps","protocol":17,"map":"pl_badwater","folder":"tf","game":"Team Fortress","app_id":440,"player_count":23,"max_players":24,"Bots":0,"server_type":"Dedicated","server_os":"Linux","password":true,"vac":true,"version":"7757534","steam_id":85568392924515193,"keywords":["nocrits","nodmgspread","payload","uncletopia"],"game_id":440,"stv_port":27046,"stv_name":"Uncletopia | Chicago | 4 | All Maps | STV","players":[{"user_id":179,"name":"Mush","steam_id":76561198393461065,"connected_time":883000000000,"state":"active","ping":80},{"user_id":187,"name":"Dopamine_Key","steam_id":76561198090433209,"connected_time":182000000000,"state":"active","ping":86},{"user_id":169,"name":"uufyfuu","steam_id":76561198142787212,"connected_time":1678000000000,"state":"active","ping":74},{"user_id":106,"name":"The strongest ⑨ ball","steam_id":76561198126760743,"connected_time":6903000000000,"state":"active","ping":74},{"user_id":149,"name":"SuperJackDevil","steam_id":76561198166811422,"connected_time":3337000000000,"state":"active","ping":157},{"user_id":161,"name":"Soupman_Official","steam_id":76561198314308732,"connected_time":2857000000000,"state":"active","ping":44},{"user_id":123,"name":"joey.bigblunt55","steam_id":76561199161322235,"connected_time":5513000000000,"state":"active","ping":74},{"user_id":186,"name":"gabagool","steam_id":76561198012131766,"connected_time":197000000000,"state":"active","ping":52},{"user_id":99,"name":"Uwu Micster","steam_id":76561198843890616,"connected_time":7645000000000,"state":"active","ping":75},{"user_id":188,"name":"[SAW] Lost Darkrai","steam_id":76561198021034873,"connected_time":142000000000,"state":"active","ping":69},{"user_id":167,"name":"C Papi","steam_id":76561198027779564,"connected_time":1696000000000,"state":"active","ping":56},{"user_id":180,"name":"Anderred","steam_id":76561198149983847,"connected_time":870000000000,"state":"active","ping":82},{"user_id":174,"name":"Timmy Riggs","steam_id":76561198040743777,"connected_time":1406000000000,"state":"active","ping":65},{"user_id":147,"name":"vanessa.tall98","steam_id":76561198813574552,"connected_time":3441000000000,"state":"active","ping":63},{"user_id":181,"name":"LordOfTheNoobs","steam_id":76561197962697523,"connected_time":702000000000,"state":"active","ping":62},{"user_id":132,"name":"Luca!","steam_id":76561198137880777,"connected_time":5211000000000,"state":"active","ping":88},{"user_id":158,"name":"m-Seq","steam_id":76561198114922735,"connected_time":3041000000000,"state":"active","ping":71},{"user_id":184,"name":"cow","steam_id":76561198198453117,"connected_time":211000000000,"state":"active","ping":75},{"user_id":175,"name":"Cresty","steam_id":76561199118643461,"connected_time":1398000000000,"state":"active","ping":99},{"user_id":185,"name":"Dr Smeggman","steam_id":76561197966614845,"connected_time":210000000000,"state":"active","ping":135},{"user_id":176,"name":"G.Flewit","steam_id":76561199214365392,"connected_time":1390000000000,"state":"active","ping":71},{"user_id":168,"name":"marker pliers","steam_id":76561198070923665,"connected_time":1690000000000,"state":"active","ping":75},{"user_id":117,"name":"NovaSc6ut","steam_id":76561198277163301,"connected_time":6526000000000,"state":"active","ping":69}]},{"server_id":36,"name":"Uncletopia | Chicago | 5 | All Maps","name_short":"chi-5","host":"chi-2.us.uncletopia.com","port":27015,"enabled":true,"region":"us-central","cc":"us","latitude":41.881832,"longitude":-87.62318,"reserved":0,"last_update":"0001-01-01T00:00:00Z","name_a2s":"Uncletopia | Chicago | 5 | All Maps","protocol":17,"map":"cp_dustbowl","folder":"tf","game":"Team Fortress","app_id":440,"player_count":24,"max_players":24,"Bots":0,"server_type":"Dedicated","server_os":"Linux","password":true,"vac":true,"version":"7757534","steam_id":85568392924866362,"keywords":["cp","nocrits","nodmgspread","uncletopia"],"game_id":440,"stv_port":27016,"stv_name":"Uncletopia | Chicago | 5 | All Maps | STV","players":[{"user_id":216,"name":"cheenis","steam_id":76561198053523136,"connected_time":3701000000000,"state":"active","ping":63},{"user_id":217,"name":"prettysureitschris","steam_id":76561198052648734,"connected_time":3635000000000,"state":"active","ping":98},{"user_id":218,"name":"NPC","steam_id":76561198431446386,"connected_time":3630000000000,"state":"active","ping":70},{"user_id":252,"name":"emas","steam_id":76561198147700035,"connected_time":539000000000,"state":"active","ping":155},{"user_id":245,"name":"Aeonspassed","steam_id":76561198014016451,"connected_time":1555000000000,"state":"active","ping":61},{"user_id":163,"name":"cotton candy muncher","steam_id":76561198058998371,"connected_time":6730000000000,"state":"active","ping":65},{"user_id":120,"name":"Kero","steam_id":76561198343231436,"connected_time":9788000000000,"state":"active","ping":61},{"user_id":232,"name":"dnaak","steam_id":76561197960489193,"connected_time":2505000000000,"state":"active","ping":47},{"user_id":250,"name":"barry, 63","steam_id":76561198803053113,"connected_time":574000000000,"state":"active","ping":106},{"user_id":256,"name":"Mister36","steam_id":76561198019132100,"connected_time":307000000000,"state":"active","ping":48},{"user_id":249,"name":"luckykitty","steam_id":76561198272414114,"connected_time":924000000000,"state":"active","ping":84},{"user_id":239,"name":"e","steam_id":76561198030291655,"connected_time":2102000000000,"state":"active","ping":45},{"user_id":254,"name":"Rick Owens","steam_id":76561199075528394,"connected_time":516000000000,"state":"active","ping":96},{"user_id":211,"name":"Mr. Dry Lips","steam_id":76561198028157625,"connected_time":4111000000000,"state":"active","ping":88},{"user_id":248,"name":"Retro Phoenix","steam_id":76561198077176271,"connected_time":1165000000000,"state":"active","ping":64},{"user_id":236,"name":"Deathpill","steam_id":76561197994404793,"connected_time":2236000000000,"state":"active","ping":75},{"user_id":221,"name":"DelfinX","steam_id":76561197992847579,"connected_time":3567000000000,"state":"active","ping":102},{"user_id":244,"name":"BernardBull","steam_id":76561198036138813,"connected_time":1723000000000,"state":"active","ping":84},{"user_id":224,"name":"uhooter","steam_id":76561198007829078,"connected_time":3512000000000,"state":"active","ping":54},{"user_id":251,"name":"Trox","steam_id":76561198263581464,"connected_time":552000000000,"state":"active","ping":87},{"user_id":237,"name":"Glowie Gus","steam_id":76561198047809106,"connected_time":2203000000000,"state":"active","ping":112},{"user_id":255,"name":"Luke","steam_id":76561198072441047,"connected_time":471000000000,"state":"active","ping":107},{"user_id":240,"name":"fnewland","steam_id":76561197986051713,"connected_time":2082000000000,"state":"active","ping":73},{"user_id":253,"name":"Sabaman55","steam_id":76561198212267979,"connected_time":536000000000,"state":"active","ping":50}]},{"server_id":37,"name":"Uncletopia | Chicago | 6 | All Maps","name_short":"chi-6","host":"chi-2.us.uncletopia.com","port":27025,"enabled":true,"region":"us-central","cc":"us","latitude":41.881832,"longitude":-87.62318,"reserved":0,"last_update":"0001-01-01T00:00:00Z","name_a2s":"Uncletopia | Chicago | 6 | All Maps","protocol":17,"map":"ctf_2fort","folder":"tf","game":"Team Fortress","app_id":440,"player_count":23,"max_players":24,"Bots":0,"server_type":"Dedicated","server_os":"Linux","password":true,"vac":true,"version":"7757534","steam_id":85568392924866363,"keywords":["ctf","nocrits","nodmgspread","uncletopia"],"game_id":440,"stv_port":27026,"stv_name":"Uncletopia | Chicago | 6 | All Maps | STV","players":[{"user_id":271,"name":"Dynamo","steam_id":76561198105537445,"connected_time":572000000000,"state":"active","ping":55},{"user_id":291,"name":"Stormz64(But weezer)","steam_id":76561198239036482,"connected_time":7000000000,"state":"spawning","ping":60},{"user_id":282,"name":"OpenDown","steam_id":76561198064132688,"connected_time":347000000000,"state":"active","ping":56},{"user_id":228,"name":"Better Call Saul TF2 (Real)","steam_id":76561198347286009,"connected_time":3727000000000,"state":"active","ping":79},{"user_id":278,"name":"Swannie","steam_id":76561199472877209,"connected_time":392000000000,"state":"active","ping":177},{"user_id":277,"name":"Big Ears","steam_id":76561198851363077,"connected_time":425000000000,"state":"active","ping":74},{"user_id":223,"name":"Novablin","steam_id":76561198334142827,"connected_time":4246000000000,"state":"active","ping":87},{"user_id":210,"name":"Sprucelass","steam_id":76561197998391724,"connected_time":4941000000000,"state":"active","ping":71},{"user_id":255,"name":"Torei","steam_id":76561198799229190,"connected_time":1791000000000,"state":"active","ping":58},{"user_id":286,"name":"Bored Barred Owl","steam_id":76561198263895597,"connected_time":219000000000,"state":"active","ping":74},{"user_id":283,"name":"Joshua Monster","steam_id":76561198136873827,"connected_time":299000000000,"state":"active","ping":81},{"user_id":261,"name":"_hooded_","steam_id":76561198023595873,"connected_time":1360000000000,"state":"active","ping":79},{"user_id":289,"name":"Cyan","steam_id":76561198090433914,"connected_time":55000000000,"state":"active","ping":370},{"user_id":245,"name":"Jup Jup","steam_id":76561197969455713,"connected_time":2850000000000,"state":"active","ping":57},{"user_id":244,"name":"Air OK","steam_id":76561198030694455,"connected_time":2858000000000,"state":"active","ping":57},{"user_id":220,"name":"Phae","steam_id":76561198024763351,"connected_time":4560000000000,"state":"active","ping":62},{"user_id":267,"name":"garbo","steam_id":76561198149280150,"connected_time":769000000000,"state":"active","ping":96},{"user_id":281,"name":"Loggybears","steam_id":76561198366828434,"connected_time":349000000000,"state":"active","ping":90},{"user_id":265,"name":"The Worm","steam_id":76561198016350229,"connected_time":792000000000,"state":"active","ping":58},{"user_id":248,"name":"wack","steam_id":76561198095697330,"connected_time":2825000000000,"state":"active","ping":69},{"user_id":218,"name":"Spyfall","steam_id":76561198081729993,"connected_time":4568000000000,"state":"active","ping":78},{"user_id":287,"name":"Tyrith","steam_id":76561197977705173,"connected_time":202000000000,"state":"active","ping":85},{"user_id":285,"name":"Piccadilly Willy","steam_id":76561198000312126,"connected_time":240000000000,"state":"active","ping":56}]},{"server_id":38,"name":"Uncletopia | Chicago | 7 | Stopwatch Beta","name_short":"chi-7","host":"chi-2.us.uncletopia.com","port":27035,"enabled":true,"region":"us-central","cc":"us","latitude":41.881832,"longitude":-87.62318,"reserved":0,"last_update":"0001-01-01T00:00:00Z","name_a2s":"Uncletopia | Chicago | 7 | Stopwatch Beta","protocol":17,"map":"workshop/koth_ramjam_rc1.ugc459778887","folder":"tf","game":"Team Fortress","app_id":440,"player_count":0,"max_players":24,"Bots":0,"server_type":"Dedicated","server_os":"Linux","password":true,"vac":true,"version":"7757534","steam_id":85568392924866364,"keywords":["cp","nocrits","nodmgspread","uncletopia"],"game_id":440,"stv_port":27036,"stv_name":"Uncletopia | Chicago | 7 | Stopwatch Beta | STV","players":null},{"server_id":39,"name":"Uncletopia | Chicago | 8 | Community","name_short":"chi-8","host":"chi-2.us.uncletopia.com","port":27045,"enabled":true,"region":"us-central","cc":"us","latitude":41.881832,"longitude":-87.62318,"reserved":0,"last_update":"0001-01-01T00:00:00Z","name_a2s":"Uncletopia | Chicago | 8 | Community","protocol":17,"map":"workshop/koth_bagel_rc6.ugc2514036946","folder":"tf","game":"Team Fortress","app_id":440,"player_count":24,"max_players":24,"Bots":0,"server_type":"Dedicated","server_os":"Linux","password":true,"vac":true,"version":"7757534","steam_id":85568392924866365,"keywords":["cp","nocrits","nodmgspread","uncletopia"],"game_id":440,"stv_port":27046,"stv_name":"Uncletopia | Chicago | 8 | Community | STV","players":[{"user_id":189,"name":"Tootpickisbad","steam_id":76561197993549310,"connected_time":4679000000000,"state":"active","ping":86},{"user_id":132,"name":"Wario","steam_id":76561198352732164,"connected_time":8820000000000,"state":"active","ping":112},{"user_id":224,"name":"I GOT LAID AT SHEN YUN 2023","steam_id":76561198844003641,"connected_time":2589000000000,"state":"active","ping":113},{"user_id":256,"name":"bear garden","steam_id":76561197987025017,"connected_time":388000000000,"state":"active","ping":84},{"user_id":257,"name":"sludge_wizard","steam_id":76561198054482500,"connected_time":363000000000,"state":"active","ping":59},{"user_id":190,"name":"Ferioth","steam_id":76561197997993090,"connected_time":4622000000000,"state":"active","ping":68},{"user_id":259,"name":"BurR","steam_id":76561198055431367,"connected_time":119000000000,"state":"active","ping":62},{"user_id":240,"name":"highway to hello kitty","steam_id":76561198178049845,"connected_time":1209000000000,"state":"active","ping":90},{"user_id":222,"name":"DeckofDragons","steam_id":76561198057398213,"connected_time":2763000000000,"state":"active","ping":83},{"user_id":260,"name":"Big Oil","steam_id":76561199238964574,"connected_time":39000000000,"state":"active","ping":75},{"user_id":231,"name":"Infinitytacos","steam_id":76561198884260211,"connected_time":2152000000000,"state":"active","ping":48},{"user_id":234,"name":"Carson","steam_id":76561198076771071,"connected_time":1919000000000,"state":"active","ping":46},{"user_id":172,"name":"The Pencil Cunts","steam_id":76561198272606252,"connected_time":6161000000000,"state":"active","ping":63},{"user_id":184,"name":"Rental","steam_id":76561198027786602,"connected_time":4950000000000,"state":"active","ping":99},{"user_id":185,"name":"Divio","steam_id":76561197995200088,"connected_time":4948000000000,"state":"active","ping":75},{"user_id":246,"name":"Eternal Neckbeard","steam_id":76561198201862415,"connected_time":1031000000000,"state":"active","ping":56},{"user_id":242,"name":"PoptheTarts","steam_id":76561198241106268,"connected_time":1181000000000,"state":"active","ping":87},{"user_id":258,"name":"goon19","steam_id":76561199239168878,"connected_time":340000000000,"state":"active","ping":111},{"user_id":249,"name":"Prof. Leafeon","steam_id":76561198123549027,"connected_time":832000000000,"state":"active","ping":71},{"user_id":219,"name":"Driving Cat Orange (real cat)","steam_id":76561199067771554,"connected_time":3054000000000,"state":"active","ping":85},{"user_id":254,"name":"bass player","steam_id":76561198203357580,"connected_time":489000000000,"state":"active","ping":77},{"user_id":250,"name":"Knight Spy","steam_id":76561198027840500,"connected_time":793000000000,"state":"active","ping":82},{"user_id":253,"name":"Finale","steam_id":76561198050712979,"connected_time":601000000000,"state":"active","ping":46},{"user_id":244,"name":"kametro4","steam_id":76561198835430429,"connected_time":1122000000000,"state":"active","ping":82}]},{"server_id":8,"name":"Uncletopia | Dallas | 1 | All Maps","name_short":"dal-1","host":"dal-1.us.uncletopia.com","port":27015,"enabled":true,"region":"us-central","cc":"us","latitude":32.779167,"longitude":-96.80889,"reserved":0,"last_update":"0001-01-01T00:00:00Z","name_a2s":"Uncletopia | Dallas | 1 | All Maps","protocol":17,"map":"pl_borneo","folder":"tf","game":"Team Fortress","app_id":440,"player_count":24,"max_players":24,"Bots":0,"server_type":"Dedicated","server_os":"Linux","password":true,"vac":true,"version":"7757534","steam_id":85568392924469986,"keywords":["nocrits","nodmgspread","payload","uncletopia"],"game_id":440,"stv_port":27016,"stv_name":"Uncletopia | Dallas | 1 | All Maps | STV","players":[{"user_id":753,"name":"sam","steam_id":76561198088504281,"connected_time":1850000000000,"state":"active","ping":85},{"user_id":755,"name":"dicksnip","steam_id":76561198356515396,"connected_time":1791000000000,"state":"active","ping":58},{"user_id":756,"name":"Engineer Gaming","steam_id":76561198840761529,"connected_time":1712000000000,"state":"active","ping":58},{"user_id":733,"name":"Flubdy_","steam_id":76561198073338521,"connected_time":2402000000000,"state":"active","ping":126},{"user_id":763,"name":"Apollo","steam_id":76561198162364702,"connected_time":1417000000000,"state":"active","ping":95},{"user_id":765,"name":"capybara","steam_id":76561198182288455,"connected_time":1282000000000,"state":"active","ping":84},{"user_id":734,"name":"iaPK","steam_id":76561198056618642,"connected_time":2328000000000,"state":"active","ping":50},{"user_id":748,"name":"OttoDogX","steam_id":76561198042007578,"connected_time":1982000000000,"state":"active","ping":65},{"user_id":750,"name":"cuh","steam_id":76561198321545921,"connected_time":1894000000000,"state":"active","ping":87},{"user_id":769,"name":"EquinoxFox","steam_id":76561198011459492,"connected_time":1047000000000,"state":"active","ping":80},{"user_id":772,"name":"ARGON Soulidity","steam_id":76561198429603550,"connected_time":93000000000,"state":"active","ping":81},{"user_id":766,"name":"Seller of Waffles","steam_id":76561198296018138,"connected_time":1264000000000,"state":"active","ping":72},{"user_id":751,"name":"RebelScum","steam_id":76561199231752872,"connected_time":1885000000000,"state":"active","ping":118},{"user_id":768,"name":"BackwardsEagle","steam_id":76561199013712612,"connected_time":1072000000000,"state":"active","ping":96},{"user_id":762,"name":"Epha","steam_id":76561198079379951,"connected_time":1527000000000,"state":"active","ping":82},{"user_id":752,"name":"certainlysim","steam_id":76561199092352335,"connected_time":1860000000000,"state":"active","ping":123},{"user_id":773,"name":"heavensandwiches","steam_id":76561198019021094,"connected_time":89000000000,"state":"active","ping":53},{"user_id":770,"name":"lew","steam_id":76561198088682495,"connected_time":983000000000,"state":"active","ping":135},{"user_id":774,"name":"*_*","steam_id":76561198937717599,"connected_time":54000000000,"state":"active","ping":38},{"user_id":767,"name":"[_Dr.Scythe_]","steam_id":76561198845245858,"connected_time":1247000000000,"state":"active","ping":62},{"user_id":761,"name":"TheBigJabroni™","steam_id":76561198066208423,"connected_time":1548000000000,"state":"active","ping":87},{"user_id":775,"name":"Average Xbox Controller Enjoyer","steam_id":76561199026721822,"connected_time":34000000000,"state":"active","ping":88},{"user_id":771,"name":"Dimension","steam_id":76561198132803810,"connected_time":130000000000,"state":"active","ping":60},{"user_id":648,"name":"brock","steam_id":76561199015537819,"connected_time":7515000000000,"state":"active","ping":60}]},{"server_id":108,"name":"Uncletopia | Dallas | 2 | All Maps","name_short":"dal-2","host":"dal-1.us.uncletopia.com","port":27025,"enabled":true,"region":"us-central","cc":"us","latitude":32.779167,"longitude":-96.80889,"reserved":0,"last_update":"0001-01-01T00:00:00Z","name_a2s":"Uncletopia | Dallas | 2 | All Maps","protocol":17,"map":"pl_frontier_final","folder":"tf","game":"Team Fortress","app_id":440,"player_count":24,"max_players":24,"Bots":0,"server_type":"Dedicated","server_os":"Linux","password":true,"vac":true,"version":"7757534","steam_id":85568392924469988,"keywords":["nocrits","nodmgspread","payload","uncletopia"],"game_id":440,"stv_port":27026,"stv_name":"Uncletopia | Dallas | 2 | All Maps | STV","players":[{"user_id":315,"name":"Architect","steam_id":76561198015242016,"connected_time":595000000000,"state":"active","ping":71},{"user_id":310,"name":"Rear Admiral Crunch","steam_id":76561198020007558,"connected_time":1736000000000,"state":"active","ping":58},{"user_id":313,"name":"Zing","steam_id":76561198097160898,"connected_time":823000000000,"state":"active","ping":79},{"user_id":263,"name":"Ata","steam_id":76561198349085545,"connected_time":6312000000000,"state":"active","ping":82},{"user_id":320,"name":"Coinclever","steam_id":76561198099972692,"connected_time":328000000000,"state":"active","ping":80},{"user_id":246,"name":"bobbymcbobington","steam_id":76561199089411172,"connected_time":8346000000000,"state":"active","ping":126},{"user_id":321,"name":"Little Green Man, Clayton","steam_id":76561198038945235,"connected_time":266000000000,"state":"active","ping":97},{"user_id":295,"name":"SuperFresh","steam_id":76561198200723198,"connected_time":2495000000000,"state":"active","ping":64},{"user_id":317,"name":"PsycoticHamster","steam_id":76561198056558972,"connected_time":544000000000,"state":"active","ping":85},{"user_id":309,"name":"Franz FERGInand","steam_id":76561198949926886,"connected_time":1751000000000,"state":"active","ping":52},{"user_id":239,"name":"WinteR","steam_id":76561198042242154,"connected_time":8488000000000,"state":"active","ping":84},{"user_id":318,"name":"NeverAcedIt (Pinnacle -\u003e Pit)","steam_id":76561198406671743,"connected_time":535000000000,"state":"active","ping":95},{"user_id":298,"name":"Waaagh!","steam_id":76561197995317887,"connected_time":2040000000000,"state":"active","ping":98},{"user_id":301,"name":"Lore","steam_id":76561198098407538,"connected_time":2003000000000,"state":"active","ping":77},{"user_id":305,"name":"Lion of Judah","steam_id":76561198078674411,"connected_time":1944000000000,"state":"active","ping":69},{"user_id":302,"name":"hatchetax","steam_id":76561199013337543,"connected_time":1999000000000,"state":"active","ping":63},{"user_id":297,"name":"professor penisfreak","steam_id":76561198435104989,"connected_time":2049000000000,"state":"active","ping":64},{"user_id":311,"name":"BLOOD !","steam_id":76561198004400850,"connected_time":1269000000000,"state":"active","ping":64},{"user_id":278,"name":"0x01FE","steam_id":76561198838881917,"connected_time":3883000000000,"state":"active","ping":70},{"user_id":258,"name":"Slashuur","steam_id":76561198157385316,"connected_time":6948000000000,"state":"active","ping":83},{"user_id":312,"name":"intek","steam_id":76561198052705291,"connected_time":1150000000000,"state":"active","ping":106},{"user_id":284,"name":"Your Local NPR Station","steam_id":76561198143830279,"connected_time":3304000000000,"state":"active","ping":63},{"user_id":314,"name":"trainmarine -bt","steam_id":76561198341784551,"connected_time":707000000000,"state":"active","ping":70},{"user_id":319,"name":"kleeflord","steam_id":76561198798952432,"connected_time":505000000000,"state":"active","ping":97}]},{"server_id":5,"name":"Uncletopia | Frankfurt | 1 | All Maps","name_short":"frk-1","host":"frk-1.de.uncletopia.com","port":27015,"enabled":true,"region":"eu","cc":"de","latitude":50.110924,"longitude":8.682127,"reserved":0,"last_update":"0001-01-01T00:00:00Z","name_a2s":"Uncletopia | Frankfurt | 1 | All Maps","protocol":17,"map":"cp_snakewater_final1","folder":"tf","game":"Team Fortress","app_id":440,"player_count":0,"max_players":24,"Bots":0,"server_type":"Dedicated","server_os":"Linux","password":true,"vac":true,"version":"7757534","steam_id":85568392924469989,"keywords":["cp","nocrits","nodmgspread","uncletopia"],"game_id":440,"stv_port":27016,"stv_name":"Uncletopia | Frankfurt | 1 | All Maps | STV","players":null},{"server_id":110,"name":"Uncletopia | Frankfurt | 2 | All Maps","name_short":"frk-2","host":"frk-1.de.uncletopia.com","port":27025,"enabled":true,"region":"eu","cc":"de","latitude":50.110924,"longitude":8.682127,"reserved":0,"last_update":"0001-01-01T00:00:00Z","name_a2s":"Uncletopia | Frankfurt | 2 | All Maps","protocol":17,"map":"cp_snakewater_final1","folder":"tf","game":"Team Fortress","app_id":440,"player_count":0,"max_players":24,"Bots":0,"server_type":"Dedicated","server_os":"Linux","password":true,"vac":true,"version":"7757534","steam_id":85568392924469990,"keywords":["cp","nocrits","nodmgspread","uncletopia"],"game_id":440,"stv_port":27026,"stv_name":"Uncletopia | Frankfurt | 2 | All Maps | STV","players":null},{"server_id":308,"name":"Uncletopia | Frankfurt | 3 | All Maps","name_short":"frk-3","host":"frk-1.de.uncletopia.com","port":27035,"enabled":true,"region":"eu","cc":"de","latitude":50.110924,"longitude":8.682127,"reserved":0,"last_update":"0001-01-01T00:00:00Z","name_a2s":"Uncletopia | Frankfurt | 3 | All Maps","protocol":17,"map":"cp_process_final","folder":"tf","game":"Team Fortress","app_id":440,"player_count":0,"max_players":24,"Bots":0,"server_type":"Dedicated","server_os":"Linux","password":true,"vac":true,"version":"7757534","steam_id":85568392924504274,"keywords":["cp","nocrits","nodmgspread","uncletopia"],"game_id":440,"stv_port":27036,"stv_name":"Uncletopia | Frankfurt | 3 | All Maps | STV","players":null},{"server_id":309,"name":"Uncletopia | Frankfurt | 4 | All Maps","name_short":"frk-4","host":"frk-1.de.uncletopia.com","port":27045,"enabled":true,"region":"eu","cc":"de","latitude":50.110924,"longitude":8.682127,"reserved":0,"last_update":"0001-01-01T00:00:00Z","name_a2s":"Uncletopia | Frankfurt | 4 | All Maps","protocol":17,"map":"pl_badwater","folder":"tf","game":"Team Fortress","app_id":440,"player_count":17,"max_players":24,"Bots":0,"server_type":"Dedicated","server_os":"Linux","password":true,"vac":true,"version":"7757534","steam_id":85568392924504275,"keywords":["nocrits","nodmgspread","payload","uncletopia"],"game_id":440,"stv_port":27046,"stv_name":"Uncletopia | Frankfurt | 4 | All Maps | STV","players":[{"user_id":585,"name":"Proud Jojo Fan #TF2SP","steam_id":76561198847327216,"connected_time":3115000000000,"state":"active","ping":60},{"user_id":609,"name":"yosh","steam_id":76561199316310715,"connected_time":1007000000000,"state":"active","ping":79},{"user_id":610,"name":"printer is broken","steam_id":76561198234270592,"connected_time":999000000000,"state":"active","ping":55},{"user_id":602,"name":"Gozzer","steam_id":76561197984155185,"connected_time":1602000000000,"state":"active","ping":83},{"user_id":553,"name":"Bob's your Uncle","steam_id":76561197995230744,"connected_time":5207000000000,"state":"active","ping":144},{"user_id":618,"name":"james_bondage","steam_id":76561199476062624,"connected_time":311000000000,"state":"active","ping":161},{"user_id":531,"name":"Bada Bing!","steam_id":76561198073332036,"connected_time":7457000000000,"state":"active","ping":124},{"user_id":611,"name":"leo","steam_id":76561198066274297,"connected_time":987000000000,"state":"active","ping":124},{"user_id":617,"name":"Another Potato Salesman","steam_id":76561198121078860,"connected_time":539000000000,"state":"active","ping":56},{"user_id":619,"name":"Robs","steam_id":76561198078355830,"connected_time":293000000000,"state":"active","ping":78},{"user_id":620,"name":"RenPar","steam_id":76561198169419253,"connected_time":212000000000,"state":"active","ping":178},{"user_id":622,"name":"raime","steam_id":76561198024903775,"connected_time":184000000000,"state":"active","ping":87},{"user_id":505,"name":"ja","steam_id":76561199228540618,"connected_time":9179000000000,"state":"active","ping":77},{"user_id":594,"name":"Hamst123","steam_id":76561198957312452,"connected_time":2582000000000,"state":"active","ping":50},{"user_id":623,"name":"Arkainiel Silver","steam_id":76561198188302519,"connected_time":157000000000,"state":"active","ping":53},{"user_id":624,"name":"Mr. House (Real)","steam_id":76561198162554213,"connected_time":143000000000,"state":"active","ping":78},{"user_id":592,"name":"disc0rd","steam_id":76561197985965776,"connected_time":2739000000000,"state":"active","ping":62}]},{"server_id":310,"name":"Uncletopia | Frankfurt | 5 | All Maps","name_short":"frk-5","host":"frk-1.de.uncletopia.com","port":27055,"enabled":true,"region":"eu","cc":"de","latitude":50.110924,"longitude":8.682127,"reserved":0,"last_update":"0001-01-01T00:00:00Z","name_a2s":"Uncletopia | Frankfurt | 5 | All Maps","protocol":17,"map":"koth_viaduct","folder":"tf","game":"Team Fortress","app_id":440,"player_count":0,"max_players":24,"Bots":0,"server_type":"Dedicated","server_os":"Linux","password":true,"vac":true,"version":"7757534","steam_id":85568392924504277,"keywords":["cp","nocrits","nodmgspread","uncletopia"],"game_id":440,"stv_port":27056,"stv_name":"Uncletopia | Frankfurt | 5 | All Maps | STV","players":null},{"server_id":311,"name":"Uncletopia | Frankfurt | 6 | All Maps","name_short":"frk-6","host":"frk-1.de.uncletopia.com","port":27065,"enabled":true,"region":"eu","cc":"de","latitude":50.110924,"longitude":8.682127,"reserved":0,"last_update":"0001-01-01T00:00:00Z","name_a2s":"Uncletopia | Frankfurt | 6 | All Maps","protocol":17,"map":"koth_viaduct","folder":"tf","game":"Team Fortress","app_id":440,"player_count":0,"max_players":24,"Bots":0,"server_type":"Dedicated","server_os":"Linux","password":true,"vac":true,"version":"7757534","steam_id":85568392924504278,"keywords":["cp","nocrits","nodmgspread","uncletopia"],"game_id":440,"stv_port":27066,"stv_name":"Uncletopia | Frankfurt | 6 | All Maps | STV","players":null},{"server_id":23,"name":"Uncletopia | Frankfurt | 7 | Stopwatch Beta","name_short":"frk-7","host":"frk-1.de.uncletopia.com","port":27075,"enabled":true,"region":"eu","cc":"de","latitude":50.110924,"longitude":8.682127,"reserved":0,"last_update":"0001-01-01T00:00:00Z","name_a2s":"Uncletopia | Frankfurt | 7 | Stopwatch Beta","protocol":17,"map":"workshop/koth_ramjam_rc1.ugc459778887","folder":"tf","game":"Team Fortress","app_id":440,"player_count":0,"max_players":24,"Bots":0,"server_type":"Dedicated","server_os":"Linux","password":true,"vac":true,"version":"7757534","steam_id":85568392924742827,"keywords":["cp","nocrits","nodmgspread","uncletopia"],"game_id":440,"stv_port":27076,"stv_name":"Uncletopia | Frankfurt | 7 | Stopwatch Beta | STV","players":null},{"server_id":24,"name":"Uncletopia | Frankfurt | 8 | Community","name_short":"frk-8","host":"frk-1.de.uncletopia.com","port":27085,"enabled":true,"region":"eu","cc":"de","latitude":50.110924,"longitude":8.682127,"reserved":0,"last_update":"0001-01-01T00:00:00Z","name_a2s":"Uncletopia | Frankfurt | 8 | Community","protocol":17,"map":"workshop/koth_bagel_rc6.ugc2514036946","folder":"tf","game":"Team Fortress","app_id":440,"player_count":0,"max_players":24,"Bots":0,"server_type":"Dedicated","server_os":"Linux","password":true,"vac":true,"version":"7757534","steam_id":85568392924742828,"keywords":["cp","nocrits","nodmgspread","uncletopia"],"game_id":440,"stv_port":27086,"stv_name":"Uncletopia | Frankfurt | 8 | Community | STV","players":null},{"server_id":202,"name":"Uncletopia | Hong Kong | 1 | All Maps","name_short":"hgk-1","host":"hgk-1.hk.uncletopia.com","port":27015,"enabled":true,"region":"asia","cc":"hk","latitude":22.302711,"longitude":114.177216,"reserved":0,"last_update":"0001-01-01T00:00:00Z","name_a2s":"Uncletopia | Hong Kong | 1 | All Maps","protocol":17,"map":"pl_pier","folder":"tf","game":"Team Fortress","app_id":440,"player_count":0,"max_players":24,"Bots":0,"server_type":"Dedicated","server_os":"Linux","password":true,"vac":true,"version":"7757534","steam_id":85568392924494504,"keywords":["nocrits","nodmgspread","payload","uncletopia"],"game_id":440,"stv_port":27016,"stv_name":"Uncletopia | Hong Kong | 1 | All Maps | STV","players":null},{"server_id":1,"name":"Uncletopia | Los Angeles | 1 | All Maps","name_short":"lax-1","host":"lax-1.us.uncletopia.com","port":27015,"enabled":true,"region":"us-west","cc":"us","latitude":33.94279,"longitude":-118.41004,"reserved":0,"last_update":"0001-01-01T00:00:00Z","name_a2s":"Uncletopia | Los Angeles | 1 | All Maps","protocol":17,"map":"cp_dustbowl","folder":"tf","game":"Team Fortress","app_id":440,"player_count":24,"max_players":24,"Bots":0,"server_type":"Dedicated","server_os":"Linux","password":true,"vac":true,"version":"7757534","steam_id":85568392924469991,"keywords":["cp","nocrits","nodmgspread","uncletopia"],"game_id":440,"stv_port":27016,"stv_name":"Uncletopia | Los Angeles | 1 | All Maps | STV","players":[{"user_id":99,"name":"Charlemagnne","steam_id":76561197970300552,"connected_time":7547000000000,"state":"active","ping":120},{"user_id":131,"name":"Dani","steam_id":76561198348012378,"connected_time":4569000000000,"state":"active","ping":130},{"user_id":168,"name":"jawbub07","steam_id":76561199153097430,"connected_time":1371000000000,"state":"active","ping":135},{"user_id":151,"name":"Wulf","steam_id":76561198006072568,"connected_time":2464000000000,"state":"active","ping":85},{"user_id":157,"name":"Link_Starr","steam_id":76561198133884015,"connected_time":1643000000000,"state":"active","ping":55},{"user_id":100,"name":"that wasnt funny pal","steam_id":76561198837926595,"connected_time":7519000000000,"state":"active","ping":147},{"user_id":173,"name":"drooling rainbow","steam_id":76561198384252342,"connected_time":747000000000,"state":"active","ping":74},{"user_id":147,"name":"DDayFilms","steam_id":76561198352986491,"connected_time":3046000000000,"state":"active","ping":129},{"user_id":106,"name":"LazyDoll","steam_id":76561198053186338,"connected_time":7244000000000,"state":"active","ping":46},{"user_id":169,"name":"Crunchy","steam_id":76561198240523882,"connected_time":1304000000000,"state":"active","ping":48},{"user_id":107,"name":"`o2","steam_id":76561197992030936,"connected_time":7114000000000,"state":"active","ping":105},{"user_id":150,"name":"jayzak24","steam_id":76561198354267509,"connected_time":2470000000000,"state":"active","ping":57},{"user_id":162,"name":"bobletoob","steam_id":76561199184464900,"connected_time":1574000000000,"state":"active","ping":57},{"user_id":171,"name":"lard","steam_id":76561198327199795,"connected_time":1188000000000,"state":"active","ping":95},{"user_id":146,"name":"Shamrock Shake Oct.10.2020 @8pm","steam_id":76561198833313201,"connected_time":3589000000000,"state":"active","ping":75},{"user_id":177,"name":"GLXy","steam_id":76561198207551544,"connected_time":55000000000,"state":"active","ping":98},{"user_id":176,"name":"TeCon","steam_id":76561198049127236,"connected_time":72000000000,"state":"active","ping":60},{"user_id":103,"name":"miamijaaz","steam_id":76561197970269088,"connected_time":7495000000000,"state":"active","ping":116},{"user_id":175,"name":"littengamer1112","steam_id":76561198992690060,"connected_time":611000000000,"state":"active","ping":70},{"user_id":174,"name":"Lots0","steam_id":76561198043143145,"connected_time":744000000000,"state":"active","ping":95},{"user_id":126,"name":"Dreamzapp","steam_id":76561199084936632,"connected_time":5634000000000,"state":"active","ping":63},{"user_id":164,"name":"lucaslane610","steam_id":76561198997885052,"connected_time":1557000000000,"state":"active","ping":112},{"user_id":155,"name":"Thunder","steam_id":76561198097721532,"connected_time":1739000000000,"state":"active","ping":45},{"user_id":172,"name":"oomper","steam_id":76561199189982701,"connected_time":909000000000,"state":"active","ping":115}]},{"server_id":112,"name":"Uncletopia | Los Angeles | 2 | All Maps","name_short":"lax-2","host":"lax-1.us.uncletopia.com","port":27025,"enabled":true,"region":"us-west","cc":"us","latitude":33.94279,"longitude":-118.41004,"reserved":0,"last_update":"0001-01-01T00:00:00Z","name_a2s":"Uncletopia | Los Angeles | 2 | All Maps","protocol":17,"map":"pl_borneo","folder":"tf","game":"Team Fortress","app_id":440,"player_count":24,"max_players":24,"Bots":0,"server_type":"Dedicated","server_os":"Linux","password":true,"vac":true,"version":"7757534","steam_id":85568392924469992,"keywords":["nocrits","nodmgspread","payload","uncletopia"],"game_id":440,"stv_port":27026,"stv_name":"Uncletopia | Los Angeles | 2 | All Maps | STV","players":[{"user_id":346,"name":"MEEPking","steam_id":76561198277668880,"connected_time":914000000000,"state":"active","ping":62},{"user_id":102,"name":"MeLikePyroFatJUGS","steam_id":76561199445629071,"connected_time":20426000000000,"state":"active","ping":105},{"user_id":340,"name":"minerkid2004","steam_id":76561198044262827,"connected_time":1605000000000,"state":"active","ping":63},{"user_id":324,"name":"i wish i were a bird","steam_id":76561199224976982,"connected_time":3054000000000,"state":"active","ping":96},{"user_id":334,"name":"Genius Meme","steam_id":76561198162911254,"connected_time":1779000000000,"state":"active","ping":71},{"user_id":335,"name":"NGsterson","steam_id":76561198162108154,"connected_time":1718000000000,"state":"active","ping":86},{"user_id":347,"name":"Communist Killing Candy Cactus\ufffd","steam_id":76561198074980635,"connected_time":834000000000,"state":"active","ping":69},{"user_id":341,"name":"madi's sexy and crunchy pickle\ufffd","steam_id":76561198361917585,"connected_time":1491000000000,"state":"active","ping":56},{"user_id":352,"name":"AnonymousCritter","steam_id":76561198864475187,"connected_time":497000000000,"state":"active","ping":100},{"user_id":313,"name":"harmless_nerd","steam_id":76561199470510373,"connected_time":4252000000000,"state":"active","ping":119},{"user_id":332,"name":"KissMyAxe","steam_id":76561199202589902,"connected_time":2203000000000,"state":"active","ping":78},{"user_id":351,"name":"Firedust19","steam_id":76561198153238631,"connected_time":512000000000,"state":"active","ping":65},{"user_id":349,"name":"cardboardbox","steam_id":76561197991694844,"connected_time":809000000000,"state":"active","ping":76},{"user_id":321,"name":"Sammy!","steam_id":76561198184171743,"connected_time":3476000000000,"state":"active","ping":63},{"user_id":271,"name":"skips","steam_id":76561198105075752,"connected_time":7928000000000,"state":"active","ping":71},{"user_id":356,"name":"weedmaster","steam_id":76561199012869095,"connected_time":42000000000,"state":"spawning","ping":110},{"user_id":342,"name":"LogicalFurret","steam_id":76561198350604657,"connected_time":1472000000000,"state":"active","ping":74},{"user_id":319,"name":"Mageminx","steam_id":76561198165182749,"connected_time":3600000000000,"state":"active","ping":51},{"user_id":355,"name":"Sir_Cheddar","steam_id":76561198132354554,"connected_time":97000000000,"state":"active","ping":56},{"user_id":339,"name":"Natalie (she/her)","steam_id":76561198048848289,"connected_time":1644000000000,"state":"active","ping":59},{"user_id":343,"name":"will’s extra large baguette\ufffd\ufffd","steam_id":76561199095395177,"connected_time":1454000000000,"state":"active","ping":102},{"user_id":350,"name":"boopis","steam_id":76561198343502610,"connected_time":633000000000,"state":"active","ping":57},{"user_id":261,"name":"brucking","steam_id":76561198348213337,"connected_time":9296000000000,"state":"active","ping":68},{"user_id":354,"name":"Timewaves","steam_id":76561198000186054,"connected_time":111000000000,"state":"active","ping":46}]},{"server_id":324,"name":"Uncletopia | Los Angeles | 3 | All Maps","name_short":"lax-3","host":"lax-1.us.uncletopia.com","port":27035,"enabled":true,"region":"us-west","cc":"us","latitude":33.94279,"longitude":-118.41004,"reserved":0,"last_update":"0001-01-01T00:00:00Z","name_a2s":"Uncletopia | Los Angeles | 3 | All Maps","protocol":17,"map":"pl_swiftwater_final1","folder":"tf","game":"Team Fortress","app_id":440,"player_count":24,"max_players":24,"Bots":0,"server_type":"Dedicated","server_os":"Linux","password":true,"vac":true,"version":"7757534","steam_id":85568392924510198,"keywords":["nocrits","nodmgspread","payload","uncletopia"],"game_id":440,"stv_port":27036,"stv_name":"Uncletopia | Los Angeles | 3 | All Maps | STV","players":[{"user_id":61,"name":"Donkski","steam_id":76561198406895347,"connected_time":6064000000000,"state":"active","ping":84},{"user_id":85,"name":"Young Brendan Fraser","steam_id":76561198036728212,"connected_time":3612000000000,"state":"active","ping":43},{"user_id":105,"name":"mcstabby492","steam_id":76561198301041074,"connected_time":2395000000000,"state":"active","ping":61},{"user_id":134,"name":"Ellis","steam_id":76561198993634489,"connected_time":711000000000,"state":"active","ping":55},{"user_id":122,"name":"Milkius","steam_id":76561198401392472,"connected_time":1123000000000,"state":"active","ping":121},{"user_id":135,"name":"Chaos Druid","steam_id":76561198101098606,"connected_time":707000000000,"state":"active","ping":56},{"user_id":114,"name":"beblonski","steam_id":76561198067053408,"connected_time":1420000000000,"state":"active","ping":49},{"user_id":108,"name":"The Assistant Regional Manager","steam_id":76561199221484936,"connected_time":2331000000000,"state":"active","ping":65},{"user_id":136,"name":"hideyochest","steam_id":76561198090366059,"connected_time":697000000000,"state":"active","ping":72},{"user_id":116,"name":"t4m4gucci","steam_id":76561198295218399,"connected_time":1363000000000,"state":"active","ping":71},{"user_id":121,"name":"vanillain","steam_id":76561198058617608,"connected_time":1136000000000,"state":"active","ping":78},{"user_id":123,"name":"Misdoubtful","steam_id":76561198035409499,"connected_time":1098000000000,"state":"active","ping":123},{"user_id":133,"name":"TDR","steam_id":76561198093243434,"connected_time":865000000000,"state":"active","ping":116},{"user_id":124,"name":"Renota","steam_id":76561198058224488,"connected_time":1086000000000,"state":"active","ping":118},{"user_id":132,"name":"Spybusters","steam_id":76561198951505681,"connected_time":941000000000,"state":"active","ping":59},{"user_id":104,"name":"bladees saddest, realest verse","steam_id":76561198098099826,"connected_time":2490000000000,"state":"active","ping":49},{"user_id":126,"name":"Jasmine Rice","steam_id":76561198163163590,"connected_time":1065000000000,"state":"active","ping":81},{"user_id":131,"name":"Grandpa 1MinecraftEmpire","steam_id":76561198069046338,"connected_time":969000000000,"state":"active","ping":76},{"user_id":107,"name":"Penguinammo","steam_id":76561198165774711,"connected_time":2360000000000,"state":"active","ping":103},{"user_id":137,"name":"MonkeyNobody","steam_id":76561199451266605,"connected_time":636000000000,"state":"active","ping":54},{"user_id":141,"name":"McSpazatron","steam_id":76561198955942148,"connected_time":422000000000,"state":"active","ping":139},{"user_id":129,"name":"surrender to the void","steam_id":76561198055494039,"connected_time":1023000000000,"state":"active","ping":117},{"user_id":130,"name":"Weerk","steam_id":76561199209543551,"connected_time":1020000000000,"state":"active","ping":122},{"user_id":139,"name":"korkskrou","steam_id":76561198422156430,"connected_time":611000000000,"state":"active","ping":76}]},{"server_id":25,"name":"Uncletopia | Los Angeles | 4 | Stopwatch Beta","name_short":"lax-4","host":"lax-1.us.uncletopia.com","port":27045,"enabled":true,"region":"us-west","cc":"us","latitude":33.94279,"longitude":-118.41004,"reserved":0,"last_update":"0001-01-01T00:00:00Z","name_a2s":"Uncletopia | Los Angeles | 4 | Stopwatch Beta","protocol":17,"map":"workshop/pl_barnblitz_pro7.ugc582280235","folder":"tf","game":"Team Fortress","app_id":440,"player_count":0,"max_players":24,"Bots":0,"server_type":"Dedicated","server_os":"Linux","password":true,"vac":true,"version":"7757534","steam_id":85568392924510199,"keywords":["nocrits","nodmgspread","payload","uncletopia"],"game_id":440,"stv_port":27046,"stv_name":"Uncletopia | Los Angeles | 4 | Stopwatch Beta | STV","players":null},{"server_id":11,"name":"Uncletopia | London | 1 | All Maps","name_short":"lon-1","host":"lon-1.uk.uncletopia.com","port":27015,"enabled":true,"region":"eu","cc":"gb","latitude":51.509865,"longitude":-0.118092,"reserved":0,"last_update":"0001-01-01T00:00:00Z","name_a2s":"Uncletopia | London | 1 | All Maps","protocol":17,"map":"pl_pier","folder":"tf","game":"Team Fortress","app_id":440,"player_count":0,"max_players":24,"Bots":0,"server_type":"Dedicated","server_os":"Linux","password":true,"vac":true,"version":"7757534","steam_id":85568392924367362,"keywords":["nocrits","nodmgspread","payload","uncletopia"],"game_id":440,"stv_port":27016,"stv_name":"Uncletopia | London | 1 | All Maps | STV","players":null},{"server_id":114,"name":"Uncletopia | London | 2 | All Maps","name_short":"lon-2","host":"lon-1.uk.uncletopia.com","port":27025,"enabled":true,"region":"eu","cc":"gb","latitude":51.509865,"longitude":-0.118092,"reserved":0,"last_update":"0001-01-01T00:00:00Z","name_a2s":"Uncletopia | London | 2 | All Maps","protocol":17,"map":"koth_cascade","folder":"tf","game":"Team Fortress","app_id":440,"player_count":0,"max_players":24,"Bots":0,"server_type":"Dedicated","server_os":"Linux","password":true,"vac":true,"version":"7757534","steam_id":85568392924470941,"keywords":["cp","nocrits","nodmgspread","uncletopia"],"game_id":440,"stv_port":27026,"stv_name":"Uncletopia | London | 2 | All Maps | STV","players":null},{"server_id":320,"name":"Uncletopia | London | 3 | All Maps","name_short":"lon-3","host":"lon-1.uk.uncletopia.com","port":27035,"enabled":true,"region":"eu","cc":"gb","latitude":51.509865,"longitude":-0.118092,"reserved":0,"last_update":"0001-01-01T00:00:00Z","name_a2s":"Uncletopia | London | 3 | All Maps","protocol":17,"map":"pl_borneo","folder":"tf","game":"Team Fortress","app_id":440,"player_count":0,"max_players":24,"Bots":0,"server_type":"Dedicated","server_os":"Linux","password":true,"vac":true,"version":"7757534","steam_id":85568392924510192,"keywords":["nocrits","nodmgspread","payload","uncletopia"],"game_id":440,"stv_port":27036,"stv_name":"Uncletopia | London | 3 | All Maps | STV","players":null},{"server_id":321,"name":"Uncletopia | London | 4 | All Maps","name_short":"lon-4","host":"lon-1.uk.uncletopia.com","port":27045,"enabled":true,"region":"eu","cc":"gb","latitude":51.509865,"longitude":-0.118092,"reserved":0,"last_update":"0001-01-01T00:00:00Z","name_a2s":"Uncletopia | London | 4 | All Maps","protocol":17,"map":"pl_snowycoast","folder":"tf","game":"Team Fortress","app_id":440,"player_count":0,"max_players":24,"Bots":0,"server_type":"Dedicated","server_os":"Linux","password":true,"vac":true,"version":"7757534","steam_id":85568392924510193,"keywords":["nocrits","nodmgspread","payload","uncletopia"],"game_id":440,"stv_port":27046,"stv_name":"Uncletopia | London | 4 | All Maps | STV","players":null},{"server_id":21,"name":"Uncletopia | London | 5 | All Maps","name_short":"lon-5","host":"lon-1.uk.uncletopia.com","port":27055,"enabled":true,"region":"eu","cc":"gb","latitude":51.509865,"longitude":-0.118092,"reserved":0,"last_update":"0001-01-01T00:00:00Z","name_a2s":"Uncletopia | London | 5 | All Maps","protocol":17,"map":"pl_upward","folder":"tf","game":"Team Fortress","app_id":440,"player_count":0,"max_players":24,"Bots":0,"server_type":"Dedicated","server_os":"Linux","password":true,"vac":true,"version":"7757534","steam_id":85568392924742829,"keywords":["nocrits","nodmgspread","payload","uncletopia"],"game_id":440,"stv_port":27056,"stv_name":"Uncletopia | London | 5 | All Maps | STV","players":null},{"server_id":22,"name":"Uncletopia | London | 6 | All Maps","name_short":"lon-6","host":"lon-1.uk.uncletopia.com","port":27065,"enabled":true,"region":"eu","cc":"gb","latitude":51.509865,"longitude":-0.118092,"reserved":0,"last_update":"0001-01-01T00:00:00Z","name_a2s":"Uncletopia | London | 6 | All Maps","protocol":17,"map":"koth_lakeside_final","folder":"tf","game":"Team Fortress","app_id":440,"player_count":0,"max_players":24,"Bots":0,"server_type":"Dedicated","server_os":"Linux","password":true,"vac":true,"version":"7757534","steam_id":85568392924742830,"keywords":["cp","nocrits","nodmgspread","uncletopia"],"game_id":440,"stv_port":27066,"stv_name":"Uncletopia | London | 6 | All Maps | STV","players":null},{"server_id":40,"name":"Uncletopia | London | 7 | No Payload","name_short":"lon-7","host":"lon-1.uk.uncletopia.com","port":27075,"enabled":true,"region":"eu","cc":"gb","latitude":51.509865,"longitude":-0.118092,"reserved":0,"last_update":"0001-01-01T00:00:00Z","name_a2s":"Uncletopia | London | 7 | No Payload","protocol":17,"map":"cp_steel","folder":"tf","game":"Team Fortress","app_id":440,"player_count":0,"max_players":24,"Bots":0,"server_type":"Dedicated","server_os":"Linux","password":true,"vac":true,"version":"7757534","steam_id":85568392924964314,"keywords":["cp","nocrits","nodmgspread","uncletopia"],"game_id":440,"stv_port":27076,"stv_name":"Uncletopia | London | 7 | No Payload | STV","players":null},{"server_id":41,"name":"Uncletopia | London | 8 | Community","name_short":"lon-8","host":"lon-1.uk.uncletopia.com","port":27085,"enabled":true,"region":"eu","cc":"gb","latitude":51.509865,"longitude":-0.118092,"reserved":0,"last_update":"0001-01-01T00:00:00Z","name_a2s":"Uncletopia | London | 8 | Community","protocol":17,"map":"workshop/cp_villa_b19.ugc2113052569","folder":"tf","game":"Team Fortress","app_id":440,"player_count":1,"max_players":24,"Bots":0,"server_type":"Dedicated","server_os":"Linux","password":true,"vac":true,"version":"7757534","steam_id":85568392924964315,"keywords":["cp","nocrits","nodmgspread","uncletopia"],"game_id":440,"stv_port":27086,"stv_name":"Uncletopia | London | 8 | Community | STV","players":[{"user_id":9,"name":"quarterlome000","steam_id":76561199229700757,"connected_time":2049000000000,"state":"active","ping":150}]},{"server_id":300,"name":"Uncletopia | Montréal | 1 | All Maps","name_short":"mtl-1","host":"mtl-1.ca.uncletopia.com","port":27015,"enabled":true,"region":"us-east","cc":"ca","latitude":45.50889,"longitude":-73.56167,"reserved":0,"last_update":"0001-01-01T00:00:00Z","name_a2s":"Uncletopia | Montréal | 1 | All Maps","protocol":17,"map":"koth_highpass","folder":"tf","game":"Team Fortress","app_id":440,"player_count":15,"max_players":24,"Bots":0,"server_type":"Dedicated","server_os":"Linux","password":true,"vac":true,"version":"7757534","steam_id":85568392924500087,"keywords":["cp","nocrits","nodmgspread","uncletopia"],"game_id":440,"stv_port":27016,"stv_name":"Uncletopia | Montréal | 1 | All Maps | STV","players":[{"user_id":36,"name":"Misha","steam_id":76561198066174041,"connected_time":1220000000000,"state":"active","ping":60},{"user_id":52,"name":"teaf","steam_id":76561198406252824,"connected_time":199000000000,"state":"active","ping":121},{"user_id":21,"name":"JACOB","steam_id":76561198211874895,"connected_time":2066000000000,"state":"active","ping":74},{"user_id":22,"name":"AudioMedic","steam_id":76561198333939032,"connected_time":2038000000000,"state":"active","ping":59},{"user_id":23,"name":"I EAT DRYWALL","steam_id":76561198370925029,"connected_time":2013000000000,"state":"active","ping":65},{"user_id":51,"name":"Fancy Bed","steam_id":76561198007172366,"connected_time":254000000000,"state":"active","ping":53},{"user_id":26,"name":"dailyspesh","steam_id":76561197988072369,"connected_time":1383000000000,"state":"active","ping":94},{"user_id":53,"name":"Post nut clarity","steam_id":76561198060246831,"connected_time":69000000000,"state":"active","ping":67},{"user_id":33,"name":"xxballfondlerxx","steam_id":76561197991546630,"connected_time":1297000000000,"state":"active","ping":71},{"user_id":34,"name":"Cassius Money","steam_id":76561197979696414,"connected_time":1273000000000,"state":"active","ping":74},{"user_id":35,"name":"Solarin","steam_id":76561198006483758,"connected_time":1270000000000,"state":"active","ping":69},{"user_id":38,"name":"Dusaro","steam_id":76561198022303683,"connected_time":1180000000000,"state":"active","ping":76},{"user_id":41,"name":"Marshmallow Supreme","steam_id":76561198057291909,"connected_time":1120000000000,"state":"active","ping":70},{"user_id":43,"name":"canid","steam_id":76561198103496593,"connected_time":1105000000000,"state":"active","ping":74},{"user_id":44,"name":"Shurazi","steam_id":76561198346646162,"connected_time":1084000000000,"state":"active","ping":69}]},{"server_id":301,"name":"Uncletopia | Montréal | 2 | All Maps","name_short":"mtl-2","host":"mtl-1.ca.uncletopia.com","port":27025,"enabled":true,"region":"us-east","cc":"ca","latitude":45.50889,"longitude":-73.56167,"reserved":0,"last_update":"0001-01-01T00:00:00Z","name_a2s":"Uncletopia | Montréal | 2 | All Maps","protocol":17,"map":"cp_process_final","folder":"tf","game":"Team Fortress","app_id":440,"player_count":0,"max_players":24,"Bots":0,"server_type":"Dedicated","server_os":"Linux","password":true,"vac":true,"version":"7757534","steam_id":85568392924500088,"keywords":["cp","nocrits","nodmgspread","uncletopia"],"game_id":440,"stv_port":27026,"stv_name":"Uncletopia | Montréal | 2 | All Maps | STV","players":null},{"server_id":302,"name":"Uncletopia | Montréal | 3 | All Maps","name_short":"mtl-3","host":"mtl-1.ca.uncletopia.com","port":27035,"enabled":true,"region":"us-east","cc":"ca","latitude":45.50889,"longitude":-73.56167,"reserved":0,"last_update":"0001-01-01T00:00:00Z","name_a2s":"Uncletopia | Montréal | 3 | All Maps","protocol":17,"map":"pl_swiftwater_final1","folder":"tf","game":"Team Fortress","app_id":440,"player_count":0,"max_players":24,"Bots":0,"server_type":"Dedicated","server_os":"Linux","password":true,"vac":true,"version":"7757534","steam_id":85568392924500089,"keywords":["nocrits","nodmgspread","payload","uncletopia"],"game_id":440,"stv_port":27036,"stv_name":"Uncletopia | Montréal | 3 | All Maps | STV","players":null},{"server_id":303,"name":"Uncletopia | Montréal | 4 | No Payload","name_short":"mtl-4","host":"mtl-1.ca.uncletopia.com","port":27045,"enabled":true,"region":"us-east","cc":"ca","latitude":45.50889,"longitude":-73.56167,"reserved":0,"last_update":"0001-01-01T00:00:00Z","name_a2s":"Uncletopia | Montréal | 4 | No Payload","protocol":17,"map":"koth_harvest_final","folder":"tf","game":"Team Fortress","app_id":440,"player_count":0,"max_players":24,"Bots":0,"server_type":"Dedicated","server_os":"Linux","password":true,"vac":true,"version":"7757534","steam_id":85568392924500090,"keywords":["cp","nocrits","nodmgspread","uncletopia"],"game_id":440,"stv_port":27046,"stv_name":"Uncletopia | Montréal | 4 | No Payload | STV","players":null},{"server_id":13,"name":"Uncletopia | New York City | 1 | All Maps","name_short":"nyc-1","host":"nyc-1.us.uncletopia.com","port":27015,"enabled":true,"region":"us-east","cc":"us","latitude":40.73061,"longitude":-73.93524,"reserved":0,"last_update":"0001-01-01T00:00:00Z","name_a2s":"Uncletopia | New York City | 1 | All Maps","protocol":17,"map":"koth_harvest_final","folder":"tf","game":"Team Fortress","app_id":440,"player_count":24,"max_players":24,"Bots":0,"server_type":"Dedicated","server_os":"Linux","password":true,"vac":true,"version":"7757534","steam_id":85568392924469993,"keywords":["cp","nocrits","nodmgspread","uncletopia"],"game_id":440,"stv_port":27016,"stv_name":"Uncletopia | New York City | 1 | All Maps | STV","players":[{"user_id":510,"name":"Mochi","steam_id":76561199151314140,"connected_time":14135000000000,"state":"active","ping":36},{"user_id":691,"name":"TONE","steam_id":76561198043898471,"connected_time":74000000000,"state":"active","ping":59},{"user_id":663,"name":"69 odd goat","steam_id":76561198116908911,"connected_time":2116000000000,"state":"active","ping":55},{"user_id":645,"name":"Biggles","steam_id":76561198126576389,"connected_time":3613000000000,"state":"active","ping":56},{"user_id":662,"name":"Horrizan","steam_id":76561197965028480,"connected_time":2510000000000,"state":"active","ping":87},{"user_id":682,"name":"Daily Effort Bird","steam_id":76561199105061371,"connected_time":925000000000,"state":"active","ping":100},{"user_id":689,"name":"Thunderous","steam_id":76561198192752793,"connected_time":372000000000,"state":"active","ping":52},{"user_id":659,"name":"Mario","steam_id":76561198321794277,"connected_time":2831000000000,"state":"active","ping":71},{"user_id":667,"name":"Raine","steam_id":76561198098860903,"connected_time":1684000000000,"state":"active","ping":131},{"user_id":614,"name":"bojack from the show bojack hor","steam_id":76561198053006712,"connected_time":6292000000000,"state":"active","ping":44},{"user_id":687,"name":"Scroobles","steam_id":76561199197646696,"connected_time":654000000000,"state":"active","ping":77},{"user_id":668,"name":"Periculosum PhD in Funny","steam_id":76561198123370914,"connected_time":1653000000000,"state":"active","ping":85},{"user_id":685,"name":"Jayy","steam_id":76561198073428094,"connected_time":823000000000,"state":"active","ping":64},{"user_id":655,"name":"lwyr","steam_id":76561198007982579,"connected_time":3161000000000,"state":"active","ping":45},{"user_id":650,"name":"Penis Scout 2","steam_id":76561198801467075,"connected_time":3477000000000,"state":"active","ping":96},{"user_id":656,"name":"K","steam_id":76561198233616048,"connected_time":3149000000000,"state":"active","ping":126},{"user_id":690,"name":"BasicPeaches","steam_id":76561198190890150,"connected_time":365000000000,"state":"active","ping":63},{"user_id":676,"name":"Griffin","steam_id":76561198159339442,"connected_time":1396000000000,"state":"active","ping":79},{"user_id":657,"name":"Take the L","steam_id":76561198379223875,"connected_time":3005000000000,"state":"active","ping":84},{"user_id":681,"name":"Vivid Hut 64","steam_id":76561198170050059,"connected_time":1168000000000,"state":"active","ping":61},{"user_id":686,"name":"della","steam_id":76561198118877005,"connected_time":697000000000,"state":"active","ping":60},{"user_id":679,"name":"Alteraxia","steam_id":76561198213333961,"connected_time":1282000000000,"state":"active","ping":105},{"user_id":654,"name":"Suck Her Dick Sunday","steam_id":76561198029274581,"connected_time":3216000000000,"state":"active","ping":72},{"user_id":692,"name":"Rain","steam_id":76561198022607401,"connected_time":14000000000,"state":"active","ping":91}]},{"server_id":14,"name":"Uncletopia | New York City | 2 | All Maps","name_short":"nyc-2","host":"nyc-1.us.uncletopia.com","port":27025,"enabled":true,"region":"us-east","cc":"us","latitude":40.73061,"longitude":-73.93524,"reserved":0,"last_update":"0001-01-01T00:00:00Z","name_a2s":"Uncletopia | New York City | 2 | All Maps","protocol":17,"map":"cp_mountainlab","folder":"tf","game":"Team Fortress","app_id":440,"player_count":22,"max_players":24,"Bots":0,"server_type":"Dedicated","server_os":"Linux","password":true,"vac":true,"version":"7757534","steam_id":85568392924469994,"keywords":["cp","nocrits","nodmgspread","uncletopia"],"game_id":440,"stv_port":27026,"stv_name":"Uncletopia | New York City | 2 | All Maps | STV","players":[{"user_id":414,"name":"Bip","steam_id":76561199022962204,"connected_time":262000000000,"state":"active","ping":81},{"user_id":424,"name":"glunko","steam_id":76561198355276930,"connected_time":146000000000,"state":"active","ping":67},{"user_id":416,"name":"CivilWarMike","steam_id":76561198141188839,"connected_time":248000000000,"state":"active","ping":71},{"user_id":361,"name":"Ferguson","steam_id":76561198121349387,"connected_time":6032000000000,"state":"active","ping":78},{"user_id":417,"name":"Amy Roxwell","steam_id":76561198303391830,"connected_time":246000000000,"state":"active","ping":128},{"user_id":405,"name":"the pest","steam_id":76561198826298849,"connected_time":1204000000000,"state":"active","ping":87},{"user_id":415,"name":"averagesoldiermain","steam_id":76561198158447466,"connected_time":259000000000,"state":"active","ping":82},{"user_id":401,"name":"Lin","steam_id":76561198143746480,"connected_time":1602000000000,"state":"active","ping":130},{"user_id":412,"name":"corncakecoolcat","steam_id":76561198090716968,"connected_time":488000000000,"state":"active","ping":51},{"user_id":418,"name":"john trevolta","steam_id":76561197998867160,"connected_time":226000000000,"state":"active","ping":57},{"user_id":419,"name":"The Potato Romancer","steam_id":76561198204197648,"connected_time":226000000000,"state":"active","ping":111},{"user_id":420,"name":"Fiendish Frog","steam_id":76561198029478821,"connected_time":226000000000,"state":"active","ping":58},{"user_id":421,"name":"Esteban Delsin","steam_id":76561198433519639,"connected_time":219000000000,"state":"active","ping":123},{"user_id":423,"name":"BerzerktCPU","steam_id":76561198212792340,"connected_time":193000000000,"state":"active","ping":81},{"user_id":422,"name":"Devoid","steam_id":76561198254039012,"connected_time":213000000000,"state":"active","ping":33},{"user_id":425,"name":"PlanktonTheWayICumBuckets","steam_id":76561198074678273,"connected_time":132000000000,"state":"active","ping":38},{"user_id":428,"name":"Braamklauw","steam_id":76561198283287697,"connected_time":91000000000,"state":"active","ping":149},{"user_id":426,"name":"n00dl3s","steam_id":76561197964492868,"connected_time":115000000000,"state":"active","ping":45},{"user_id":427,"name":"Dandy Bengal","steam_id":76561198156498290,"connected_time":105000000000,"state":"active","ping":286},{"user_id":408,"name":"tripbwai","steam_id":76561198109904512,"connected_time":662000000000,"state":"active","ping":44},{"user_id":429,"name":"beerinabox","steam_id":76561198070614450,"connected_time":68000000000,"state":"active","ping":75},{"user_id":430,"name":"HanakoToast","steam_id":76561198045233131,"connected_time":35000000000,"state":"active","ping":127}]},{"server_id":15,"name":"Uncletopia | New York City | 3 | Stopwatch Beta","name_short":"nyc-3","host":"nyc-1.us.uncletopia.com","port":27035,"enabled":true,"region":"us-east","cc":"us","latitude":40.73061,"longitude":-73.93524,"reserved":0,"last_update":"0001-01-01T00:00:00Z","name_a2s":"Uncletopia | New York City | 3 | Stopwatch Beta","protocol":17,"map":"workshop/koth_bagel_rc6.ugc2514036946","folder":"tf","game":"Team Fortress","app_id":440,"player_count":24,"max_players":24,"Bots":0,"server_type":"Dedicated","server_os":"Linux","password":true,"vac":true,"version":"7757534","steam_id":85568392924742820,"keywords":["cp","nocrits","nodmgspread","uncletopia"],"game_id":440,"stv_port":27036,"stv_name":"Uncletopia | New York City | 3 | Stopwatch Beta | STV","players":[{"user_id":141,"name":"Dog Goggles","steam_id":76561197995233692,"connected_time":2704000000000,"state":"active","ping":64},{"user_id":169,"name":"wafflehamster2000","steam_id":76561198849161820,"connected_time":772000000000,"state":"active","ping":91},{"user_id":172,"name":"Cookie","steam_id":76561198047736899,"connected_time":474000000000,"state":"active","ping":39},{"user_id":140,"name":"7.up™","steam_id":76561198072428081,"connected_time":2764000000000,"state":"active","ping":91},{"user_id":170,"name":"hehehehehe","steam_id":76561198909415646,"connected_time":735000000000,"state":"active","ping":104},{"user_id":161,"name":"phanton","steam_id":76561198320847207,"connected_time":1113000000000,"state":"active","ping":87},{"user_id":130,"name":"onsen episode","steam_id":76561197979960008,"connected_time":3204000000000,"state":"active","ping":46},{"user_id":150,"name":"Kensa Dynamo Roller","steam_id":76561198067317930,"connected_time":1942000000000,"state":"active","ping":60},{"user_id":173,"name":"noahjwarner09","steam_id":76561199444479988,"connected_time":435000000000,"state":"active","ping":88},{"user_id":149,"name":"ElephantInTheRoom","steam_id":76561198091991980,"connected_time":1983000000000,"state":"active","ping":63},{"user_id":129,"name":"pg13","steam_id":76561198313032934,"connected_time":3274000000000,"state":"active","ping":45},{"user_id":163,"name":"i forgor","steam_id":76561199120622265,"connected_time":977000000000,"state":"active","ping":98},{"user_id":157,"name":"Wendigo","steam_id":76561198031942404,"connected_time":1575000000000,"state":"active","ping":81},{"user_id":174,"name":"DAN DONGUS","steam_id":76561198374045865,"connected_time":421000000000,"state":"active","ping":67},{"user_id":165,"name":"(TTV) The_Astrum_Guardian","steam_id":76561198130134103,"connected_time":906000000000,"state":"active","ping":63},{"user_id":145,"name":"lost in spaaaaace","steam_id":76561199085974120,"connected_time":2365000000000,"state":"active","ping":66},{"user_id":152,"name":"Mr. Person Man","steam_id":76561198881966797,"connected_time":1938000000000,"state":"active","ping":136},{"user_id":148,"name":"MILK","steam_id":76561198040861810,"connected_time":2019000000000,"state":"active","ping":75},{"user_id":171,"name":"Grand Wizard King","steam_id":76561198099802660,"connected_time":573000000000,"state":"active","ping":62},{"user_id":167,"name":"Xpiredd","steam_id":76561198449525437,"connected_time":850000000000,"state":"active","ping":58},{"user_id":168,"name":"Bow_","steam_id":76561198109608134,"connected_time":838000000000,"state":"active","ping":70},{"user_id":178,"name":"Laura Palmer Gaming","steam_id":76561198282965733,"connected_time":38000000000,"state":"active","ping":51},{"user_id":179,"name":"Large Man","steam_id":76561198880396651,"connected_time":36000000000,"state":"active","ping":84},{"user_id":177,"name":"Bilgecrank","steam_id":76561197967191751,"connected_time":249000000000,"state":"active","ping":105}]},{"server_id":16,"name":"Uncletopia | New York City | 4 | Community","name_short":"nyc-4","host":"nyc-1.us.uncletopia.com","port":27045,"enabled":true,"region":"us-east","cc":"us","latitude":40.73061,"longitude":-73.93524,"reserved":0,"last_update":"0001-01-01T00:00:00Z","name_a2s":"Uncletopia | New York City | 4 | Community","protocol":17,"map":"workshop/pl_eruption_b9a.ugc2807898013","folder":"tf","game":"Team Fortress","app_id":440,"player_count":20,"max_players":24,"Bots":0,"server_type":"Dedicated","server_os":"Linux","password":true,"vac":true,"version":"7757534","steam_id":85568392924742821,"keywords":["nocrits","nodmgspread","payload","uncletopia"],"game_id":440,"stv_port":27046,"stv_name":"Uncletopia | New York City | 4 | Community | STV","players":[{"user_id":173,"name":"TheQwertyGuy","steam_id":76561198041646396,"connected_time":7978000000000,"state":"active","ping":67},{"user_id":171,"name":"Henry Ota-Clay","steam_id":76561198053232470,"connected_time":8059000000000,"state":"active","ping":71},{"user_id":243,"name":"garfield(she/they)","steam_id":76561198098293459,"connected_time":889000000000,"state":"active","ping":118},{"user_id":175,"name":"colorfree5117","steam_id":76561198325736063,"connected_time":7885000000000,"state":"active","ping":87},{"user_id":255,"name":"Bruna Marquezine","steam_id":76561199481303393,"connected_time":244000000000,"state":"active","ping":34},{"user_id":245,"name":"iamoctopii","steam_id":76561198876901076,"connected_time":766000000000,"state":"active","ping":139},{"user_id":256,"name":"wunkem","steam_id":76561198055948497,"connected_time":224000000000,"state":"active","ping":78},{"user_id":246,"name":"A man with no plan","steam_id":76561198031075099,"connected_time":729000000000,"state":"active","ping":108},{"user_id":248,"name":"gorf?","steam_id":76561198142286417,"connected_time":524000000000,"state":"active","ping":67},{"user_id":259,"name":"CatLike Pigeon","steam_id":76561198171716030,"connected_time":80000000000,"state":"active","ping":129},{"user_id":249,"name":"bob27","steam_id":76561198807658771,"connected_time":490000000000,"state":"active","ping":64},{"user_id":250,"name":"P@ul W@ll","steam_id":76561198267470325,"connected_time":435000000000,"state":"active","ping":56},{"user_id":251,"name":"Jitters","steam_id":76561198078898336,"connected_time":355000000000,"state":"active","ping":61},{"user_id":252,"name":"Hard Soap","steam_id":76561198267905614,"connected_time":322000000000,"state":"active","ping":76},{"user_id":253,"name":"Donovan","steam_id":76561198218558897,"connected_time":306000000000,"state":"active","ping":129},{"user_id":254,"name":"benito","steam_id":76561199098569869,"connected_time":280000000000,"state":"active","ping":55},{"user_id":257,"name":"I am a mooshroom","steam_id":76561198104198295,"connected_time":219000000000,"state":"active","ping":93},{"user_id":260,"name":"Fusion","steam_id":76561199161175949,"connected_time":77000000000,"state":"active","ping":77},{"user_id":222,"name":"The Final Terminus","steam_id":76561197964985183,"connected_time":3839000000000,"state":"active","ping":45},{"user_id":261,"name":"liamsanderson1337","steam_id":76561198834170971,"connected_time":44000000000,"state":"spawning","ping":128}]},{"server_id":142,"name":"Uncletopia | São Paulo | 1 | All Maps","name_short":"sao-1","host":"sao-1.br.uncletopia.com","port":27015,"enabled":true,"region":"sa","cc":"br","latitude":-23.533773,"longitude":-46.62529,"reserved":0,"last_update":"0001-01-01T00:00:00Z","name_a2s":"Uncletopia | São Paulo | 1 | All Maps","protocol":17,"map":"cp_dustbowl","folder":"tf","game":"Team Fortress","app_id":440,"player_count":2,"max_players":24,"Bots":0,"server_type":"Dedicated","server_os":"Linux","password":true,"vac":true,"version":"7757534","steam_id":85568392924469996,"keywords":["cp","nocrits","nodmgspread","uncletopia"],"game_id":440,"stv_port":27016,"stv_name":"Uncletopia | São Paulo | 1 | All Maps | STV","players":[{"user_id":27,"name":"migay (sim, \"migay\" de \"mickey\"","steam_id":76561199150151109,"connected_time":1625000000000,"state":"active","ping":66},{"user_id":28,"name":"Dasgnak","steam_id":76561198870122389,"connected_time":1520000000000,"state":"active","ping":61}]},{"server_id":143,"name":"Uncletopia | São Paulo | 2 | All Maps","name_short":"sao-2","host":"sao-2.br.uncletopia.com","port":27015,"enabled":true,"region":"sa","cc":"br","latitude":-23.533773,"longitude":-46.62529,"reserved":0,"last_update":"0001-01-01T00:00:00Z","name_a2s":"Uncletopia | São Paulo | 2 | All Maps","protocol":17,"map":"koth_viaduct","folder":"tf","game":"Team Fortress","app_id":440,"player_count":0,"max_players":24,"Bots":0,"server_type":"Dedicated","server_os":"Linux","password":true,"vac":true,"version":"7757534","steam_id":85568392924485349,"keywords":["cp","nocrits","nodmgspread","uncletopia"],"game_id":440,"stv_port":27016,"stv_name":"Uncletopia | São Paulo | 2 | All Maps | STV","players":null},{"server_id":7,"name":"Uncletopia | Seattle | 1 | All Maps","name_short":"sea-1","host":"sea-1.us.uncletopia.com","port":27015,"enabled":true,"region":"us-west","cc":"us","latitude":47.608013,"longitude":-122.33517,"reserved":0,"last_update":"0001-01-01T00:00:00Z","name_a2s":"Uncletopia | Seattle | 1 | All Maps","protocol":17,"map":"pl_badwater","folder":"tf","game":"Team Fortress","app_id":440,"player_count":24,"max_players":24,"Bots":0,"server_type":"Dedicated","server_os":"Linux","password":true,"vac":true,"version":"7757534","steam_id":85568392924469997,"keywords":["nocrits","nodmgspread","payload","uncletopia"],"game_id":440,"stv_port":27016,"stv_name":"Uncletopia | Seattle | 1 | All Maps | STV","players":[{"user_id":610,"name":"TROY","steam_id":76561197983852176,"connected_time":1173000000000,"state":"active","ping":75},{"user_id":616,"name":"Dimple #TF2Center","steam_id":76561198980324190,"connected_time":759000000000,"state":"active","ping":47},{"user_id":619,"name":"Themasterman75","steam_id":76561199385573293,"connected_time":466000000000,"state":"active","ping":71},{"user_id":620,"name":"spenca","steam_id":76561198025371154,"connected_time":265000000000,"state":"active","ping":75},{"user_id":614,"name":"Idontknow","steam_id":76561199207044048,"connected_time":878000000000,"state":"active","ping":45},{"user_id":606,"name":"MightFall","steam_id":76561198322369718,"connected_time":1592000000000,"state":"active","ping":73},{"user_id":593,"name":"wet animal","steam_id":76561198041983633,"connected_time":2789000000000,"state":"active","ping":45},{"user_id":594,"name":"MegumiTame","steam_id":76561198450280686,"connected_time":2595000000000,"state":"active","ping":53},{"user_id":617,"name":"Finic Fox","steam_id":76561198154785984,"connected_time":638000000000,"state":"active","ping":57},{"user_id":618,"name":"Lambchop","steam_id":76561198043900363,"connected_time":538000000000,"state":"active","ping":75},{"user_id":584,"name":"Saikyo","steam_id":76561198212461467,"connected_time":3688000000000,"state":"active","ping":116},{"user_id":580,"name":"Hassium","steam_id":76561198162541373,"connected_time":3707000000000,"state":"active","ping":59},{"user_id":609,"name":"blizz","steam_id":76561199139715539,"connected_time":1192000000000,"state":"active","ping":71},{"user_id":595,"name":"PerKnuckleChuckle","steam_id":76561198023221596,"connected_time":2522000000000,"state":"active","ping":84},{"user_id":612,"name":"ORANGE","steam_id":76561198000401769,"connected_time":935000000000,"state":"active","ping":46},{"user_id":591,"name":"Thordude","steam_id":76561199087162916,"connected_time":3202000000000,"state":"active","ping":55},{"user_id":605,"name":"Putin","steam_id":76561198973925241,"connected_time":1661000000000,"state":"active","ping":57},{"user_id":613,"name":"JohnnyBoi","steam_id":76561199082599937,"connected_time":923000000000,"state":"active","ping":79},{"user_id":603,"name":"[DATS➡] Sugar Meowth","steam_id":76561197995251793,"connected_time":1970000000000,"state":"active","ping":45},{"user_id":545,"name":"Username","steam_id":76561198855586261,"connected_time":6685000000000,"state":"active","ping":68},{"user_id":592,"name":"Tungsten","steam_id":76561198312854342,"connected_time":2948000000000,"state":"active","ping":65},{"user_id":532,"name":"lili ezili","steam_id":76561199391478575,"connected_time":9015000000000,"state":"active","ping":78},{"user_id":608,"name":"jartus","steam_id":76561198046748687,"connected_time":1390000000000,"state":"active","ping":58},{"user_id":573,"name":"dust | she/it","steam_id":76561198045218909,"connected_time":4756000000000,"state":"active","ping":42}]},{"server_id":119,"name":"Uncletopia | Seattle | 2 | All Maps","name_short":"sea-2","host":"sea-1.us.uncletopia.com","port":27025,"enabled":true,"region":"us-west","cc":"us","latitude":47.608013,"longitude":-122.33517,"reserved":0,"last_update":"0001-01-01T00:00:00Z","name_a2s":"Uncletopia | Seattle | 2 | All Maps","protocol":17,"map":"pl_snowycoast","folder":"tf","game":"Team Fortress","app_id":440,"player_count":24,"max_players":24,"Bots":0,"server_type":"Dedicated","server_os":"Linux","password":true,"vac":true,"version":"7757534","steam_id":85568392924469998,"keywords":["nocrits","nodmgspread","payload","uncletopia"],"game_id":440,"stv_port":27026,"stv_name":"Uncletopia | Seattle | 2 | All Maps | STV","players":[{"user_id":427,"name":"hhenryalex","steam_id":76561198337871284,"connected_time":2399000000000,"state":"active","ping":52},{"user_id":440,"name":"A kid named finger","steam_id":76561198323933077,"connected_time":666000000000,"state":"active","ping":105},{"user_id":423,"name":"Big Jon","steam_id":76561198402285099,"connected_time":2745000000000,"state":"active","ping":76},{"user_id":441,"name":"totally not a pile of beans","steam_id":76561198119851931,"connected_time":652000000000,"state":"active","ping":141},{"user_id":442,"name":"Fargo","steam_id":76561198044703931,"connected_time":650000000000,"state":"active","ping":80},{"user_id":436,"name":"todd","steam_id":76561198096671524,"connected_time":1614000000000,"state":"active","ping":69},{"user_id":443,"name":"Major_Pippy","steam_id":76561198004482878,"connected_time":614000000000,"state":"active","ping":55},{"user_id":407,"name":"PastelRobot","steam_id":76561198048913924,"connected_time":3329000000000,"state":"active","ping":48},{"user_id":429,"name":"Tibetan Pop Star","steam_id":76561198844903984,"connected_time":2247000000000,"state":"active","ping":85},{"user_id":444,"name":"mooney","steam_id":76561199110622484,"connected_time":606000000000,"state":"active","ping":59},{"user_id":434,"name":"The local hobo","steam_id":76561198289650060,"connected_time":1936000000000,"state":"active","ping":73},{"user_id":404,"name":"Re-Crix","steam_id":76561198351895601,"connected_time":3909000000000,"state":"active","ping":86},{"user_id":424,"name":"Cloudylive","steam_id":76561198870456040,"connected_time":2565000000000,"state":"active","ping":50},{"user_id":425,"name":"Munklock","steam_id":76561198337999604,"connected_time":2519000000000,"state":"active","ping":101},{"user_id":449,"name":"Keamy","steam_id":76561199471434875,"connected_time":194000000000,"state":"active","ping":40},{"user_id":414,"name":"Orenji","steam_id":76561199229204857,"connected_time":3185000000000,"state":"active","ping":182},{"user_id":384,"name":"NickoDeeBz","steam_id":76561198294657867,"connected_time":6024000000000,"state":"active","ping":89},{"user_id":435,"name":"Snippykeegan","steam_id":76561198274529343,"connected_time":1781000000000,"state":"active","ping":82},{"user_id":385,"name":"Alex :D","steam_id":76561198088131563,"connected_time":5796000000000,"state":"active","ping":89},{"user_id":421,"name":"volta","steam_id":76561199214283884,"connected_time":2788000000000,"state":"active","ping":153},{"user_id":446,"name":"golia","steam_id":76561198000264266,"connected_time":605000000000,"state":"active","ping":73},{"user_id":448,"name":"Camohno","steam_id":76561198283519918,"connected_time":359000000000,"state":"active","ping":78},{"user_id":416,"name":"DiscoTraveler","steam_id":76561199240168088,"connected_time":3155000000000,"state":"active","ping":114},{"user_id":439,"name":"Eraser cat","steam_id":76561199045570463,"connected_time":684000000000,"state":"active","ping":49}]},{"server_id":406,"name":"Uncletopia | Seattle | 3 | Stopwatch Beta","name_short":"sea-3","host":"sea-1.us.uncletopia.com","port":27035,"enabled":true,"region":"us-west","cc":"us","latitude":47.608013,"longitude":-122.33517,"reserved":0,"last_update":"0001-01-01T00:00:00Z","name_a2s":"Uncletopia | Seattle | 3 | Stopwatch Beta","protocol":17,"map":"cp_snakewater_final1","folder":"tf","game":"Team Fortress","app_id":440,"player_count":22,"max_players":24,"Bots":0,"server_type":"Dedicated","server_os":"Linux","password":true,"vac":true,"version":"7757534","steam_id":85568392924515217,"keywords":["cp","nocrits","nodmgspread","uncletopia"],"game_id":440,"stv_port":27036,"stv_name":"Uncletopia | Seattle | 3 | Stopwatch Beta | STV","players":[{"user_id":55,"name":"Magnus","steam_id":76561198061634483,"connected_time":1254000000000,"state":"active","ping":86},{"user_id":57,"name":"Uncle Ron","steam_id":76561198145439487,"connected_time":792000000000,"state":"active","ping":84},{"user_id":15,"name":"I UBER SPIES #SAVETF2","steam_id":76561199118711243,"connected_time":3086000000000,"state":"active","ping":87},{"user_id":9,"name":"Anti-Buffer","steam_id":76561198202023350,"connected_time":3997000000000,"state":"active","ping":140},{"user_id":16,"name":"SlitherDoodle","steam_id":76561198000275473,"connected_time":2969000000000,"state":"active","ping":49},{"user_id":11,"name":"zaza2k","steam_id":76561198393760567,"connected_time":3717000000000,"state":"active","ping":75},{"user_id":12,"name":"F3RRAL","steam_id":76561198172279275,"connected_time":3713000000000,"state":"active","ping":77},{"user_id":63,"name":"Stroodle","steam_id":76561198175533691,"connected_time":316000000000,"state":"active","ping":65},{"user_id":14,"name":"Salty Ketchup","steam_id":76561198133905845,"connected_time":3627000000000,"state":"active","ping":90},{"user_id":33,"name":"westward","steam_id":76561198805512350,"connected_time":2200000000000,"state":"active","ping":70},{"user_id":46,"name":"THE_DARK_SKELETON","steam_id":76561198152029104,"connected_time":2065000000000,"state":"active","ping":87},{"user_id":27,"name":"The Angel of Death","steam_id":76561198026079349,"connected_time":2461000000000,"state":"active","ping":74},{"user_id":68,"name":"Aequalis747","steam_id":76561199456589841,"connected_time":196000000000,"state":"active","ping":96},{"user_id":64,"name":"dzcreeper","steam_id":76561198072250723,"connected_time":292000000000,"state":"active","ping":89},{"user_id":65,"name":"Alice in Rubberland","steam_id":76561198087328346,"connected_time":291000000000,"state":"active","ping":90},{"user_id":56,"name":"Foxymittenz","steam_id":76561198189953711,"connected_time":1203000000000,"state":"active","ping":63},{"user_id":51,"name":"Seriously Bruh","steam_id":76561198070408485,"connected_time":1671000000000,"state":"active","ping":48},{"user_id":39,"name":"THE_DARK_TRICKSTER","steam_id":76561198870649125,"connected_time":2152000000000,"state":"active","ping":76},{"user_id":53,"name":"MantisToboggan","steam_id":76561197969447887,"connected_time":1587000000000,"state":"active","ping":57},{"user_id":41,"name":"BlitzB@t","steam_id":76561198299318000,"connected_time":2139000000000,"state":"active","ping":64},{"user_id":66,"name":"checkswing","steam_id":76561198999816132,"connected_time":285000000000,"state":"active","ping":118},{"user_id":67,"name":"O Dog","steam_id":76561198133498912,"connected_time":276000000000,"state":"active","ping":77}]},{"server_id":17,"name":"Uncletopia | San Francisco | 1 | All Maps","name_short":"sfo-1","host":"sfo-1.us.uncletopia.com","port":27015,"enabled":true,"region":"us-west","cc":"us","latitude":37.77397,"longitude":-122.4313,"reserved":0,"last_update":"0001-01-01T00:00:00Z","name_a2s":"Uncletopia | San Francisco | 1 | All Maps","protocol":17,"map":"cp_dustbowl","folder":"tf","game":"Team Fortress","app_id":440,"player_count":24,"max_players":24,"Bots":0,"server_type":"Dedicated","server_os":"Linux","password":true,"vac":true,"version":"7757534","steam_id":85568392924469999,"keywords":["cp","nocrits","nodmgspread","uncletopia"],"game_id":440,"stv_port":27016,"stv_name":"Uncletopia | San Francisco | 1 | All Maps | STV","players":[{"user_id":503,"name":"InvaderAlex","steam_id":76561198039232451,"connected_time":751000000000,"state":"active","ping":98},{"user_id":497,"name":"blue_tristan03","steam_id":76561199468377688,"connected_time":1400000000000,"state":"active","ping":58},{"user_id":424,"name":"Tomoko2001","steam_id":76561198047117990,"connected_time":5291000000000,"state":"active","ping":107},{"user_id":392,"name":"Jimmy","steam_id":76561198857959855,"connected_time":7316000000000,"state":"active","ping":57},{"user_id":478,"name":"stboncho","steam_id":76561198172275301,"connected_time":2837000000000,"state":"active","ping":58},{"user_id":473,"name":"Pantaloons","steam_id":76561198073071139,"connected_time":3441000000000,"state":"active","ping":85},{"user_id":508,"name":"Engynier Gaimeang (F2P)","steam_id":76561199013888779,"connected_time":168000000000,"state":"active","ping":56},{"user_id":496,"name":"GlizzLord","steam_id":76561198321010427,"connected_time":1470000000000,"state":"active","ping":79},{"user_id":505,"name":"god will not forgive you","steam_id":76561198008332777,"connected_time":709000000000,"state":"active","ping":122},{"user_id":470,"name":"Pyro that looks at people","steam_id":76561198085815757,"connected_time":3632000000000,"state":"active","ping":120},{"user_id":493,"name":"BIGWELDFROMROBOTS","steam_id":76561199275349806,"connected_time":1737000000000,"state":"active","ping":122},{"user_id":482,"name":"Amogous Supreme","steam_id":76561198025476774,"connected_time":2073000000000,"state":"active","ping":55},{"user_id":501,"name":"Risky","steam_id":76561198231029328,"connected_time":1044000000000,"state":"active","ping":33},{"user_id":506,"name":"Psychromaniac","steam_id":76561198012215214,"connected_time":684000000000,"state":"active","ping":68},{"user_id":494,"name":"Green_GarBear","steam_id":76561199468912415,"connected_time":1706000000000,"state":"active","ping":55},{"user_id":472,"name":"AweStruckEXP","steam_id":76561198820920580,"connected_time":3486000000000,"state":"active","ping":82},{"user_id":491,"name":"Rusty","steam_id":76561198178868626,"connected_time":1950000000000,"state":"active","ping":134},{"user_id":507,"name":"NEЯO","steam_id":76561197965450216,"connected_time":635000000000,"state":"active","ping":72},{"user_id":488,"name":"liftin'","steam_id":76561199089515791,"connected_time":2011000000000,"state":"active","ping":54},{"user_id":475,"name":"OverdueArtist","steam_id":76561198132932773,"connected_time":3152000000000,"state":"active","ping":129},{"user_id":437,"name":"darktheif54","steam_id":76561198043650119,"connected_time":4973000000000,"state":"active","ping":69},{"user_id":471,"name":"magic","steam_id":76561198031957385,"connected_time":3600000000000,"state":"active","ping":77},{"user_id":498,"name":"Dr. Major Balls","steam_id":76561198417358638,"connected_time":1391000000000,"state":"active","ping":59},{"user_id":502,"name":"Byte The Protogen","steam_id":76561199229871383,"connected_time":993000000000,"state":"active","ping":62}]},{"server_id":18,"name":"Uncletopia | San Francisco | 2 | All Maps","name_short":"sfo-2","host":"sfo-1.us.uncletopia.com","port":27025,"enabled":true,"region":"us-west","cc":"us","latitude":37.77397,"longitude":-122.4313,"reserved":0,"last_update":"0001-01-01T00:00:00Z","name_a2s":"Uncletopia | San Francisco | 2 | All Maps","protocol":17,"map":"pl_upward","folder":"tf","game":"Team Fortress","app_id":440,"player_count":24,"max_players":24,"Bots":0,"server_type":"Dedicated","server_os":"Linux","password":true,"vac":true,"version":"7757534","steam_id":85568392924470000,"keywords":["nocrits","nodmgspread","payload","uncletopia"],"game_id":440,"stv_port":27026,"stv_name":"Uncletopia | San Francisco | 2 | All Maps | STV","players":[{"user_id":301,"name":"sheep gf \u003c3","steam_id":76561198068189558,"connected_time":1261000000000,"state":"active","ping":46},{"user_id":299,"name":"the gay pope","steam_id":76561198024988489,"connected_time":1349000000000,"state":"active","ping":46},{"user_id":276,"name":"Heavy Headroom","steam_id":76561198056391496,"connected_time":2161000000000,"state":"active","ping":127},{"user_id":241,"name":"Wingman","steam_id":76561198066270405,"connected_time":3935000000000,"state":"active","ping":42},{"user_id":277,"name":"Space Spider","steam_id":76561198131215203,"connected_time":2145000000000,"state":"active","ping":120},{"user_id":311,"name":"pentUpinaBlind♏","steam_id":76561198146684778,"connected_time":268000000000,"state":"active","ping":64},{"user_id":275,"name":"the giggle monkey","steam_id":76561199085304592,"connected_time":2227000000000,"state":"active","ping":67},{"user_id":195,"name":"zzzz","steam_id":76561199413388036,"connected_time":6140000000000,"state":"active","ping":66},{"user_id":313,"name":"bonk schnoffer","steam_id":76561198301598124,"connected_time":234000000000,"state":"active","ping":84},{"user_id":245,"name":"CollDragon","steam_id":76561198067534450,"connected_time":3806000000000,"state":"active","ping":112},{"user_id":297,"name":"Hardline Mike","steam_id":76561197993265034,"connected_time":1398000000000,"state":"active","ping":53},{"user_id":305,"name":"OH JIMMY I'M HOME #SaveTf2","steam_id":76561198396658806,"connected_time":859000000000,"state":"active","ping":61},{"user_id":280,"name":"Bman253","steam_id":76561198089945659,"connected_time":2127000000000,"state":"active","ping":110},{"user_id":298,"name":"cris","steam_id":76561198048052937,"connected_time":1373000000000,"state":"active","ping":107},{"user_id":304,"name":"Khaast","steam_id":76561198170253694,"connected_time":971000000000,"state":"active","ping":91},{"user_id":302,"name":"WeedleDeedle","steam_id":76561198197088079,"connected_time":1254000000000,"state":"active","ping":75},{"user_id":249,"name":"Ultimate Prinny Battle God!","steam_id":76561198087574100,"connected_time":3647000000000,"state":"active","ping":60},{"user_id":310,"name":"zinnk","steam_id":76561198092081825,"connected_time":344000000000,"state":"active","ping":44},{"user_id":270,"name":"Actaro","steam_id":76561198800742690,"connected_time":2907000000000,"state":"active","ping":90},{"user_id":309,"name":"Cammicus","steam_id":76561198033375316,"connected_time":593000000000,"state":"active","ping":108},{"user_id":312,"name":"Brian","steam_id":76561198144650969,"connected_time":258000000000,"state":"active","ping":75},{"user_id":296,"name":"Yubi Yubi Yeet!","steam_id":76561197999285373,"connected_time":1476000000000,"state":"active","ping":64},{"user_id":284,"name":"big car","steam_id":76561198067082350,"connected_time":2081000000000,"state":"active","ping":46},{"user_id":314,"name":"Bungus Stormblessed","steam_id":76561198121357619,"connected_time":105000000000,"state":"active","ping":77}]},{"server_id":19,"name":"Uncletopia | San Francisco | 3 | Stopwatch Beta","name_short":"sfo-3","host":"sfo-1.us.uncletopia.com","port":27035,"enabled":true,"region":"us-west","cc":"us","latitude":37.77397,"longitude":-122.4313,"reserved":0,"last_update":"0001-01-01T00:00:00Z","name_a2s":"Uncletopia | San Francisco | 3 | Stopwatch Beta","protocol":17,"map":"workshop/koth_ashville_final.ugc2130459942","folder":"tf","game":"Team Fortress","app_id":440,"player_count":4,"max_players":24,"Bots":0,"server_type":"Dedicated","server_os":"Linux","password":true,"vac":true,"version":"7757534","steam_id":85568392924742824,"keywords":["cp","nocrits","nodmgspread","uncletopia"],"game_id":440,"stv_port":27036,"stv_name":"Uncletopia | San Francisco | 3 | Stopwatch Beta | STV","players":[{"user_id":23,"name":"asm_ghost","steam_id":76561199205363547,"connected_time":69000000000,"state":"active","ping":58},{"user_id":17,"name":"The Gremlin","steam_id":76561198419066993,"connected_time":2051000000000,"state":"active","ping":84},{"user_id":21,"name":"Ghwhaine","steam_id":76561199045414702,"connected_time":84000000000,"state":"active","ping":116},{"user_id":20,"name":"♥Npenplz♥","steam_id":76561197999605423,"connected_time":224000000000,"state":"active","ping":59}]},{"server_id":20,"name":"Uncletopia | San Francisco | 4 | Community","name_short":"sfo-4","host":"sfo-1.us.uncletopia.com","port":27045,"enabled":true,"region":"us-west","cc":"us","latitude":37.77397,"longitude":-122.4313,"reserved":0,"last_update":"0001-01-01T00:00:00Z","name_a2s":"Uncletopia | San Francisco | 4 | Community","protocol":17,"map":"workshop/koth_ashville_final.ugc2130459942","folder":"tf","game":"Team Fortress","app_id":440,"player_count":0,"max_players":24,"Bots":0,"server_type":"Dedicated","server_os":"Linux","password":true,"vac":true,"version":"7757534","steam_id":85568392924742826,"keywords":["cp","nocrits","nodmgspread","uncletopia"],"game_id":440,"stv_port":27046,"stv_name":"Uncletopia | San Francisco | 4 | Community | STV","players":null},{"server_id":141,"name":"Uncletopia | Sydney | 1 | All Maps","name_short":"syd-1","host":"syd-1.au.uncletopia.com","port":27015,"enabled":true,"region":"au","cc":"au","latitude":-33.865143,"longitude":151.2099,"reserved":0,"last_update":"0001-01-01T00:00:00Z","name_a2s":"Uncletopia | Sydney | 1 | All Maps","protocol":17,"map":"koth_cascade","folder":"tf","game":"Team Fortress","app_id":440,"player_count":0,"max_players":24,"Bots":0,"server_type":"Dedicated","server_os":"Linux","password":true,"vac":true,"version":"7757534","steam_id":85568392924470001,"keywords":["cp","nocrits","nodmgspread","uncletopia"],"game_id":440,"stv_port":27016,"stv_name":"Uncletopia | Sydney | 1 | All Maps | STV","players":null},{"server_id":123,"name":"Uncletopia | Sydney | 2 | All Maps","name_short":"syd-2","host":"syd-1.au.uncletopia.com","port":27025,"enabled":true,"region":"au","cc":"au","latitude":-33.865143,"longitude":151.2099,"reserved":0,"last_update":"0001-01-01T00:00:00Z","name_a2s":"Uncletopia | Sydney | 2 | All Maps","protocol":17,"map":"cp_mountainlab","folder":"tf","game":"Team Fortress","app_id":440,"player_count":14,"max_players":24,"Bots":0,"server_type":"Dedicated","server_os":"Linux","password":true,"vac":true,"version":"7757534","steam_id":85568392924470002,"keywords":["cp","nocrits","nodmgspread","uncletopia"],"game_id":440,"stv_port":27026,"stv_name":"Uncletopia | Sydney | 2 | All Maps | STV","players":[{"user_id":40,"name":"sav","steam_id":76561198058760041,"connected_time":88000000000,"state":"active","ping":70},{"user_id":33,"name":"Candy_Cane19","steam_id":76561198978478925,"connected_time":336000000000,"state":"active","ping":69},{"user_id":10,"name":"deezbigman","steam_id":76561199387369203,"connected_time":4434000000000,"state":"active","ping":270},{"user_id":18,"name":"Lord Oink","steam_id":76561198125237921,"connected_time":3130000000000,"state":"active","ping":42},{"user_id":31,"name":"whiteshaq","steam_id":76561198131988811,"connected_time":412000000000,"state":"active","ping":48},{"user_id":34,"name":"TwilightJericho","steam_id":76561198044875117,"connected_time":313000000000,"state":"active","ping":72},{"user_id":29,"name":"Enchanted Cat","steam_id":76561198866538028,"connected_time":1658000000000,"state":"active","ping":91},{"user_id":23,"name":"Glytcho","steam_id":76561198023324934,"connected_time":2450000000000,"state":"active","ping":89},{"user_id":36,"name":"zero.bitches.1999","steam_id":76561198241303512,"connected_time":287000000000,"state":"active","ping":56},{"user_id":37,"name":"RBY","steam_id":76561198279663555,"connected_time":283000000000,"state":"active","ping":60},{"user_id":38,"name":"Zieria","steam_id":76561199261811388,"connected_time":280000000000,"state":"active","ping":30},{"user_id":39,"name":"itsjustmarvin77","steam_id":76561199375656301,"connected_time":251000000000,"state":"active","ping":74},{"user_id":41,"name":"Rizeo","steam_id":76561198147901488,"connected_time":83000000000,"state":"active","ping":64},{"user_id":43,"name":"Random Cluster Missile -BvM-","steam_id":76561198086192598,"connected_time":28000000000,"state":"active","ping":75}]},{"server_id":395,"name":"Uncletopia | Sydney | 3 | All Maps","name_short":"syd-3","host":"syd-1.au.uncletopia.com","port":27035,"enabled":true,"region":"au","cc":"au","latitude":-33.865143,"longitude":151.2099,"reserved":0,"last_update":"0001-01-01T00:00:00Z","name_a2s":"Uncletopia | Sydney | 3 | All Maps","protocol":17,"map":"cp_dustbowl","folder":"tf","game":"Team Fortress","app_id":440,"player_count":0,"max_players":24,"Bots":0,"server_type":"Dedicated","server_os":"Linux","password":true,"vac":true,"version":"7757534","steam_id":85568392925194467,"keywords":["cp","nocrits","nodmgspread","uncletopia"],"game_id":440,"stv_port":27036,"stv_name":"Uncletopia | Sydney | 3 | All Maps | STV","players":null},{"server_id":396,"name":"Uncletopia | Sydney | 4 | All Maps","name_short":"syd-4","host":"syd-1.au.uncletopia.com","port":27045,"enabled":true,"region":"au","cc":"au","latitude":-33.865143,"longitude":151.2099,"reserved":0,"last_update":"0001-01-01T00:00:00Z","name_a2s":"Uncletopia | Sydney | 4 | All Maps","protocol":17,"map":"koth_highpass","folder":"tf","game":"Team Fortress","app_id":440,"player_count":0,"max_players":24,"Bots":0,"server_type":"Dedicated","server_os":"Linux","password":true,"vac":true,"version":"7757534","steam_id":85568392925397958,"keywords":["cp","nocrits","nodmgspread","uncletopia"],"game_id":440,"stv_port":27046,"stv_name":"Uncletopia | Sydney | 4 | All Maps | STV","players":null},{"server_id":58,"name":"Uncletopia | Sydney | 5 | Stopwatch Beta","name_short":"syd-5","host":"syd-1.au.uncletopia.com","port":27055,"enabled":true,"region":"au","cc":"au","latitude":-33.865143,"longitude":151.2099,"reserved":0,"last_update":"0001-01-01T00:00:00Z","name_a2s":"Uncletopia | Sydney | 5 | Stopwatch Beta","protocol":17,"map":"koth_cascade","folder":"tf","game":"Team Fortress","app_id":440,"player_count":0,"max_players":24,"Bots":0,"server_type":"Dedicated","server_os":"Linux","password":true,"vac":true,"version":"7757534","steam_id":85568392925397959,"keywords":["cp","nocrits","nodmgspread","uncletopia"],"game_id":440,"stv_port":27056,"stv_name":"Uncletopia | Sydney | 5 | Stopwatch Beta | STV","players":null},{"server_id":59,"name":"Uncletopia | Sydney | 6 | Community","name_short":"syd-6","host":"syd-1.au.uncletopia.com","port":27065,"enabled":true,"region":"au","cc":"au","latitude":-33.865143,"longitude":151.2099,"reserved":0,"last_update":"0001-01-01T00:00:00Z","name_a2s":"Uncletopia | Sydney | 6 | Community","protocol":17,"map":"workshop/pl_vigil_rc9.ugc1266210012","folder":"tf","game":"Team Fortress","app_id":440,"player_count":0,"max_players":24,"Bots":0,"server_type":"Dedicated","server_os":"Linux","password":true,"vac":true,"version":"7757534","steam_id":85568392925397960,"keywords":["nocrits","nodmgspread","payload","uncletopia"],"game_id":440,"stv_port":27066,"stv_name":"Uncletopia | Sydney | 6 | Community | STV","players":null},{"server_id":49,"name":"Uncletopia | Warsaw | 1 | All Maps","name_short":"waw-1","host":"waw-1.pl.uncletopia.com","port":27015,"enabled":true,"region":"eu","cc":"pl","latitude":52.2297,"longitude":21.017532,"reserved":0,"last_update":"0001-01-01T00:00:00Z","name_a2s":"","protocol":0,"map":"","folder":"","game":"","app_id":0,"player_count":0,"max_players":0,"Bots":0,"server_type":"","server_os":"","password":false,"vac":false,"version":"","steam_id":0,"keywords":null,"game_id":0,"stv_port":0,"stv_name":"","players":null},{"server_id":50,"name":"Uncletopia | Warsaw | 2 | All Maps","name_short":"waw-2","host":"waw-1.pl.uncletopia.com","port":27025,"enabled":true,"region":"eu","cc":"pl","latitude":52.2297,"longitude":21.017532,"reserved":0,"last_update":"0001-01-01T00:00:00Z","name_a2s":"Uncletopia | Warsaw | 2 | All Maps","protocol":17,"map":"koth_viaduct","folder":"tf","game":"Team Fortress","app_id":440,"player_count":0,"max_players":24,"Bots":0,"server_type":"Dedicated","server_os":"Linux","password":true,"vac":true,"version":"7757534","steam_id":85568392925397851,"keywords":["cp","nocrits","nodmgspread","uncletopia"],"game_id":440,"stv_port":27026,"stv_name":"Uncletopia | Warsaw | 2 | All Maps | STV","players":null},{"server_id":51,"name":"Uncletopia | Warsaw | 3 | All Maps","name_short":"waw-3","host":"waw-1.pl.uncletopia.com","port":27035,"enabled":true,"region":"eu","cc":"pl","latitude":52.2297,"longitude":21.017532,"reserved":0,"last_update":"0001-01-01T00:00:00Z","name_a2s":"Uncletopia | Warsaw | 3 | All Maps","protocol":17,"map":"pl_swiftwater_final1","folder":"tf","game":"Team Fortress","app_id":440,"player_count":0,"max_players":24,"Bots":0,"server_type":"Dedicated","server_os":"Linux","password":true,"vac":true,"version":"7757534","steam_id":85568392925397852,"keywords":["nocrits","nodmgspread","payload","uncletopia"],"game_id":440,"stv_port":27036,"stv_name":"Uncletopia | Warsaw | 3 | All Maps | STV","players":null},{"server_id":52,"name":"Uncletopia | Warsaw | 4 | All Maps","name_short":"waw-4","host":"waw-1.pl.uncletopia.com","port":27045,"enabled":true,"region":"eu","cc":"pl","latitude":52.2297,"longitude":21.017532,"reserved":0,"last_update":"0001-01-01T00:00:00Z","name_a2s":"Uncletopia | Warsaw | 4 | All Maps","protocol":17,"map":"koth_lakeside_final","folder":"tf","game":"Team Fortress","app_id":440,"player_count":0,"max_players":24,"Bots":0,"server_type":"Dedicated","server_os":"Linux","password":true,"vac":true,"version":"7757534","steam_id":85568392925397853,"keywords":["cp","nocrits","nodmgspread","uncletopia"],"game_id":440,"stv_port":27046,"stv_name":"Uncletopia | Warsaw | 4 | All Maps | STV","players":null},{"server_id":53,"name":"Uncletopia | Warsaw | 5 | Stopwatch Beta","name_short":"waw-5","host":"waw-1.pl.uncletopia.com","port":27055,"enabled":true,"region":"eu","cc":"pl","latitude":52.2297,"longitude":21.017532,"reserved":0,"last_update":"0001-01-01T00:00:00Z","name_a2s":"Uncletopia | Warsaw | 5 | Stopwatch Beta","protocol":17,"map":"pl_borneo","folder":"tf","game":"Team Fortress","app_id":440,"player_count":0,"max_players":24,"Bots":0,"server_type":"Dedicated","server_os":"Linux","password":true,"vac":true,"version":"7757534","steam_id":85568392925397854,"keywords":["nocrits","nodmgspread","payload","uncletopia"],"game_id":440,"stv_port":27056,"stv_name":"Uncletopia | Warsaw | 5 | Stopwatch Beta | STV","players":null},{"server_id":54,"name":"Uncletopia | Warsaw | 6 | Community","name_short":"waw-6","host":"waw-1.pl.uncletopia.com","port":27065,"enabled":true,"region":"eu","cc":"pl","latitude":52.2297,"longitude":21.017532,"reserved":0,"last_update":"0001-01-01T00:00:00Z","name_a2s":"Uncletopia | Warsaw | 6 | Community","protocol":17,"map":"koth_lakeside_final","folder":"tf","game":"Team Fortress","app_id":440,"player_count":0,"max_players":24,"Bots":0,"server_type":"Dedicated","server_os":"Linux","password":true,"vac":true,"version":"7757534","steam_id":85568392925397856,"keywords":["cp","nocrits","nodmgspread","uncletopia"],"game_id":440,"stv_port":27066,"stv_name":"Uncletopia | Warsaw | 6 | Community | STV","players":null}]}