{"status":true,"message":"","result":[{"server_id":2,"name":"Uncletopia | Chicago | 1 | All Maps","name_short":"chi-1","host":"chi-1.us.uncletopia.com","port":27015,"enabled":true,"region":"us-central","cc":"us","latitude":41.881832,"longitude":-87.62318,"reserved":0,"last_update":"0001-01-01T00:00:00Z","name_a2s":"Uncletopia | Chicago | 1 | All Maps","protocol":17,"map":"cp_steel","folder":"tf","game":"Team Fortress","app_id":440,"player_count":23,"max_players":24,"Bots":0,"server_type":"Dedicated","server_os":"Linux","password":true,"vac":true,"version":"7932396","steam_id":85568392924469984,"keywords":["cp","nocrits","nodmgspread","uncletopia"],"game_id":440,"stv_port":27016,"stv_name":"Uncletopia | Chicago | 1 | All Maps | STV","players":[{"user_id":493,"name":"ungr8t","steam_id":76561198063521721,"connected_time":50000000000,"state":"active","ping":75},{"user_id":418,"name":"Ras","steam_id":76561198123546775,"connected_time":7145000000000,"state":"active","ping":63},{"user_id":490,"name":"DinoGoof","steam_id":76561198998427283,"connected_time":66000000000,"state":"active","ping":66},{"user_id":480,"name":"Mank","steam_id":76561198189421005,"connected_time":917000000000,"state":"active","ping":47},{"user_id":468,"name":"garf","steam_id":76561198088228311,"connected_time":1733000000000,"state":"active","ping":68},{"user_id":482,"name":"Melons","steam_id":76561198062349555,"connected_time":876000000000,"state":"active","ping":68},{"user_id":471,"name":"HOTA","steam_id":76561199002778841,"connected_time":1335000000000,"state":"active","ping":71},{"user_id":470,"name":"Acehay14","steam_id":76561198052373291,"connected_time":1364000000000,"state":"active","ping":57},{"user_id":491,"name":"LVL 4 Dispenser Gaming","steam_id":76561198044244547,"connected_time":55000000000,"state":"active","ping":79},{"user_id":494,"name":"StonedGiant","steam_id":76561197984386932,"connected_time":46000000000,"state":"active","ping":60},{"user_id":487,"name":"SecondCarpet","steam_id":76561199008323078,"connected_time":606000000000,"state":"active","ping":72},{"user_id":466,"name":"Shady Businessman","steam_id":76561198143855968,"connected_time":2481000000000,"state":"active","ping":85},{"user_id":496,"name":"ipadkid","steam_id":76561199239446808,"connected_time":16000000000,"state":"active","ping":90},{"user_id":452,"name":"123","steam_id":76561198106308056,"connected_time":3523000000000,"state":"active","ping":125},{"user_id":495,"name":"Peppino Spaghetti","steam_id":76561199390353195,"connected_time":29000000000,"state":"active","ping":93},{"user_id":455,"name":"5mech","steam_id":76561198979167520,"connected_time":3177000000000,"state":"active","ping":47},{"user_id":497,"name":"cactus","steam_id":76561198167075606,"connected_time":13000000000,"state":"spawning","ping":116},{"user_id":486,"name":"Convict Police Officers","steam_id":76561197993527275,"connected_time":650000000000,"state":"active","ping":58},{"user_id":410,"name":"Fudge_Cake","steam_id":76561198059218167,"connected_time":7691000000000,"state":"active","ping":64},{"user_id":467,"name":"Alpharious","steam_id":76561197970289529,"connected_time":2391000000000,"state":"active","ping":78},{"user_id":481,"name":"gary","steam_id":76561198140226890,"connected_time":906000000000,"state":"active","ping":58},{"user_id":478,"name":"TallBit","steam_id":76561199059748976,"connected_time":1012000000000,"state":"active","ping":49},{"user_id":489,"name":"sensitize","steam_id":76561198350134869,"connected_time":516000000000,"state":"active","ping":46}]},{"server_id":106,"name":"Uncletopia | Chicago | 2 | All Maps","name_short":"chi-2","host":"chi-1.us.uncletopia.com","port":27025,"enabled":true,"region":"us-central","cc":"us","latitude":41.881832,"longitude":-87.62318,"reserved":0,"last_update":"0001-01-01T00:00:00Z","name_a2s":"Uncletopia | Chicago | 2 | All Maps","protocol":17,"map":"cp_dustbowl","folder":"tf","game":"Team Fortress","app_id":440,"player_count":24,"max_players":24,"Bots":0,"server_type":"Dedicated","server_os":"Linux","password":true,"vac":true,"version":"7932396","steam_id":85568392924469985,"keywords":["cp","nocrits","nodmgspread","uncletopia"],"game_id":440,"stv_port":27026,"stv_name":"Uncletopia | Chicago | 2 | All Maps | STV","players":[{"user_id":300,"name":"spherewithahat","steam_id":76561199122192660,"connected_time":748000000000,"state":"active","ping":74},{"user_id":293,"name":"Styx","steam_id":76561198158334494,"connected_time":1442000000000,"state":"active","ping":48},{"user_id":248,"name":"Ejaculation Zach","steam_id":76561198203765200,"connected_time":5508000000000,"state":"active","ping":57},{"user_id":314,"name":"jarrettconsult","steam_id":76561198249998262,"connected_time":217000000000,"state":"active","ping":82},{"user_id":303,"name":"TG_16","steam_id":76561199109196768,"connected_time":446000000000,"state":"active","ping":54},{"user_id":302,"name":"Obama","steam_id":76561198194065283,"connected_time":459000000000,"state":"active","ping":96},{"user_id":268,"name":"lili","steam_id":76561199391478575,"connected_time":3555000000000,"state":"active","ping":107},{"user_id":301,"name":"Just Shrimp","steam_id":76561198149063013,"connected_time":738000000000,"state":"active","ping":73},{"user_id":294,"name":"tom","steam_id":76561199489674034,"connected_time":1353000000000,"state":"active","ping":51},{"user_id":238,"name":"daggmo","steam_id":76561199042550792,"connected_time":6454000000000,"state":"active","ping":84},{"user_id":242,"name":"pimpmykek","steam_id":76561198271911317,"connected_time":6155000000000,"state":"active","ping":91},{"user_id":257,"name":"IAmAProfesonal","steam_id":76561199171858953,"connected_time":4522000000000,"state":"active","ping":54},{"user_id":305,"name":"Mr. Sandman","steam_id":76561198065870487,"connected_time":372000000000,"state":"active","ping":55},{"user_id":315,"name":"Chezaus","steam_id":76561198317397837,"connected_time":99000000000,"state":"active","ping":69},{"user_id":307,"name":"DuragGod69","steam_id":76561198067814426,"connected_time":357000000000,"state":"active","ping":81},{"user_id":308,"name":"Yeet","steam_id":76561198401045865,"connected_time":353000000000,"state":"active","ping":61},{"user_id":309,"name":"El Güey","steam_id":76561197970450546,"connected_time":324000000000,"state":"active","ping":115},{"user_id":287,"name":"BirBinGo","steam_id":76561198356529600,"connected_time":1752000000000,"state":"active","ping":74},{"user_id":292,"name":"David De Bergerac","steam_id":76561198010306294,"connected_time":1449000000000,"state":"active","ping":82},{"user_id":282,"name":"Puke Skyfucker","steam_id":76561198012846213,"connected_time":1980000000000,"state":"active","ping":79},{"user_id":310,"name":"Nerve","steam_id":76561198306271889,"connected_time":284000000000,"state":"active","ping":81},{"user_id":316,"name":"Homunculus Gambino","steam_id":76561198158433378,"connected_time":72000000000,"state":"active","ping":72},{"user_id":299,"name":"tiredfisherman69","steam_id":76561199228963816,"connected_time":1152000000000,"state":"active","ping":98},{"user_id":313,"name":"Ginger Jesus","steam_id":76561198052386458,"connected_time":242000000000,"state":"active","ping":60}]},{"server_id":402,"name":"Uncletopia | Chicago | 3 | All Maps","name_short":"chi-3","host":"chi-1.us.uncletopia.com","port":27035,"enabled":true,"region":"us-central","cc":"us","latitude":41.881832,"longitude":-87.62318,"reserved":0,"last_update":"0001-01-01T00:00:00Z","name_a2s":"Uncletopia | Chicago | 3 | All Maps","protocol":17,"map":"pl_barnblitz","folder":"tf","game":"Team Fortress","app_id":440,"player_count":23,"max_players":24,"Bots":0,"server_type":"Dedicated","server_os":"Linux","password":true,"vac":true,"version":"7932396","steam_id":85568392924515191,"keywords":["nocrits","nodmgspread","payload","uncletopia"],"game_id":440,"stv_port":27036,"stv_name":"Uncletopia | Chicago | 3 | All Maps | STV","players":[{"user_id":15,"name":"dragonslayer2004","steam_id":76561199047609261,"connected_time":4328000000000,"state":"active","ping":62},{"user_id":16,"name":"mozzie","steam_id":76561198871173972,"connected_time":4223000000000,"state":"active","ping":131},{"user_id":80,"name":"york","steam_id":76561198028120301,"connected_time":522000000000,"state":"active","ping":79},{"user_id":68,"name":"All 24 Pokémon movies at once","steam_id":76561198164738311,"connected_time":1520000000000,"state":"active","ping":63},{"user_id":71,"name":"Enzo","steam_id":76561197975076681,"connected_time":1232000000000,"state":"active","ping":46},{"user_id":77,"name":"corned beef","steam_id":76561199366782761,"connected_time":834000000000,"state":"active","ping":136},{"user_id":76,"name":"Fresh0c0","steam_id":76561198271933283,"connected_time":847000000000,"state":"active","ping":56},{"user_id":85,"name":"retaW","steam_id":76561198308097092,"connected_time":222000000000,"state":"active","ping":56},{"user_id":88,"name":"guywholikesSOUP","steam_id":76561198006670369,"connected_time":81000000000,"state":"active","ping":61},{"user_id":89,"name":"N8","steam_id":76561198077788860,"connected_time":62000000000,"state":"active","ping":63},{"user_id":58,"name":"Allahgator","steam_id":76561198280659041,"connected_time":1890000000000,"state":"active","ping":73},{"user_id":62,"name":"draco","steam_id":76561198196769297,"connected_time":1733000000000,"state":"active","ping":56},{"user_id":53,"name":"Gibs Degrossi","steam_id":76561198066152609,"connected_time":3182000000000,"state":"active","ping":45},{"user_id":72,"name":"Hotel Mario Next-Gen Remaster","steam_id":76561198217955315,"connected_time":1133000000000,"state":"active","ping":91},{"user_id":73,"name":"sentry turret","steam_id":76561198327057433,"connected_time":1117000000000,"state":"active","ping":89},{"user_id":83,"name":"brio","steam_id":76561198108685037,"connected_time":356000000000,"state":"active","ping":70},{"user_id":46,"name":"Capn. Wing Ding","steam_id":76561198076068424,"connected_time":3277000000000,"state":"active","ping":66},{"user_id":84,"name":"Mog","steam_id":76561198025575870,"connected_time":288000000000,"state":"active","ping":45},{"user_id":49,"name":"A Factorio Engineer","steam_id":76561198798516824,"connected_time":3258000000000,"state":"active","ping":162},{"user_id":61,"name":"Wild_Rumpus","steam_id":76561198066393719,"connected_time":1774000000000,"state":"active","ping":59},{"user_id":51,"name":"mytoyo2k2","steam_id":76561199486326945,"connected_time":3215000000000,"state":"active","ping":75},{"user_id":87,"name":"Scoter1009","steam_id":76561198315464837,"connected_time":194000000000,"state":"active","ping":71},{"user_id":67,"name":"tesagi","steam_id":76561198026664629,"connected_time":1565000000000,"state":"active","ping":51}]},{"server_id":403,"name":"Uncletopia | Chicago | 4 | All Maps","name_short":"chi-4","host":"chi-1.us.uncletopia.com","port":27045,"enabled":true,"region":"us-central","cc":"us","latitude":41.881832,"longitude":-87.62318,"reserved":0,"last_update":"0001-01-01T00:00:00Z","name_a2s":"Uncletopia | Chicago | 4 | All Maps","protocol":17,"map":"koth_suijin","folder":"tf","game":"Team Fortress","app_id":440,"player_count":24,"max_players":24,"Bots":0,"server_type":"Dedicated","server_os":"Linux","password":true,"vac":true,"version":"7932396","steam_id":85568392924515193,"keywords":["cp","nocrits","nodmgspread","uncletopia"],"game_id":440,"stv_port":27046,"stv_name":"Uncletopia | Chicago | 4 | All Maps | STV","players":[{"user_id":516,"name":"Jeremopolis","steam_id":76561198079467492,"connected_time":1143000000000,"state":"active","ping":72},{"user_id":533,"name":"Hayd3nQ","steam_id":76561198124849736,"connected_time":286000000000,"state":"active","ping":84},{"user_id":531,"name":"Krispy","steam_id":76561197994783393,"connected_time":443000000000,"state":"active","ping":71},{"user_id":534,"name":"Kretim","steam_id":76561199204273483,"connected_time":246000000000,"state":"active","ping":66},{"user_id":535,"name":"mid malk.","steam_id":76561199197497757,"connected_time":230000000000,"state":"active","ping":65},{"user_id":547,"name":"I'M PLAYING PYRO","steam_id":76561198096221632,"connected_time":93000000000,"state":"active","ping":60},{"user_id":520,"name":"The REAL Drake","steam_id":76561199070125903,"connected_time":1042000000000,"state":"active","ping":76},{"user_id":530,"name":"jan kili","steam_id":76561198289894834,"connected_time":462000000000,"state":"active","ping":65},{"user_id":536,"name":"PileofPolygons","steam_id":76561199321343460,"connected_time":230000000000,"state":"active","ping":68},{"user_id":522,"name":"we're so back","steam_id":76561198058485742,"connected_time":1006000000000,"state":"active","ping":70},{"user_id":482,"name":"Tis_Me_Hacksoulslayer1","steam_id":76561198340064206,"connected_time":2800000000000,"state":"active","ping":80},{"user_id":537,"name":"CroWolf","steam_id":76561198104179234,"connected_time":213000000000,"state":"active","ping":78},{"user_id":545,"name":"Nobody","steam_id":76561198085808754,"connected_time":114000000000,"state":"active","ping":89},{"user_id":539,"name":"ydna","steam_id":76561198167012265,"connected_time":191000000000,"state":"active","ping":59},{"user_id":523,"name":"aiden","steam_id":76561198449527009,"connected_time":983000000000,"state":"active","ping":92},{"user_id":542,"name":"Just a potato","steam_id":76561198160872285,"connected_time":132000000000,"state":"active","ping":57},{"user_id":540,"name":"Cosmic Torgue","steam_id":76561198828724945,"connected_time":169000000000,"state":"active","ping":81},{"user_id":541,"name":"Weeb","steam_id":76561198333568146,"connected_time":163000000000,"state":"active","ping":75},{"user_id":543,"name":"Archie","steam_id":76561198137112917,"connected_time":129000000000,"state":"active","ping":104},{"user_id":476,"name":"Prof. Sex","steam_id":76561198861711988,"connected_time":3322000000000,"state":"active","ping":82},{"user_id":525,"name":"Bluedot","steam_id":76561198019909639,"connected_time":736000000000,"state":"active","ping":60},{"user_id":544,"name":"AncientReality","steam_id":76561198310555568,"connected_time":124000000000,"state":"active","ping":88},{"user_id":549,"name":"alolan duntski","steam_id":76561198038826744,"connected_time":11000000000,"state":"spawning","ping":819},{"user_id":548,"name":"McSmitten","steam_id":76561198022358379,"connected_time":56000000000,"state":"active","ping":102}]},{"server_id":36,"name":"Uncletopia | Chicago | 5 | All Maps","name_short":"chi-5","host":"chi-2.us.uncletopia.com","port":27015,"enabled":true,"region":"us-central","cc":"us","latitude":41.881832,"longitude":-87.62318,"reserved":0,"last_update":"0001-01-01T00:00:00Z","name_a2s":"Uncletopia | Chicago | 5 | All Maps","protocol":17,"map":"koth_lakeside_final","folder":"tf","game":"Team Fortress","app_id":440,"player_count":0,"max_players":24,"Bots":0,"server_type":"Dedicated","server_os":"Linux","password":true,"vac":true,"version":"7932396","steam_id":85568392924866362,"keywords":["cp","nocrits","nodmgspread","uncletopia"],"game_id":440,"stv_port":27016,"stv_name":"Uncletopia | Chicago | 5 | All Maps | STV","players":null},{"server_id":37,"name":"Uncletopia | Chicago | 6 | All Maps","name_short":"chi-6","host":"chi-2.us.uncletopia.com","port":27025,"enabled":true,"region":"us-central","cc":"us","latitude":41.881832,"longitude":-87.62318,"reserved":0,"last_update":"0001-01-01T00:00:00Z","name_a2s":"Uncletopia | Chicago | 6 | All Maps","protocol":17,"map":"pl_snowycoast","folder":"tf","game":"Team Fortress","app_id":440,"player_count":7,"max_players":24,"Bots":0,"server_type":"Dedicated","server_os":"Linux","password":true,"vac":true,"version":"7932396","steam_id":85568392924866363,"keywords":["nocrits","nodmgspread","payload","uncletopia"],"game_id":440,"stv_port":27026,"stv_name":"Uncletopia | Chicago | 6 | All Maps | STV","players":[{"user_id":69,"name":"Caverman156","steam_id":76561198295409223,"connected_time":116000000000,"state":"active","ping":60},{"user_id":53,"name":"Brisket Culpable Cog","steam_id":76561198866619789,"connected_time":1691000000000,"state":"connecting","ping":184},{"user_id":72,"name":"nickname 123","steam_id":76561198080234033,"connected_time":0,"state":"spawning","ping":21},{"user_id":68,"name":"Infused Cringe","steam_id":76561199092531856,"connected_time":135000000000,"state":"active","ping":76},{"user_id":65,"name":"wahooka","steam_id":76561197981211922,"connected_time":565000000000,"state":"active","ping":68},{"user_id":70,"name":"Boxofbubblewrap","steam_id":76561199229191673,"connected_time":92000000000,"state":"active","ping":97},{"user_id":60,"name":"BrainCell-Hazard","steam_id":76561199038566105,"connected_time":1314000000000,"state":"active","ping":118}]},{"server_id":38,"name":"Uncletopia | Chicago | 7 | Stopwatch Beta","name_short":"chi-7","host":"chi-2.us.uncletopia.com","port":27035,"enabled":true,"region":"us-central","cc":"us","latitude":41.881832,"longitude":-87.62318,"reserved":0,"last_update":"0001-01-01T00:00:00Z","name_a2s":"Uncletopia | Chicago | 7 | Stopwatch Beta","protocol":17,"map":"pl_borneo","folder":"tf","game":"Team Fortress","app_id":440,"player_count":0,"max_players":24,"Bots":0,"server_type":"Dedicated","server_os":"Linux","password":true,"vac":true,"version":"7932396","steam_id":85568392924866364,"keywords":["nocrits","nodmgspread","payload","uncletopia"],"game_id":440,"stv_port":27036,"stv_name":"Uncletopia | Chicago | 7 | Stopwatch Beta | STV","players":null},{"server_id":39,"name":"Uncletopia | Chicago | 8 | Community","name_short":"chi-8","host":"chi-2.us.uncletopia.com","port":27045,"enabled":true,"region":"us-central","cc":"us","latitude":41.881832,"longitude":-87.62318,"reserved":0,"last_update":"0001-01-01T00:00:00Z","name_a2s":"Uncletopia | Chicago | 8 | Community","protocol":17,"map":"workshop/pl_barnblitz_pro7.ugc582280235","folder":"tf","game":"Team Fortress","app_id":440,"player_count":24,"max_players":24,"Bots":0,"server_type":"Dedicated","server_os":"Linux","password":true,"vac":true,"version":"7932396","steam_id":85568392924866365,"keywords":["nocrits","nodmgspread","payload","uncletopia"],"game_id":440,"stv_port":27046,"stv_name":"Uncletopia | Chicago | 8 | Community | STV","players":[{"user_id":112,"name":"Sexual Butt","steam_id":76561198102241399,"connected_time":1901000000000,"state":"active","ping":56},{"user_id":92,"name":"Cerabond","steam_id":76561199230915333,"connected_time":2800000000000,"state":"active","ping":83},{"user_id":138,"name":"Spectre","steam_id":76561198025652246,"connected_time":488000000000,"state":"active","ping":50},{"user_id":116,"name":"LORDO","steam_id":76561198044824675,"connected_time":1518000000000,"state":"active","ping":75},{"user_id":134,"name":"Mail Delivery","steam_id":76561198290046318,"connected_time":607000000000,"state":"active","ping":61},{"user_id":117,"name":"Blankity","steam_id":76561198002864974,"connected_time":1509000000000,"state":"active","ping":70},{"user_id":143,"name":"bulbasaur890","steam_id":76561198093443639,"connected_time":86000000000,"state":"active","ping":76},{"user_id":13,"name":"Penser","steam_id":76561198798194358,"connected_time":7194000000000,"state":"active","ping":80},{"user_id":140,"name":"Alice in Rubberland","steam_id":76561198087328346,"connected_time":367000000000,"state":"active","ping":45},{"user_id":119,"name":"Skele","steam_id":76561198154574280,"connected_time":1433000000000,"state":"active","ping":57},{"user_id":135,"name":"magickxanadu","steam_id":76561199117360103,"connected_time":607000000000,"state":"active","ping":90},{"user_id":120,"name":"Scorpie Doodle","steam_id":76561198021845763,"connected_time":1426000000000,"state":"active","ping":57},{"user_id":139,"name":"carne asada","steam_id":76561198108398751,"connected_time":452000000000,"state":"active","ping":60},{"user_id":77,"name":"Voids","steam_id":76561198128386726,"connected_time":3476000000000,"state":"active","ping":87},{"user_id":121,"name":"Spy (I Love spy)","steam_id":76561199138738952,"connected_time":1404000000000,"state":"active","ping":75},{"user_id":125,"name":"iUseDvorak","steam_id":76561198064439037,"connected_time":964000000000,"state":"active","ping":65},{"user_id":94,"name":"INVEST IN SKYNET::τRU τAO","steam_id":76561198144436132,"connected_time":2743000000000,"state":"active","ping":75},{"user_id":95,"name":"GatorAIDS","steam_id":76561198043220092,"connected_time":2699000000000,"state":"active","ping":86},{"user_id":97,"name":"cc","steam_id":76561199215821942,"connected_time":2653000000000,"state":"active","ping":71},{"user_id":141,"name":"NorthStarGamer","steam_id":76561198308866066,"connected_time":293000000000,"state":"active","ping":70},{"user_id":144,"name":"dribby","steam_id":76561197985925929,"connected_time":58000000000,"state":"active","ping":46},{"user_id":123,"name":"❄︎SHIT PISSER JULIANNE❄","steam_id":76561198061955351,"connected_time":1249000000000,"state":"active","ping":53},{"user_id":137,"name":"i like trains","steam_id":76561198090531755,"connected_time":602000000000,"state":"active","ping":63},{"user_id":130,"name":"bih buggin","steam_id":76561198116767286,"connected_time":741000000000,"state":"active","ping":58}]},{"server_id":8,"name":"Uncletopia | Dallas | 1 | All Maps","name_short":"dal-1","host":"dal-1.us.uncletopia.com","port":27015,"enabled":true,"region":"us-central","cc":"us","latitude":32.779167,"longitude":-96.80889,"reserved":0,"last_update":"0001-01-01T00:00:00Z","name_a2s":"Uncletopia | Dallas | 1 | All Maps","protocol":17,"map":"koth_nucleus","folder":"tf","game":"Team Fortress","app_id":440,"player_count":24,"max_players":24,"Bots":0,"server_type":"Dedicated","server_os":"Linux","password":true,"vac":true,"version":"7932396","steam_id":85568392924469986,"keywords":["cp","nocrits","nodmgspread","uncletopia"],"game_id":440,"stv_port":27016,"stv_name":"Uncletopia | Dallas | 1 | All Maps | STV","players":[{"user_id":457,"name":"MithStyck","steam_id":76561198071538489,"connected_time":4679000000000,"state":"active","ping":42},{"user_id":448,"name":"Soju","steam_id":76561198044130442,"connected_time":5582000000000,"state":"active","ping":55},{"user_id":452,"name":"Just a baby","steam_id":76561198018660838,"connected_time":5284000000000,"state":"active","ping":107},{"user_id":392,"name":"Ostrich","steam_id":76561198068553779,"connected_time":9716000000000,"state":"active","ping":78},{"user_id":501,"name":"Not Giga Chad","steam_id":76561198059785363,"connected_time":1048000000000,"state":"active","ping":60},{"user_id":492,"name":"Puppygirl GF","steam_id":76561198085813708,"connected_time":1648000000000,"state":"active","ping":70},{"user_id":499,"name":"fleepore (:","steam_id":76561199238295034,"connected_time":1476000000000,"state":"active","ping":71},{"user_id":415,"name":"1TheExterminator","steam_id":76561198972879727,"connected_time":8001000000000,"state":"active","ping":48},{"user_id":507,"name":"Marvelous","steam_id":76561199083888017,"connected_time":2000000000,"state":"spawning","ping":38},{"user_id":483,"name":"Eins","steam_id":76561199030343810,"connected_time":2647000000000,"state":"active","ping":59},{"user_id":474,"name":"peebs","steam_id":76561198261319753,"connected_time":3357000000000,"state":"active","ping":50},{"user_id":504,"name":"MyTeamIsAzz","steam_id":76561198241921220,"connected_time":857000000000,"state":"active","ping":94},{"user_id":502,"name":"Abaddon","steam_id":76561198030992243,"connected_time":1046000000000,"state":"active","ping":88},{"user_id":503,"name":"Mr. DeLarge","steam_id":76561198336820066,"connected_time":1023000000000,"state":"active","ping":111},{"user_id":382,"name":"Career","steam_id":76561198028542212,"connected_time":10425000000000,"state":"active","ping":76},{"user_id":497,"name":"ElZeto","steam_id":76561198252322622,"connected_time":1559000000000,"state":"active","ping":90},{"user_id":500,"name":"Shattered Glass","steam_id":76561198116835391,"connected_time":1435000000000,"state":"active","ping":88},{"user_id":484,"name":"Zen1th","steam_id":76561199105729447,"connected_time":2625000000000,"state":"active","ping":54},{"user_id":498,"name":"moe","steam_id":76561198929586245,"connected_time":1497000000000,"state":"active","ping":85},{"user_id":473,"name":"IlTrashPanda","steam_id":76561198447864095,"connected_time":3389000000000,"state":"active","ping":66},{"user_id":396,"name":"Atlas","steam_id":76561198127975050,"connected_time":9552000000000,"state":"active","ping":70},{"user_id":505,"name":"FanaticSalt","steam_id":76561199380123059,"connected_time":527000000000,"state":"active","ping":50},{"user_id":435,"name":"Roxie (she/her)","steam_id":76561198283084060,"connected_time":6750000000000,"state":"active","ping":92},{"user_id":453,"name":"trans lefts","steam_id":76561198031704886,"connected_time":5055000000000,"state":"active","ping":106}]},{"server_id":108,"name":"Uncletopia | Dallas | 2 | All Maps","name_short":"dal-2","host":"dal-1.us.uncletopia.com","port":27025,"enabled":true,"region":"us-central","cc":"us","latitude":32.779167,"longitude":-96.80889,"reserved":0,"last_update":"0001-01-01T00:00:00Z","name_a2s":"Uncletopia | Dallas | 2 | All Maps","protocol":17,"map":"plr_hightower","folder":"tf","game":"Team Fortress","app_id":440,"player_count":24,"max_players":24,"Bots":0,"server_type":"Dedicated","server_os":"Linux","password":true,"vac":true,"version":"7932396","steam_id":85568392924469988,"keywords":["nocrits","nodmgspread","payload","uncletopia"],"game_id":440,"stv_port":27026,"stv_name":"Uncletopia | Dallas | 2 | All Maps | STV","players":[{"user_id":76,"name":"Galaxy","steam_id":76561197997354354,"connected_time":9397000000000,"state":"active","ping":76},{"user_id":142,"name":"younggflylyfe","steam_id":76561199477357832,"connected_time":4903000000000,"state":"active","ping":39},{"user_id":196,"name":"inax","steam_id":76561198398677744,"connected_time":1939000000000,"state":"active","ping":119},{"user_id":212,"name":"Jo","steam_id":76561198060447015,"connected_time":706000000000,"state":"active","ping":79},{"user_id":225,"name":"2JZ_","steam_id":76561198064027289,"connected_time":333000000000,"state":"active","ping":69},{"user_id":230,"name":"bigtoastman1","steam_id":76561199336705882,"connected_time":20000000000,"state":"active","ping":82},{"user_id":67,"name":"Drozz Misses Shots","steam_id":76561198072555204,"connected_time":9773000000000,"state":"active","ping":74},{"user_id":223,"name":"UstuloTV","steam_id":76561198031039164,"connected_time":509000000000,"state":"active","ping":81},{"user_id":163,"name":"Rob","steam_id":76561199187786660,"connected_time":3825000000000,"state":"active","ping":55},{"user_id":227,"name":"dont tripp","steam_id":76561198370431307,"connected_time":228000000000,"state":"active","ping":72},{"user_id":224,"name":"Mediocre","steam_id":76561198180501391,"connected_time":487000000000,"state":"active","ping":87},{"user_id":221,"name":"Winter the Witchie","steam_id":76561198151971178,"connected_time":570000000000,"state":"active","ping":87},{"user_id":206,"name":"kiv","steam_id":76561198838223023,"connected_time":1164000000000,"state":"active","ping":74},{"user_id":216,"name":"Az","steam_id":76561198259089290,"connected_time":642000000000,"state":"active","ping":179},{"user_id":218,"name":"галіся","steam_id":76561198862422235,"connected_time":617000000000,"state":"active","ping":98},{"user_id":226,"name":"Reverend Swoll","steam_id":76561198121302698,"connected_time":255000000000,"state":"active","ping":67},{"user_id":202,"name":"cringeass nae-nae girl","steam_id":76561198108753857,"connected_time":1651000000000,"state":"active","ping":71},{"user_id":228,"name":"Oopsie Daisy ❋","steam_id":76561198042144492,"connected_time":58000000000,"state":"active","ping":65},{"user_id":191,"name":"Hatfam","steam_id":76561199192629036,"connected_time":2129000000000,"state":"active","ping":101},{"user_id":219,"name":"furrysuicide","steam_id":76561198852938533,"connected_time":609000000000,"state":"active","ping":85},{"user_id":220,"name":"lvl 99 bastard","steam_id":76561198044761617,"connected_time":608000000000,"state":"active","ping":87},{"user_id":214,"name":"STYX N' STONES","steam_id":76561198405489284,"connected_time":705000000000,"state":"active","ping":60},{"user_id":175,"name":"Fightin Cow","steam_id":76561198080941486,"connected_time":2697000000000,"state":"active","ping":63},{"user_id":170,"name":"Zetta","steam_id":76561198045710113,"connected_time":3256000000000,"state":"active","ping":84}]},{"server_id":5,"name":"Uncletopia | Frankfurt | 1 | All Maps","name_short":"frk-1","host":"frk-1.de.uncletopia.com","port":27015,"enabled":true,"region":"eu","cc":"de","latitude":50.110924,"longitude":8.682127,"reserved":0,"last_update":"0001-01-01T00:00:00Z","name_a2s":"Uncletopia | Frankfurt | 1 | All Maps","protocol":17,"map":"pl_badwater","folder":"tf","game":"Team Fortress","app_id":440,"player_count":24,"max_players":24,"Bots":0,"server_type":"Dedicated","server_os":"Linux","password":true,"vac":true,"version":"7932396","steam_id":85568392924469989,"keywords":["nocrits","nodmgspread","payload","uncletopia"],"game_id":440,"stv_port":27016,"stv_name":"Uncletopia | Frankfurt | 1 | All Maps | STV","players":[{"user_id":773,"name":"Gramma!","steam_id":76561198340989175,"connected_time":1547000000000,"state":"active","ping":179},{"user_id":781,"name":"twscsvl","steam_id":76561198045304929,"connected_time":1247000000000,"state":"active","ping":90},{"user_id":788,"name":"Three Goblins in a Jumpsuit","steam_id":76561198052105272,"connected_time":246000000000,"state":"active","ping":71},{"user_id":757,"name":"r4s1","steam_id":76561198024034917,"connected_time":2254000000000,"state":"active","ping":59},{"user_id":705,"name":"teddy","steam_id":76561198007436837,"connected_time":4886000000000,"state":"active","ping":55},{"user_id":787,"name":"akciq ⁧⁧respect","steam_id":76561198390963456,"connected_time":369000000000,"state":"active","ping":78},{"user_id":789,"name":"Flying Objects","steam_id":76561198018207813,"connected_time":226000000000,"state":"active","ping":63},{"user_id":758,"name":"MEGOS","steam_id":76561198172740637,"connected_time":2237000000000,"state":"active","ping":50},{"user_id":761,"name":"limbicsystem","steam_id":76561198025612680,"connected_time":2216000000000,"state":"active","ping":71},{"user_id":786,"name":"Zizman","steam_id":76561198446562910,"connected_time":522000000000,"state":"active","ping":137},{"user_id":790,"name":"Muselk / Tryhard Tuesday!","steam_id":76561198815271970,"connected_time":190000000000,"state":"active","ping":69},{"user_id":785,"name":"cazador","steam_id":76561198123096922,"connected_time":687000000000,"state":"active","ping":90},{"user_id":780,"name":"neJ","steam_id":76561198003397488,"connected_time":1288000000000,"state":"active","ping":65},{"user_id":791,"name":"[ALT_F4]dottor_cacabula_m8","steam_id":76561198173192267,"connected_time":183000000000,"state":"active","ping":76},{"user_id":792,"name":"Can I Get Uhh","steam_id":76561199008841831,"connected_time":149000000000,"state":"active","ping":88},{"user_id":793,"name":"Wat","steam_id":76561198142762914,"connected_time":136000000000,"state":"active","ping":55},{"user_id":794,"name":"n//?!bu","steam_id":76561198307037169,"connected_time":111000000000,"state":"active","ping":71},{"user_id":798,"name":"Operunter","steam_id":76561198059937616,"connected_time":3000000000,"state":"spawning","ping":46},{"user_id":762,"name":"Lux","steam_id":76561198060417740,"connected_time":2165000000000,"state":"active","ping":56},{"user_id":763,"name":"Raulca25","steam_id":76561199068256964,"connected_time":2160000000000,"state":"active","ping":79},{"user_id":797,"name":"beep!","steam_id":76561198111674607,"connected_time":26000000000,"state":"active","ping":54},{"user_id":765,"name":"[P-roc] Cmm Bert","steam_id":76561198016658674,"connected_time":2144000000000,"state":"active","ping":74},{"user_id":796,"name":"based tored","steam_id":76561198164103660,"connected_time":102000000000,"state":"active","ping":70},{"user_id":769,"name":"Greasus (The Shockingly Obese)","steam_id":76561198027738546,"connected_time":2044000000000,"state":"active","ping":59}]},{"server_id":110,"name":"Uncletopia | Frankfurt | 2 | All Maps","name_short":"frk-2","host":"frk-1.de.uncletopia.com","port":27025,"enabled":true,"region":"eu","cc":"de","latitude":50.110924,"longitude":8.682127,"reserved":0,"last_update":"0001-01-01T00:00:00Z","name_a2s":"Uncletopia | Frankfurt | 2 | All Maps","protocol":17,"map":"koth_highpass","folder":"tf","game":"Team Fortress","app_id":440,"player_count":0,"max_players":24,"Bots":0,"server_type":"Dedicated","server_os":"Linux","password":true,"vac":true,"version":"7932396","steam_id":85568392924469990,"keywords":["cp","nocrits","nodmgspread","uncletopia"],"game_id":440,"stv_port":27026,"stv_name":"Uncletopia | Frankfurt | 2 | All Maps | STV","players":null},{"server_id":308,"name":"Uncletopia | Frankfurt | 3 | All Maps","name_short":"frk-3","host":"frk-1.de.uncletopia.com","port":27035,"enabled":true,"region":"eu","cc":"de","latitude":50.110924,"longitude":8.682127,"reserved":0,"last_update":"0001-01-01T00:00:00Z","name_a2s":"Uncletopia | Frankfurt | 3 | All Maps","protocol":17,"map":"cp_snakewater_final1","folder":"tf","game":"Team Fortress","app_id":440,"player_count":4,"max_players":24,"Bots":0,"server_type":"Dedicated","server_os":"Linux","password":true,"vac":true,"version":"7932396","steam_id":85568392924504274,"keywords":["cp","nocrits","nodmgspread","uncletopia"],"game_id":440,"stv_port":27036,"stv_name":"Uncletopia | Frankfurt | 3 | All Maps | STV","players":[{"user_id":483,"name":"Everything personal mate","steam_id":76561198959653084,"connected_time":1629000000000,"state":"active","ping":88},{"user_id":484,"name":"The_Goofiest_Poldier","steam_id":76561199344920588,"connected_time":1559000000000,"state":"active","ping":109},{"user_id":485,"name":"Fart_Scout_Main","steam_id":76561199121698622,"connected_time":1323000000000,"state":"active","ping":91},{"user_id":488,"name":"Chillrend | #SaveTF2","steam_id":76561198452963141,"connected_time":104000000000,"state":"active","ping":74}]},{"server_id":309,"name":"Uncletopia | Frankfurt | 4 | All Maps","name_short":"frk-4","host":"frk-1.de.uncletopia.com","port":27045,"enabled":true,"region":"eu","cc":"de","latitude":50.110924,"longitude":8.682127,"reserved":0,"last_update":"0001-01-01T00:00:00Z","name_a2s":"Uncletopia | Frankfurt | 4 | All Maps","protocol":17,"map":"pl_badwater","folder":"tf","game":"Team Fortress","app_id":440,"player_count":24,"max_players":24,"Bots":0,"server_type":"Dedicated","server_os":"Linux","password":true,"vac":true,"version":"7932396","steam_id":85568392924504275,"keywords":["nocrits","nodmgspread","payload","uncletopia"],"game_id":440,"stv_port":27046,"stv_name":"Uncletopia | Frankfurt | 4 | All Maps | STV","players":[{"user_id":401,"name":"Tequila","steam_id":76561198046161044,"connected_time":1030000000000,"state":"active","ping":58},{"user_id":392,"name":"CAMON ENGELAND","steam_id":76561198054301125,"connected_time":1337000000000,"state":"active","ping":90},{"user_id":396,"name":"Confused1221","steam_id":76561199061802741,"connected_time":1187000000000,"state":"active","ping":64},{"user_id":407,"name":"Karl Marxman","steam_id":76561197988226117,"connected_time":535000000000,"state":"active","ping":73},{"user_id":380,"name":"Stu","steam_id":76561198131449281,"connected_time":2796000000000,"state":"active","ping":47},{"user_id":231,"name":"Bobirulez","steam_id":76561198009125458,"connected_time":15581000000000,"state":"active","ping":73},{"user_id":403,"name":"TAFI03","steam_id":76561198213082089,"connected_time":701000000000,"state":"active","ping":56},{"user_id":395,"name":"Portal2Player","steam_id":76561198062870114,"connected_time":1267000000000,"state":"active","ping":160},{"user_id":375,"name":"tony pastarino","steam_id":76561197993777553,"connected_time":3272000000000,"state":"active","ping":60},{"user_id":399,"name":"Metalizer","steam_id":76561198099595082,"connected_time":1125000000000,"state":"active","ping":98},{"user_id":364,"name":"Omu norilor","steam_id":76561198453523560,"connected_time":4920000000000,"state":"active","ping":78},{"user_id":369,"name":"Țestos Isteț","steam_id":76561198229034852,"connected_time":4642000000000,"state":"active","ping":83},{"user_id":390,"name":"Cat Poop","steam_id":76561198149986505,"connected_time":1506000000000,"state":"active","ping":54},{"user_id":361,"name":"sareena","steam_id":76561198810194062,"connected_time":5096000000000,"state":"active","ping":76},{"user_id":374,"name":"cuddle","steam_id":76561198805181599,"connected_time":3283000000000,"state":"active","ping":69},{"user_id":368,"name":"static","steam_id":76561198836825741,"connected_time":4708000000000,"state":"active","ping":68},{"user_id":373,"name":"Woman (Real)","steam_id":76561199151823932,"connected_time":3309000000000,"state":"active","ping":78},{"user_id":371,"name":"Kahvi","steam_id":76561198723244199,"connected_time":3624000000000,"state":"active","ping":83},{"user_id":301,"name":"finbar","steam_id":76561198056812396,"connected_time":9901000000000,"state":"active","ping":77},{"user_id":383,"name":"glizzy goblin","steam_id":76561198397923449,"connected_time":2715000000000,"state":"active","ping":72},{"user_id":406,"name":"Chambersite","steam_id":76561198197022399,"connected_time":543000000000,"state":"active","ping":58},{"user_id":362,"name":"Intruder","steam_id":76561198156128173,"connected_time":5088000000000,"state":"active","ping":81},{"user_id":408,"name":"Akero","steam_id":76561198857883916,"connected_time":382000000000,"state":"active","ping":84},{"user_id":385,"name":"Ostara","steam_id":76561198200054489,"connected_time":2694000000000,"state":"active","ping":105}]},{"server_id":310,"name":"Uncletopia | Frankfurt | 5 | All Maps","name_short":"frk-5","host":"frk-1.de.uncletopia.com","port":27055,"enabled":true,"region":"eu","cc":"de","latitude":50.110924,"longitude":8.682127,"reserved":0,"last_update":"0001-01-01T00:00:00Z","name_a2s":"Uncletopia | Frankfurt | 5 | All Maps","protocol":17,"map":"pl_swiftwater_final1","folder":"tf","game":"Team Fortress","app_id":440,"player_count":24,"max_players":24,"Bots":0,"server_type":"Dedicated","server_os":"Linux","password":true,"vac":true,"version":"7932396","steam_id":85568392924504277,"keywords":["nocrits","nodmgspread","payload","uncletopia"],"game_id":440,"stv_port":27056,"stv_name":"Uncletopia | Frankfurt | 5 | All Maps | STV","players":[{"user_id":543,"name":"誰かが見ている","steam_id":76561198834913692,"connected_time":3163000000000,"state":"active","ping":68},{"user_id":572,"name":"dongus","steam_id":76561198042774930,"connected_time":554000000000,"state":"active","ping":71},{"user_id":573,"name":"Hussain_144","steam_id":76561198346029208,"connected_time":534000000000,"state":"active","ping":187},{"user_id":574,"name":"Rudy Karma","steam_id":76561198349348738,"connected_time":520000000000,"state":"active","ping":61},{"user_id":545,"name":"Bill_nye","steam_id":76561199216249214,"connected_time":3137000000000,"state":"active","ping":130},{"user_id":583,"name":"Ozy","steam_id":76561198257359584,"connected_time":273000000000,"state":"active","ping":72},{"user_id":452,"name":"str1k","steam_id":76561198450366153,"connected_time":9484000000000,"state":"active","ping":146},{"user_id":576,"name":"Ω ScAVENGE Ω","steam_id":76561198034375627,"connected_time":422000000000,"state":"active","ping":53},{"user_id":577,"name":"sunshine","steam_id":76561198084597975,"connected_time":409000000000,"state":"active","ping":63},{"user_id":578,"name":"cl","steam_id":76561199436640904,"connected_time":378000000000,"state":"active","ping":82},{"user_id":586,"name":"ABbott_","steam_id":76561198030528873,"connected_time":76000000000,"state":"active","ping":71},{"user_id":580,"name":"full immersion :]","steam_id":76561198248239796,"connected_time":375000000000,"state":"active","ping":72},{"user_id":549,"name":"BELADIT","steam_id":76561198011911501,"connected_time":3073000000000,"state":"active","ping":70},{"user_id":537,"name":"TylowStar","steam_id":76561198357107806,"connected_time":3880000000000,"state":"active","ping":59},{"user_id":581,"name":"Shovel the eggneer","steam_id":76561199006243788,"connected_time":331000000000,"state":"active","ping":85},{"user_id":571,"name":"ArikMor","steam_id":76561199124472513,"connected_time":679000000000,"state":"active","ping":120},{"user_id":582,"name":"o_o","steam_id":76561198113045011,"connected_time":321000000000,"state":"active","ping":90},{"user_id":584,"name":"Wyremingo","steam_id":76561198314337596,"connected_time":237000000000,"state":"active","ping":116},{"user_id":446,"name":"pretty boy","steam_id":76561198345972230,"connected_time":10397000000000,"state":"active","ping":74},{"user_id":587,"name":"iuSDIB8+ ň7","steam_id":76561198363768590,"connected_time":70000000000,"state":"active","ping":73},{"user_id":473,"name":"Carrotcracker","steam_id":76561198034862396,"connected_time":7970000000000,"state":"active","ping":70},{"user_id":542,"name":"eeeeee","steam_id":76561198017786875,"connected_time":3205000000000,"state":"active","ping":59},{"user_id":585,"name":"walking plane","steam_id":76561198146779559,"connected_time":237000000000,"state":"active","ping":76},{"user_id":554,"name":"Lernix","steam_id":76561198382328645,"connected_time":2902000000000,"state":"active","ping":57}]},{"server_id":311,"name":"Uncletopia | Frankfurt | 6 | All Maps","name_short":"frk-6","host":"frk-1.de.uncletopia.com","port":27065,"enabled":true,"region":"eu","cc":"de","latitude":50.110924,"longitude":8.682127,"reserved":0,"last_update":"0001-01-01T00:00:00Z","name_a2s":"Uncletopia | Frankfurt | 6 | All Maps","protocol":17,"map":"koth_highpass","folder":"tf","game":"Team Fortress","app_id":440,"player_count":12,"max_players":24,"Bots":0,"server_type":"Dedicated","server_os":"Linux","password":true,"vac":true,"version":"7932396","steam_id":85568392924504278,"keywords":["cp","nocrits","nodmgspread","uncletopia"],"game_id":440,"stv_port":27066,"stv_name":"Uncletopia | Frankfurt | 6 | All Maps | STV","players":[{"user_id":215,"name":"Tatsu","steam_id":76561198026601479,"connected_time":2085000000000,"state":"active","ping":66},{"user_id":217,"name":"ReclusiveMike","steam_id":76561198053349061,"connected_time":2041000000000,"state":"active","ping":87},{"user_id":221,"name":"The last Braincell","steam_id":76561199145278275,"connected_time":1923000000000,"state":"active","ping":43},{"user_id":229,"name":"Nobody","steam_id":76561198151116796,"connected_time":929000000000,"state":"active","ping":80},{"user_id":232,"name":"Aisforlike","steam_id":76561199482110668,"connected_time":400000000000,"state":"active","ping":166},{"user_id":222,"name":"Jácint","steam_id":76561198118501005,"connected_time":1922000000000,"state":"active","ping":65},{"user_id":218,"name":"KNNTX","steam_id":76561198161313074,"connected_time":2041000000000,"state":"active","ping":107},{"user_id":231,"name":"true","steam_id":76561198031145243,"connected_time":649000000000,"state":"active","ping":89},{"user_id":233,"name":"Ajoj","steam_id":76561199210963141,"connected_time":365000000000,"state":"active","ping":60},{"user_id":219,"name":"PKCrane","steam_id":76561198038672847,"connected_time":2037000000000,"state":"active","ping":69},{"user_id":234,"name":"Bobbeldibob","steam_id":76561198256796473,"connected_time":268000000000,"state":"active","ping":56},{"user_id":228,"name":"HentaiEnjoyer","steam_id":76561198148361982,"connected_time":1552000000000,"state":"active","ping":51}]},{"server_id":23,"name":"Uncletopia | Frankfurt | 7 | Stopwatch Beta","name_short":"frk-7","host":"frk-1.de.uncletopia.com","port":27075,"enabled":true,"region":"eu","cc":"de","latitude":50.110924,"longitude":8.682127,"reserved":0,"last_update":"0001-01-01T00:00:00Z","name_a2s":"Uncletopia | Frankfurt | 7 | Stopwatch Beta","protocol":17,"map":"pl_snowycoast","folder":"tf","game":"Team Fortress","app_id":440,"player_count":0,"max_players":24,"Bots":0,"server_type":"Dedicated","server_os":"Linux","password":true,"vac":true,"version":"7932396","steam_id":85568392924742827,"keywords":["nocrits","nodmgspread","payload","uncletopia"],"game_id":440,"stv_port":27076,"stv_name":"Uncletopia | Frankfurt | 7 | Stopwatch Beta | STV","players":null},{"server_id":24,"name":"Uncletopia | Frankfurt | 8 | Community","name_short":"frk-8","host":"frk-1.de.uncletopia.com","port":27085,"enabled":true,"region":"eu","cc":"de","latitude":50.110924,"longitude":8.682127,"reserved":0,"last_update":"0001-01-01T00:00:00Z","name_a2s":"Uncletopia | Frankfurt | 8 | Community","protocol":17,"map":"workshop/cp_propaganda_b18.ugc1603743849","folder":"tf","game":"Team Fortress","app_id":440,"player_count":12,"max_players":24,"Bots":0,"server_type":"Dedicated","server_os":"Linux","password":true,"vac":true,"version":"7932396","steam_id":85568392924742828,"keywords":["cp","nocrits","nodmgspread","uncletopia"],"game_id":440,"stv_port":27086,"stv_name":"Uncletopia | Frankfurt | 8 | Community | STV","players":[{"user_id":29,"name":"Daan77","steam_id":76561198129940468,"connected_time":3820000000000,"state":"active","ping":71},{"user_id":87,"name":"chess club manager","steam_id":76561198011047413,"connected_time":487000000000,"state":"active","ping":67},{"user_id":31,"name":"tiia","steam_id":76561198046196005,"connected_time":3764000000000,"state":"active","ping":39},{"user_id":84,"name":"You're","steam_id":76561198850274272,"connected_time":857000000000,"state":"active","ping":48},{"user_id":35,"name":"Yobopan","steam_id":76561198088064860,"connected_time":3748000000000,"state":"active","ping":69},{"user_id":69,"name":"Yrjö Koskinen Yrjö-Koskinen","steam_id":76561198368181145,"connected_time":2022000000000,"state":"active","ping":74},{"user_id":73,"name":"Big Smoke","steam_id":76561198118625233,"connected_time":1769000000000,"state":"active","ping":55},{"user_id":63,"name":"TF2","steam_id":76561198256328990,"connected_time":2795000000000,"state":"active","ping":82},{"user_id":74,"name":"nicco","steam_id":76561198046217866,"connected_time":1755000000000,"state":"active","ping":44},{"user_id":51,"name":"isaku","steam_id":76561198092648865,"connected_time":3115000000000,"state":"active","ping":68},{"user_id":52,"name":"CaptiaNNooBS437","steam_id":76561198844010921,"connected_time":3111000000000,"state":"active","ping":56},{"user_id":83,"name":"JugoTopia","steam_id":76561197996067209,"connected_time":1100000000000,"state":"active","ping":114}]},{"server_id":202,"name":"Uncletopia | Hong Kong | 1 | All Maps","name_short":"hgk-1","host":"hgk-1.hk.uncletopia.com","port":27015,"enabled":true,"region":"asia","cc":"hk","latitude":22.302711,"longitude":114.177216,"reserved":0,"last_update":"0001-01-01T00:00:00Z","name_a2s":"Uncletopia | Hong Kong | 1 | All Maps","protocol":17,"map":"koth_viaduct","folder":"tf","game":"Team Fortress","app_id":440,"player_count":0,"max_players":24,"Bots":0,"server_type":"Dedicated","server_os":"Linux","password":true,"vac":true,"version":"7932396","steam_id":85568392924494504,"keywords":["cp","nocrits","nodmgspread","uncletopia"],"game_id":440,"stv_port":27016,"stv_name":"Uncletopia | Hong Kong | 1 | All Maps | STV","players":null},{"server_id":1,"name":"Uncletopia | Los Angeles | 1 | All Maps","name_short":"lax-1","host":"lax-1.us.uncletopia.com","port":27015,"enabled":true,"region":"us-west","cc":"us","latitude":33.94279,"longitude":-118.41004,"reserved":0,"last_update":"0001-01-01T00:00:00Z","name_a2s":"Uncletopia | Los Angeles | 1 | All Maps","protocol":17,"map":"pl_barnblitz","folder":"tf","game":"Team Fortress","app_id":440,"player_count":0,"max_players":24,"Bots":0,"server_type":"Dedicated","server_os":"Linux","password":true,"vac":true,"version":"7932396","steam_id":85568392924469991,"keywords":["nocrits","nodmgspread","payload","uncletopia"],"game_id":440,"stv_port":27016,"stv_name":"Uncletopia | Los Angeles | 1 | All Maps | STV","players":null},{"server_id":112,"name":"Uncletopia | Los Angeles | 2 | All Maps","name_short":"lax-2","host":"lax-1.us.uncletopia.com","port":27025,"enabled":true,"region":"us-west","cc":"us","latitude":33.94279,"longitude":-118.41004,"reserved":0,"last_update":"0001-01-01T00:00:00Z","name_a2s":"Uncletopia | Los Angeles | 2 | All Maps","protocol":17,"map":"ctf_2fort","folder":"tf","game":"Team Fortress","app_id":440,"player_count":2,"max_players":24,"Bots":0,"server_type":"Dedicated","server_os":"Linux","password":true,"vac":true,"version":"7932396","steam_id":85568392924469992,"keywords":["ctf","nocrits","nodmgspread","uncletopia"],"game_id":440,"stv_port":27026,"stv_name":"Uncletopia | Los Angeles | 2 | All Maps | STV","players":[{"user_id":6,"name":"HooDoo","steam_id":76561198088994018,"connected_time":4132000000000,"state":"active","ping":74},{"user_id":13,"name":"Dr. Klein","steam_id":76561198153785148,"connected_time":926000000000,"state":"active","ping":105}]},{"server_id":324,"name":"Uncletopia | Los Angeles | 3 | All Maps","name_short":"lax-3","host":"lax-1.us.uncletopia.com","port":27035,"enabled":true,"region":"us-west","cc":"us","latitude":33.94279,"longitude":-118.41004,"reserved":0,"last_update":"0001-01-01T00:00:00Z","name_a2s":"Uncletopia | Los Angeles | 3 | All Maps","protocol":17,"map":"koth_viaduct","folder":"tf","game":"Team Fortress","app_id":440,"player_count":0,"max_players":24,"Bots":0,"server_type":"Dedicated","server_os":"Linux","password":true,"vac":true,"version":"7932396","steam_id":85568392924510198,"keywords":["cp","nocrits","nodmgspread","uncletopia"],"game_id":440,"stv_port":27036,"stv_name":"Uncletopia | Los Angeles | 3 | All Maps | STV","players":null},{"server_id":25,"name":"Uncletopia | Los Angeles | 4 | Stopwatch Beta","name_short":"lax-4","host":"lax-1.us.uncletopia.com","port":27045,"enabled":true,"region":"us-west","cc":"us","latitude":33.94279,"longitude":-118.41004,"reserved":0,"last_update":"0001-01-01T00:00:00Z","name_a2s":"Uncletopia | Los Angeles | 4 | Stopwatch Beta","protocol":17,"map":"pl_upward","folder":"tf","game":"Team Fortress","app_id":440,"player_count":0,"max_players":24,"Bots":0,"server_type":"Dedicated","server_os":"Linux","password":true,"vac":true,"version":"7932396","steam_id":85568392924510199,"keywords":["nocrits","nodmgspread","payload","uncletopia"],"game_id":440,"stv_port":27046,"stv_name":"Uncletopia | Los Angeles | 4 | Stopwatch Beta | STV","players":null},{"server_id":11,"name":"Uncletopia | London | 1 | All Maps","name_short":"lon-1","host":"lon-1.uk.uncletopia.com","port":27015,"enabled":true,"region":"eu","cc":"gb","latitude":51.509865,"longitude":-0.118092,"reserved":0,"last_update":"0001-01-01T00:00:00Z","name_a2s":"Uncletopia | London | 1 | All Maps","protocol":17,"map":"pl_frontier_final","folder":"tf","game":"Team Fortress","app_id":440,"player_count":24,"max_players":24,"Bots":0,"server_type":"Dedicated","server_os":"Linux","password":true,"vac":true,"version":"7932396","steam_id":85568392924367362,"keywords":["nocrits","nodmgspread","payload","uncletopia"],"game_id":440,"stv_port":27016,"stv_name":"Uncletopia | London | 1 | All Maps | STV","players":[{"user_id":526,"name":"Krocon","steam_id":76561198084906316,"connected_time":552000000000,"state":"active","ping":92},{"user_id":539,"name":"Teathling","steam_id":76561198061580505,"connected_time":370000000000,"state":"active","ping":51},{"user_id":490,"name":"beheading video from 2009","steam_id":76561198834897089,"connected_time":3966000000000,"state":"active","ping":69},{"user_id":503,"name":"w+m1","steam_id":76561198010428082,"connected_time":2624000000000,"state":"active","ping":77},{"user_id":521,"name":"soar","steam_id":76561198010662796,"connected_time":725000000000,"state":"active","ping":42},{"user_id":514,"name":"Kestrel","steam_id":76561198144033005,"connected_time":2090000000000,"state":"active","ping":49},{"user_id":353,"name":"Bottle O' Scrumpy","steam_id":76561199244250562,"connected_time":7781000000000,"state":"active","ping":105},{"user_id":535,"name":"Aroo","steam_id":76561198132601368,"connected_time":461000000000,"state":"active","ping":78},{"user_id":520,"name":"Diogenes Swagus","steam_id":76561198006293325,"connected_time":761000000000,"state":"active","ping":94},{"user_id":524,"name":"Random city potato","steam_id":76561199010542992,"connected_time":593000000000,"state":"active","ping":59},{"user_id":525,"name":"FoOzTV","steam_id":76561197998636728,"connected_time":572000000000,"state":"active","ping":68},{"user_id":538,"name":"meatsoupcube","steam_id":76561198276802249,"connected_time":391000000000,"state":"active","ping":100},{"user_id":537,"name":"TMC","steam_id":76561198077956157,"connected_time":416000000000,"state":"active","ping":43},{"user_id":527,"name":"Thing","steam_id":76561197997904403,"connected_time":549000000000,"state":"active","ping":103},{"user_id":491,"name":"FirePenguin","steam_id":76561198151468340,"connected_time":3883000000000,"state":"active","ping":30},{"user_id":518,"name":"flappi","steam_id":76561198072892783,"connected_time":2040000000000,"state":"active","ping":72},{"user_id":534,"name":"shooer!","steam_id":76561198110531281,"connected_time":482000000000,"state":"active","ping":68},{"user_id":530,"name":"breakfast burrito","steam_id":76561198148606969,"connected_time":536000000000,"state":"active","ping":83},{"user_id":540,"name":"☆✦S u g o i✦☆","steam_id":76561198063155307,"connected_time":334000000000,"state":"active","ping":203},{"user_id":531,"name":"Seri","steam_id":76561198017135441,"connected_time":535000000000,"state":"active","ping":54},{"user_id":542,"name":"JackATTACK","steam_id":76561198350333277,"connected_time":26000000000,"state":"active","ping":121},{"user_id":498,"name":"Aaron","steam_id":76561197990046953,"connected_time":3048000000000,"state":"active","ping":56},{"user_id":541,"name":"French Toast","steam_id":76561198983973946,"connected_time":270000000000,"state":"active","ping":128},{"user_id":517,"name":"The Nostalgia Critic","steam_id":76561198360395476,"connected_time":2066000000000,"state":"active","ping":43}]},{"server_id":114,"name":"Uncletopia | London | 2 | All Maps","name_short":"lon-2","host":"lon-1.uk.uncletopia.com","port":27025,"enabled":true,"region":"eu","cc":"gb","latitude":51.509865,"longitude":-0.118092,"reserved":0,"last_update":"0001-01-01T00:00:00Z","name_a2s":"Uncletopia | London | 2 | All Maps","protocol":17,"map":"pl_borneo","folder":"tf","game":"Team Fortress","app_id":440,"player_count":24,"max_players":24,"Bots":0,"server_type":"Dedicated","server_os":"Linux","password":true,"vac":true,"version":"7932396","steam_id":85568392924470941,"keywords":["nocrits","nodmgspread","payload","uncletopia"],"game_id":440,"stv_port":27026,"stv_name":"Uncletopia | London | 2 | All Maps | STV","players":[{"user_id":107,"name":"yuno appreciator","steam_id":76561198083286511,"connected_time":9355000000000,"state":"active","ping":33},{"user_id":253,"name":"shankz","steam_id":76561198128803260,"connected_time":1087000000000,"state":"active","ping":47},{"user_id":275,"name":"♂ Dungeon Master ♂","steam_id":76561198106441033,"connected_time":211000000000,"state":"active","ping":100},{"user_id":254,"name":"Ganasti","steam_id":76561198382925185,"connected_time":1083000000000,"state":"active","ping":88},{"user_id":266,"name":"BuzzBees ❤","steam_id":76561198101502273,"connected_time":868000000000,"state":"active","ping":50},{"user_id":221,"name":"Henry Fonda","steam_id":76561199378865926,"connected_time":3219000000000,"state":"active","ping":80},{"user_id":271,"name":"engie?","steam_id":76561198331852832,"connected_time":472000000000,"state":"active","ping":46},{"user_id":257,"name":"Traviss_scottt","steam_id":76561199004656441,"connected_time":1037000000000,"state":"active","ping":88},{"user_id":258,"name":"omnibombulator","steam_id":76561198025858897,"connected_time":1006000000000,"state":"active","ping":47},{"user_id":238,"name":"Mr_Pulse_","steam_id":76561198095001602,"connected_time":2285000000000,"state":"active","ping":104},{"user_id":188,"name":"The Lady","steam_id":76561198029895809,"connected_time":4943000000000,"state":"active","ping":89},{"user_id":214,"name":"Puss in Boots","steam_id":76561198211599767,"connected_time":3989000000000,"state":"active","ping":55},{"user_id":264,"name":"KittyKate ❤","steam_id":76561198116340817,"connected_time":931000000000,"state":"active","ping":61},{"user_id":259,"name":"D_Ink","steam_id":76561198267716662,"connected_time":984000000000,"state":"active","ping":34},{"user_id":260,"name":"Dewotter","steam_id":76561198007653168,"connected_time":976000000000,"state":"active","ping":61},{"user_id":265,"name":"Charlie Hansen","steam_id":76561198030956814,"connected_time":903000000000,"state":"active","ping":63},{"user_id":276,"name":"Arthur","steam_id":76561198066109166,"connected_time":176000000000,"state":"active","ping":83},{"user_id":230,"name":"Kosmonaukt","steam_id":76561198168108777,"connected_time":2545000000000,"state":"active","ping":47},{"user_id":267,"name":"xulera","steam_id":76561198080736030,"connected_time":794000000000,"state":"active","ping":66},{"user_id":239,"name":"yuck","steam_id":76561197987249568,"connected_time":2266000000000,"state":"active","ping":105},{"user_id":272,"name":"ßchreibtißchßtuhl","steam_id":76561198089291564,"connected_time":448000000000,"state":"active","ping":65},{"user_id":222,"name":"Cervantes","steam_id":76561198099245500,"connected_time":2935000000000,"state":"active","ping":59},{"user_id":240,"name":"Rolloden","steam_id":76561198069414404,"connected_time":2259000000000,"state":"active","ping":75},{"user_id":277,"name":"chill","steam_id":76561198198581079,"connected_time":110000000000,"state":"active","ping":144}]},{"server_id":320,"name":"Uncletopia | London | 3 | All Maps","name_short":"lon-3","host":"lon-1.uk.uncletopia.com","port":27035,"enabled":true,"region":"eu","cc":"gb","latitude":51.509865,"longitude":-0.118092,"reserved":0,"last_update":"0001-01-01T00:00:00Z","name_a2s":"Uncletopia | London | 3 | All Maps","protocol":17,"map":"pl_pier","folder":"tf","game":"Team Fortress","app_id":440,"player_count":24,"max_players":24,"Bots":0,"server_type":"Dedicated","server_os":"Linux","password":true,"vac":true,"version":"7932396","steam_id":85568392924510192,"keywords":["nocrits","nodmgspread","payload","uncletopia"],"game_id":440,"stv_port":27036,"stv_name":"Uncletopia | London | 3 | All Maps | STV","players":[{"user_id":388,"name":"Woa","steam_id":76561198345683201,"connected_time":361000000000,"state":"active","ping":46},{"user_id":359,"name":"anyman","steam_id":76561199043766687,"connected_time":1590000000000,"state":"active","ping":43},{"user_id":380,"name":"emag live","steam_id":76561198047164140,"connected_time":788000000000,"state":"active","ping":61},{"user_id":389,"name":"DelaNo","steam_id":76561199125086655,"connected_time":360000000000,"state":"active","ping":42},{"user_id":377,"name":"all fart no poo","steam_id":76561198116790819,"connected_time":942000000000,"state":"active","ping":54},{"user_id":365,"name":"Girlboy (Contained)","steam_id":76561198029025500,"connected_time":1342000000000,"state":"active","ping":59},{"user_id":381,"name":"Soloman","steam_id":76561199212054667,"connected_time":729000000000,"state":"active","ping":44},{"user_id":394,"name":"exRage","steam_id":76561198449953655,"connected_time":33000000000,"state":"active","ping":65},{"user_id":367,"name":"General Petrov","steam_id":76561198027204104,"connected_time":1279000000000,"state":"active","ping":81},{"user_id":386,"name":"Rz!","steam_id":76561198364380889,"connected_time":397000000000,"state":"active","ping":119},{"user_id":374,"name":"Robotomatique","steam_id":76561198354793952,"connected_time":1044000000000,"state":"active","ping":43},{"user_id":387,"name":"Daishinkan","steam_id":76561199383437138,"connected_time":396000000000,"state":"active","ping":123},{"user_id":391,"name":"Dag!","steam_id":76561198030147941,"connected_time":353000000000,"state":"active","ping":70},{"user_id":344,"name":"ilimori","steam_id":76561197961231625,"connected_time":2573000000000,"state":"active","ping":45},{"user_id":355,"name":"LiterallyRyanGosling","steam_id":76561199017856691,"connected_time":1804000000000,"state":"active","ping":53},{"user_id":385,"name":"Gnarville","steam_id":76561198006373329,"connected_time":526000000000,"state":"active","ping":46},{"user_id":170,"name":"Ｒ Ｏ Ｂ Ｂ Ｅ Ｒ Ｔ","steam_id":76561198134404830,"connected_time":11424000000000,"state":"active","ping":136},{"user_id":382,"name":"Pantroglodytestherapy","steam_id":76561198236015392,"connected_time":697000000000,"state":"active","ping":120},{"user_id":375,"name":"N e j i","steam_id":76561198011318347,"connected_time":978000000000,"state":"active","ping":86},{"user_id":296,"name":"sloppy transgirl toppy","steam_id":76561198057092208,"connected_time":4982000000000,"state":"active","ping":74},{"user_id":392,"name":"Bounter","steam_id":76561198072614188,"connected_time":318000000000,"state":"active","ping":81},{"user_id":376,"name":"Hoxton","steam_id":76561198058847428,"connected_time":976000000000,"state":"active","ping":54},{"user_id":393,"name":"AftiksPL","steam_id":76561198875182686,"connected_time":287000000000,"state":"active","ping":103},{"user_id":324,"name":"sciencenerd42","steam_id":76561198274563320,"connected_time":3239000000000,"state":"active","ping":124}]},{"server_id":321,"name":"Uncletopia | London | 4 | All Maps","name_short":"lon-4","host":"lon-1.uk.uncletopia.com","port":27045,"enabled":true,"region":"eu","cc":"gb","latitude":51.509865,"longitude":-0.118092,"reserved":0,"last_update":"0001-01-01T00:00:00Z","name_a2s":"Uncletopia | London | 4 | All Maps","protocol":17,"map":"pl_swiftwater_final1","folder":"tf","game":"Team Fortress","app_id":440,"player_count":24,"max_players":24,"Bots":0,"server_type":"Dedicated","server_os":"Linux","password":true,"vac":true,"version":"7932396","steam_id":85568392924510193,"keywords":["nocrits","nodmgspread","payload","uncletopia"],"game_id":440,"stv_port":27046,"stv_name":"Uncletopia | London | 4 | All Maps | STV","players":[{"user_id":331,"name":"kee.wun","steam_id":76561198025293098,"connected_time":5063000000000,"state":"active","ping":58},{"user_id":368,"name":"Klunkerino","steam_id":76561197971081655,"connected_time":2608000000000,"state":"active","ping":70},{"user_id":390,"name":"WiiSportKing","steam_id":76561198114139081,"connected_time":712000000000,"state":"active","ping":52},{"user_id":388,"name":"OutOfDucks","steam_id":76561198166376227,"connected_time":753000000000,"state":"active","ping":58},{"user_id":303,"name":"Soaya","steam_id":76561199101510855,"connected_time":6206000000000,"state":"active","ping":45},{"user_id":379,"name":"Mike","steam_id":76561198228455736,"connected_time":1382000000000,"state":"active","ping":62},{"user_id":304,"name":"desnot","steam_id":76561198862581894,"connected_time":6176000000000,"state":"active","ping":66},{"user_id":340,"name":"idenburg","steam_id":76561198063574956,"connected_time":4863000000000,"state":"active","ping":51},{"user_id":360,"name":"ran is running","steam_id":76561199443185667,"connected_time":3410000000000,"state":"active","ping":138},{"user_id":387,"name":"NeonNewt","steam_id":76561198066699212,"connected_time":765000000000,"state":"active","ping":58},{"user_id":371,"name":"Sticker Girl","steam_id":76561198086326874,"connected_time":2152000000000,"state":"active","ping":121},{"user_id":372,"name":"BOX_PANDA","steam_id":76561198046908869,"connected_time":1672000000000,"state":"active","ping":47},{"user_id":351,"name":"bixigu","steam_id":76561198007425793,"connected_time":4054000000000,"state":"active","ping":97},{"user_id":376,"name":"griejes","steam_id":76561198053184757,"connected_time":1582000000000,"state":"active","ping":35},{"user_id":361,"name":"Kaishakunin","steam_id":76561198028123874,"connected_time":3405000000000,"state":"active","ping":95},{"user_id":389,"name":"Whimsyy","steam_id":76561198065557010,"connected_time":752000000000,"state":"active","ping":59},{"user_id":365,"name":"Day 12","steam_id":76561198024438352,"connected_time":3364000000000,"state":"active","ping":39},{"user_id":377,"name":"donatofina","steam_id":76561198353497885,"connected_time":1580000000000,"state":"active","ping":109},{"user_id":367,"name":"Cage, Nicolas","steam_id":76561198061714753,"connected_time":2736000000000,"state":"active","ping":83},{"user_id":369,"name":"VideoJames","steam_id":76561197970114051,"connected_time":2577000000000,"state":"active","ping":43},{"user_id":378,"name":"Astroknight","steam_id":76561198093990026,"connected_time":1552000000000,"state":"active","ping":82},{"user_id":335,"name":"Genesis","steam_id":76561198999652040,"connected_time":5033000000000,"state":"active","ping":58},{"user_id":380,"name":"wal","steam_id":76561198066043883,"connected_time":1366000000000,"state":"active","ping":48},{"user_id":391,"name":"TheEventGuy","steam_id":76561197972797744,"connected_time":541000000000,"state":"active","ping":80}]},{"server_id":21,"name":"Uncletopia | London | 5 | All Maps","name_short":"lon-5","host":"lon-1.uk.uncletopia.com","port":27055,"enabled":true,"region":"eu","cc":"gb","latitude":51.509865,"longitude":-0.118092,"reserved":0,"last_update":"0001-01-01T00:00:00Z","name_a2s":"Uncletopia | London | 5 | All Maps","protocol":17,"map":"pl_swiftwater_final1","folder":"tf","game":"Team Fortress","app_id":440,"player_count":24,"max_players":24,"Bots":0,"server_type":"Dedicated","server_os":"Linux","password":true,"vac":true,"version":"7932396","steam_id":85568392924742829,"keywords":["nocrits","nodmgspread","payload","uncletopia"],"game_id":440,"stv_port":27056,"stv_name":"Uncletopia | London | 5 | All Maps | STV","players":[{"user_id":336,"name":"Saul Goodsex","steam_id":76561198173218318,"connected_time":745000000000,"state":"active","ping":52},{"user_id":321,"name":"our lord and saviour Pan","steam_id":76561198394963563,"connected_time":1509000000000,"state":"active","ping":67},{"user_id":327,"name":"VXVXVXVXV","steam_id":76561198105601661,"connected_time":1210000000000,"state":"active","ping":61},{"user_id":311,"name":"fewexxx","steam_id":76561198354123406,"connected_time":2592000000000,"state":"active","ping":87},{"user_id":342,"name":"Dictatorial Karelian","steam_id":76561198196736457,"connected_time":207000000000,"state":"active","ping":83},{"user_id":318,"name":"Romultra","steam_id":76561198354105082,"connected_time":2013000000000,"state":"active","ping":44},{"user_id":332,"name":"Niko","steam_id":76561198436817109,"connected_time":1015000000000,"state":"active","ping":49},{"user_id":344,"name":"cordi","steam_id":76561198254657328,"connected_time":55000000000,"state":"active","ping":45},{"user_id":340,"name":"Faustino","steam_id":76561198061771785,"connected_time":278000000000,"state":"active","ping":82},{"user_id":326,"name":"L4gman","steam_id":76561198048227040,"connected_time":1302000000000,"state":"active","ping":72},{"user_id":249,"name":"pond","steam_id":76561198214849363,"connected_time":5951000000000,"state":"active","ping":88},{"user_id":319,"name":"Spliffendor","steam_id":76561198144020209,"connected_time":1902000000000,"state":"active","ping":54},{"user_id":339,"name":"Wigion","steam_id":76561198899108901,"connected_time":289000000000,"state":"active","ping":45},{"user_id":341,"name":"UglyTwinYgor","steam_id":76561198132718039,"connected_time":275000000000,"state":"active","ping":83},{"user_id":320,"name":"gabagool","steam_id":76561198307111838,"connected_time":1900000000000,"state":"active","ping":31},{"user_id":328,"name":"ims trong","steam_id":76561198047359132,"connected_time":1152000000000,"state":"active","ping":74},{"user_id":337,"name":"I jazzed myself","steam_id":76561198203016603,"connected_time":669000000000,"state":"active","ping":75},{"user_id":329,"name":"s a i","steam_id":76561197970379754,"connected_time":1142000000000,"state":"active","ping":65},{"user_id":279,"name":"Well, off to hang myself","steam_id":76561198053374944,"connected_time":4126000000000,"state":"active","ping":67},{"user_id":242,"name":"Yuzu","steam_id":76561198121694613,"connected_time":6509000000000,"state":"active","ping":49},{"user_id":330,"name":"Mr.Schnittlauch","steam_id":76561198295868113,"connected_time":1127000000000,"state":"active","ping":61},{"user_id":331,"name":"Mrbluuub","steam_id":76561199273847084,"connected_time":1086000000000,"state":"active","ping":90},{"user_id":268,"name":"DEFENDOR62","steam_id":76561199386703896,"connected_time":5181000000000,"state":"active","ping":53},{"user_id":310,"name":"EjaculatingEduardo","steam_id":76561198926910343,"connected_time":2616000000000,"state":"active","ping":54}]},{"server_id":22,"name":"Uncletopia | London | 6 | All Maps","name_short":"lon-6","host":"lon-1.uk.uncletopia.com","port":27065,"enabled":true,"region":"eu","cc":"gb","latitude":51.509865,"longitude":-0.118092,"reserved":0,"last_update":"0001-01-01T00:00:00Z","name_a2s":"Uncletopia | London | 6 | All Maps","protocol":17,"map":"pl_barnblitz","folder":"tf","game":"Team Fortress","app_id":440,"player_count":0,"max_players":24,"Bots":0,"server_type":"Dedicated","server_os":"Linux","password":true,"vac":true,"version":"7932396","steam_id":85568392924742830,"keywords":["nocrits","nodmgspread","payload","uncletopia"],"game_id":440,"stv_port":27066,"stv_name":"Uncletopia | London | 6 | All Maps | STV","players":null},{"server_id":40,"name":"Uncletopia | London | 7 | No Payload","name_short":"lon-7","host":"lon-1.uk.uncletopia.com","port":27075,"enabled":true,"region":"eu","cc":"gb","latitude":51.509865,"longitude":-0.118092,"reserved":0,"last_update":"0001-01-01T00:00:00Z","name_a2s":"Uncletopia | London | 7 | No Payload","protocol":17,"map":"koth_lazarus","folder":"tf","game":"Team Fortress","app_id":440,"player_count":2,"max_players":24,"Bots":0,"server_type":"Dedicated","server_os":"Linux","password":true,"vac":true,"version":"7932396","steam_id":85568392924964314,"keywords":["cp","nocrits","nodmgspread","uncletopia"],"game_id":440,"stv_port":27076,"stv_name":"Uncletopia | London | 7 | No Payload | STV","players":[{"user_id":24,"name":"Wattsit","steam_id":76561198250015476,"connected_time":7000000000,"state":"spawning","ping":44},{"user_id":23,"name":"Urfangonultasadana","steam_id":76561199389286151,"connected_time":268000000000,"state":"active","ping":98}]},{"server_id":41,"name":"Uncletopia | London | 8 | Community","name_short":"lon-8","host":"lon-1.uk.uncletopia.com","port":27085,"enabled":true,"region":"eu","cc":"gb","latitude":51.509865,"longitude":-0.118092,"reserved":0,"last_update":"0001-01-01T00:00:00Z","name_a2s":"Uncletopia | London | 8 | Community","protocol":17,"map":"workshop/cp_croissant_final.ugc458840209","folder":"tf","game":"Team Fortress","app_id":440,"player_count":0,"max_players":24,"Bots":0,"server_type":"Dedicated","server_os":"Linux","password":true,"vac":true,"version":"7932396","steam_id":85568392924964315,"keywords":["cp","nocrits","nodmgspread","uncletopia"],"game_id":440,"stv_port":27086,"stv_name":"Uncletopia | London | 8 | Community | STV","players":null},{"server_id":300,"name":"Uncletopia | Montréal | 1 | All Maps","name_short":"mtl-1","host":"mtl-1.ca.uncletopia.com","port":27015,"enabled":true,"region":"us-east","cc":"ca","latitude":45.50889,"longitude":-73.56167,"reserved":0,"last_update":"0001-01-01T00:00:00Z","name_a2s":"Uncletopia | Montréal | 1 | All Maps","protocol":17,"map":"cp_altitude","folder":"tf","game":"Team Fortress","app_id":440,"player_count":0,"max_players":24,"Bots":0,"server_type":"Dedicated","server_os":"Linux","password":true,"vac":true,"version":"7932396","steam_id":85568392924500087,"keywords":["cp","nocrits","nodmgspread","uncletopia"],"game_id":440,"stv_port":27016,"stv_name":"Uncletopia | Montréal | 1 | All Maps | STV","players":null},{"server_id":301,"name":"Uncletopia | Montréal | 2 | All Maps","name_short":"mtl-2","host":"mtl-1.ca.uncletopia.com","port":27025,"enabled":true,"region":"us-east","cc":"ca","latitude":45.50889,"longitude":-73.56167,"reserved":0,"last_update":"0001-01-01T00:00:00Z","name_a2s":"Uncletopia | Montréal | 2 | All Maps","protocol":17,"map":"koth_lakeside_final","folder":"tf","game":"Team Fortress","app_id":440,"player_count":0,"max_players":24,"Bots":0,"server_type":"Dedicated","server_os":"Linux","password":true,"vac":true,"version":"7932396","steam_id":85568392924500088,"keywords":["cp","nocrits","nodmgspread","uncletopia"],"game_id":440,"stv_port":27026,"stv_name":"Uncletopia | Montréal | 2 | All Maps | STV","players":null},{"server_id":302,"name":"Uncletopia | Montréal | 3 | All Maps","name_short":"mtl-3","host":"mtl-1.ca.uncletopia.com","port":27035,"enabled":true,"region":"us-east","cc":"ca","latitude":45.50889,"longitude":-73.56167,"reserved":0,"last_update":"0001-01-01T00:00:00Z","name_a2s":"Uncletopia | Montréal | 3 | All Maps","protocol":17,"map":"cp_process_final","folder":"tf","game":"Team Fortress","app_id":440,"player_count":0,"max_players":24,"Bots":0,"server_type":"Dedicated","server_os":"Linux","password":true,"vac":true,"version":"7932396","steam_id":85568392924500089,"keywords":["cp","nocrits","nodmgspread","uncletopia"],"game_id":440,"stv_port":27036,"stv_name":"Uncletopia | Montréal | 3 | All Maps | STV","players":null},{"server_id":303,"name":"Uncletopia | Montréal | 4 | No Payload","name_short":"mtl-4","host":"mtl-1.ca.uncletopia.com","port":27045,"enabled":true,"region":"us-east","cc":"ca","latitude":45.50889,"longitude":-73.56167,"reserved":0,"last_update":"0001-01-01T00:00:00Z","name_a2s":"Uncletopia | Montréal | 4 | No Payload","protocol":17,"map":"ctf_landfall","folder":"tf","game":"Team Fortress","app_id":440,"player_count":0,"max_players":24,"Bots":0,"server_type":"Dedicated","server_os":"Linux","password":true,"vac":true,"version":"7932396","steam_id":85568392924500090,"keywords":["ctf","nocrits","nodmgspread","uncletopia"],"game_id":440,"stv_port":27046,"stv_name":"Uncletopia | Montréal | 4 | No Payload | STV","players":null},{"server_id":13,"name":"Uncletopia | New York City | 1 | All Maps","name_short":"nyc-1","host":"nyc-1.us.uncletopia.com","port":27015,"enabled":true,"region":"us-east","cc":"us","latitude":40.73061,"longitude":-73.93524,"reserved":0,"last_update":"0001-01-01T00:00:00Z","name_a2s":"Uncletopia | New York City | 1 | All Maps","protocol":17,"map":"pl_barnblitz","folder":"tf","game":"Team Fortress","app_id":440,"player_count":24,"max_players":24,"Bots":0,"server_type":"Dedicated","server_os":"Linux","password":true,"vac":true,"version":"7932396","steam_id":85568392924469993,"keywords":["nocrits","nodmgspread","payload","uncletopia"],"game_id":440,"stv_port":27016,"stv_name":"Uncletopia | New York City | 1 | All Maps | STV","players":[{"user_id":152,"name":"StraySheep","steam_id":76561198256003811,"connected_time":3915000000000,"state":"active","ping":56},{"user_id":176,"name":"Cat_Gaben","steam_id":76561198308094558,"connected_time":1969000000000,"state":"active","ping":63},{"user_id":191,"name":"cheapdisplay","steam_id":76561199206448493,"connected_time":301000000000,"state":"active","ping":58},{"user_id":164,"name":"Fat Kid","steam_id":76561198304180941,"connected_time":2752000000000,"state":"active","ping":101},{"user_id":190,"name":"jamzine","steam_id":76561198186168293,"connected_time":392000000000,"state":"active","ping":58},{"user_id":80,"name":"Darkish Souls","steam_id":76561198095982312,"connected_time":9995000000000,"state":"active","ping":36},{"user_id":194,"name":"alfredodan","steam_id":76561198025011044,"connected_time":73000000000,"state":"active","ping":74},{"user_id":161,"name":"pad6z23h8s","steam_id":76561198880756741,"connected_time":2840000000000,"state":"active","ping":151},{"user_id":141,"name":"cataconik","steam_id":76561198145530829,"connected_time":4326000000000,"state":"active","ping":84},{"user_id":187,"name":"littlesack","steam_id":76561197960270526,"connected_time":799000000000,"state":"active","ping":73},{"user_id":185,"name":"BigDumbAnimal","steam_id":76561197998645697,"connected_time":1076000000000,"state":"active","ping":74},{"user_id":195,"name":"Evil little man","steam_id":76561198311053471,"connected_time":63000000000,"state":"active","ping":75},{"user_id":156,"name":"The Circle rules Your Life","steam_id":76561198072095399,"connected_time":3275000000000,"state":"active","ping":43},{"user_id":174,"name":"Miro","steam_id":76561198936412406,"connected_time":2341000000000,"state":"active","ping":91},{"user_id":193,"name":"20 miles for a Quaalude","steam_id":76561198042579477,"connected_time":128000000000,"state":"active","ping":56},{"user_id":181,"name":"Amaretto Sour","steam_id":76561198063112844,"connected_time":1735000000000,"state":"active","ping":55},{"user_id":192,"name":"Drapph","steam_id":76561199384213314,"connected_time":174000000000,"state":"active","ping":81},{"user_id":138,"name":"Vel Mini","steam_id":76561197999272642,"connected_time":4490000000000,"state":"active","ping":75},{"user_id":144,"name":"ttv/lilirouxxx","steam_id":76561198000522179,"connected_time":4286000000000,"state":"active","ping":66},{"user_id":153,"name":"juck326","steam_id":76561198180419786,"connected_time":3509000000000,"state":"active","ping":117},{"user_id":184,"name":"sagekiss","steam_id":76561198038831240,"connected_time":1346000000000,"state":"active","ping":127},{"user_id":196,"name":"Gino","steam_id":76561197977133897,"connected_time":61000000000,"state":"active","ping":62},{"user_id":172,"name":"netiflix pornhub documentary","steam_id":76561199000379983,"connected_time":2457000000000,"state":"active","ping":65},{"user_id":155,"name":"Copus","steam_id":76561199011708421,"connected_time":3304000000000,"state":"active","ping":67}]},{"server_id":14,"name":"Uncletopia | New York City | 2 | All Maps","name_short":"nyc-2","host":"nyc-1.us.uncletopia.com","port":27025,"enabled":true,"region":"us-east","cc":"us","latitude":40.73061,"longitude":-73.93524,"reserved":0,"last_update":"0001-01-01T00:00:00Z","name_a2s":"Uncletopia | New York City | 2 | All Maps","protocol":17,"map":"cp_mountainlab","folder":"tf","game":"Team Fortress","app_id":440,"player_count":21,"max_players":24,"Bots":0,"server_type":"Dedicated","server_os":"Linux","password":true,"vac":true,"version":"7932396","steam_id":85568392924469994,"keywords":["cp","nocrits","nodmgspread","uncletopia"],"game_id":440,"stv_port":27026,"stv_name":"Uncletopia | New York City | 2 | All Maps | STV","players":[{"user_id":145,"name":"ADRIEN BRODY","steam_id":76561198009299473,"connected_time":1746000000000,"state":"active","ping":49},{"user_id":147,"name":"THE CUMEST LORD","steam_id":76561198061412592,"connected_time":1668000000000,"state":"active","ping":69},{"user_id":152,"name":"Mr. Sauce","steam_id":76561198055512324,"connected_time":1521000000000,"state":"active","ping":56},{"user_id":155,"name":"CryshireWithAK","steam_id":76561198857908089,"connected_time":1499000000000,"state":"active","ping":68},{"user_id":169,"name":"ᓀ‸ᓂ","steam_id":76561198046055673,"connected_time":59000000000,"state":"active","ping":59},{"user_id":55,"name":"some tree","steam_id":76561198166093346,"connected_time":5806000000000,"state":"active","ping":69},{"user_id":156,"name":"The Sinister Potion","steam_id":76561198131280715,"connected_time":1475000000000,"state":"active","ping":55},{"user_id":138,"name":"Leo","steam_id":76561198088304064,"connected_time":2080000000000,"state":"active","ping":47},{"user_id":171,"name":"Slowpoke Rodriguez","steam_id":76561198079296657,"connected_time":30000000000,"state":"active","ping":68},{"user_id":157,"name":"The Power","steam_id":76561198060566884,"connected_time":1463000000000,"state":"active","ping":115},{"user_id":163,"name":"idk100987","steam_id":76561199447977988,"connected_time":881000000000,"state":"active","ping":131},{"user_id":166,"name":"wearing my sunday pants","steam_id":76561198834106533,"connected_time":411000000000,"state":"active","ping":104},{"user_id":129,"name":"Pigeon","steam_id":76561199232498885,"connected_time":2651000000000,"state":"active","ping":57},{"user_id":164,"name":"coolfalcon168","steam_id":76561198948665710,"connected_time":856000000000,"state":"active","ping":61},{"user_id":170,"name":"patdine","steam_id":76561198060865671,"connected_time":45000000000,"state":"active","ping":59},{"user_id":172,"name":"D-MROMA","steam_id":76561198837664861,"connected_time":22000000000,"state":"spawning","ping":102},{"user_id":173,"name":"monkey d boofy","steam_id":76561198314114834,"connected_time":1000000000,"state":"spawning","ping":40},{"user_id":148,"name":"TheJuiceCrew","steam_id":76561198109073254,"connected_time":1658000000000,"state":"active","ping":77},{"user_id":136,"name":"HIPABOPPER","steam_id":76561198014919412,"connected_time":2131000000000,"state":"active","ping":60},{"user_id":162,"name":"Kilbert","steam_id":76561198254454239,"connected_time":1100000000000,"state":"active","ping":69},{"user_id":168,"name":"Brown_Dream","steam_id":76561198975766145,"connected_time":128000000000,"state":"active","ping":67}]},{"server_id":15,"name":"Uncletopia | New York City | 3 | Stopwatch Beta","name_short":"nyc-3","host":"nyc-1.us.uncletopia.com","port":27035,"enabled":true,"region":"us-east","cc":"us","latitude":40.73061,"longitude":-73.93524,"reserved":0,"last_update":"0001-01-01T00:00:00Z","name_a2s":"Uncletopia | New York City | 3 | Stopwatch Beta","protocol":17,"map":"cp_metalworks","folder":"tf","game":"Team Fortress","app_id":440,"player_count":2,"max_players":24,"Bots":0,"server_type":"Dedicated","server_os":"Linux","password":true,"vac":true,"version":"7932396","steam_id":85568392924742820,"keywords":["cp","nocrits","nodmgspread","uncletopia"],"game_id":440,"stv_port":27036,"stv_name":"Uncletopia | New York City | 3 | Stopwatch Beta | STV","players":[{"user_id":9,"name":"The Sniper Goblin of 2Fort","steam_id":76561199176919819,"connected_time":22000000000,"state":"active","ping":70},{"user_id":7,"name":"MISSINGMORALITY92217","steam_id":76561198821706797,"connected_time":71000000000,"state":"spawning","ping":62}]},{"server_id":16,"name":"Uncletopia | New York City | 4 | Community","name_short":"nyc-4","host":"nyc-1.us.uncletopia.com","port":27045,"enabled":true,"region":"us-east","cc":"us","latitude":40.73061,"longitude":-73.93524,"reserved":0,"last_update":"0001-01-01T00:00:00Z","name_a2s":"Uncletopia | New York City | 4 | Community","protocol":17,"map":"workshop/cp_hazyfort_rc6.ugc1365963729","folder":"tf","game":"Team Fortress","app_id":440,"player_count":1,"max_players":24,"Bots":0,"server_type":"Dedicated","server_os":"Linux","password":true,"vac":true,"version":"7932396","steam_id":85568392924742821,"keywords":["cp","nocrits","nodmgspread","uncletopia"],"game_id":440,"stv_port":27046,"stv_name":"Uncletopia | New York City | 4 | Community | STV","players":[{"user_id":12,"name":"NoodlesAndMore","steam_id":76561199485977993,"connected_time":95000000000,"state":"active","ping":97}]},{"server_id":142,"name":"Uncletopia | São Paulo | 1 | All Maps","name_short":"sao-1","host":"sao-1.br.uncletopia.com","port":27015,"enabled":true,"region":"sa","cc":"br","latitude":-23.533773,"longitude":-46.62529,"reserved":0,"last_update":"0001-01-01T00:00:00Z","name_a2s":"Uncletopia | São Paulo | 1 | All Maps","protocol":17,"map":"koth_lakeside_final","folder":"tf","game":"Team Fortress","app_id":440,"player_count":0,"max_players":24,"Bots":0,"server_type":"Dedicated","server_os":"Linux","password":true,"vac":true,"version":"7932396","steam_id":85568392924469996,"keywords":["cp","nocrits","nodmgspread","uncletopia"],"game_id":440,"stv_port":27016,"stv_name":"Uncletopia | São Paulo | 1 | All Maps | STV","players":null},{"server_id":143,"name":"Uncletopia | São Paulo | 2 | All Maps","name_short":"sao-2","host":"sao-2.br.uncletopia.com","port":27015,"enabled":true,"region":"sa","cc":"br","latitude":-23.533773,"longitude":-46.62529,"reserved":0,"last_update":"0001-01-01T00:00:00Z","name_a2s":"Uncletopia | São Paulo | 2 | All Maps","protocol":17,"map":"pl_upward","folder":"tf","game":"Team Fortress","app_id":440,"player_count":0,"max_players":24,"Bots":0,"server_type":"Dedicated","server_os":"Linux","password":true,"vac":true,"version":"7932396","steam_id":85568392924485349,"keywords":["nocrits","nodmgspread","payload","uncletopia"],"game_id":440,"stv_port":27016,"stv_name":"Uncletopia | São Paulo | 2 | All Maps | STV","players":null},{"server_id":7,"name":"Uncletopia | Seattle | 1 | All Maps","name_short":"sea-1","host":"sea-1.us.uncletopia.com","port":27015,"enabled":true,"region":"us-west","cc":"us","latitude":47.608013,"longitude":-122.33517,"reserved":0,"last_update":"0001-01-01T00:00:00Z","name_a2s":"Uncletopia | Seattle | 1 | All Maps","protocol":17,"map":"pl_swiftwater_final1","folder":"tf","game":"Team Fortress","app_id":440,"player_count":24,"max_players":24,"Bots":0,"server_type":"Dedicated","server_os":"Linux","password":true,"vac":true,"version":"7932396","steam_id":85568392924469997,"keywords":["nocrits","nodmgspread","payload","uncletopia"],"game_id":440,"stv_port":27016,"stv_name":"Uncletopia | Seattle | 1 | All Maps | STV","players":[{"user_id":314,"name":"fwoov","steam_id":76561198129166260,"connected_time":1600000000000,"state":"active","ping":75},{"user_id":323,"name":"BolognaWithOlives","steam_id":76561198101262668,"connected_time":543000000000,"state":"active","ping":87},{"user_id":330,"name":"Khronakal","steam_id":76561199047228098,"connected_time":44000000000,"state":"active","ping":84},{"user_id":300,"name":"toes","steam_id":76561198221151676,"connected_time":2734000000000,"state":"active","ping":52},{"user_id":329,"name":"stardust","steam_id":76561198413930183,"connected_time":157000000000,"state":"active","ping":110},{"user_id":315,"name":"t.tv/asl4n","steam_id":76561198126546221,"connected_time":1542000000000,"state":"active","ping":105},{"user_id":328,"name":"npc energy","steam_id":76561198035342207,"connected_time":198000000000,"state":"active","ping":90},{"user_id":317,"name":"Dimple #TF2Center","steam_id":76561198980324190,"connected_time":1264000000000,"state":"active","ping":48},{"user_id":307,"name":"Petrivus","steam_id":76561198202152453,"connected_time":1893000000000,"state":"active","ping":58},{"user_id":250,"name":"dust | she/it","steam_id":76561198045218909,"connected_time":5614000000000,"state":"active","ping":39},{"user_id":324,"name":"Toaster","steam_id":76561198039891934,"connected_time":534000000000,"state":"active","ping":72},{"user_id":302,"name":"Keamy","steam_id":76561199471434875,"connected_time":2655000000000,"state":"active","ping":41},{"user_id":316,"name":"TheDude","steam_id":76561198314764519,"connected_time":1522000000000,"state":"active","ping":156},{"user_id":322,"name":"Craftyjumper","steam_id":76561198126421562,"connected_time":591000000000,"state":"active","ping":87},{"user_id":249,"name":"SheingDyne","steam_id":76561198271939793,"connected_time":5664000000000,"state":"active","ping":45},{"user_id":326,"name":"Rhutebeer","steam_id":76561198018302761,"connected_time":498000000000,"state":"active","ping":144},{"user_id":303,"name":"2 Point Tom","steam_id":76561198087617008,"connected_time":2644000000000,"state":"active","ping":45},{"user_id":320,"name":"The ermster","steam_id":76561198870649125,"connected_time":932000000000,"state":"active","ping":87},{"user_id":318,"name":"MancalaMadMan","steam_id":76561198347324053,"connected_time":1126000000000,"state":"active","ping":133},{"user_id":319,"name":"The Booty Warrior","steam_id":76561198013370912,"connected_time":982000000000,"state":"active","ping":113},{"user_id":281,"name":"Ginger powder","steam_id":76561198057868006,"connected_time":3844000000000,"state":"active","ping":94},{"user_id":325,"name":"Pablo.Gonzalez.2007","steam_id":76561199083115222,"connected_time":533000000000,"state":"active","ping":89},{"user_id":294,"name":"Mom","steam_id":76561198207936000,"connected_time":2990000000000,"state":"active","ping":75},{"user_id":299,"name":"Tyler\u0026Fingers","steam_id":76561198085154485,"connected_time":2849000000000,"state":"active","ping":131}]},{"server_id":119,"name":"Uncletopia | Seattle | 2 | All Maps","name_short":"sea-2","host":"sea-1.us.uncletopia.com","port":27025,"enabled":true,"region":"us-west","cc":"us","latitude":47.608013,"longitude":-122.33517,"reserved":0,"last_update":"0001-01-01T00:00:00Z","name_a2s":"Uncletopia | Seattle | 2 | All Maps","protocol":17,"map":"cp_dustbowl","folder":"tf","game":"Team Fortress","app_id":440,"player_count":24,"max_players":24,"Bots":0,"server_type":"Dedicated","server_os":"Linux","password":true,"vac":true,"version":"7932396","steam_id":85568392924469998,"keywords":["cp","nocrits","nodmgspread","uncletopia"],"game_id":440,"stv_port":27026,"stv_name":"Uncletopia | Seattle | 2 | All Maps | STV","players":[{"user_id":197,"name":"Finkly","steam_id":76561198049828110,"connected_time":780000000000,"state":"active","ping":41},{"user_id":209,"name":"REDACTED_banana_887","steam_id":76561199224406093,"connected_time":15000000000,"state":"active","ping":431},{"user_id":152,"name":"SHADOW (he/him)","steam_id":76561198207768148,"connected_time":3749000000000,"state":"active","ping":105},{"user_id":196,"name":"BelligerentHawk","steam_id":76561198805588654,"connected_time":807000000000,"state":"active","ping":88},{"user_id":204,"name":"Panic Opossum","steam_id":76561198043838227,"connected_time":129000000000,"state":"active","ping":96},{"user_id":172,"name":"slip'n slide cooter","steam_id":76561198097637080,"connected_time":2654000000000,"state":"active","ping":134},{"user_id":188,"name":"GreenApples","steam_id":76561198120559543,"connected_time":1449000000000,"state":"active","ping":91},{"user_id":193,"name":"Coowil","steam_id":76561198070985437,"connected_time":875000000000,"state":"active","ping":41},{"user_id":187,"name":"Dullahan","steam_id":76561198119668908,"connected_time":1527000000000,"state":"active","ping":92},{"user_id":205,"name":"Nick","steam_id":76561198043703129,"connected_time":125000000000,"state":"active","ping":46},{"user_id":164,"name":"Muralo","steam_id":76561198202160268,"connected_time":3267000000000,"state":"active","ping":99},{"user_id":206,"name":"Silexos","steam_id":76561198267639877,"connected_time":116000000000,"state":"active","ping":74},{"user_id":202,"name":"Redrocko","steam_id":76561198045291223,"connected_time":348000000000,"state":"active","ping":65},{"user_id":194,"name":"Jazz Hands","steam_id":76561199225708271,"connected_time":873000000000,"state":"active","ping":58},{"user_id":207,"name":"Ender","steam_id":76561198819439451,"connected_time":103000000000,"state":"active","ping":102},{"user_id":182,"name":"wabermelom :) | Pizzabot.tf","steam_id":76561198373703835,"connected_time":2351000000000,"state":"active","ping":104},{"user_id":146,"name":"bemo","steam_id":76561198344331503,"connected_time":4187000000000,"state":"active","ping":51},{"user_id":208,"name":"Inconvenient Spy","steam_id":76561199246804975,"connected_time":44000000000,"state":"active","ping":118},{"user_id":184,"name":"burdllomu (no vac/buy lollichop","steam_id":76561199142477846,"connected_time":2330000000000,"state":"active","ping":64},{"user_id":129,"name":"chunkysquare","steam_id":76561199076468383,"connected_time":5484000000000,"state":"active","ping":92},{"user_id":165,"name":"Shark Sandwich","steam_id":76561198025007938,"connected_time":3163000000000,"state":"active","ping":57},{"user_id":162,"name":"Jesus Christ","steam_id":76561199388058358,"connected_time":3420000000000,"state":"active","ping":58},{"user_id":201,"name":"Zeora","steam_id":76561198799145251,"connected_time":360000000000,"state":"active","ping":128},{"user_id":166,"name":"todd","steam_id":76561198096671524,"connected_time":3130000000000,"state":"active","ping":69}]},{"server_id":406,"name":"Uncletopia | Seattle | 3 | Stopwatch Beta","name_short":"sea-3","host":"sea-1.us.uncletopia.com","port":27035,"enabled":true,"region":"us-west","cc":"us","latitude":47.608013,"longitude":-122.33517,"reserved":0,"last_update":"0001-01-01T00:00:00Z","name_a2s":"Uncletopia | Seattle | 3 | Stopwatch Beta","protocol":17,"map":"workshop/koth_bagel_rc6.ugc2514036946","folder":"tf","game":"Team Fortress","app_id":440,"player_count":0,"max_players":24,"Bots":0,"server_type":"Dedicated","server_os":"Linux","password":true,"vac":true,"version":"7932396","steam_id":85568392924515217,"keywords":["cp","nocrits","nodmgspread","uncletopia"],"game_id":440,"stv_port":27036,"stv_name":"Uncletopia | Seattle | 3 | Stopwatch Beta | STV","players":null},{"server_id":17,"name":"Uncletopia | San Francisco | 1 | All Maps","name_short":"sfo-1","host":"sfo-1.us.uncletopia.com","port":27015,"enabled":true,"region":"us-west","cc":"us","latitude":37.77397,"longitude":-122.4313,"reserved":0,"last_update":"0001-01-01T00:00:00Z","name_a2s":"Uncletopia | San Francisco | 1 | All Maps","protocol":17,"map":"koth_cascade","folder":"tf","game":"Team Fortress","app_id":440,"player_count":24,"max_players":24,"Bots":0,"server_type":"Dedicated","server_os":"Linux","password":true,"vac":true,"version":"7932396","steam_id":85568392924469999,"keywords":["cp","nocrits","nodmgspread","uncletopia"],"game_id":440,"stv_port":27016,"stv_name":"Uncletopia | San Francisco | 1 | All Maps | STV","players":[{"user_id":63,"name":"Spruce","steam_id":76561198081684676,"connected_time":209000000000,"state":"active","ping":73},{"user_id":41,"name":"FuntimeFoxy","steam_id":76561198406696103,"connected_time":1193000000000,"state":"active","ping":63},{"user_id":61,"name":"chicken","steam_id":76561198196998007,"connected_time":579000000000,"state":"active","ping":55},{"user_id":56,"name":"◥(◥▶_◀◤)◤","steam_id":76561198007464245,"connected_time":825000000000,"state":"active","ping":108},{"user_id":48,"name":"Eurobeat too loud, can't hear :","steam_id":76561198330743199,"connected_time":960000000000,"state":"active","ping":52},{"user_id":15,"name":"TheCrazedOne","steam_id":76561199158302707,"connected_time":2456000000000,"state":"active","ping":103},{"user_id":22,"name":"Running (90's edition)","steam_id":76561198217678785,"connected_time":1994000000000,"state":"active","ping":118},{"user_id":17,"name":"The Smell of Jazz","steam_id":76561198005860388,"connected_time":2343000000000,"state":"active","ping":56},{"user_id":21,"name":"stabby stabby","steam_id":76561197975080641,"connected_time":2158000000000,"state":"active","ping":45},{"user_id":37,"name":"๖ۣۜTavi","steam_id":76561198088228946,"connected_time":1317000000000,"state":"active","ping":86},{"user_id":24,"name":"GඞMER","steam_id":76561198340389876,"connected_time":1920000000000,"state":"active","ping":53},{"user_id":34,"name":"Mocha","steam_id":76561199100342013,"connected_time":1458000000000,"state":"active","ping":52},{"user_id":40,"name":"Seriously Bruh","steam_id":76561198070408485,"connected_time":1228000000000,"state":"active","ping":73},{"user_id":62,"name":"Xenophile","steam_id":76561198044772435,"connected_time":321000000000,"state":"active","ping":62},{"user_id":64,"name":"SanitysEdge","steam_id":76561198130732813,"connected_time":74000000000,"state":"spawning","ping":90},{"user_id":44,"name":"Obrodai","steam_id":76561199465783209,"connected_time":1103000000000,"state":"active","ping":69},{"user_id":45,"name":"Kalmaro","steam_id":76561198097425350,"connected_time":1058000000000,"state":"active","ping":109},{"user_id":46,"name":"dustBALLS","steam_id":76561198206922028,"connected_time":1025000000000,"state":"active","ping":59},{"user_id":58,"name":"Igrium","steam_id":76561198119549811,"connected_time":821000000000,"state":"active","ping":60},{"user_id":50,"name":"VELOURIA","steam_id":76561198116550170,"connected_time":951000000000,"state":"active","ping":52},{"user_id":51,"name":"Ockulus","steam_id":76561199069638460,"connected_time":948000000000,"state":"active","ping":61},{"user_id":60,"name":"GodzillaDylan","steam_id":76561199087992885,"connected_time":728000000000,"state":"active","ping":76},{"user_id":53,"name":"Juul Room","steam_id":76561198132867238,"connected_time":893000000000,"state":"active","ping":69},{"user_id":59,"name":"cake-mix","steam_id":76561199475394535,"connected_time":783000000000,"state":"active","ping":65}]},{"server_id":18,"name":"Uncletopia | San Francisco | 2 | All Maps","name_short":"sfo-2","host":"sfo-1.us.uncletopia.com","port":27025,"enabled":true,"region":"us-west","cc":"us","latitude":37.77397,"longitude":-122.4313,"reserved":0,"last_update":"0001-01-01T00:00:00Z","name_a2s":"Uncletopia | San Francisco | 2 | All Maps","protocol":17,"map":"pl_borneo","folder":"tf","game":"Team Fortress","app_id":440,"player_count":0,"max_players":24,"Bots":0,"server_type":"Dedicated","server_os":"Linux","password":true,"vac":true,"version":"7932396","steam_id":85568392924470000,"keywords":["nocrits","nodmgspread","payload","uncletopia"],"game_id":440,"stv_port":27026,"stv_name":"Uncletopia | San Francisco | 2 | All Maps | STV","players":null},{"server_id":19,"name":"Uncletopia | San Francisco | 3 | Stopwatch Beta","name_short":"sfo-3","host":"sfo-1.us.uncletopia.com","port":27035,"enabled":true,"region":"us-west","cc":"us","latitude":37.77397,"longitude":-122.4313,"reserved":0,"last_update":"0001-01-01T00:00:00Z","name_a2s":"Uncletopia | San Francisco | 3 | Stopwatch Beta","protocol":17,"map":"koth_lakeside_final","folder":"tf","game":"Team Fortress","app_id":440,"player_count":0,"max_players":24,"Bots":0,"server_type":"Dedicated","server_os":"Linux","password":true,"vac":true,"version":"7932396","steam_id":85568392924742824,"keywords":["cp","nocrits","nodmgspread","uncletopia"],"game_id":440,"stv_port":27036,"stv_name":"Uncletopia | San Francisco | 3 | Stopwatch Beta | STV","players":null},{"server_id":20,"name":"Uncletopia | San Francisco | 4 | Community","name_short":"sfo-4","host":"sfo-1.us.uncletopia.com","port":27045,"enabled":true,"region":"us-west","cc":"us","latitude":37.77397,"longitude":-122.4313,"reserved":0,"last_update":"0001-01-01T00:00:00Z","name_a2s":"Uncletopia | San Francisco | 4 | Community","protocol":17,"map":"workshop/pl_barnblitz_pro7.ugc582280235","folder":"tf","game":"Team Fortress","app_id":440,"player_count":24,"max_players":24,"Bots":0,"server_type":"Dedicated","server_os":"Linux","password":true,"vac":true,"version":"7932396","steam_id":85568392924742826,"keywords":["nocrits","nodmgspread","payload","uncletopia"],"game_id":440,"stv_port":27046,"stv_name":"Uncletopia | San Francisco | 4 | Community | STV","players":[{"user_id":315,"name":"The Collective(Hypnotist)","steam_id":76561198170423483,"connected_time":760000000000,"state":"active","ping":111},{"user_id":316,"name":"Captain Buggy","steam_id":76561198024444448,"connected_time":683000000000,"state":"active","ping":66},{"user_id":304,"name":"Alex","steam_id":76561198140423612,"connected_time":1658000000000,"state":"active","ping":67},{"user_id":307,"name":"presto.369","steam_id":76561198853852443,"connected_time":1484000000000,"state":"active","ping":99},{"user_id":317,"name":"viva la france","steam_id":76561198099308185,"connected_time":681000000000,"state":"active","ping":87},{"user_id":271,"name":"Frimpimy","steam_id":76561198142605675,"connected_time":3870000000000,"state":"active","ping":105},{"user_id":326,"name":"Andreshatesmondays","steam_id":76561198889349797,"connected_time":187000000000,"state":"active","ping":72},{"user_id":285,"name":"Acro","steam_id":76561198092451804,"connected_time":2712000000000,"state":"active","ping":108},{"user_id":325,"name":"Minnie","steam_id":76561198091052019,"connected_time":297000000000,"state":"active","ping":118},{"user_id":284,"name":"Meet The Kazoo","steam_id":76561199229748300,"connected_time":2894000000000,"state":"active","ping":75},{"user_id":235,"name":"NAWWWWWWWWWWW","steam_id":76561198878913441,"connected_time":6487000000000,"state":"active","ping":58},{"user_id":282,"name":"tr","steam_id":76561198046944222,"connected_time":3096000000000,"state":"active","ping":60},{"user_id":308,"name":"Zephyr","steam_id":76561198063155482,"connected_time":1374000000000,"state":"active","ping":109},{"user_id":327,"name":"elyina","steam_id":76561198035310295,"connected_time":171000000000,"state":"active","ping":49},{"user_id":312,"name":"Yesu","steam_id":76561198026522528,"connected_time":913000000000,"state":"active","ping":115},{"user_id":318,"name":"vaurien13","steam_id":76561198088553270,"connected_time":639000000000,"state":"active","ping":107},{"user_id":319,"name":"Shalom","steam_id":76561198410005222,"connected_time":631000000000,"state":"active","ping":76},{"user_id":292,"name":"Egg","steam_id":76561198333025860,"connected_time":2228000000000,"state":"active","ping":79},{"user_id":320,"name":"he/him whimper","steam_id":76561198097175164,"connected_time":627000000000,"state":"active","ping":135},{"user_id":321,"name":"Red Metal","steam_id":76561198362722560,"connected_time":597000000000,"state":"active","ping":59},{"user_id":322,"name":"rosable ☆","steam_id":76561199164371592,"connected_time":532000000000,"state":"active","ping":125},{"user_id":323,"name":"Mazdamundi!","steam_id":76561198044691081,"connected_time":525000000000,"state":"active","ping":105},{"user_id":289,"name":"red","steam_id":76561198067289381,"connected_time":2549000000000,"state":"active","ping":95},{"user_id":329,"name":"I'm using tilt controls!","steam_id":76561198022097954,"connected_time":20000000000,"state":"spawning","ping":101}]},{"server_id":141,"name":"Uncletopia | Sydney | 1 | All Maps","name_short":"syd-1","host":"syd-1.au.uncletopia.com","port":27015,"enabled":true,"region":"au","cc":"au","latitude":-33.865143,"longitude":151.2099,"reserved":0,"last_update":"0001-01-01T00:00:00Z","name_a2s":"Uncletopia | Sydney | 1 | All Maps","protocol":17,"map":"pl_pier","folder":"tf","game":"Team Fortress","app_id":440,"player_count":0,"max_players":24,"Bots":0,"server_type":"Dedicated","server_os":"Linux","password":true,"vac":true,"version":"7932396","steam_id":85568392924470001,"keywords":["nocrits","nodmgspread","payload","uncletopia"],"game_id":440,"stv_port":27016,"stv_name":"Uncletopia | Sydney | 1 | All Maps | STV","players":null},{"server_id":123,"name":"Uncletopia | Sydney | 2 | All Maps","name_short":"syd-2","host":"syd-1.au.uncletopia.com","port":27025,"enabled":true,"region":"au","cc":"au","latitude":-33.865143,"longitude":151.2099,"reserved":0,"last_update":"0001-01-01T00:00:00Z","name_a2s":"Uncletopia | Sydney | 2 | All Maps","protocol":17,"map":"koth_lakeside_final","folder":"tf","game":"Team Fortress","app_id":440,"player_count":0,"max_players":24,"Bots":0,"server_type":"Dedicated","server_os":"Linux","password":true,"vac":true,"version":"7932396","steam_id":85568392924470002,"keywords":["cp","nocrits","nodmgspread","uncletopia"],"game_id":440,"stv_port":27026,"stv_name":"Uncletopia | Sydney | 2 | All Maps | STV","players":null},{"server_id":395,"name":"Uncletopia | Sydney | 3 | All Maps","name_short":"syd-3","host":"syd-1.au.uncletopia.com","port":27035,"enabled":true,"region":"au","cc":"au","latitude":-33.865143,"longitude":151.2099,"reserved":0,"last_update":"0001-01-01T00:00:00Z","name_a2s":"Uncletopia | Sydney | 3 | All Maps","protocol":17,"map":"pl_barnblitz","folder":"tf","game":"Team Fortress","app_id":440,"player_count":0,"max_players":24,"Bots":0,"server_type":"Dedicated","server_os":"Linux","password":true,"vac":true,"version":"7932396","steam_id":85568392925194467,"keywords":["nocrits","nodmgspread","payload","uncletopia"],"game_id":440,"stv_port":27036,"stv_name":"Uncletopia | Sydney | 3 | All Maps | STV","players":null},{"server_id":396,"name":"Uncletopia | Sydney | 4 | All Maps","name_short":"syd-4","host":"syd-1.au.uncletopia.com","port":27045,"enabled":true,"region":"au","cc":"au","latitude":-33.865143,"longitude":151.2099,"reserved":0,"last_update":"0001-01-01T00:00:00Z","name_a2s":"Uncletopia | Sydney | 4 | All Maps","protocol":17,"map":"pl_pier","folder":"tf","game":"Team Fortress","app_id":440,"player_count":0,"max_players":24,"Bots":0,"server_type":"Dedicated","server_os":"Linux","password":true,"vac":true,"version":"7932396","steam_id":85568392925397958,"keywords":["nocrits","nodmgspread","payload","uncletopia"],"game_id":440,"stv_port":27046,"stv_name":"Uncletopia | Sydney | 4 | All Maps | STV","players":null},{"server_id":58,"name":"Uncletopia | Sydney | 5 | Stopwatch Beta","name_short":"syd-5","host":"syd-1.au.uncletopia.com","port":27055,"enabled":true,"region":"au","cc":"au","latitude":-33.865143,"longitude":151.2099,"reserved":0,"last_update":"0001-01-01T00:00:00Z","name_a2s":"Uncletopia | Sydney | 5 | Stopwatch Beta","protocol":17,"map":"pl_borneo","folder":"tf","game":"Team Fortress","app_id":440,"player_count":0,"max_players":24,"Bots":0,"server_type":"Dedicated","server_os":"Linux","password":true,"vac":true,"version":"7932396","steam_id":85568392925397959,"keywords":["nocrits","nodmgspread","payload","uncletopia"],"game_id":440,"stv_port":27056,"stv_name":"Uncletopia | Sydney | 5 | Stopwatch Beta | STV","players":null},{"server_id":59,"name":"Uncletopia | Sydney | 6 | Community","name_short":"syd-6","host":"syd-1.au.uncletopia.com","port":27065,"enabled":true,"region":"au","cc":"au","latitude":-33.865143,"longitude":151.2099,"reserved":0,"last_update":"0001-01-01T00:00:00Z","name_a2s":"Uncletopia | Sydney | 6 | Community","protocol":17,"map":"pl_badwater","folder":"tf","game":"Team Fortress","app_id":440,"player_count":0,"max_players":24,"Bots":0,"server_type":"Dedicated","server_os":"Linux","password":true,"vac":true,"version":"7932396","steam_id":85568392925397960,"keywords":["nocrits","nodmgspread","payload","uncletopia"],"game_id":440,"stv_port":27066,"stv_name":"Uncletopia | Sydney | 6 | Community | STV","players":null},{"server_id":49,"name":"Uncletopia | Warsaw | 1 | All Maps","name_short":"waw-1","host":"waw-1.pl.uncletopia.com","port":27015,"enabled":true,"region":"eu","cc":"pl","latitude":52.2297,"longitude":21.017532,"reserved":0,"last_update":"0001-01-01T00:00:00Z","name_a2s":"","protocol":0,"map":"","folder":"","game":"","app_id":0,"player_count":0,"max_players":0,"Bots":0,"server_type":"","server_os":"","password":false,"vac":false,"version":"","steam_id":0,"keywords":null,"game_id":0,"stv_port":0,"stv_name":"","players":null},{"server_id":50,"name":"Uncletopia | Warsaw | 2 | All Maps","name_short":"waw-2","host":"waw-1.pl.uncletopia.com","port":27025,"enabled":true,"region":"eu","cc":"pl","latitude":52.2297,"longitude":21.017532,"reserved":0,"last_update":"0001-01-01T00:00:00Z","name_a2s":"Uncletopia | Warsaw | 2 | All Maps","protocol":17,"map":"cp_dustbowl","folder":"tf","game":"Team Fortress","app_id":440,"player_count":0,"max_players":24,"Bots":0,"server_type":"Dedicated","server_os":"Linux","password":true,"vac":true,"version":"7932396","steam_id":85568392925397851,"keywords":["cp","nocrits","nodmgspread","uncletopia"],"game_id":440,"stv_port":27026,"stv_name":"Uncletopia | Warsaw | 2 | All Maps | STV","players":null},{"server_id":51,"name":"Uncletopia | Warsaw | 3 | All Maps","name_short":"waw-3","host":"waw-1.pl.uncletopia.com","port":27035,"enabled":true,"region":"eu","cc":"pl","latitude":52.2297,"longitude":21.017532,"reserved":0,"last_update":"0001-01-01T00:00:00Z","name_a2s":"Uncletopia | Warsaw | 3 | All Maps","protocol":17,"map":"pl_pier","folder":"tf","game":"Team Fortress","app_id":440,"player_count":0,"max_players":24,"Bots":0,"server_type":"Dedicated","server_os":"Linux","password":true,"vac":true,"version":"7932396","steam_id":85568392925397852,"keywords":["nocrits","nodmgspread","payload","uncletopia"],"game_id":440,"stv_port":27036,"stv_name":"Uncletopia | Warsaw | 3 | All Maps | STV","players":null},{"server_id":52,"name":"Uncletopia | Warsaw | 4 | All Maps","name_short":"waw-4","host":"waw-1.pl.uncletopia.com","port":27045,"enabled":true,"region":"eu","cc":"pl","latitude":52.2297,"longitude":21.017532,"reserved":0,"last_update":"0001-01-01T00:00:00Z","name_a2s":"Uncletopia | Warsaw | 4 | All Maps","protocol":17,"map":"pl_swiftwater_final1","folder":"tf","game":"Team Fortress","app_id":440,"player_count":0,"max_players":24,"Bots":0,"server_type":"Dedicated","server_os":"Linux","password":true,"vac":true,"version":"7932396","steam_id":85568392925397853,"keywords":["nocrits","nodmgspread","payload","uncletopia"],"game_id":440,"stv_port":27046,"stv_name":"Uncletopia | Warsaw | 4 | All Maps | STV","players":null},{"server_id":53,"name":"Uncletopia | Warsaw | 5 | Stopwatch Beta","name_short":"waw-5","host":"waw-1.pl.uncletopia.com","port":27055,"enabled":true,"region":"eu","cc":"pl","latitude":52.2297,"longitude":21.017532,"reserved":0,"last_update":"0001-01-01T00:00:00Z","name_a2s":"Uncletopia | Warsaw | 5 | Stopwatch Beta","protocol":17,"map":"koth_highpass","folder":"tf","game":"Team Fortress","app_id":440,"player_count":0,"max_players":24,"Bots":0,"server_type":"Dedicated","server_os":"Linux","password":true,"vac":true,"version":"7932396","steam_id":85568392925397854,"keywords":["cp","nocrits","nodmgspread","uncletopia"],"game_id":440,"stv_port":27056,"stv_name":"Uncletopia | Warsaw | 5 | Stopwatch Beta | STV","players":null},{"server_id":54,"name":"Uncletopia | Warsaw | 6 | Community","name_short":"waw-6","host":"waw-1.pl.uncletopia.com","port":27065,"enabled":true,"region":"eu","cc":"pl","latitude":52.2297,"longitude":21.017532,"reserved":0,"last_update":"0001-01-01T00:00:00Z","name_a2s":"Uncletopia | Warsaw | 6 | Community","protocol":17,"map":"workshop/cp_croissant_final.ugc458840209","folder":"tf","game":"Team Fortress","app_id":440,"player_count":0,"max_players":24,"Bots":0,"server_type":"Dedicated","server_os":"Linux","password":true,"vac":true,"version":"7932396","steam_id":85568392925397856,"keywords":["cp","nocrits","nodmgspread","uncletopia"],"game_id":440,"stv_port":27066,"stv_name":"Uncletopia | Warsaw | 6 | Community | STV","players":null}]}