{"status":true,"message":"","result":[{"server_id":9,"name":"Uncletopia | Atlanta | 1 | All Maps","name_short":"atl-1","host":"atl-1.us.uncletopia.com","port":27015,"enabled":true,"region":"us-east","cc":"us","latitude":33.753746,"longitude":-84.38633,"reserved":0,"last_update":"0001-01-01T00:00:00Z","name_a2s":"Uncletopia | Atlanta | 1 | All Maps","protocol":17,"map":"pl_frontier_final","folder":"tf","game":"Team Fortress","app_id":440,"player_count":22,"max_players":24,"Bots":0,"server_type":"Dedicated","server_os":"Linux","password":true,"vac":true,"version":"7723704","steam_id":85568392924469982,"keywords":["nocrits","nodmgspread","payload","uncletopia"],"game_id":440,"stv_port":27016,"stv_name":"Uncletopia | Atlanta | 1 | All Maps | STV","players":[{"user_id":58,"name":"danielaugello15","steam_id":76561199235977512,"connected_time":3533000000000,"state":"active","ping":121},{"user_id":109,"name":"Bingus Gaming","steam_id":76561198035619419,"connected_time":596000000000,"state":"active","ping":66},{"user_id":108,"name":"kametro4","steam_id":76561198835430429,"connected_time":781000000000,"state":"active","ping":99},{"user_id":113,"name":"howling13","steam_id":76561197968713515,"connected_time":49000000000,"state":"active","ping":114},{"user_id":112,"name":"ATL1 | J O V A","steam_id":76561198090333536,"connected_time":109000000000,"state":"active","ping":62},{"user_id":86,"name":"Jacck916","steam_id":76561198176874157,"connected_time":1796000000000,"state":"active","ping":120},{"user_id":62,"name":"Myagic","steam_id":76561198123746755,"connected_time":3024000000000,"state":"active","ping":75},{"user_id":91,"name":"Corbe","steam_id":76561198353893927,"connected_time":1262000000000,"state":"active","ping":51},{"user_id":45,"name":"luxin","steam_id":76561198399383047,"connected_time":4655000000000,"state":"active","ping":47},{"user_id":114,"name":"Eli Cash","steam_id":76561198066948882,"connected_time":44000000000,"state":"active","ping":68},{"user_id":43,"name":"Kick Down Door 6:00AM TUCK☃RO","steam_id":76561197976146738,"connected_time":4899000000000,"state":"active","ping":79},{"user_id":117,"name":"Rakk","steam_id":76561198855176174,"connected_time":9000000000,"state":"active","ping":95},{"user_id":115,"name":"NoBoreGaming","steam_id":76561198044244547,"connected_time":31000000000,"state":"active","ping":74},{"user_id":90,"name":"Flicky","steam_id":76561198012811546,"connected_time":1493000000000,"state":"active","ping":87},{"user_id":95,"name":"Dragoon","steam_id":76561198143785423,"connected_time":1161000000000,"state":"active","ping":85},{"user_id":96,"name":"faxxy","steam_id":76561198079621240,"connected_time":1156000000000,"state":"active","ping":89},{"user_id":87,"name":"Spy_Is_Pye","steam_id":76561199439622967,"connected_time":1601000000000,"state":"active","ping":72},{"user_id":116,"name":"2 Percent Milk","steam_id":76561198118529039,"connected_time":26000000000,"state":"active","ping":137},{"user_id":106,"name":"ImNotPete","steam_id":76561199354935347,"connected_time":944000000000,"state":"active","ping":83},{"user_id":98,"name":"Lord GabeN","steam_id":76561198140862723,"connected_time":1101000000000,"state":"active","ping":77},{"user_id":63,"name":"Bunt","steam_id":76561198124477567,"connected_time":2903000000000,"state":"active","ping":44},{"user_id":88,"name":"Al'","steam_id":76561198105420574,"connected_time":1601000000000,"state":"active","ping":97}]},{"server_id":400,"name":"Uncletopia | Atlanta | 3 | All Maps","name_short":"atl-3","host":"atl-1.us.uncletopia.com","port":27035,"enabled":true,"region":"us-east","cc":"us","latitude":33.753746,"longitude":-84.38633,"reserved":0,"last_update":"0001-01-01T00:00:00Z","name_a2s":"Uncletopia | Atlanta | 3 | All Maps","protocol":17,"map":"koth_lakeside_final","folder":"tf","game":"Team Fortress","app_id":440,"player_count":0,"max_players":24,"Bots":0,"server_type":"Dedicated","server_os":"Linux","password":true,"vac":true,"version":"7723704","steam_id":85568392924515187,"keywords":["cp","nocrits","nodmgspread","uncletopia"],"game_id":440,"stv_port":27036,"stv_name":"Uncletopia | Atlanta | 3 | All Maps | STV","players":null},{"server_id":401,"name":"Uncletopia | Atlanta | 4 | No Payload","name_short":"atl-4","host":"atl-1.us.uncletopia.com","port":27045,"enabled":true,"region":"us-east","cc":"us","latitude":33.753746,"longitude":-84.38633,"reserved":0,"last_update":"0001-01-01T00:00:00Z","name_a2s":"Uncletopia | Atlanta | 4 | No Payload","protocol":17,"map":"pl_pier","folder":"tf","game":"Team Fortress","app_id":440,"player_count":0,"max_players":24,"Bots":0,"server_type":"Dedicated","server_os":"Linux","password":true,"vac":true,"version":"7723704","steam_id":85568392924515188,"keywords":["nocrits","nodmgspread","payload","uncletopia"],"game_id":440,"stv_port":27046,"stv_name":"Uncletopia | Atlanta | 4 | No Payload | STV","players":null},{"server_id":2,"name":"Uncletopia | Chicago | 1 | All Maps","name_short":"chi-1","host":"chi-1.us.uncletopia.com","port":27015,"enabled":true,"region":"us-central","cc":"us","latitude":41.881832,"longitude":-87.62318,"reserved":0,"last_update":"0001-01-01T00:00:00Z","name_a2s":"Uncletopia | Chicago | 1 | All Maps","protocol":17,"map":"pl_borneo","folder":"tf","game":"Team Fortress","app_id":440,"player_count":25,"max_players":24,"Bots":0,"server_type":"Dedicated","server_os":"Linux","password":true,"vac":true,"version":"7723704","steam_id":85568392924469984,"keywords":["nocrits","nodmgspread","payload","uncletopia"],"game_id":440,"stv_port":27016,"stv_name":"Uncletopia | Chicago | 1 | All Maps | STV","players":[{"user_id":183,"name":"Merchants of Misery","steam_id":76561199188142396,"connected_time":5580000000000,"state":"active","ping":72},{"user_id":215,"name":"Female Gamer","steam_id":76561199366482682,"connected_time":3323000000000,"state":"active","ping":102},{"user_id":208,"name":"Nexus935115","steam_id":76561199090105638,"connected_time":3966000000000,"state":"active","ping":55},{"user_id":200,"name":"blob","steam_id":76561198122375328,"connected_time":4278000000000,"state":"active","ping":60},{"user_id":194,"name":"SuperJagops","steam_id":76561198034689716,"connected_time":4336000000000,"state":"active","ping":64},{"user_id":238,"name":"Whorenet","steam_id":76561198090433209,"connected_time":255000000000,"state":"active","ping":85},{"user_id":170,"name":"no","steam_id":76561198248853140,"connected_time":6428000000000,"state":"active","ping":51},{"user_id":92,"name":"Shortbane","steam_id":76561198247166584,"connected_time":15316000000000,"state":"active","ping":73},{"user_id":216,"name":"MagicGnome","steam_id":76561198060886742,"connected_time":3265000000000,"state":"active","ping":73},{"user_id":227,"name":"yaoi waoi","steam_id":76561198046073848,"connected_time":2182000000000,"state":"active","ping":91},{"user_id":219,"name":"miracle","steam_id":76561199162583201,"connected_time":2896000000000,"state":"active","ping":71},{"user_id":152,"name":"pablo.gonzales.2004","steam_id":76561199217620385,"connected_time":8573000000000,"state":"active","ping":70},{"user_id":234,"name":"TeeTree","steam_id":76561198862307874,"connected_time":1040000000000,"state":"active","ping":60},{"user_id":228,"name":"Brown_Dream","steam_id":76561198975766145,"connected_time":2063000000000,"state":"active","ping":79},{"user_id":231,"name":"NeoN™","steam_id":76561198117608366,"connected_time":1766000000000,"state":"active","ping":53},{"user_id":239,"name":"trashboat","steam_id":76561199067882406,"connected_time":53000000000,"state":"connecting","ping":0},{"user_id":199,"name":"lukamine","steam_id":76561198166827208,"connected_time":4288000000000,"state":"active","ping":98},{"user_id":209,"name":"Veirū Viseris","steam_id":76561197989857176,"connected_time":3966000000000,"state":"active","ping":174},{"user_id":233,"name":"Andrew","steam_id":76561198070615190,"connected_time":1131000000000,"state":"active","ping":60},{"user_id":235,"name":"A tree","steam_id":76561198309065247,"connected_time":448000000000,"state":"active","ping":62},{"user_id":240,"name":"violents","steam_id":76561198126358045,"connected_time":52000000000,"state":"active","ping":68},{"user_id":166,"name":"Astoriæ!","steam_id":76561199090168858,"connected_time":7355000000000,"state":"active","ping":67},{"user_id":237,"name":"sonata?","steam_id":76561198243188782,"connected_time":319000000000,"state":"active","ping":79},{"user_id":226,"name":"pathulhu","steam_id":76561198323941614,"connected_time":2225000000000,"state":"active","ping":70},{"user_id":211,"name":"Rumpelforeskin","steam_id":76561198022105119,"connected_time":3739000000000,"state":"active","ping":54}]},{"server_id":106,"name":"Uncletopia | Chicago | 2 | All Maps","name_short":"chi-2","host":"chi-1.us.uncletopia.com","port":27025,"enabled":true,"region":"us-central","cc":"us","latitude":41.881832,"longitude":-87.62318,"reserved":0,"last_update":"0001-01-01T00:00:00Z","name_a2s":"Uncletopia | Chicago | 2 | All Maps","protocol":17,"map":"pl_swiftwater_final1","folder":"tf","game":"Team Fortress","app_id":440,"player_count":24,"max_players":24,"Bots":0,"server_type":"Dedicated","server_os":"Linux","password":true,"vac":true,"version":"7723704","steam_id":85568392924469985,"keywords":["nocrits","nodmgspread","payload","uncletopia"],"game_id":440,"stv_port":27026,"stv_name":"Uncletopia | Chicago | 2 | All Maps | STV","players":[{"user_id":5,"name":"Rornir","steam_id":76561198081829615,"connected_time":4274000000000,"state":"active","ping":37},{"user_id":60,"name":"KhorneBread ︻デ 一","steam_id":76561198097069958,"connected_time":837000000000,"state":"active","ping":91},{"user_id":35,"name":"Dzhoshua","steam_id":76561198071915251,"connected_time":2767000000000,"state":"active","ping":50},{"user_id":72,"name":"Young-OG","steam_id":76561198058800479,"connected_time":99000000000,"state":"active","ping":77},{"user_id":10,"name":"Bysig_ttv #savetf2","steam_id":76561198086422663,"connected_time":3352000000000,"state":"active","ping":66},{"user_id":53,"name":"Kyaaaaa!!!","steam_id":76561198066384337,"connected_time":1257000000000,"state":"active","ping":54},{"user_id":13,"name":"Albino Jellyfish","steam_id":76561198208561097,"connected_time":3261000000000,"state":"active","ping":66},{"user_id":54,"name":"je me révolte, donc je suis","steam_id":76561199062024437,"connected_time":1160000000000,"state":"active","ping":59},{"user_id":15,"name":"Friendly Robo","steam_id":76561198982369510,"connected_time":3182000000000,"state":"active","ping":57},{"user_id":61,"name":"Razz","steam_id":76561198119698950,"connected_time":782000000000,"state":"active","ping":128},{"user_id":68,"name":"mumbles","steam_id":76561197994528974,"connected_time":180000000000,"state":"active","ping":118},{"user_id":59,"name":"wunga","steam_id":76561198062074001,"connected_time":898000000000,"state":"active","ping":122},{"user_id":19,"name":"ghostedghost","steam_id":76561198111410905,"connected_time":3115000000000,"state":"active","ping":80},{"user_id":39,"name":"Nefy","steam_id":76561198030017316,"connected_time":2158000000000,"state":"active","ping":82},{"user_id":56,"name":"jae are","steam_id":76561198027906463,"connected_time":1090000000000,"state":"active","ping":45},{"user_id":65,"name":"deepmeta","steam_id":76561199053600691,"connected_time":540000000000,"state":"active","ping":50},{"user_id":45,"name":"Argon","steam_id":76561198091133177,"connected_time":1770000000000,"state":"active","ping":54},{"user_id":51,"name":"Derpasaur137","steam_id":76561198116057201,"connected_time":1426000000000,"state":"active","ping":67},{"user_id":52,"name":"self sufficient kitten","steam_id":76561197960592612,"connected_time":1272000000000,"state":"active","ping":90},{"user_id":43,"name":"Quantify45","steam_id":76561198044400135,"connected_time":1964000000000,"state":"active","ping":106},{"user_id":70,"name":"Pathara44","steam_id":76561198048238620,"connected_time":131000000000,"state":"active","ping":56},{"user_id":71,"name":"Pancreas Enjoyer","steam_id":76561199438598904,"connected_time":128000000000,"state":"active","ping":81},{"user_id":40,"name":"Nuke flavoured sparkling Water","steam_id":76561198372661925,"connected_time":2131000000000,"state":"active","ping":167},{"user_id":66,"name":"Owl Pacino","steam_id":76561197979970666,"connected_time":524000000000,"state":"active","ping":49}]},{"server_id":402,"name":"Uncletopia | Chicago | 3 | All Maps","name_short":"chi-3","host":"chi-1.us.uncletopia.com","port":27035,"enabled":true,"region":"us-central","cc":"us","latitude":41.881832,"longitude":-87.62318,"reserved":0,"last_update":"0001-01-01T00:00:00Z","name_a2s":"Uncletopia | Chicago | 3 | All Maps","protocol":17,"map":"koth_viaduct","folder":"tf","game":"Team Fortress","app_id":440,"player_count":0,"max_players":24,"Bots":0,"server_type":"Dedicated","server_os":"Linux","password":true,"vac":true,"version":"7723704","steam_id":85568392924515191,"keywords":["cp","nocrits","nodmgspread","uncletopia"],"game_id":440,"stv_port":27036,"stv_name":"Uncletopia | Chicago | 3 | All Maps | STV","players":null},{"server_id":403,"name":"Uncletopia | Chicago | 4 | All Maps","name_short":"chi-4","host":"chi-1.us.uncletopia.com","port":27045,"enabled":true,"region":"us-central","cc":"us","latitude":41.881832,"longitude":-87.62318,"reserved":0,"last_update":"0001-01-01T00:00:00Z","name_a2s":"Uncletopia | Chicago | 4 | All Maps","protocol":17,"map":"koth_viaduct","folder":"tf","game":"Team Fortress","app_id":440,"player_count":24,"max_players":24,"Bots":0,"server_type":"Dedicated","server_os":"Linux","password":true,"vac":true,"version":"7723704","steam_id":85568392924515193,"keywords":["cp","nocrits","nodmgspread","uncletopia"],"game_id":440,"stv_port":27046,"stv_name":"Uncletopia | Chicago | 4 | All Maps | STV","players":[{"user_id":5,"name":"LightBulbGlue #SaveTF2","steam_id":76561198329573529,"connected_time":1820000000000,"state":"active","ping":51},{"user_id":6,"name":"Samus","steam_id":76561198121933439,"connected_time":1676000000000,"state":"active","ping":87},{"user_id":22,"name":"Shark Sandwich","steam_id":76561198025007938,"connected_time":628000000000,"state":"active","ping":129},{"user_id":9,"name":"dust","steam_id":76561198045218909,"connected_time":1460000000000,"state":"active","ping":87},{"user_id":41,"name":"Imprecise","steam_id":76561198137529294,"connected_time":26000000000,"state":"active","ping":59},{"user_id":11,"name":"IceBreaker","steam_id":76561198056881701,"connected_time":1276000000000,"state":"active","ping":76},{"user_id":12,"name":"Tom!","steam_id":76561198110937717,"connected_time":1178000000000,"state":"active","ping":70},{"user_id":14,"name":"the12xu","steam_id":76561198197086561,"connected_time":1045000000000,"state":"active","ping":58},{"user_id":15,"name":"MisterDanny8","steam_id":76561198048847182,"connected_time":967000000000,"state":"active","ping":70},{"user_id":16,"name":"McSpazatron","steam_id":76561198955942148,"connected_time":882000000000,"state":"active","ping":81},{"user_id":17,"name":"Big Tobacco","steam_id":76561198130165656,"connected_time":807000000000,"state":"active","ping":49},{"user_id":18,"name":"uzr","steam_id":76561198799343084,"connected_time":796000000000,"state":"active","ping":98},{"user_id":23,"name":"toastman","steam_id":76561198207073088,"connected_time":625000000000,"state":"active","ping":72},{"user_id":24,"name":"MuffinCakes65","steam_id":76561198183517811,"connected_time":597000000000,"state":"active","ping":82},{"user_id":42,"name":"Rowdy Riot","steam_id":76561198037734418,"connected_time":1000000000,"state":"spawning","ping":65},{"user_id":29,"name":"Vinny","steam_id":76561198041508499,"connected_time":502000000000,"state":"active","ping":61},{"user_id":26,"name":"BlockBurst","steam_id":76561199220851075,"connected_time":555000000000,"state":"active","ping":90},{"user_id":39,"name":"jolly alber","steam_id":76561199021737235,"connected_time":246000000000,"state":"active","ping":73},{"user_id":28,"name":"CHI CHI","steam_id":76561198210322871,"connected_time":546000000000,"state":"active","ping":109},{"user_id":31,"name":"cedarisnotbook","steam_id":76561198356522924,"connected_time":475000000000,"state":"active","ping":49},{"user_id":35,"name":"hehe :3","steam_id":76561198036901822,"connected_time":397000000000,"state":"active","ping":70},{"user_id":40,"name":"Spiteful_Guru","steam_id":76561199227572419,"connected_time":225000000000,"state":"active","ping":78},{"user_id":36,"name":"Puppycino3637","steam_id":76561198212126544,"connected_time":377000000000,"state":"active","ping":81},{"user_id":37,"name":"floppy muppet","steam_id":76561198003076261,"connected_time":351000000000,"state":"active","ping":89}]},{"server_id":36,"name":"Uncletopia | Chicago | 5 | All Maps","name_short":"chi-5","host":"chi-2.us.uncletopia.com","port":27015,"enabled":true,"region":"us-central","cc":"us","latitude":41.881832,"longitude":-87.62318,"reserved":0,"last_update":"0001-01-01T00:00:00Z","name_a2s":"Uncletopia | Chicago | 5 | All Maps","protocol":17,"map":"pl_borneo","folder":"tf","game":"Team Fortress","app_id":440,"player_count":21,"max_players":24,"Bots":0,"server_type":"Dedicated","server_os":"Linux","password":true,"vac":true,"version":"7723704","steam_id":85568392924866362,"keywords":["nocrits","nodmgspread","payload","uncletopia"],"game_id":440,"stv_port":27016,"stv_name":"Uncletopia | Chicago | 5 | All Maps | STV","players":[{"user_id":8,"name":"Dictatorial Karelian","steam_id":76561198196736457,"connected_time":4596000000000,"state":"active","ping":150},{"user_id":9,"name":"doctor sex md","steam_id":76561198150678175,"connected_time":4567000000000,"state":"active","ping":99},{"user_id":67,"name":"Errrmmett","steam_id":76561198041314051,"connected_time":95000000000,"state":"active","ping":46},{"user_id":18,"name":"jerma enthusiast","steam_id":76561198359466264,"connected_time":4247000000000,"state":"active","ping":64},{"user_id":50,"name":"Among Us Booster Pack","steam_id":76561198068538473,"connected_time":2585000000000,"state":"active","ping":79},{"user_id":66,"name":"Captain Red","steam_id":76561198191587983,"connected_time":1122000000000,"state":"active","ping":76},{"user_id":68,"name":"Satori Komeiji","steam_id":76561198158211423,"connected_time":82000000000,"state":"active","ping":93},{"user_id":69,"name":"G6 MR 1920","steam_id":76561198111669774,"connected_time":78000000000,"state":"active","ping":45},{"user_id":70,"name":"Taste the Pain","steam_id":76561198081617990,"connected_time":50000000000,"state":"active","ping":94},{"user_id":51,"name":"2019","steam_id":76561198129785792,"connected_time":2250000000000,"state":"active","ping":137},{"user_id":25,"name":"McNamJam","steam_id":76561198028128686,"connected_time":3931000000000,"state":"active","ping":105},{"user_id":26,"name":"Ekstra","steam_id":76561199031147010,"connected_time":3924000000000,"state":"active","ping":180},{"user_id":63,"name":"I_Am_Lazy","steam_id":76561199030283067,"connected_time":1636000000000,"state":"active","ping":77},{"user_id":28,"name":"Bluebird","steam_id":76561199143106401,"connected_time":3908000000000,"state":"active","ping":72},{"user_id":45,"name":"best of gaslighting","steam_id":76561198410957728,"connected_time":2799000000000,"state":"active","ping":43},{"user_id":48,"name":"lol dude it's the big slime","steam_id":76561198128164970,"connected_time":2785000000000,"state":"active","ping":102},{"user_id":54,"name":"Bubbamanme","steam_id":76561198119778504,"connected_time":1864000000000,"state":"active","ping":98},{"user_id":34,"name":"robbob","steam_id":76561198137375391,"connected_time":3782000000000,"state":"active","ping":166},{"user_id":59,"name":"wahooka","steam_id":76561197981211922,"connected_time":1766000000000,"state":"active","ping":69},{"user_id":40,"name":"nil","steam_id":76561198066599235,"connected_time":3603000000000,"state":"active","ping":55},{"user_id":55,"name":"Fluffeline","steam_id":76561198352909489,"connected_time":1863000000000,"state":"active","ping":143}]},{"server_id":37,"name":"Uncletopia | Chicago | 6 | All Maps","name_short":"chi-6","host":"chi-2.us.uncletopia.com","port":27025,"enabled":true,"region":"us-central","cc":"us","latitude":41.881832,"longitude":-87.62318,"reserved":0,"last_update":"0001-01-01T00:00:00Z","name_a2s":"Uncletopia | Chicago | 6 | All Maps","protocol":17,"map":"cp_altitude","folder":"tf","game":"Team Fortress","app_id":440,"player_count":0,"max_players":24,"Bots":0,"server_type":"Dedicated","server_os":"Linux","password":true,"vac":true,"version":"7723704","steam_id":85568392924866363,"keywords":["cp","nocrits","nodmgspread","uncletopia"],"game_id":440,"stv_port":27026,"stv_name":"Uncletopia | Chicago | 6 | All Maps | STV","players":null},{"server_id":38,"name":"Uncletopia | Chicago | 7 | Stopwatch (test)","name_short":"chi-7","host":"chi-2.us.uncletopia.com","port":27035,"enabled":true,"region":"us-central","cc":"us","latitude":41.881832,"longitude":-87.62318,"reserved":0,"last_update":"0001-01-01T00:00:00Z","name_a2s":"Uncletopia | Chicago | 7 | Stopwatch (test)","protocol":17,"map":"cp_snakewater_final1","folder":"tf","game":"Team Fortress","app_id":440,"player_count":14,"max_players":24,"Bots":0,"server_type":"Dedicated","server_os":"Linux","password":true,"vac":true,"version":"7723704","steam_id":85568392924866364,"keywords":["nocrits","nodmgspread","payload","uncletopia"],"game_id":440,"stv_port":27036,"stv_name":"Uncletopia | Chicago | 7 | Stopwatch (test) | STV","players":[{"user_id":4,"name":"filthycasual","steam_id":76561199138226238,"connected_time":2396000000000,"state":"connecting","ping":102},{"user_id":6,"name":"the12xu","steam_id":76561198197086561,"connected_time":1590000000000,"state":"connecting","ping":85},{"user_id":7,"name":"Goofy Goober","steam_id":76561198128299594,"connected_time":1572000000000,"state":"connecting","ping":172},{"user_id":19,"name":"lukamine","steam_id":76561198166827208,"connected_time":385000000000,"state":"connecting","ping":118},{"user_id":27,"name":"Honeybunch","steam_id":76561198014850580,"connected_time":14000000000,"state":"connecting","ping":207},{"user_id":16,"name":"jerma enthusiast","steam_id":76561198359466264,"connected_time":757000000000,"state":"connecting","ping":82},{"user_id":17,"name":"Nexcros","steam_id":76561199039622824,"connected_time":640000000000,"state":"connecting","ping":68},{"user_id":18,"name":"DARCRY","steam_id":76561198886229798,"connected_time":596000000000,"state":"connecting","ping":99},{"user_id":20,"name":"Dictatorial Karelian","steam_id":76561198196736457,"connected_time":239000000000,"state":"connecting","ping":187},{"user_id":21,"name":"doctor sex md","steam_id":76561198150678175,"connected_time":236000000000,"state":"connecting","ping":132},{"user_id":22,"name":"stawhr","steam_id":76561198225731944,"connected_time":231000000000,"state":"connecting","ping":56},{"user_id":24,"name":"Ripheart","steam_id":76561198089661561,"connected_time":94000000000,"state":"connecting","ping":42},{"user_id":25,"name":"Daksuki","steam_id":76561198084127751,"connected_time":66000000000,"state":"connecting","ping":64},{"user_id":26,"name":"kaedris","steam_id":76561198137465310,"connected_time":36000000000,"state":"connecting","ping":83}]},{"server_id":39,"name":"Uncletopia | Chicago | 8 | Community","name_short":"chi-8","host":"chi-2.us.uncletopia.com","port":27045,"enabled":true,"region":"us-central","cc":"us","latitude":41.881832,"longitude":-87.62318,"reserved":0,"last_update":"0001-01-01T00:00:00Z","name_a2s":"Uncletopia | Chicago | 8 | Community","protocol":17,"map":"pl_frontier_final","folder":"tf","game":"Team Fortress","app_id":440,"player_count":0,"max_players":24,"Bots":0,"server_type":"Dedicated","server_os":"Linux","password":true,"vac":true,"version":"7723704","steam_id":85568392924866365,"keywords":["nocrits","nodmgspread","payload","uncletopia"],"game_id":440,"stv_port":27046,"stv_name":"Uncletopia | Chicago | 8 | Community | STV","players":null},{"server_id":8,"name":"Uncletopia | Dallas | 1 | All Maps","name_short":"dal-1","host":"dal-1.us.uncletopia.com","port":27015,"enabled":true,"region":"us-central","cc":"us","latitude":32.779167,"longitude":-96.80889,"reserved":0,"last_update":"0001-01-01T00:00:00Z","name_a2s":"Uncletopia | Dallas | 1 | All Maps","protocol":17,"map":"pl_badwater","folder":"tf","game":"Team Fortress","app_id":440,"player_count":24,"max_players":24,"Bots":0,"server_type":"Dedicated","server_os":"Linux","password":true,"vac":true,"version":"7723704","steam_id":85568392924469986,"keywords":["nocrits","nodmgspread","payload","uncletopia"],"game_id":440,"stv_port":27016,"stv_name":"Uncletopia | Dallas | 1 | All Maps | STV","players":[{"user_id":171,"name":"Stargazer Ashley","steam_id":76561198035479925,"connected_time":386000000000,"state":"active","ping":71},{"user_id":173,"name":"Ronnie James Dio","steam_id":76561197978515373,"connected_time":344000000000,"state":"active","ping":80},{"user_id":147,"name":"katryna","steam_id":76561198023440304,"connected_time":1999000000000,"state":"active","ping":74},{"user_id":148,"name":"zinnk","steam_id":76561198092081825,"connected_time":1991000000000,"state":"active","ping":93},{"user_id":149,"name":"Jarated","steam_id":76561198352187445,"connected_time":1991000000000,"state":"active","ping":67},{"user_id":48,"name":"fac","steam_id":76561198009818412,"connected_time":11145000000000,"state":"active","ping":62},{"user_id":54,"name":"roln","steam_id":76561198041066271,"connected_time":10585000000000,"state":"active","ping":62},{"user_id":141,"name":"whimmu","steam_id":76561198370839794,"connected_time":2811000000000,"state":"active","ping":118},{"user_id":152,"name":"Sigiferd","steam_id":76561198148788110,"connected_time":1966000000000,"state":"active","ping":124},{"user_id":163,"name":"spaaaaace","steam_id":76561199085974120,"connected_time":991000000000,"state":"active","ping":81},{"user_id":153,"name":"Fredfredfood","steam_id":76561198072824802,"connected_time":1945000000000,"state":"active","ping":76},{"user_id":98,"name":"Eightyy  Fourr","steam_id":76561197960374225,"connected_time":6607000000000,"state":"active","ping":45},{"user_id":166,"name":"Blink","steam_id":76561197986181277,"connected_time":854000000000,"state":"active","ping":45},{"user_id":165,"name":"Morbius","steam_id":76561198387984694,"connected_time":910000000000,"state":"active","ping":74},{"user_id":161,"name":"havarti gaming","steam_id":76561198069895678,"connected_time":1205000000000,"state":"active","ping":117},{"user_id":169,"name":"Bogey","steam_id":76561198096227944,"connected_time":429000000000,"state":"active","ping":45},{"user_id":175,"name":"CSCX","steam_id":76561198022728525,"connected_time":337000000000,"state":"active","ping":86},{"user_id":172,"name":"ṽ⧉ cookie","steam_id":76561197998884823,"connected_time":380000000000,"state":"active","ping":93},{"user_id":127,"name":"Medic","steam_id":76561198067869016,"connected_time":3536000000000,"state":"active","ping":72},{"user_id":137,"name":"THE NUT","steam_id":76561198067813626,"connected_time":2962000000000,"state":"active","ping":93},{"user_id":176,"name":"Suwako Moriya","steam_id":76561199013167718,"connected_time":160000000000,"state":"active","ping":87},{"user_id":155,"name":"sock","steam_id":76561199117597830,"connected_time":1861000000000,"state":"active","ping":64},{"user_id":125,"name":"BrightOrangeMango","steam_id":76561198023144607,"connected_time":3563000000000,"state":"active","ping":73},{"user_id":156,"name":"crumbles","steam_id":76561198168707036,"connected_time":1848000000000,"state":"active","ping":89}]},{"server_id":108,"name":"Uncletopia | Dallas | 2 | All Maps","name_short":"dal-2","host":"dal-1.us.uncletopia.com","port":27025,"enabled":true,"region":"us-central","cc":"us","latitude":32.779167,"longitude":-96.80889,"reserved":0,"last_update":"0001-01-01T00:00:00Z","name_a2s":"Uncletopia | Dallas | 2 | All Maps","protocol":17,"map":"pl_badwater","folder":"tf","game":"Team Fortress","app_id":440,"player_count":0,"max_players":24,"Bots":0,"server_type":"Dedicated","server_os":"Linux","password":true,"vac":true,"version":"7723704","steam_id":85568392924469988,"keywords":["nocrits","nodmgspread","payload","uncletopia"],"game_id":440,"stv_port":27026,"stv_name":"Uncletopia | Dallas | 2 | All Maps | STV","players":null},{"server_id":5,"name":"Uncletopia | Frankfurt | 1 | All Maps","name_short":"frk-1","host":"frk-1.de.uncletopia.com","port":27015,"enabled":true,"region":"eu","cc":"de","latitude":50.110924,"longitude":8.682127,"reserved":0,"last_update":"0001-01-01T00:00:00Z","name_a2s":"Uncletopia | Frankfurt | 1 | All Maps","protocol":17,"map":"cp_dustbowl","folder":"tf","game":"Team Fortress","app_id":440,"player_count":24,"max_players":24,"Bots":0,"server_type":"Dedicated","server_os":"Linux","password":true,"vac":true,"version":"7723704","steam_id":85568392924469989,"keywords":["cp","nocrits","nodmgspread","uncletopia"],"game_id":440,"stv_port":27016,"stv_name":"Uncletopia | Frankfurt | 1 | All Maps | STV","players":[{"user_id":507,"name":"M76030","steam_id":76561198046651252,"connected_time":705000000000,"state":"active","ping":45},{"user_id":494,"name":"Was_Wolf","steam_id":76561199153210310,"connected_time":1614000000000,"state":"active","ping":86},{"user_id":512,"name":"kevin","steam_id":76561198363842731,"connected_time":334000000000,"state":"active","ping":60},{"user_id":444,"name":"Gordon Birdman","steam_id":76561198013382324,"connected_time":4199000000000,"state":"active","ping":74},{"user_id":505,"name":"Little_gun","steam_id":76561199203426420,"connected_time":797000000000,"state":"active","ping":160},{"user_id":511,"name":"a mild inconvenience","steam_id":76561199087055541,"connected_time":436000000000,"state":"active","ping":109},{"user_id":407,"name":"Appelflap64","steam_id":76561198012819017,"connected_time":5808000000000,"state":"active","ping":64},{"user_id":447,"name":"fallingpencil","steam_id":76561199230233148,"connected_time":3986000000000,"state":"active","ping":60},{"user_id":513,"name":"anairat","steam_id":76561198863788240,"connected_time":323000000000,"state":"active","ping":77},{"user_id":493,"name":"ratoshin","steam_id":76561198194433657,"connected_time":1797000000000,"state":"active","ping":46},{"user_id":487,"name":"Wujek Cacek","steam_id":76561198010267943,"connected_time":1883000000000,"state":"active","ping":66},{"user_id":518,"name":"System","steam_id":76561199442503973,"connected_time":57000000000,"state":"active","ping":49},{"user_id":516,"name":"Clitorina","steam_id":76561198077570815,"connected_time":129000000000,"state":"active","ping":52},{"user_id":503,"name":"Sir William Gaming","steam_id":76561198037676472,"connected_time":858000000000,"state":"active","ping":80},{"user_id":430,"name":"disposablesuperbread","steam_id":76561199074703607,"connected_time":4829000000000,"state":"active","ping":65},{"user_id":499,"name":"BenJantr_","steam_id":76561198882922635,"connected_time":1222000000000,"state":"active","ping":82},{"user_id":411,"name":"Recurracy","steam_id":76561197993421597,"connected_time":5609000000000,"state":"active","ping":57},{"user_id":517,"name":"Michael","steam_id":76561198003146906,"connected_time":107000000000,"state":"active","ping":61},{"user_id":500,"name":"timperlins","steam_id":76561198828274778,"connected_time":1186000000000,"state":"active","ping":78},{"user_id":506,"name":"pen","steam_id":76561198283655245,"connected_time":755000000000,"state":"active","ping":75},{"user_id":484,"name":"Vratis","steam_id":76561198062957725,"connected_time":1939000000000,"state":"active","ping":62},{"user_id":490,"name":"Klonky","steam_id":76561199068329886,"connected_time":1864000000000,"state":"active","ping":66},{"user_id":510,"name":"KFC Enjoyer","steam_id":76561198840259819,"connected_time":514000000000,"state":"active","ping":49},{"user_id":515,"name":"Sheerluck Holmes","steam_id":76561198051161936,"connected_time":190000000000,"state":"active","ping":59}]},{"server_id":110,"name":"Uncletopia | Frankfurt | 2 | All Maps","name_short":"frk-2","host":"frk-1.de.uncletopia.com","port":27025,"enabled":true,"region":"eu","cc":"de","latitude":50.110924,"longitude":8.682127,"reserved":0,"last_update":"0001-01-01T00:00:00Z","name_a2s":"Uncletopia | Frankfurt | 2 | All Maps","protocol":17,"map":"koth_cascade","folder":"tf","game":"Team Fortress","app_id":440,"player_count":0,"max_players":24,"Bots":0,"server_type":"Dedicated","server_os":"Linux","password":true,"vac":true,"version":"7723704","steam_id":85568392924469990,"keywords":["cp","nocrits","nodmgspread","uncletopia"],"game_id":440,"stv_port":27026,"stv_name":"Uncletopia | Frankfurt | 2 | All Maps | STV","players":null},{"server_id":308,"name":"Uncletopia | Frankfurt | 3 | All Maps","name_short":"frk-3","host":"frk-1.de.uncletopia.com","port":27035,"enabled":true,"region":"eu","cc":"de","latitude":50.110924,"longitude":8.682127,"reserved":0,"last_update":"0001-01-01T00:00:00Z","name_a2s":"Uncletopia | Frankfurt | 3 | All Maps","protocol":17,"map":"cp_dustbowl","folder":"tf","game":"Team Fortress","app_id":440,"player_count":24,"max_players":24,"Bots":0,"server_type":"Dedicated","server_os":"Linux","password":true,"vac":true,"version":"7723704","steam_id":85568392924504274,"keywords":["cp","nocrits","nodmgspread","uncletopia"],"game_id":440,"stv_port":27036,"stv_name":"Uncletopia | Frankfurt | 3 | All Maps | STV","players":[{"user_id":78,"name":"nobody","steam_id":76561198180637374,"connected_time":520000000000,"state":"active","ping":83},{"user_id":83,"name":"Gigolo","steam_id":76561198294655314,"connected_time":154000000000,"state":"active","ping":61},{"user_id":53,"name":"Montymilian","steam_id":76561198829371575,"connected_time":2590000000000,"state":"active","ping":79},{"user_id":61,"name":"freemantel30","steam_id":76561198065669800,"connected_time":2508000000000,"state":"active","ping":49},{"user_id":27,"name":"tarotartist","steam_id":76561198957338121,"connected_time":4096000000000,"state":"active","ping":187},{"user_id":71,"name":"Pruff","steam_id":76561198377084417,"connected_time":1110000000000,"state":"active","ping":60},{"user_id":80,"name":"Moze-o-matic","steam_id":76561199085849639,"connected_time":487000000000,"state":"active","ping":182},{"user_id":55,"name":"1_M_W","steam_id":76561199091749430,"connected_time":2568000000000,"state":"active","ping":92},{"user_id":37,"name":"skYle | joe +.+ꜝ","steam_id":76561197981047264,"connected_time":3013000000000,"state":"active","ping":45},{"user_id":33,"name":"Temka","steam_id":76561198331323738,"connected_time":3330000000000,"state":"active","ping":66},{"user_id":43,"name":"an flatulist","steam_id":76561198430050570,"connected_time":2878000000000,"state":"active","ping":68},{"user_id":85,"name":"ErJu","steam_id":76561198106273165,"connected_time":5000000000,"state":"spawning","ping":73},{"user_id":79,"name":"Pastoss","steam_id":76561198379098260,"connected_time":519000000000,"state":"active","ping":53},{"user_id":76,"name":"I like trains","steam_id":76561198148074472,"connected_time":676000000000,"state":"active","ping":45},{"user_id":42,"name":"Lady Maria","steam_id":76561198953210459,"connected_time":2943000000000,"state":"active","ping":89},{"user_id":44,"name":"brrrr","steam_id":76561198147277460,"connected_time":2802000000000,"state":"active","ping":59},{"user_id":68,"name":"CaptainDinez","steam_id":76561198391766996,"connected_time":1498000000000,"state":"active","ping":87},{"user_id":74,"name":"Uncle Lame","steam_id":76561198089003514,"connected_time":980000000000,"state":"active","ping":44},{"user_id":62,"name":"Artock","steam_id":76561198808599713,"connected_time":2344000000000,"state":"active","ping":87},{"user_id":51,"name":"Biały","steam_id":76561197996016988,"connected_time":2683000000000,"state":"active","ping":73},{"user_id":82,"name":"Óðinn","steam_id":76561198132690562,"connected_time":436000000000,"state":"active","ping":55},{"user_id":73,"name":"JoghurtTheKiller","steam_id":76561198063647918,"connected_time":1069000000000,"state":"active","ping":53},{"user_id":59,"name":"kiss under the missile toad","steam_id":76561198163244605,"connected_time":2535000000000,"state":"active","ping":73},{"user_id":81,"name":"Birne","steam_id":76561198001335120,"connected_time":450000000000,"state":"active","ping":52}]},{"server_id":309,"name":"Uncletopia | Frankfurt | 4 | All Maps","name_short":"frk-4","host":"frk-1.de.uncletopia.com","port":27045,"enabled":true,"region":"eu","cc":"de","latitude":50.110924,"longitude":8.682127,"reserved":0,"last_update":"0001-01-01T00:00:00Z","name_a2s":"Uncletopia | Frankfurt | 4 | All Maps","protocol":17,"map":"pl_pier","folder":"tf","game":"Team Fortress","app_id":440,"player_count":9,"max_players":24,"Bots":0,"server_type":"Dedicated","server_os":"Linux","password":true,"vac":true,"version":"7723704","steam_id":85568392924504275,"keywords":["nocrits","nodmgspread","payload","uncletopia"],"game_id":440,"stv_port":27046,"stv_name":"Uncletopia | Frankfurt | 4 | All Maps | STV","players":[{"user_id":142,"name":"Morcrabius","steam_id":76561198815127418,"connected_time":1506000000000,"state":"active","ping":82},{"user_id":140,"name":"Frank","steam_id":76561198086672774,"connected_time":1576000000000,"state":"active","ping":65},{"user_id":141,"name":"InfamousAxe","steam_id":76561198099504739,"connected_time":1557000000000,"state":"active","ping":107},{"user_id":150,"name":"mohemmedmokhter2005","steam_id":76561199197650506,"connected_time":395000000000,"state":"active","ping":115},{"user_id":151,"name":"meriones","steam_id":76561198034234373,"connected_time":368000000000,"state":"active","ping":54},{"user_id":152,"name":"her racecar ;3","steam_id":76561199013457963,"connected_time":288000000000,"state":"active","ping":57},{"user_id":156,"name":"Doruk Küçükduman","steam_id":76561198399815628,"connected_time":78000000000,"state":"active","ping":83},{"user_id":148,"name":"Waffles","steam_id":76561199086942763,"connected_time":728000000000,"state":"active","ping":79},{"user_id":155,"name":"iddoros","steam_id":76561199202283283,"connected_time":206000000000,"state":"active","ping":119}]},{"server_id":310,"name":"Uncletopia | Frankfurt | 5 | All Maps","name_short":"frk-5","host":"frk-1.de.uncletopia.com","port":27055,"enabled":true,"region":"eu","cc":"de","latitude":50.110924,"longitude":8.682127,"reserved":0,"last_update":"0001-01-01T00:00:00Z","name_a2s":"Uncletopia | Frankfurt | 5 | All Maps","protocol":17,"map":"koth_viaduct","folder":"tf","game":"Team Fortress","app_id":440,"player_count":24,"max_players":24,"Bots":0,"server_type":"Dedicated","server_os":"Linux","password":true,"vac":true,"version":"7723704","steam_id":85568392924504277,"keywords":["cp","nocrits","nodmgspread","uncletopia"],"game_id":440,"stv_port":27056,"stv_name":"Uncletopia | Frankfurt | 5 | All Maps | STV","players":[{"user_id":553,"name":"sleuth","steam_id":76561198102752414,"connected_time":142000000000,"state":"active","ping":59},{"user_id":546,"name":":)","steam_id":76561198103988618,"connected_time":467000000000,"state":"active","ping":75},{"user_id":554,"name":"MrSlimeZ","steam_id":76561198095009220,"connected_time":117000000000,"state":"active","ping":49},{"user_id":493,"name":"Peehole explorer","steam_id":76561198042593027,"connected_time":2895000000000,"state":"active","ping":79},{"user_id":519,"name":"DocTwoEight","steam_id":76561198153488940,"connected_time":1488000000000,"state":"active","ping":77},{"user_id":517,"name":"Autistic Anon","steam_id":76561198439454376,"connected_time":1562000000000,"state":"active","ping":78},{"user_id":521,"name":"mdharsy","steam_id":76561198065831053,"connected_time":1432000000000,"state":"active","ping":158},{"user_id":544,"name":"foo","steam_id":76561198042000263,"connected_time":492000000000,"state":"active","ping":73},{"user_id":345,"name":"hushhx","steam_id":76561198216200092,"connected_time":13075000000000,"state":"active","ping":66},{"user_id":547,"name":"Scary Gary","steam_id":76561198128659449,"connected_time":424000000000,"state":"active","ping":128},{"user_id":523,"name":":(","steam_id":76561198044465070,"connected_time":1414000000000,"state":"active","ping":86},{"user_id":473,"name":"Sneaky boi","steam_id":76561199195985387,"connected_time":4403000000000,"state":"active","ping":91},{"user_id":541,"name":"ded","steam_id":76561198304253103,"connected_time":1049000000000,"state":"active","ping":106},{"user_id":555,"name":"jwesa","steam_id":76561198018330092,"connected_time":36000000000,"state":"active","ping":80},{"user_id":556,"name":"Kapitan Polska","steam_id":76561197968069413,"connected_time":32000000000,"state":"active","ping":69},{"user_id":543,"name":"[MAZA] Dr.Tesla","steam_id":76561198044946815,"connected_time":501000000000,"state":"active","ping":86},{"user_id":529,"name":"Slipskip","steam_id":76561198018493540,"connected_time":1316000000000,"state":"active","ping":74},{"user_id":530,"name":"Gormbrain","steam_id":76561198020079511,"connected_time":1296000000000,"state":"active","ping":52},{"user_id":548,"name":"nox","steam_id":76561198287360892,"connected_time":366000000000,"state":"active","ping":62},{"user_id":550,"name":"Mr. Hunts","steam_id":76561197981910397,"connected_time":345000000000,"state":"active","ping":65},{"user_id":533,"name":"Luke SpyWalker","steam_id":76561198008643276,"connected_time":1273000000000,"state":"active","ping":62},{"user_id":545,"name":"Red Dynamite","steam_id":76561199073167935,"connected_time":492000000000,"state":"active","ping":160},{"user_id":536,"name":"Sus Fring","steam_id":76561198821542489,"connected_time":1220000000000,"state":"active","ping":98},{"user_id":539,"name":"V1CC V1NEGAR","steam_id":76561198154942431,"connected_time":1118000000000,"state":"active","ping":157}]},{"server_id":311,"name":"Uncletopia | Frankfurt | 6 | All Maps","name_short":"frk-6","host":"frk-1.de.uncletopia.com","port":27065,"enabled":true,"region":"eu","cc":"de","latitude":50.110924,"longitude":8.682127,"reserved":0,"last_update":"0001-01-01T00:00:00Z","name_a2s":"Uncletopia | Frankfurt | 6 | All Maps","protocol":17,"map":"koth_lakeside_final","folder":"tf","game":"Team Fortress","app_id":440,"player_count":6,"max_players":24,"Bots":0,"server_type":"Dedicated","server_os":"Linux","password":true,"vac":true,"version":"7723704","steam_id":85568392924504278,"keywords":["cp","nocrits","nodmgspread","uncletopia"],"game_id":440,"stv_port":27066,"stv_name":"Uncletopia | Frankfurt | 6 | All Maps | STV","players":[{"user_id":14,"name":"Light","steam_id":76561198004520744,"connected_time":807000000000,"state":"active","ping":93},{"user_id":15,"name":"golnikmih","steam_id":76561199379153014,"connected_time":632000000000,"state":"active","ping":139},{"user_id":16,"name":"ceptoz","steam_id":76561198928765380,"connected_time":614000000000,"state":"active","ping":127},{"user_id":17,"name":"ursus2003","steam_id":76561199004647294,"connected_time":593000000000,"state":"active","ping":109},{"user_id":21,"name":"Mandelbrot set","steam_id":76561199183213205,"connected_time":127000000000,"state":"active","ping":44},{"user_id":20,"name":"Akker","steam_id":76561199000630792,"connected_time":429000000000,"state":"active","ping":54}]},{"server_id":23,"name":"Uncletopia | Frankfurt | 7 | No Payload","name_short":"frk-7","host":"frk-1.de.uncletopia.com","port":27075,"enabled":true,"region":"eu","cc":"de","latitude":50.110924,"longitude":8.682127,"reserved":0,"last_update":"0001-01-01T00:00:00Z","name_a2s":"Uncletopia | Frankfurt | 7 | No Payload","protocol":17,"map":"ctf_well","folder":"tf","game":"Team Fortress","app_id":440,"player_count":24,"max_players":24,"Bots":0,"server_type":"Dedicated","server_os":"Linux","password":true,"vac":true,"version":"7723704","steam_id":85568392924742827,"keywords":["ctf","nocrits","nodmgspread","uncletopia"],"game_id":440,"stv_port":27076,"stv_name":"Uncletopia | Frankfurt | 7 | No Payload | STV","players":[{"user_id":265,"name":"yes","steam_id":76561199045736884,"connected_time":426000000000,"state":"active","ping":58},{"user_id":224,"name":"Pan Piotr","steam_id":76561198140016126,"connected_time":1598000000000,"state":"active","ping":73},{"user_id":271,"name":"Kali","steam_id":76561198070745106,"connected_time":359000000000,"state":"active","ping":58},{"user_id":240,"name":"d00bie","steam_id":76561198025295218,"connected_time":1090000000000,"state":"active","ping":62},{"user_id":259,"name":"mondobongo","steam_id":76561198141046489,"connected_time":544000000000,"state":"active","ping":60},{"user_id":252,"name":"Acheron","steam_id":76561198306593373,"connected_time":807000000000,"state":"active","ping":78},{"user_id":260,"name":"Cave Johnson","steam_id":76561198070137469,"connected_time":536000000000,"state":"active","ping":81},{"user_id":261,"name":"zoomba","steam_id":76561198077827849,"connected_time":535000000000,"state":"active","ping":76},{"user_id":238,"name":"little gamer","steam_id":76561198129693991,"connected_time":1339000000000,"state":"active","ping":101},{"user_id":272,"name":"Kobeni car ( :D )","steam_id":76561199052772727,"connected_time":165000000000,"state":"active","ping":87},{"user_id":246,"name":"Bingus-Bongus","steam_id":76561199145548798,"connected_time":968000000000,"state":"active","ping":81},{"user_id":203,"name":"MARNEX","steam_id":76561198149296726,"connected_time":2976000000000,"state":"active","ping":78},{"user_id":229,"name":"honey live","steam_id":76561198345972230,"connected_time":1524000000000,"state":"active","ping":76},{"user_id":251,"name":"clraffell","steam_id":76561198904469197,"connected_time":830000000000,"state":"active","ping":129},{"user_id":267,"name":"Neplex","steam_id":76561198002055899,"connected_time":401000000000,"state":"active","ping":110},{"user_id":249,"name":"regnskur","steam_id":76561198967615250,"connected_time":897000000000,"state":"active","ping":61},{"user_id":250,"name":"Chungskingi","steam_id":76561198798605429,"connected_time":866000000000,"state":"active","ping":57},{"user_id":237,"name":"ты","steam_id":76561198039254055,"connected_time":1366000000000,"state":"active","ping":129},{"user_id":214,"name":"иван","steam_id":76561198072730591,"connected_time":2200000000000,"state":"active","ping":66},{"user_id":253,"name":"Løbbeh","steam_id":76561198071861251,"connected_time":784000000000,"state":"active","ping":82},{"user_id":274,"name":"norespectforthedevil","steam_id":76561197998922218,"connected_time":97000000000,"state":"spawning","ping":136},{"user_id":270,"name":"Arecibo","steam_id":76561198014359615,"connected_time":388000000000,"state":"active","ping":65},{"user_id":273,"name":"bola typu święta","steam_id":76561199145943588,"connected_time":131000000000,"state":"active","ping":82},{"user_id":269,"name":"TRUMP NFT BUY BUY BUY","steam_id":76561198869806001,"connected_time":389000000000,"state":"active","ping":82}]},{"server_id":24,"name":"Uncletopia | Frankfurt | 8 | Community","name_short":"frk-8","host":"frk-1.de.uncletopia.com","port":27085,"enabled":true,"region":"eu","cc":"de","latitude":50.110924,"longitude":8.682127,"reserved":0,"last_update":"0001-01-01T00:00:00Z","name_a2s":"Uncletopia | Frankfurt | 8 | Community","protocol":17,"map":"workshop/koth_ramjam_v2_b2.ugc2865676487","folder":"tf","game":"Team Fortress","app_id":440,"player_count":0,"max_players":24,"Bots":0,"server_type":"Dedicated","server_os":"Linux","password":true,"vac":true,"version":"7723704","steam_id":85568392924742828,"keywords":["cp","nocrits","nodmgspread","uncletopia"],"game_id":440,"stv_port":27086,"stv_name":"Uncletopia | Frankfurt | 8 | Community | STV","players":null},{"server_id":202,"name":"Uncletopia | Hong Kong | 1 | All Maps","name_short":"hgk-1","host":"hgk-1.hk.uncletopia.com","port":27015,"enabled":true,"region":"asia","cc":"hk","latitude":22.302711,"longitude":114.177216,"reserved":0,"last_update":"0001-01-01T00:00:00Z","name_a2s":"Uncletopia | Hong Kong | 1 | All Maps","protocol":17,"map":"pl_pier","folder":"tf","game":"Team Fortress","app_id":440,"player_count":0,"max_players":24,"Bots":0,"server_type":"Dedicated","server_os":"Linux","password":true,"vac":true,"version":"7723704","steam_id":85568392924494504,"keywords":["nocrits","nodmgspread","payload","uncletopia"],"game_id":440,"stv_port":27016,"stv_name":"Uncletopia | Hong Kong | 1 | All Maps | STV","players":null},{"server_id":1,"name":"Uncletopia | Los Angeles | 1 | All Maps","name_short":"lax-1","host":"lax-1.us.uncletopia.com","port":27015,"enabled":true,"region":"us-west","cc":"us","latitude":33.94279,"longitude":-118.41004,"reserved":0,"last_update":"0001-01-01T00:00:00Z","name_a2s":"Uncletopia | Los Angeles | 1 | All Maps","protocol":17,"map":"koth_lakeside_final","folder":"tf","game":"Team Fortress","app_id":440,"player_count":0,"max_players":24,"Bots":0,"server_type":"Dedicated","server_os":"Linux","password":true,"vac":true,"version":"7723704","steam_id":85568392924469991,"keywords":["cp","nocrits","nodmgspread","uncletopia"],"game_id":440,"stv_port":27016,"stv_name":"Uncletopia | Los Angeles | 1 | All Maps | STV","players":null},{"server_id":112,"name":"Uncletopia | Los Angeles | 2 | All Maps","name_short":"lax-2","host":"lax-1.us.uncletopia.com","port":27025,"enabled":true,"region":"us-west","cc":"us","latitude":33.94279,"longitude":-118.41004,"reserved":0,"last_update":"0001-01-01T00:00:00Z","name_a2s":"Uncletopia | Los Angeles | 2 | All Maps","protocol":17,"map":"pl_wutville_event","folder":"tf","game":"Team Fortress","app_id":440,"player_count":1,"max_players":24,"Bots":0,"server_type":"Dedicated","server_os":"Linux","password":true,"vac":true,"version":"7723704","steam_id":85568392924469992,"keywords":["nocrits","nodmgspread","payload","uncletopia"],"game_id":440,"stv_port":27026,"stv_name":"Uncletopia | Los Angeles | 2 | All Maps | STV","players":[{"user_id":3,"name":"The Potato Romancer","steam_id":76561198204197648,"connected_time":206000000000,"state":"spawning","ping":68}]},{"server_id":324,"name":"Uncletopia | Los Angeles | 3 | All Maps","name_short":"lax-3","host":"lax-1.us.uncletopia.com","port":27035,"enabled":true,"region":"us-west","cc":"us","latitude":33.94279,"longitude":-118.41004,"reserved":0,"last_update":"0001-01-01T00:00:00Z","name_a2s":"Uncletopia | Los Angeles | 3 | All Maps","protocol":17,"map":"koth_highpass","folder":"tf","game":"Team Fortress","app_id":440,"player_count":0,"max_players":24,"Bots":0,"server_type":"Dedicated","server_os":"Linux","password":true,"vac":true,"version":"7723704","steam_id":85568392924510198,"keywords":["cp","nocrits","nodmgspread","uncletopia"],"game_id":440,"stv_port":27036,"stv_name":"Uncletopia | Los Angeles | 3 | All Maps | STV","players":null},{"server_id":25,"name":"Uncletopia | Los Angeles | 4 | No Payload","name_short":"lax-4","host":"lax-1.us.uncletopia.com","port":27045,"enabled":true,"region":"us-west","cc":"us","latitude":33.94279,"longitude":-118.41004,"reserved":0,"last_update":"0001-01-01T00:00:00Z","name_a2s":"Uncletopia | Los Angeles | 4 | No Payload","protocol":17,"map":"ctf_2fort","folder":"tf","game":"Team Fortress","app_id":440,"player_count":0,"max_players":24,"Bots":0,"server_type":"Dedicated","server_os":"Linux","password":true,"vac":true,"version":"7723704","steam_id":85568392924510199,"keywords":["ctf","nocrits","nodmgspread","uncletopia"],"game_id":440,"stv_port":27046,"stv_name":"Uncletopia | Los Angeles | 4 | No Payload | STV","players":null},{"server_id":11,"name":"Uncletopia | London | 1 | All Maps","name_short":"lon-1","host":"lon-1.uk.uncletopia.com","port":27015,"enabled":true,"region":"eu","cc":"gb","latitude":51.509865,"longitude":-0.118092,"reserved":0,"last_update":"0001-01-01T00:00:00Z","name_a2s":"Uncletopia | London | 1 | All Maps","protocol":17,"map":"pl_swiftwater_final1","folder":"tf","game":"Team Fortress","app_id":440,"player_count":25,"max_players":24,"Bots":0,"server_type":"Dedicated","server_os":"Linux","password":true,"vac":true,"version":"7723704","steam_id":85568392924367362,"keywords":["nocrits","nodmgspread","payload","uncletopia"],"game_id":440,"stv_port":27016,"stv_name":"Uncletopia | London | 1 | All Maps | STV","players":[{"user_id":420,"name":"xXx_Twink_Hunter_xXx","steam_id":76561198397024973,"connected_time":3653000000000,"state":"active","ping":44},{"user_id":638,"name":"The2PLAYZ","steam_id":76561198352720404,"connected_time":239000000000,"state":"active","ping":76},{"user_id":426,"name":".pandemiC","steam_id":76561198015941460,"connected_time":3191000000000,"state":"active","ping":120},{"user_id":371,"name":"Festive DeadInside","steam_id":76561198103660553,"connected_time":6686000000000,"state":"active","ping":95},{"user_id":400,"name":"dude back off","steam_id":76561198389397410,"connected_time":5080000000000,"state":"active","ping":56},{"user_id":455,"name":"Tasukeru","steam_id":76561198011909704,"connected_time":2792000000000,"state":"active","ping":57},{"user_id":607,"name":"Joomig","steam_id":76561198798066767,"connected_time":501000000000,"state":"active","ping":62},{"user_id":395,"name":"Doughy","steam_id":76561198044084210,"connected_time":5279000000000,"state":"active","ping":69},{"user_id":617,"name":"puck","steam_id":76561198121260981,"connected_time":475000000000,"state":"active","ping":44},{"user_id":618,"name":"Pabs :D","steam_id":76561198000016962,"connected_time":469000000000,"state":"active","ping":71},{"user_id":441,"name":"Grim the lemon","steam_id":76561199083433988,"connected_time":3067000000000,"state":"active","ping":47},{"user_id":532,"name":"тукку ирма","steam_id":76561197998715016,"connected_time":1733000000000,"state":"active","ping":64},{"user_id":418,"name":"festive jones","steam_id":76561198073975078,"connected_time":3822000000000,"state":"active","ping":53},{"user_id":456,"name":"Bepperman","steam_id":76561198397517828,"connected_time":2783000000000,"state":"active","ping":56},{"user_id":645,"name":"Wyvern786","steam_id":76561199137770636,"connected_time":167000000000,"state":"active","ping":49},{"user_id":644,"name":"Zombi3","steam_id":76561198326290621,"connected_time":170000000000,"state":"active","ping":65},{"user_id":621,"name":"Knoxx","steam_id":76561198260692541,"connected_time":454000000000,"state":"active","ping":56},{"user_id":611,"name":"mak","steam_id":76561198049312442,"connected_time":492000000000,"state":"active","ping":44},{"user_id":530,"name":"profreshional cactus","steam_id":76561198837919828,"connected_time":1772000000000,"state":"active","ping":112},{"user_id":533,"name":"Gretchin repair krew","steam_id":76561198843167121,"connected_time":1711000000000,"state":"active","ping":50},{"user_id":654,"name":"Pioneer","steam_id":76561199404585461,"connected_time":48000000000,"state":"spawning","ping":104},{"user_id":616,"name":"silves","steam_id":76561198106407598,"connected_time":476000000000,"state":"active","ping":60},{"user_id":564,"name":"aph","steam_id":76561198057722639,"connected_time":1121000000000,"state":"active","ping":75},{"user_id":522,"name":"Wuffington","steam_id":76561198033762881,"connected_time":1805000000000,"state":"active","ping":58},{"user_id":449,"name":"chocolate flavoured femboy","steam_id":76561198819353867,"connected_time":2874000000000,"state":"active","ping":35}]},{"server_id":114,"name":"Uncletopia | London | 2 | All Maps","name_short":"lon-2","host":"lon-1.uk.uncletopia.com","port":27025,"enabled":true,"region":"eu","cc":"gb","latitude":51.509865,"longitude":-0.118092,"reserved":0,"last_update":"0001-01-01T00:00:00Z","name_a2s":"Uncletopia | London | 2 | All Maps","protocol":17,"map":"pl_badwater","folder":"tf","game":"Team Fortress","app_id":440,"player_count":24,"max_players":24,"Bots":0,"server_type":"Dedicated","server_os":"Linux","password":true,"vac":true,"version":"7723704","steam_id":85568392924470941,"keywords":["nocrits","nodmgspread","payload","uncletopia"],"game_id":440,"stv_port":27026,"stv_name":"Uncletopia | London | 2 | All Maps | STV","players":[{"user_id":616,"name":"Rappin' Sebastian","steam_id":76561198453928256,"connected_time":4632000000000,"state":"active","ping":60},{"user_id":682,"name":"Flint","steam_id":76561197995920776,"connected_time":734000000000,"state":"active","ping":49},{"user_id":654,"name":"stupidugly","steam_id":76561198914610283,"connected_time":2849000000000,"state":"active","ping":83},{"user_id":687,"name":"Captain Britain of 2099","steam_id":76561198273006711,"connected_time":550000000000,"state":"active","ping":45},{"user_id":669,"name":"wasto-/-™","steam_id":76561198102888038,"connected_time":1887000000000,"state":"active","ping":60},{"user_id":677,"name":"pandeux","steam_id":76561198343527617,"connected_time":1238000000000,"state":"active","ping":55},{"user_id":678,"name":"Surfergeo","steam_id":76561198135538230,"connected_time":766000000000,"state":"active","ping":56},{"user_id":638,"name":"Some of you will Gry","steam_id":76561198053961616,"connected_time":3607000000000,"state":"active","ping":45},{"user_id":689,"name":"-rikeOo-","steam_id":76561198303995379,"connected_time":421000000000,"state":"active","ping":61},{"user_id":680,"name":"Insanitybomb","steam_id":76561198048707708,"connected_time":748000000000,"state":"active","ping":54},{"user_id":686,"name":"Joseph Stalin LFT","steam_id":76561198033199746,"connected_time":566000000000,"state":"active","ping":46},{"user_id":649,"name":"ALARM","steam_id":76561198120686521,"connected_time":2931000000000,"state":"active","ping":62},{"user_id":683,"name":"Mr.O","steam_id":76561198039567498,"connected_time":729000000000,"state":"active","ping":63},{"user_id":670,"name":"Fridge","steam_id":76561198071665589,"connected_time":1862000000000,"state":"active","ping":107},{"user_id":650,"name":"sniff","steam_id":76561198259668029,"connected_time":2908000000000,"state":"active","ping":50},{"user_id":684,"name":"Octoblue64","steam_id":76561198388997283,"connected_time":715000000000,"state":"active","ping":45},{"user_id":685,"name":"Vollys","steam_id":76561198018077773,"connected_time":715000000000,"state":"active","ping":61},{"user_id":662,"name":"WÜMAN","steam_id":76561199311085668,"connected_time":2487000000000,"state":"active","ping":133},{"user_id":668,"name":"Gideon","steam_id":76561198045132575,"connected_time":1896000000000,"state":"active","ping":43},{"user_id":663,"name":"The Erotic Barber","steam_id":76561198423902979,"connected_time":2336000000000,"state":"active","ping":50},{"user_id":634,"name":"boat","steam_id":76561198044915818,"connected_time":3934000000000,"state":"active","ping":75},{"user_id":690,"name":"Accident","steam_id":76561198115160396,"connected_time":421000000000,"state":"active","ping":80},{"user_id":640,"name":"DarkFloy","steam_id":76561198070650206,"connected_time":3448000000000,"state":"active","ping":84},{"user_id":675,"name":"Karl Reefe","steam_id":76561198253323044,"connected_time":1367000000000,"state":"active","ping":82}]},{"server_id":320,"name":"Uncletopia | London | 3 | All Maps","name_short":"lon-3","host":"lon-1.uk.uncletopia.com","port":27035,"enabled":true,"region":"eu","cc":"gb","latitude":51.509865,"longitude":-0.118092,"reserved":0,"last_update":"0001-01-01T00:00:00Z","name_a2s":"Uncletopia | London | 3 | All Maps","protocol":17,"map":"koth_king","folder":"tf","game":"Team Fortress","app_id":440,"player_count":24,"max_players":24,"Bots":0,"server_type":"Dedicated","server_os":"Linux","password":true,"vac":true,"version":"7723704","steam_id":85568392924510192,"keywords":["cp","nocrits","nodmgspread","uncletopia"],"game_id":440,"stv_port":27036,"stv_name":"Uncletopia | London | 3 | All Maps | STV","players":[{"user_id":376,"name":"player","steam_id":76561198054474684,"connected_time":1218000000000,"state":"active","ping":89},{"user_id":389,"name":"XantaToast","steam_id":76561198066158468,"connected_time":208000000000,"state":"active","ping":68},{"user_id":388,"name":"[dopijus]","steam_id":76561198943009513,"connected_time":238000000000,"state":"active","ping":106},{"user_id":390,"name":"fröga","steam_id":76561198412559828,"connected_time":203000000000,"state":"active","ping":180},{"user_id":325,"name":"Morten2k","steam_id":76561198049039201,"connected_time":2785000000000,"state":"active","ping":65},{"user_id":377,"name":"Tomo","steam_id":76561199015097595,"connected_time":1140000000000,"state":"active","ping":45},{"user_id":397,"name":"Cam","steam_id":76561198061255698,"connected_time":131000000000,"state":"active","ping":43},{"user_id":393,"name":"Gork's Bisque","steam_id":76561198065245884,"connected_time":174000000000,"state":"active","ping":36},{"user_id":371,"name":"elvin","steam_id":76561198161098266,"connected_time":1353000000000,"state":"active","ping":49},{"user_id":312,"name":"Mr.Cupcake","steam_id":76561198152711174,"connected_time":3636000000000,"state":"active","ping":77},{"user_id":378,"name":"Luk3","steam_id":76561198340519063,"connected_time":1011000000000,"state":"active","ping":46},{"user_id":380,"name":"Oak","steam_id":76561198067315672,"connected_time":979000000000,"state":"active","ping":51},{"user_id":363,"name":"Such XD","steam_id":76561198129454909,"connected_time":1701000000000,"state":"active","ping":71},{"user_id":381,"name":"Sanction9216","steam_id":76561198068045887,"connected_time":797000000000,"state":"active","ping":63},{"user_id":400,"name":"Gyro","steam_id":76561198062054941,"connected_time":16000000000,"state":"active","ping":42},{"user_id":273,"name":"VK2124 :D","steam_id":76561198111130688,"connected_time":7184000000000,"state":"active","ping":60},{"user_id":359,"name":"Guardsman Alex","steam_id":76561198000094686,"connected_time":1785000000000,"state":"active","ping":86},{"user_id":213,"name":"Teleporter terrorist","steam_id":76561198032359132,"connected_time":10797000000000,"state":"active","ping":46},{"user_id":364,"name":"Kili","steam_id":76561198138456346,"connected_time":1693000000000,"state":"active","ping":73},{"user_id":399,"name":"Kahvi","steam_id":76561198723244199,"connected_time":33000000000,"state":"active","ping":75},{"user_id":396,"name":"Judd","steam_id":76561198283409788,"connected_time":134000000000,"state":"active","ping":45},{"user_id":324,"name":"lolimsogreat21","steam_id":76561199052033788,"connected_time":2927000000000,"state":"active","ping":78},{"user_id":398,"name":"ansisg","steam_id":76561198340883650,"connected_time":66000000000,"state":"active","ping":108},{"user_id":387,"name":"Mannequin","steam_id":76561198128833974,"connected_time":241000000000,"state":"active","ping":57}]},{"server_id":321,"name":"Uncletopia | London | 4 | All Maps","name_short":"lon-4","host":"lon-1.uk.uncletopia.com","port":27045,"enabled":true,"region":"eu","cc":"gb","latitude":51.509865,"longitude":-0.118092,"reserved":0,"last_update":"0001-01-01T00:00:00Z","name_a2s":"Uncletopia | London | 4 | All Maps","protocol":17,"map":"pl_borneo","folder":"tf","game":"Team Fortress","app_id":440,"player_count":0,"max_players":24,"Bots":0,"server_type":"Dedicated","server_os":"Linux","password":true,"vac":true,"version":"7723704","steam_id":85568392924510193,"keywords":["nocrits","nodmgspread","payload","uncletopia"],"game_id":440,"stv_port":27046,"stv_name":"Uncletopia | London | 4 | All Maps | STV","players":null},{"server_id":21,"name":"Uncletopia | London | 5 | All Maps","name_short":"lon-5","host":"lon-1.uk.uncletopia.com","port":27055,"enabled":true,"region":"eu","cc":"gb","latitude":51.509865,"longitude":-0.118092,"reserved":0,"last_update":"0001-01-01T00:00:00Z","name_a2s":"Uncletopia | London | 5 | All Maps","protocol":17,"map":"pl_borneo","folder":"tf","game":"Team Fortress","app_id":440,"player_count":24,"max_players":24,"Bots":0,"server_type":"Dedicated","server_os":"Linux","password":true,"vac":true,"version":"7723704","steam_id":85568392924742829,"keywords":["nocrits","nodmgspread","payload","uncletopia"],"game_id":440,"stv_port":27056,"stv_name":"Uncletopia | London | 5 | All Maps | STV","players":[{"user_id":346,"name":"SageistSage","steam_id":76561199438120787,"connected_time":343000000000,"state":"active","ping":51},{"user_id":304,"name":"macauw","steam_id":76561198010467088,"connected_time":2745000000000,"state":"active","ping":53},{"user_id":336,"name":"crappySpanishInternet","steam_id":76561198359351343,"connected_time":682000000000,"state":"active","ping":81},{"user_id":298,"name":"RomAnjentululiantiarion","steam_id":76561198161417211,"connected_time":3289000000000,"state":"active","ping":98},{"user_id":333,"name":"Leonor Bolek","steam_id":76561198295052334,"connected_time":769000000000,"state":"active","ping":73},{"user_id":297,"name":"ufomaster1111111","steam_id":76561198837347666,"connected_time":3435000000000,"state":"active","ping":42},{"user_id":350,"name":"Bread Bucket","steam_id":76561199024133249,"connected_time":96000000000,"state":"active","ping":61},{"user_id":330,"name":"AuroraAce","steam_id":76561198278162691,"connected_time":925000000000,"state":"active","ping":46},{"user_id":311,"name":"Avocado [Ham Mafia]","steam_id":76561199007231261,"connected_time":2464000000000,"state":"active","ping":66},{"user_id":317,"name":"Someone","steam_id":76561199030195879,"connected_time":2241000000000,"state":"active","ping":37},{"user_id":338,"name":"mark","steam_id":76561198309246388,"connected_time":650000000000,"state":"active","ping":59},{"user_id":349,"name":"dnl","steam_id":76561198074156929,"connected_time":123000000000,"state":"active","ping":78},{"user_id":319,"name":"Carpe diem.","steam_id":76561199065917088,"connected_time":1841000000000,"state":"active","ping":60},{"user_id":324,"name":"G6 sherlock","steam_id":76561198802967796,"connected_time":1362000000000,"state":"active","ping":118},{"user_id":345,"name":"uNem0_","steam_id":76561198836442412,"connected_time":413000000000,"state":"active","ping":91},{"user_id":306,"name":"ZOGG FearLand","steam_id":76561198352683491,"connected_time":2671000000000,"state":"active","ping":42},{"user_id":335,"name":"jolie rouge","steam_id":76561197988085026,"connected_time":702000000000,"state":"active","ping":75},{"user_id":339,"name":"UnKnown","steam_id":76561198120219875,"connected_time":649000000000,"state":"active","ping":49},{"user_id":342,"name":"r06u3","steam_id":76561198254099253,"connected_time":636000000000,"state":"active","ping":174},{"user_id":294,"name":"Инспектор Атас","steam_id":76561199175688390,"connected_time":3818000000000,"state":"active","ping":90},{"user_id":332,"name":"Salmon Emjoyer","steam_id":76561199101664674,"connected_time":829000000000,"state":"active","ping":62},{"user_id":348,"name":"Millero15","steam_id":76561198143105719,"connected_time":240000000000,"state":"active","ping":94},{"user_id":318,"name":"Mayor Wank from Wanker Town","steam_id":76561197998253588,"connected_time":2222000000000,"state":"active","ping":59},{"user_id":321,"name":"Minecraftien_76","steam_id":76561198443111849,"connected_time":1578000000000,"state":"active","ping":70}]},{"server_id":22,"name":"Uncletopia | London | 6 | All Maps","name_short":"lon-6","host":"lon-1.uk.uncletopia.com","port":27065,"enabled":true,"region":"eu","cc":"gb","latitude":51.509865,"longitude":-0.118092,"reserved":0,"last_update":"0001-01-01T00:00:00Z","name_a2s":"Uncletopia | London | 6 | All Maps","protocol":17,"map":"koth_cascade","folder":"tf","game":"Team Fortress","app_id":440,"player_count":0,"max_players":24,"Bots":0,"server_type":"Dedicated","server_os":"Linux","password":true,"vac":true,"version":"7723704","steam_id":85568392924742830,"keywords":["cp","nocrits","nodmgspread","uncletopia"],"game_id":440,"stv_port":27066,"stv_name":"Uncletopia | London | 6 | All Maps | STV","players":null},{"server_id":40,"name":"Uncletopia | London | 7 | No Payload","name_short":"lon-7","host":"lon-1.uk.uncletopia.com","port":27075,"enabled":true,"region":"eu","cc":"gb","latitude":51.509865,"longitude":-0.118092,"reserved":0,"last_update":"0001-01-01T00:00:00Z","name_a2s":"Uncletopia | London | 7 | No Payload","protocol":17,"map":"cp_badlands","folder":"tf","game":"Team Fortress","app_id":440,"player_count":23,"max_players":24,"Bots":0,"server_type":"Dedicated","server_os":"Linux","password":true,"vac":true,"version":"7723704","steam_id":85568392924964314,"keywords":["cp","nocrits","nodmgspread","uncletopia"],"game_id":440,"stv_port":27076,"stv_name":"Uncletopia | London | 7 | No Payload | STV","players":[{"user_id":209,"name":"poliakov.noam","steam_id":76561199259322961,"connected_time":2423000000000,"state":"active","ping":94},{"user_id":256,"name":"sid","steam_id":76561198093613358,"connected_time":332000000000,"state":"active","ping":107},{"user_id":241,"name":"KAKTyC","steam_id":76561198019296536,"connected_time":1321000000000,"state":"active","ping":87},{"user_id":252,"name":"Toad | Mario Kart Double Dash","steam_id":76561198374881425,"connected_time":844000000000,"state":"active","ping":67},{"user_id":156,"name":"NoShield","steam_id":76561198831300551,"connected_time":5173000000000,"state":"active","ping":123},{"user_id":253,"name":"3igen3ggy","steam_id":76561197989548015,"connected_time":776000000000,"state":"active","ping":73},{"user_id":247,"name":"mjmatthewcoy221","steam_id":76561199276734636,"connected_time":1086000000000,"state":"active","ping":132},{"user_id":217,"name":"Tazza","steam_id":76561198159811050,"connected_time":2139000000000,"state":"active","ping":57},{"user_id":220,"name":"chachiply","steam_id":76561198316355509,"connected_time":2018000000000,"state":"active","ping":74},{"user_id":218,"name":"Banjo","steam_id":76561198206218496,"connected_time":2115000000000,"state":"active","ping":52},{"user_id":259,"name":"xX_GamingGilf_Xx","steam_id":76561199118876157,"connected_time":259000000000,"state":"active","ping":59},{"user_id":172,"name":"filetype","steam_id":76561198884659731,"connected_time":4308000000000,"state":"active","ping":120},{"user_id":258,"name":"Bug","steam_id":76561198168268048,"connected_time":274000000000,"state":"active","ping":52},{"user_id":175,"name":"RFireRed","steam_id":76561198982078622,"connected_time":4235000000000,"state":"active","ping":70},{"user_id":249,"name":"angry soviet","steam_id":76561198190005183,"connected_time":1032000000000,"state":"active","ping":72},{"user_id":250,"name":"HexeLillifee","steam_id":76561198015066102,"connected_time":988000000000,"state":"active","ping":59},{"user_id":222,"name":"ButterFIngers","steam_id":76561199218608402,"connected_time":1949000000000,"state":"active","ping":41},{"user_id":251,"name":"shithead gaming","steam_id":76561198019065232,"connected_time":978000000000,"state":"active","ping":42},{"user_id":232,"name":"MightBeMolin","steam_id":76561199053841217,"connected_time":1543000000000,"state":"active","ping":72},{"user_id":176,"name":"TSx* Osa__PL","steam_id":76561198027016799,"connected_time":4230000000000,"state":"active","ping":75},{"user_id":228,"name":"RogueComrade","steam_id":76561198152525193,"connected_time":1692000000000,"state":"active","ping":103},{"user_id":178,"name":"TSx* Naxer","steam_id":76561198011986779,"connected_time":4174000000000,"state":"active","ping":72},{"user_id":230,"name":"Salmon run gaming #SaveTf2","steam_id":76561199239325179,"connected_time":1648000000000,"state":"active","ping":41}]},{"server_id":41,"name":"Uncletopia | London | 8 | Community","name_short":"lon-8","host":"lon-1.uk.uncletopia.com","port":27085,"enabled":true,"region":"eu","cc":"gb","latitude":51.509865,"longitude":-0.118092,"reserved":0,"last_update":"0001-01-01T00:00:00Z","name_a2s":"Uncletopia | London | 8 | Community","protocol":17,"map":"pl_snowycoast","folder":"tf","game":"Team Fortress","app_id":440,"player_count":3,"max_players":24,"Bots":0,"server_type":"Dedicated","server_os":"Linux","password":true,"vac":true,"version":"7723704","steam_id":85568392924964315,"keywords":["nocrits","nodmgspread","payload","uncletopia"],"game_id":440,"stv_port":27086,"stv_name":"Uncletopia | London | 8 | Community | STV","players":[{"user_id":3,"name":"Frazzles","steam_id":76561199228009586,"connected_time":1770000000000,"state":"active","ping":50},{"user_id":5,"name":"Soaya","steam_id":76561199101510855,"connected_time":1384000000000,"state":"active","ping":45},{"user_id":7,"name":"henryl200","steam_id":76561198810332404,"connected_time":292000000000,"state":"active","ping":40}]},{"server_id":300,"name":"Uncletopia | Montréal | 1 | All Maps","name_short":"mtl-1","host":"mtl-1.ca.uncletopia.com","port":27015,"enabled":true,"region":"us-east","cc":"ca","latitude":45.50889,"longitude":-73.56167,"reserved":0,"last_update":"0001-01-01T00:00:00Z","name_a2s":"","protocol":0,"map":"","folder":"","game":"","app_id":0,"player_count":0,"max_players":0,"Bots":0,"server_type":"","server_os":"","password":false,"vac":false,"version":"","steam_id":0,"keywords":null,"game_id":0,"stv_port":0,"stv_name":"","players":null},{"server_id":301,"name":"Uncletopia | Montréal | 2 | All Maps","name_short":"mtl-2","host":"mtl-1.ca.uncletopia.com","port":27025,"enabled":true,"region":"us-east","cc":"ca","latitude":45.50889,"longitude":-73.56167,"reserved":0,"last_update":"0001-01-01T00:00:00Z","name_a2s":"","protocol":0,"map":"","folder":"","game":"","app_id":0,"player_count":0,"max_players":0,"Bots":0,"server_type":"","server_os":"","password":false,"vac":false,"version":"","steam_id":0,"keywords":null,"game_id":0,"stv_port":0,"stv_name":"","players":null},{"server_id":302,"name":"Uncletopia | Montréal | 3 | All Maps","name_short":"mtl-3","host":"mtl-1.ca.uncletopia.com","port":27035,"enabled":true,"region":"us-east","cc":"ca","latitude":45.50889,"longitude":-73.56167,"reserved":0,"last_update":"0001-01-01T00:00:00Z","name_a2s":"","protocol":0,"map":"","folder":"","game":"","app_id":0,"player_count":0,"max_players":0,"Bots":0,"server_type":"","server_os":"","password":false,"vac":false,"version":"","steam_id":0,"keywords":null,"game_id":0,"stv_port":0,"stv_name":"","players":null},{"server_id":303,"name":"Uncletopia | Montréal | 4 | No Payload","name_short":"mtl-4","host":"mtl-1.ca.uncletopia.com","port":27045,"enabled":true,"region":"us-east","cc":"ca","latitude":45.50889,"longitude":-73.56167,"reserved":0,"last_update":"0001-01-01T00:00:00Z","name_a2s":"","protocol":0,"map":"","folder":"","game":"","app_id":0,"player_count":0,"max_players":0,"Bots":0,"server_type":"","server_os":"","password":false,"vac":false,"version":"","steam_id":0,"keywords":null,"game_id":0,"stv_port":0,"stv_name":"","players":null},{"server_id":13,"name":"Uncletopia | New York City | 1 | All Maps","name_short":"nyc-1","host":"nyc-1.us.uncletopia.com","port":27015,"enabled":true,"region":"us-east","cc":"us","latitude":40.73061,"longitude":-73.93524,"reserved":0,"last_update":"0001-01-01T00:00:00Z","name_a2s":"Uncletopia | New York City | 1 | All Maps","protocol":17,"map":"pl_wutville_event","folder":"tf","game":"Team Fortress","app_id":440,"player_count":19,"max_players":24,"Bots":0,"server_type":"Dedicated","server_os":"Linux","password":true,"vac":true,"version":"7723704","steam_id":85568392924469993,"keywords":["nocrits","nodmgspread","payload","uncletopia"],"game_id":440,"stv_port":27016,"stv_name":"Uncletopia | New York City | 1 | All Maps | STV","players":[{"user_id":111,"name":"birchsearch!","steam_id":76561198037134053,"connected_time":1981000000000,"state":"active","ping":141},{"user_id":133,"name":"Chrisscar","steam_id":76561198086298130,"connected_time":289000000000,"state":"active","ping":107},{"user_id":131,"name":"Princess","steam_id":76561199304796706,"connected_time":537000000000,"state":"active","ping":71},{"user_id":135,"name":"Jolly evil little man","steam_id":76561198311053471,"connected_time":155000000000,"state":"active","ping":78},{"user_id":125,"name":"Totouri","steam_id":76561198004229789,"connected_time":782000000000,"state":"active","ping":73},{"user_id":110,"name":"Spearit5464","steam_id":76561199241807676,"connected_time":2000000000000,"state":"active","ping":98},{"user_id":136,"name":"swan","steam_id":76561198012569200,"connected_time":122000000000,"state":"active","ping":48},{"user_id":137,"name":"Infinity","steam_id":76561199134919099,"connected_time":117000000000,"state":"active","ping":63},{"user_id":119,"name":"xenolith","steam_id":76561198041496496,"connected_time":1295000000000,"state":"active","ping":50},{"user_id":138,"name":"Mr. Smithsonian","steam_id":76561198417572742,"connected_time":61000000000,"state":"active","ping":95},{"user_id":112,"name":"Winter the Witchie","steam_id":76561198151971178,"connected_time":1975000000000,"state":"active","ping":67},{"user_id":52,"name":"Fudgely","steam_id":76561198039425862,"connected_time":6223000000000,"state":"active","ping":57},{"user_id":139,"name":"macferdinand80","steam_id":76561199095597139,"connected_time":35000000000,"state":"active","ping":112},{"user_id":140,"name":"potty trained","steam_id":76561198141557766,"connected_time":10000000000,"state":"spawning","ping":60},{"user_id":141,"name":"baja blast","steam_id":76561198335329113,"connected_time":6000000000,"state":"spawning","ping":193},{"user_id":132,"name":"Δ ryan b'y","steam_id":76561197977850475,"connected_time":521000000000,"state":"active","ping":116},{"user_id":91,"name":"sponsored by rizz wallet","steam_id":76561198139802458,"connected_time":3980000000000,"state":"active","ping":85},{"user_id":100,"name":"meowfang","steam_id":76561198123056791,"connected_time":2980000000000,"state":"active","ping":54},{"user_id":92,"name":"never stop gambling","steam_id":76561198021224745,"connected_time":3873000000000,"state":"active","ping":34}]},{"server_id":14,"name":"Uncletopia | New York City | 2 | All Maps","name_short":"nyc-2","host":"nyc-1.us.uncletopia.com","port":27025,"enabled":true,"region":"us-east","cc":"us","latitude":40.73061,"longitude":-73.93524,"reserved":0,"last_update":"0001-01-01T00:00:00Z","name_a2s":"Uncletopia | New York City | 2 | All Maps","protocol":17,"map":"cp_dustbowl","folder":"tf","game":"Team Fortress","app_id":440,"player_count":0,"max_players":24,"Bots":0,"server_type":"Dedicated","server_os":"Linux","password":true,"vac":true,"version":"7723704","steam_id":85568392924469994,"keywords":["cp","nocrits","nodmgspread","uncletopia"],"game_id":440,"stv_port":27026,"stv_name":"Uncletopia | New York City | 2 | All Maps | STV","players":null},{"server_id":15,"name":"Uncletopia | New York City | 3 | All Maps","name_short":"nyc-3","host":"nyc-1.us.uncletopia.com","port":27035,"enabled":true,"region":"us-east","cc":"us","latitude":40.73061,"longitude":-73.93524,"reserved":0,"last_update":"0001-01-01T00:00:00Z","name_a2s":"Uncletopia | New York City | 3 | All Maps","protocol":17,"map":"cp_sunshine","folder":"tf","game":"Team Fortress","app_id":440,"player_count":0,"max_players":24,"Bots":0,"server_type":"Dedicated","server_os":"Linux","password":true,"vac":true,"version":"7723704","steam_id":85568392924742820,"keywords":["cp","nocrits","nodmgspread","uncletopia"],"game_id":440,"stv_port":27036,"stv_name":"Uncletopia | New York City | 3 | All Maps | STV","players":null},{"server_id":16,"name":"Uncletopia | New York City | 4 | Community","name_short":"nyc-4","host":"nyc-1.us.uncletopia.com","port":27045,"enabled":true,"region":"us-east","cc":"us","latitude":40.73061,"longitude":-73.93524,"reserved":0,"last_update":"0001-01-01T00:00:00Z","name_a2s":"Uncletopia | New York City | 4 | Community","protocol":17,"map":"workshop/cp_reckoner_rc6.ugc674719999","folder":"tf","game":"Team Fortress","app_id":440,"player_count":0,"max_players":24,"Bots":0,"server_type":"Dedicated","server_os":"Linux","password":true,"vac":true,"version":"7723704","steam_id":85568392924742821,"keywords":["cp","nocrits","nodmgspread","uncletopia"],"game_id":440,"stv_port":27046,"stv_name":"Uncletopia | New York City | 4 | Community | STV","players":null},{"server_id":142,"name":"Uncletopia | São Paulo | 1 | All Maps","name_short":"sao-1","host":"sao-1.br.uncletopia.com","port":27015,"enabled":true,"region":"sa","cc":"br","latitude":-23.533773,"longitude":-46.62529,"reserved":0,"last_update":"0001-01-01T00:00:00Z","name_a2s":"Uncletopia | São Paulo | 1 | All Maps","protocol":17,"map":"cp_altitude","folder":"tf","game":"Team Fortress","app_id":440,"player_count":15,"max_players":24,"Bots":0,"server_type":"Dedicated","server_os":"Linux","password":true,"vac":true,"version":"7723704","steam_id":85568392924469996,"keywords":["cp","nocrits","nodmgspread","uncletopia"],"game_id":440,"stv_port":27016,"stv_name":"Uncletopia | São Paulo | 1 | All Maps | STV","players":[{"user_id":43,"name":"Nikodemos0612","steam_id":76561198802374777,"connected_time":4503000000000,"state":"active","ping":75},{"user_id":74,"name":"Dandiablo","steam_id":76561198049841015,"connected_time":1262000000000,"state":"active","ping":92},{"user_id":86,"name":"coldwar121947","steam_id":76561199387219377,"connected_time":76000000000,"state":"active","ping":312},{"user_id":49,"name":"YekkuUwU","steam_id":76561199349215012,"connected_time":3990000000000,"state":"active","ping":35},{"user_id":65,"name":"JosuéManeiros","steam_id":76561198177695750,"connected_time":1832000000000,"state":"active","ping":75},{"user_id":66,"name":"ooopameu","steam_id":76561198964861348,"connected_time":1800000000000,"state":"active","ping":73},{"user_id":38,"name":"Rev","steam_id":76561199442812492,"connected_time":4600000000000,"state":"active","ping":81},{"user_id":67,"name":"URUBU DO PIX ©","steam_id":76561198941711861,"connected_time":1798000000000,"state":"active","ping":86},{"user_id":81,"name":"pi_forti","steam_id":76561198335494174,"connected_time":536000000000,"state":"active","ping":56},{"user_id":79,"name":"Blepy","steam_id":76561198199455773,"connected_time":720000000000,"state":"active","ping":80},{"user_id":70,"name":"InkSoul","steam_id":76561198927983566,"connected_time":1482000000000,"state":"active","ping":82},{"user_id":71,"name":"ShinGojira[BR]","steam_id":76561199199037141,"connected_time":1481000000000,"state":"active","ping":97},{"user_id":82,"name":"Zé","steam_id":76561198371046446,"connected_time":507000000000,"state":"active","ping":89},{"user_id":77,"name":"RedStar","steam_id":76561198100495977,"connected_time":1081000000000,"state":"active","ping":64},{"user_id":78,"name":"Zoom!","steam_id":76561198289562649,"connected_time":981000000000,"state":"active","ping":40}]},{"server_id":143,"name":"Uncletopia | São Paulo | 2 | All Maps","name_short":"sao-2","host":"sao-2.br.uncletopia.com","port":27015,"enabled":true,"region":"sa","cc":"br","latitude":-23.533773,"longitude":-46.62529,"reserved":0,"last_update":"0001-01-01T00:00:00Z","name_a2s":"Uncletopia | São Paulo | 2 | All Maps","protocol":17,"map":"cp_snakewater_final1","folder":"tf","game":"Team Fortress","app_id":440,"player_count":0,"max_players":24,"Bots":0,"server_type":"Dedicated","server_os":"Linux","password":true,"vac":true,"version":"7723704","steam_id":85568392924485349,"keywords":["cp","nocrits","nodmgspread","uncletopia"],"game_id":440,"stv_port":27016,"stv_name":"Uncletopia | São Paulo | 2 | All Maps | STV","players":null},{"server_id":7,"name":"Uncletopia | Seattle | 1 | All Maps","name_short":"sea-1","host":"sea-1.us.uncletopia.com","port":27015,"enabled":true,"region":"us-west","cc":"us","latitude":47.608013,"longitude":-122.33517,"reserved":0,"last_update":"0001-01-01T00:00:00Z","name_a2s":"Uncletopia | Seattle | 1 | All Maps","protocol":17,"map":"koth_harvest_final","folder":"tf","game":"Team Fortress","app_id":440,"player_count":0,"max_players":24,"Bots":0,"server_type":"Dedicated","server_os":"Linux","password":true,"vac":true,"version":"7723704","steam_id":85568392924469997,"keywords":["cp","nocrits","nodmgspread","uncletopia"],"game_id":440,"stv_port":27016,"stv_name":"Uncletopia | Seattle | 1 | All Maps | STV","players":null},{"server_id":119,"name":"Uncletopia | Seattle | 2 | All Maps","name_short":"sea-2","host":"sea-1.us.uncletopia.com","port":27025,"enabled":true,"region":"us-west","cc":"us","latitude":47.608013,"longitude":-122.33517,"reserved":0,"last_update":"0001-01-01T00:00:00Z","name_a2s":"Uncletopia | Seattle | 2 | All Maps","protocol":17,"map":"pl_badwater","folder":"tf","game":"Team Fortress","app_id":440,"player_count":0,"max_players":24,"Bots":0,"server_type":"Dedicated","server_os":"Linux","password":true,"vac":true,"version":"7723704","steam_id":85568392924469998,"keywords":["nocrits","nodmgspread","payload","uncletopia"],"game_id":440,"stv_port":27026,"stv_name":"Uncletopia | Seattle | 2 | All Maps | STV","players":null},{"server_id":17,"name":"Uncletopia | San Francisco | 1 | All Maps","name_short":"sfo-1","host":"sfo-1.us.uncletopia.com","port":27015,"enabled":true,"region":"us-west","cc":"us","latitude":37.77397,"longitude":-122.4313,"reserved":0,"last_update":"0001-01-01T00:00:00Z","name_a2s":"Uncletopia | San Francisco | 1 | All Maps","protocol":17,"map":"koth_viaduct","folder":"tf","game":"Team Fortress","app_id":440,"player_count":0,"max_players":24,"Bots":0,"server_type":"Dedicated","server_os":"Linux","password":true,"vac":true,"version":"7723704","steam_id":85568392924469999,"keywords":["cp","nocrits","nodmgspread","uncletopia"],"game_id":440,"stv_port":27016,"stv_name":"Uncletopia | San Francisco | 1 | All Maps | STV","players":null},{"server_id":18,"name":"Uncletopia | San Francisco | 2 | All Maps","name_short":"sfo-2","host":"sfo-1.us.uncletopia.com","port":27025,"enabled":true,"region":"us-west","cc":"us","latitude":37.77397,"longitude":-122.4313,"reserved":0,"last_update":"0001-01-01T00:00:00Z","name_a2s":"Uncletopia | San Francisco | 2 | All Maps","protocol":17,"map":"pl_pier","folder":"tf","game":"Team Fortress","app_id":440,"player_count":0,"max_players":24,"Bots":0,"server_type":"Dedicated","server_os":"Linux","password":true,"vac":true,"version":"7723704","steam_id":85568392924470000,"keywords":["nocrits","nodmgspread","payload","uncletopia"],"game_id":440,"stv_port":27026,"stv_name":"Uncletopia | San Francisco | 2 | All Maps | STV","players":null},{"server_id":19,"name":"Uncletopia | San Francisco | 3 | No Payload","name_short":"sfo-3","host":"sfo-1.us.uncletopia.com","port":27035,"enabled":true,"region":"us-west","cc":"us","latitude":37.77397,"longitude":-122.4313,"reserved":0,"last_update":"0001-01-01T00:00:00Z","name_a2s":"Uncletopia | San Francisco | 3 | No Payload","protocol":17,"map":"pl_snowycoast","folder":"tf","game":"Team Fortress","app_id":440,"player_count":0,"max_players":24,"Bots":0,"server_type":"Dedicated","server_os":"Linux","password":true,"vac":true,"version":"7723704","steam_id":85568392924742824,"keywords":["nocrits","nodmgspread","payload","uncletopia"],"game_id":440,"stv_port":27036,"stv_name":"Uncletopia | San Francisco | 3 | No Payload | STV","players":null},{"server_id":20,"name":"Uncletopia | San Francisco | 4 | Community","name_short":"sfo-4","host":"sfo-1.us.uncletopia.com","port":27045,"enabled":true,"region":"us-west","cc":"us","latitude":37.77397,"longitude":-122.4313,"reserved":0,"last_update":"0001-01-01T00:00:00Z","name_a2s":"Uncletopia | San Francisco | 4 | Community","protocol":17,"map":"pl_frontier_final","folder":"tf","game":"Team Fortress","app_id":440,"player_count":1,"max_players":24,"Bots":0,"server_type":"Dedicated","server_os":"Linux","password":true,"vac":true,"version":"7723704","steam_id":85568392924742826,"keywords":["nocrits","nodmgspread","payload","uncletopia"],"game_id":440,"stv_port":27046,"stv_name":"Uncletopia | San Francisco | 4 | Community | STV","players":[{"user_id":3,"name":"benchapman1011","steam_id":76561199014502613,"connected_time":579000000000,"state":"active","ping":82}]},{"server_id":141,"name":"Uncletopia | Sydney | 1 | All Maps","name_short":"syd-1","host":"syd-1.au.uncletopia.com","port":27015,"enabled":true,"region":"au","cc":"au","latitude":-33.865143,"longitude":151.2099,"reserved":0,"last_update":"0001-01-01T00:00:00Z","name_a2s":"Uncletopia | Sydney | 1 | All Maps","protocol":17,"map":"koth_viaduct","folder":"tf","game":"Team Fortress","app_id":440,"player_count":0,"max_players":24,"Bots":0,"server_type":"Dedicated","server_os":"Linux","password":true,"vac":true,"version":"7723704","steam_id":85568392924470001,"keywords":["cp","nocrits","nodmgspread","uncletopia"],"game_id":440,"stv_port":27016,"stv_name":"Uncletopia | Sydney | 1 | All Maps | STV","players":null},{"server_id":123,"name":"Uncletopia | Sydney | 2 | All Maps","name_short":"syd-2","host":"syd-1.au.uncletopia.com","port":27025,"enabled":true,"region":"au","cc":"au","latitude":-33.865143,"longitude":151.2099,"reserved":0,"last_update":"0001-01-01T00:00:00Z","name_a2s":"Uncletopia | Sydney | 2 | All Maps","protocol":17,"map":"cp_snakewater_final1","folder":"tf","game":"Team Fortress","app_id":440,"player_count":0,"max_players":24,"Bots":0,"server_type":"Dedicated","server_os":"Linux","password":true,"vac":true,"version":"7723704","steam_id":85568392924470002,"keywords":["cp","nocrits","nodmgspread","uncletopia"],"game_id":440,"stv_port":27026,"stv_name":"Uncletopia | Sydney | 2 | All Maps | STV","players":null},{"server_id":395,"name":"Uncletopia | Sydney | 3 | All Maps","name_short":"syd-3","host":"syd-1.au.uncletopia.com","port":27035,"enabled":true,"region":"au","cc":"au","latitude":-33.865143,"longitude":151.2099,"reserved":0,"last_update":"0001-01-01T00:00:00Z","name_a2s":"Uncletopia | Sydney | 3 | All Maps","protocol":17,"map":"pl_pier","folder":"tf","game":"Team Fortress","app_id":440,"player_count":0,"max_players":24,"Bots":0,"server_type":"Dedicated","server_os":"Linux","password":true,"vac":true,"version":"7723704","steam_id":85568392925194467,"keywords":["nocrits","nodmgspread","payload","uncletopia"],"game_id":440,"stv_port":27036,"stv_name":"Uncletopia | Sydney | 3 | All Maps | STV","players":null},{"server_id":396,"name":"Uncletopia | Sydney | 4 | All Maps","name_short":"syd-4","host":"syd-1.au.uncletopia.com","port":27045,"enabled":true,"region":"au","cc":"au","latitude":-33.865143,"longitude":151.2099,"reserved":0,"last_update":"0001-01-01T00:00:00Z","name_a2s":"Uncletopia | Sydney | 4 | All Maps","protocol":17,"map":"cp_process_final","folder":"tf","game":"Team Fortress","app_id":440,"player_count":0,"max_players":24,"Bots":0,"server_type":"Dedicated","server_os":"Linux","password":true,"vac":true,"version":"7723704","steam_id":85568392925397958,"keywords":["cp","nocrits","nodmgspread","uncletopia"],"game_id":440,"stv_port":27046,"stv_name":"Uncletopia | Sydney | 4 | All Maps | STV","players":null},{"server_id":58,"name":"Uncletopia | Sydney | 5 | No Payload","name_short":"syd-5","host":"syd-1.au.uncletopia.com","port":27055,"enabled":true,"region":"au","cc":"au","latitude":-33.865143,"longitude":151.2099,"reserved":0,"last_update":"0001-01-01T00:00:00Z","name_a2s":"Uncletopia | Sydney | 5 | No Payload","protocol":17,"map":"koth_cascade","folder":"tf","game":"Team Fortress","app_id":440,"player_count":0,"max_players":24,"Bots":0,"server_type":"Dedicated","server_os":"Linux","password":true,"vac":true,"version":"7723704","steam_id":85568392925397959,"keywords":["cp","nocrits","nodmgspread","uncletopia"],"game_id":440,"stv_port":27056,"stv_name":"Uncletopia | Sydney | 5 | No Payload | STV","players":null},{"server_id":59,"name":"Uncletopia | Sydney | 6 | Community","name_short":"syd-6","host":"syd-1.au.uncletopia.com","port":27065,"enabled":true,"region":"au","cc":"au","latitude":-33.865143,"longitude":151.2099,"reserved":0,"last_update":"0001-01-01T00:00:00Z","name_a2s":"Uncletopia | Sydney | 6 | Community","protocol":17,"map":"koth_lakeside_final","folder":"tf","game":"Team Fortress","app_id":440,"player_count":0,"max_players":24,"Bots":0,"server_type":"Dedicated","server_os":"Linux","password":true,"vac":true,"version":"7723704","steam_id":85568392925397960,"keywords":["cp","nocrits","nodmgspread","uncletopia"],"game_id":440,"stv_port":27066,"stv_name":"Uncletopia | Sydney | 6 | Community | STV","players":null},{"server_id":49,"name":"Uncletopia | Warsaw | 1 | All Maps","name_short":"waw-1","host":"waw-1.pl.uncletopia.com","port":27015,"enabled":true,"region":"eu","cc":"pl","latitude":52.2297,"longitude":21.017532,"reserved":0,"last_update":"0001-01-01T00:00:00Z","name_a2s":"Uncletopia | Warsaw | 1 | All Maps","protocol":17,"map":"cp_snakewater_final1","folder":"tf","game":"Team Fortress","app_id":440,"player_count":24,"max_players":24,"Bots":0,"server_type":"Dedicated","server_os":"Linux","password":true,"vac":true,"version":"7723704","steam_id":85568392925397850,"keywords":["cp","nocrits","nodmgspread","uncletopia"],"game_id":440,"stv_port":27016,"stv_name":"Uncletopia | Warsaw | 1 | All Maps | STV","players":[{"user_id":280,"name":"toothpaste vaper","steam_id":76561198078458780,"connected_time":2253000000000,"state":"active","ping":82},{"user_id":302,"name":"benfica gaming","steam_id":76561198281969674,"connected_time":925000000000,"state":"active","ping":104},{"user_id":213,"name":"waffle toaster","steam_id":76561198799089628,"connected_time":6673000000000,"state":"active","ping":80},{"user_id":299,"name":"Fat Pigeon","steam_id":76561198817940142,"connected_time":1143000000000,"state":"active","ping":74},{"user_id":314,"name":"dltzk","steam_id":76561198214848887,"connected_time":341000000000,"state":"active","ping":77},{"user_id":291,"name":"Amon Gus","steam_id":76561199094540960,"connected_time":1433000000000,"state":"active","ping":68},{"user_id":276,"name":"sisto majesto","steam_id":76561198073532776,"connected_time":2984000000000,"state":"active","ping":111},{"user_id":297,"name":"mt","steam_id":76561197961319303,"connected_time":1225000000000,"state":"active","ping":69},{"user_id":298,"name":"mati","steam_id":76561198269678940,"connected_time":1205000000000,"state":"active","ping":43},{"user_id":312,"name":"ScampSixteen","steam_id":76561198021771000,"connected_time":539000000000,"state":"active","ping":80},{"user_id":182,"name":"torn","steam_id":76561198223003236,"connected_time":7565000000000,"state":"active","ping":67},{"user_id":288,"name":"NotFionn","steam_id":76561198890525176,"connected_time":1786000000000,"state":"active","ping":93},{"user_id":239,"name":":)","steam_id":76561198039964082,"connected_time":5657000000000,"state":"active","ping":65},{"user_id":303,"name":"tristan","steam_id":76561198096097448,"connected_time":909000000000,"state":"active","ping":62},{"user_id":309,"name":"Luka Modrić 10","steam_id":76561198115041415,"connected_time":635000000000,"state":"active","ping":61},{"user_id":251,"name":"0xDEADBEEF","steam_id":76561199075416111,"connected_time":5218000000000,"state":"active","ping":102},{"user_id":308,"name":"Star in a pond","steam_id":76561198205501279,"connected_time":695000000000,"state":"active","ping":118},{"user_id":315,"name":"cherry","steam_id":76561199006915718,"connected_time":316000000000,"state":"active","ping":91},{"user_id":157,"name":"Threon","steam_id":76561198826783545,"connected_time":9097000000000,"state":"active","ping":58},{"user_id":274,"name":"Acid","steam_id":76561198102110680,"connected_time":3208000000000,"state":"active","ping":68},{"user_id":310,"name":"Mae","steam_id":76561198890391967,"connected_time":600000000000,"state":"active","ping":104},{"user_id":311,"name":"pira","steam_id":76561199439030016,"connected_time":595000000000,"state":"active","ping":141},{"user_id":313,"name":"i n n o","steam_id":76561199230689289,"connected_time":538000000000,"state":"active","ping":54},{"user_id":169,"name":"esheen","steam_id":76561198139376665,"connected_time":8554000000000,"state":"active","ping":37}]},{"server_id":50,"name":"Uncletopia | Warsaw | 2 | All Maps","name_short":"waw-2","host":"waw-1.pl.uncletopia.com","port":27025,"enabled":true,"region":"eu","cc":"pl","latitude":52.2297,"longitude":21.017532,"reserved":0,"last_update":"0001-01-01T00:00:00Z","name_a2s":"Uncletopia | Warsaw | 2 | All Maps","protocol":17,"map":"koth_viaduct","folder":"tf","game":"Team Fortress","app_id":440,"player_count":0,"max_players":24,"Bots":0,"server_type":"Dedicated","server_os":"Linux","password":true,"vac":true,"version":"7723704","steam_id":85568392925397851,"keywords":["cp","nocrits","nodmgspread","uncletopia"],"game_id":440,"stv_port":27026,"stv_name":"Uncletopia | Warsaw | 2 | All Maps | STV","players":null},{"server_id":51,"name":"Uncletopia | Warsaw | 3 | All Maps","name_short":"waw-3","host":"waw-1.pl.uncletopia.com","port":27035,"enabled":true,"region":"eu","cc":"pl","latitude":52.2297,"longitude":21.017532,"reserved":0,"last_update":"0001-01-01T00:00:00Z","name_a2s":"Uncletopia | Warsaw | 3 | All Maps","protocol":17,"map":"koth_lakeside_final","folder":"tf","game":"Team Fortress","app_id":440,"player_count":0,"max_players":24,"Bots":0,"server_type":"Dedicated","server_os":"Linux","password":true,"vac":true,"version":"7723704","steam_id":85568392925397852,"keywords":["cp","nocrits","nodmgspread","uncletopia"],"game_id":440,"stv_port":27036,"stv_name":"Uncletopia | Warsaw | 3 | All Maps | STV","players":null},{"server_id":52,"name":"Uncletopia | Warsaw | 4 | All Maps","name_short":"waw-4","host":"waw-1.pl.uncletopia.com","port":27045,"enabled":true,"region":"eu","cc":"pl","latitude":52.2297,"longitude":21.017532,"reserved":0,"last_update":"0001-01-01T00:00:00Z","name_a2s":"Uncletopia | Warsaw | 4 | All Maps","protocol":17,"map":"cp_snakewater_final1","folder":"tf","game":"Team Fortress","app_id":440,"player_count":0,"max_players":24,"Bots":0,"server_type":"Dedicated","server_os":"Linux","password":true,"vac":true,"version":"7723704","steam_id":85568392925397853,"keywords":["cp","nocrits","nodmgspread","uncletopia"],"game_id":440,"stv_port":27046,"stv_name":"Uncletopia | Warsaw | 4 | All Maps | STV","players":null},{"server_id":53,"name":"Uncletopia | Warsaw | 5 | No Payload","name_short":"waw-5","host":"waw-1.pl.uncletopia.com","port":27055,"enabled":true,"region":"eu","cc":"pl","latitude":52.2297,"longitude":21.017532,"reserved":0,"last_update":"0001-01-01T00:00:00Z","name_a2s":"Uncletopia | Warsaw | 5 | No Payload","protocol":17,"map":"koth_highpass","folder":"tf","game":"Team Fortress","app_id":440,"player_count":0,"max_players":24,"Bots":0,"server_type":"Dedicated","server_os":"Linux","password":true,"vac":true,"version":"7723704","steam_id":85568392925397854,"keywords":["cp","nocrits","nodmgspread","uncletopia"],"game_id":440,"stv_port":27056,"stv_name":"Uncletopia | Warsaw | 5 | No Payload | STV","players":null},{"server_id":54,"name":"Uncletopia | Warsaw | 6 | Community","name_short":"waw-6","host":"waw-1.pl.uncletopia.com","port":27065,"enabled":true,"region":"eu","cc":"pl","latitude":52.2297,"longitude":21.017532,"reserved":0,"last_update":"0001-01-01T00:00:00Z","name_a2s":"Uncletopia | Warsaw | 6 | Community","protocol":17,"map":"workshop/koth_product_final.ugc454272353","folder":"tf","game":"Team Fortress","app_id":440,"player_count":3,"max_players":24,"Bots":0,"server_type":"Dedicated","server_os":"Linux","password":true,"vac":true,"version":"7723704","steam_id":85568392925397856,"keywords":["cp","nocrits","nodmgspread","uncletopia"],"game_id":440,"stv_port":27066,"stv_name":"Uncletopia | Warsaw | 6 | Community | STV","players":[{"user_id":20,"name":"Dave Hamburger","steam_id":76561199229416475,"connected_time":452000000000,"state":"active","ping":88},{"user_id":21,"name":"big rat in ur toitlet haha","steam_id":76561198242095536,"connected_time":384000000000,"state":"active","ping":74},{"user_id":22,"name":"shit paper","steam_id":76561199152423252,"connected_time":288000000000,"state":"active","ping":74}]}]}