{"status":true,"message":"","result":[{"server_id":9,"name":"Uncletopia | Atlanta | 1 | All Maps","name_short":"atl-1","host":"atl-1.us.uncletopia.com","port":27015,"enabled":true,"region":"us-east","cc":"us","latitude":33.753746,"longitude":-84.38633,"reserved":0,"last_update":"0001-01-01T00:00:00Z","name_a2s":"Uncletopia | Atlanta | 1 | All Maps","protocol":17,"map":"pl_upward","folder":"tf","game":"Team Fortress","app_id":440,"player_count":24,"max_players":24,"Bots":0,"server_type":"Dedicated","server_os":"Linux","password":true,"vac":true,"version":"7961495","steam_id":85568392924469982,"keywords":["nocrits","nodmgspread","payload","uncletopia"],"game_id":440,"stv_port":27016,"stv_name":"Uncletopia | Atlanta | 1 | All Maps | STV","players":null},{"server_id":104,"name":"Uncletopia | Atlanta | 2 | All Maps","name_short":"atl-2","host":"atl-1.us.uncletopia.com","port":27025,"enabled":true,"region":"us-east","cc":"us","latitude":33.753746,"longitude":-84.38633,"reserved":0,"last_update":"0001-01-01T00:00:00Z","name_a2s":"Uncletopia | Atlanta | 2 | All Maps","protocol":17,"map":"pl_swiftwater_final1","folder":"tf","game":"Team Fortress","app_id":440,"player_count":24,"max_players":24,"Bots":0,"server_type":"Dedicated","server_os":"Linux","password":true,"vac":true,"version":"7961495","steam_id":85568392924469983,"keywords":["nocrits","nodmgspread","payload","uncletopia"],"game_id":440,"stv_port":27026,"stv_name":"Uncletopia | Atlanta | 2 | All Maps | STV","players":null},{"server_id":400,"name":"Uncletopia | Atlanta | 3 | Stopwatch","name_short":"atl-3","host":"atl-1.us.uncletopia.com","port":27035,"enabled":true,"region":"us-east","cc":"us","latitude":33.753746,"longitude":-84.38633,"reserved":0,"last_update":"0001-01-01T00:00:00Z","name_a2s":"Uncletopia | Atlanta | 3 | Stopwatch","protocol":17,"map":"pl_swiftwater_final1","folder":"tf","game":"Team Fortress","app_id":440,"player_count":0,"max_players":24,"Bots":0,"server_type":"Dedicated","server_os":"Linux","password":true,"vac":true,"version":"7961495","steam_id":85568392924515187,"keywords":["nocrits","nodmgspread","payload","uncletopia"],"game_id":440,"stv_port":27036,"stv_name":"Uncletopia | Atlanta | 3 | Stopwatch | STV","players":null},{"server_id":401,"name":"Uncletopia | Atlanta | 4 | Community","name_short":"atl-4","host":"atl-1.us.uncletopia.com","port":27045,"enabled":true,"region":"us-east","cc":"us","latitude":33.753746,"longitude":-84.38633,"reserved":0,"last_update":"0001-01-01T00:00:00Z","name_a2s":"Uncletopia | Atlanta | 4 | Community","protocol":17,"map":"cp_villa_b19","folder":"tf","game":"Team Fortress","app_id":440,"player_count":0,"max_players":24,"Bots":0,"server_type":"Dedicated","server_os":"Linux","password":true,"vac":true,"version":"7961495","steam_id":85568392924515188,"keywords":["cp","nocrits","nodmgspread","uncletopia"],"game_id":440,"stv_port":27046,"stv_name":"Uncletopia | Atlanta | 4 | Community | STV","players":null},{"server_id":2,"name":"Uncletopia | Chicago | 1 | All Maps","name_short":"chi-1","host":"chi-1.us.uncletopia.com","port":27015,"enabled":true,"region":"us-central","cc":"us","latitude":41.881832,"longitude":-87.62318,"reserved":0,"last_update":"0001-01-01T00:00:00Z","name_a2s":"Uncletopia | Chicago | 1 | All Maps","protocol":17,"map":"cp_mountainlab","folder":"tf","game":"Team Fortress","app_id":440,"player_count":24,"max_players":24,"Bots":0,"server_type":"Dedicated","server_os":"Linux","password":true,"vac":true,"version":"7961495","steam_id":85568392924469984,"keywords":["cp","nocrits","nodmgspread","uncletopia"],"game_id":440,"stv_port":27016,"stv_name":"Uncletopia | Chicago | 1 | All Maps | STV","players":[{"user_id":245,"name":"blob","steam_id":76561198122375328,"connected_time":1082000000000,"state":"active","ping":60},{"user_id":221,"name":"Rex","steam_id":76561198138365053,"connected_time":2068000000000,"state":"active","ping":134},{"user_id":249,"name":"Natsuki the Scunt","steam_id":76561199175922684,"connected_time":652000000000,"state":"active","ping":90},{"user_id":232,"name":"LemonZest","steam_id":76561199196369249,"connected_time":1678000000000,"state":"active","ping":74},{"user_id":218,"name":"Ras","steam_id":76561198123546775,"connected_time":2781000000000,"state":"active","ping":89},{"user_id":248,"name":"ButteryJack","steam_id":76561198021691102,"connected_time":851000000000,"state":"active","ping":104},{"user_id":229,"name":"Rock Kickass","steam_id":76561198450510841,"connected_time":1713000000000,"state":"active","ping":114},{"user_id":250,"name":"Lynx181","steam_id":76561198090949585,"connected_time":505000000000,"state":"active","ping":48},{"user_id":228,"name":"Captain","steam_id":76561198155723294,"connected_time":1770000000000,"state":"active","ping":52},{"user_id":204,"name":"murderous deer","steam_id":76561198350832152,"connected_time":5758000000000,"state":"active","ping":73},{"user_id":233,"name":"chaireater","steam_id":76561199089619339,"connected_time":1600000000000,"state":"active","ping":64},{"user_id":251,"name":"bigguylc","steam_id":76561198214289895,"connected_time":465000000000,"state":"active","ping":71},{"user_id":230,"name":"DinkleBerg","steam_id":76561198891626233,"connected_time":1711000000000,"state":"active","ping":68},{"user_id":238,"name":"ChebJeb","steam_id":76561198981377081,"connected_time":1359000000000,"state":"active","ping":87},{"user_id":235,"name":"♥ alixei! ♥","steam_id":76561198014557455,"connected_time":1530000000000,"state":"active","ping":53},{"user_id":252,"name":"Moris","steam_id":76561198280461456,"connected_time":453000000000,"state":"active","ping":116},{"user_id":254,"name":"Astoriae!","steam_id":76561199090168858,"connected_time":82000000000,"state":"active","ping":74},{"user_id":239,"name":"♥ mastercoms ♥","steam_id":76561198046110893,"connected_time":1331000000000,"state":"active","ping":52},{"user_id":240,"name":"PoisonIvy","steam_id":76561198072384574,"connected_time":1312000000000,"state":"active","ping":55},{"user_id":177,"name":"Your Local Queer Birthday Boi","steam_id":76561198013077080,"connected_time":8880000000000,"state":"active","ping":59},{"user_id":247,"name":"Donnie Blasto","steam_id":76561198043432005,"connected_time":965000000000,"state":"active","ping":55},{"user_id":193,"name":"Nibelsnarf (She/They)","steam_id":76561198137642054,"connected_time":7321000000000,"state":"active","ping":58},{"user_id":253,"name":"Pro Games Player","steam_id":76561198297301370,"connected_time":412000000000,"state":"active","ping":47},{"user_id":165,"name":"not a good idea","steam_id":76561198032259680,"connected_time":10221000000000,"state":"active","ping":77}]},{"server_id":106,"name":"Uncletopia | Chicago | 2 | All Maps","name_short":"chi-2","host":"chi-1.us.uncletopia.com","port":27025,"enabled":true,"region":"us-central","cc":"us","latitude":41.881832,"longitude":-87.62318,"reserved":0,"last_update":"0001-01-01T00:00:00Z","name_a2s":"Uncletopia | Chicago | 2 | All Maps","protocol":17,"map":"pl_pier","folder":"tf","game":"Team Fortress","app_id":440,"player_count":23,"max_players":24,"Bots":0,"server_type":"Dedicated","server_os":"Linux","password":true,"vac":true,"version":"7961495","steam_id":85568392924469985,"keywords":["nocrits","nodmgspread","payload","uncletopia"],"game_id":440,"stv_port":27026,"stv_name":"Uncletopia | Chicago | 2 | All Maps | STV","players":[{"user_id":244,"name":"orbisg","steam_id":76561198004133638,"connected_time":1603000000000,"state":"active","ping":113},{"user_id":230,"name":"CherriKat","steam_id":76561198821297512,"connected_time":2593000000000,"state":"active","ping":94},{"user_id":246,"name":"ShukSama","steam_id":76561198322357608,"connected_time":1417000000000,"state":"active","ping":97},{"user_id":214,"name":"soulnox","steam_id":76561199095021273,"connected_time":3228000000000,"state":"active","ping":60},{"user_id":247,"name":"echoist","steam_id":76561198449527009,"connected_time":1386000000000,"state":"active","ping":89},{"user_id":248,"name":"Brian","steam_id":76561198144650969,"connected_time":1357000000000,"state":"active","ping":72},{"user_id":272,"name":"Freedy","steam_id":76561199115274103,"connected_time":696000000000,"state":"active","ping":106},{"user_id":263,"name":"Stormartillery","steam_id":76561198408982577,"connected_time":1074000000000,"state":"active","ping":83},{"user_id":267,"name":"James","steam_id":76561198149877756,"connected_time":867000000000,"state":"active","ping":68},{"user_id":253,"name":"CyborgHexapus4","steam_id":76561198160335724,"connected_time":1291000000000,"state":"active","ping":98},{"user_id":222,"name":"KarmaStar","steam_id":76561197971945357,"connected_time":2971000000000,"state":"active","ping":87},{"user_id":269,"name":"MjrMovnTARGET","steam_id":76561199125908849,"connected_time":833000000000,"state":"active","ping":75},{"user_id":229,"name":"Fletcher","steam_id":76561198317846538,"connected_time":2666000000000,"state":"active","ping":63},{"user_id":255,"name":"Captain Demytri","steam_id":76561198097998607,"connected_time":1257000000000,"state":"active","ping":46},{"user_id":195,"name":"vuredel","steam_id":76561197999542711,"connected_time":4377000000000,"state":"active","ping":75},{"user_id":256,"name":"mn","steam_id":76561198042357436,"connected_time":1254000000000,"state":"active","ping":75},{"user_id":210,"name":"RedPyro2009","steam_id":76561198935824363,"connected_time":3656000000000,"state":"active","ping":150},{"user_id":257,"name":"schnedwob","steam_id":76561197999146588,"connected_time":1224000000000,"state":"active","ping":78},{"user_id":270,"name":"the archmage","steam_id":76561198380018244,"connected_time":811000000000,"state":"active","ping":75},{"user_id":271,"name":"Talented","steam_id":76561198800259660,"connected_time":795000000000,"state":"active","ping":67},{"user_id":260,"name":"GooniOoni","steam_id":76561198102154561,"connected_time":1182000000000,"state":"active","ping":44},{"user_id":273,"name":"Polar","steam_id":76561198271964253,"connected_time":463000000000,"state":"active","ping":77},{"user_id":262,"name":"doughboy","steam_id":76561198219012928,"connected_time":1169000000000,"state":"active","ping":105}]},{"server_id":402,"name":"Uncletopia | Chicago | 3 | All Maps","name_short":"chi-3","host":"chi-1.us.uncletopia.com","port":27035,"enabled":true,"region":"us-central","cc":"us","latitude":41.881832,"longitude":-87.62318,"reserved":0,"last_update":"0001-01-01T00:00:00Z","name_a2s":"Uncletopia | Chicago | 3 | All Maps","protocol":17,"map":"pl_thundermountain","folder":"tf","game":"Team Fortress","app_id":440,"player_count":24,"max_players":24,"Bots":0,"server_type":"Dedicated","server_os":"Linux","password":true,"vac":true,"version":"7961495","steam_id":85568392924515191,"keywords":["nocrits","nodmgspread","payload","uncletopia"],"game_id":440,"stv_port":27036,"stv_name":"Uncletopia | Chicago | 3 | All Maps | STV","players":[{"user_id":507,"name":"Kung fu Mungus","steam_id":76561198069281556,"connected_time":2858000000000,"state":"active","ping":69},{"user_id":489,"name":"HUMBY","steam_id":76561198065045867,"connected_time":4161000000000,"state":"active","ping":81},{"user_id":530,"name":"NovaSc6ut","steam_id":76561198277163301,"connected_time":477000000000,"state":"active","ping":63},{"user_id":529,"name":"Jasper™","steam_id":76561198260018463,"connected_time":548000000000,"state":"active","ping":106},{"user_id":486,"name":"vapid","steam_id":76561198077643349,"connected_time":4350000000000,"state":"active","ping":74},{"user_id":484,"name":"Pawn Cushman","steam_id":76561198221635676,"connected_time":4467000000000,"state":"active","ping":70},{"user_id":522,"name":"Freyja","steam_id":76561198207412177,"connected_time":1296000000000,"state":"active","ping":71},{"user_id":514,"name":"radlovejar","steam_id":76561198148087309,"connected_time":1934000000000,"state":"active","ping":71},{"user_id":487,"name":"USDA Prime Beef","steam_id":76561198051630218,"connected_time":4336000000000,"state":"active","ping":94},{"user_id":505,"name":"Ⓑ⓪⓪ⓣⓨⓒⓐⓚⓔⓢ","steam_id":76561198088776421,"connected_time":3573000000000,"state":"active","ping":65},{"user_id":471,"name":"Shoeshocker","steam_id":76561198174302467,"connected_time":5180000000000,"state":"active","ping":74},{"user_id":509,"name":"WesyUWU (The mini crit pig)","steam_id":76561198069188177,"connected_time":2265000000000,"state":"active","ping":75},{"user_id":518,"name":"Genderneutron","steam_id":76561199022773775,"connected_time":1628000000000,"state":"active","ping":96},{"user_id":532,"name":"cuzimlatin2704","steam_id":76561199094752899,"connected_time":364000000000,"state":"active","ping":92},{"user_id":495,"name":"Vorpas Jabwak","steam_id":76561198112186064,"connected_time":3969000000000,"state":"active","ping":81},{"user_id":535,"name":"thecal","steam_id":76561198307893384,"connected_time":231000000000,"state":"active","ping":58},{"user_id":513,"name":"blobb","steam_id":76561198950448488,"connected_time":2182000000000,"state":"active","ping":54},{"user_id":510,"name":"JohhnyFromCali :7","steam_id":76561198044015725,"connected_time":2237000000000,"state":"active","ping":76},{"user_id":526,"name":"vanilla gorilla","steam_id":76561197989019617,"connected_time":813000000000,"state":"active","ping":50},{"user_id":520,"name":"Queen Frau the Round","steam_id":76561197999942134,"connected_time":1487000000000,"state":"active","ping":45},{"user_id":525,"name":"1940's Softdrink","steam_id":76561198060955244,"connected_time":943000000000,"state":"active","ping":75},{"user_id":527,"name":"LoboSolo","steam_id":76561198006883170,"connected_time":728000000000,"state":"active","ping":92},{"user_id":482,"name":"Drachma","steam_id":76561198007310514,"connected_time":4660000000000,"state":"active","ping":62},{"user_id":515,"name":"firefish","steam_id":76561199135656474,"connected_time":1849000000000,"state":"active","ping":86}]},{"server_id":403,"name":"Uncletopia | Chicago | 4 | All Maps","name_short":"chi-4","host":"chi-1.us.uncletopia.com","port":27045,"enabled":true,"region":"us-central","cc":"us","latitude":41.881832,"longitude":-87.62318,"reserved":0,"last_update":"0001-01-01T00:00:00Z","name_a2s":"Uncletopia | Chicago | 4 | All Maps","protocol":17,"map":"pl_enclosure_final","folder":"tf","game":"Team Fortress","app_id":440,"player_count":24,"max_players":24,"Bots":0,"server_type":"Dedicated","server_os":"Linux","password":true,"vac":true,"version":"7961495","steam_id":85568392924515193,"keywords":["nocrits","nodmgspread","payload","uncletopia"],"game_id":440,"stv_port":27046,"stv_name":"Uncletopia | Chicago | 4 | All Maps | STV","players":[{"user_id":276,"name":"Nephi","steam_id":76561198031525122,"connected_time":1201000000000,"state":"active","ping":79},{"user_id":293,"name":"Shrumm_","steam_id":76561199112605047,"connected_time":548000000000,"state":"active","ping":102},{"user_id":278,"name":"walterfishing_17","steam_id":76561198976904099,"connected_time":1132000000000,"state":"active","ping":74},{"user_id":298,"name":"jade","steam_id":76561198055611029,"connected_time":303000000000,"state":"active","ping":59},{"user_id":280,"name":"8o8","steam_id":76561198996923332,"connected_time":1002000000000,"state":"active","ping":88},{"user_id":255,"name":"Nassu","steam_id":76561198147367577,"connected_time":2776000000000,"state":"active","ping":68},{"user_id":270,"name":"kitchen goblin","steam_id":76561198271710504,"connected_time":1779000000000,"state":"active","ping":56},{"user_id":247,"name":"elephant thumb","steam_id":76561198118859752,"connected_time":3467000000000,"state":"active","ping":97},{"user_id":263,"name":"boffo","steam_id":76561198096978718,"connected_time":2057000000000,"state":"active","ping":86},{"user_id":282,"name":"Cblackk","steam_id":76561198815212152,"connected_time":939000000000,"state":"active","ping":79},{"user_id":283,"name":"Peter Griffin","steam_id":76561198171302947,"connected_time":935000000000,"state":"active","ping":77},{"user_id":252,"name":"mountain goat","steam_id":76561198326628884,"connected_time":2955000000000,"state":"active","ping":69},{"user_id":285,"name":"asbestos","steam_id":76561198079178866,"connected_time":805000000000,"state":"active","ping":74},{"user_id":265,"name":"songcreator","steam_id":76561198076822464,"connected_time":2015000000000,"state":"active","ping":49},{"user_id":286,"name":"Denzel McFlurry","steam_id":76561199231296521,"connected_time":778000000000,"state":"active","ping":71},{"user_id":295,"name":"Jodi","steam_id":76561198131833567,"connected_time":486000000000,"state":"active","ping":107},{"user_id":301,"name":"Bsantini","steam_id":76561198156242552,"connected_time":55000000000,"state":"active","ping":85},{"user_id":253,"name":"The Booty Creek Cheek Freak","steam_id":76561198965915291,"connected_time":2951000000000,"state":"active","ping":71},{"user_id":300,"name":"Tourmaline","steam_id":76561198987049358,"connected_time":265000000000,"state":"active","ping":50},{"user_id":287,"name":"Honolulu","steam_id":76561198106381764,"connected_time":765000000000,"state":"active","ping":58},{"user_id":288,"name":"Lord jellyfish","steam_id":76561198099255487,"connected_time":757000000000,"state":"active","ping":64},{"user_id":296,"name":"Xebbey","steam_id":76561198880415976,"connected_time":328000000000,"state":"active","ping":73},{"user_id":275,"name":"totoro","steam_id":76561198210420871,"connected_time":1433000000000,"state":"active","ping":44},{"user_id":291,"name":"A Big Rat","steam_id":76561197990853987,"connected_time":641000000000,"state":"active","ping":57}]},{"server_id":36,"name":"Uncletopia | Chicago | 5 | All Maps","name_short":"chi-5","host":"chi-2.us.uncletopia.com","port":27015,"enabled":true,"region":"us-central","cc":"us","latitude":41.881832,"longitude":-87.62318,"reserved":0,"last_update":"0001-01-01T00:00:00Z","name_a2s":"Uncletopia | Chicago | 5 | All Maps","protocol":17,"map":"koth_highpass","folder":"tf","game":"Team Fortress","app_id":440,"player_count":1,"max_players":24,"Bots":0,"server_type":"Dedicated","server_os":"Linux","password":true,"vac":true,"version":"7961495","steam_id":85568392924866362,"keywords":["cp","nocrits","nodmgspread","uncletopia"],"game_id":440,"stv_port":27016,"stv_name":"Uncletopia | Chicago | 5 | All Maps | STV","players":[{"user_id":25,"name":"leboeufbn","steam_id":76561199228923100,"connected_time":48000000000,"state":"active","ping":83}]},{"server_id":37,"name":"Uncletopia | Chicago | 6 | All Maps","name_short":"chi-6","host":"chi-2.us.uncletopia.com","port":27025,"enabled":true,"region":"us-central","cc":"us","latitude":41.881832,"longitude":-87.62318,"reserved":0,"last_update":"0001-01-01T00:00:00Z","name_a2s":"Uncletopia | Chicago | 6 | All Maps","protocol":17,"map":"pl_badwater","folder":"tf","game":"Team Fortress","app_id":440,"player_count":23,"max_players":24,"Bots":0,"server_type":"Dedicated","server_os":"Linux","password":true,"vac":true,"version":"7961495","steam_id":85568392924866363,"keywords":["nocrits","nodmgspread","payload","uncletopia"],"game_id":440,"stv_port":27026,"stv_name":"Uncletopia | Chicago | 6 | All Maps | STV","players":[{"user_id":389,"name":"Wagabagabobo","steam_id":76561198097150194,"connected_time":1721000000000,"state":"active","ping":72},{"user_id":345,"name":"loaxy's 1# enemy","steam_id":76561199016057782,"connected_time":3933000000000,"state":"active","ping":62},{"user_id":394,"name":"wafflehamster2000","steam_id":76561198849161820,"connected_time":1087000000000,"state":"active","ping":71},{"user_id":380,"name":"sansa musa","steam_id":76561198163723555,"connected_time":2376000000000,"state":"active","ping":70},{"user_id":406,"name":"milk then cereal","steam_id":76561198047168548,"connected_time":162000000000,"state":"active","ping":100},{"user_id":396,"name":"crankshaft","steam_id":76561197992798282,"connected_time":1015000000000,"state":"active","ping":103},{"user_id":344,"name":"Shaggy from Ghostbusters","steam_id":76561198062763756,"connected_time":3948000000000,"state":"active","ping":47},{"user_id":361,"name":"High Roller","steam_id":76561198034467781,"connected_time":2925000000000,"state":"active","ping":59},{"user_id":392,"name":"Kitt(eh) ∑:3","steam_id":76561198110858518,"connected_time":1259000000000,"state":"active","ping":62},{"user_id":404,"name":"MacchuPeachu","steam_id":76561199093242587,"connected_time":282000000000,"state":"active","ping":98},{"user_id":384,"name":"ATLS1 | Krissy","steam_id":76561197960848174,"connected_time":2035000000000,"state":"active","ping":69},{"user_id":398,"name":"Polar","steam_id":76561198096852688,"connected_time":771000000000,"state":"active","ping":59},{"user_id":399,"name":"celery","steam_id":76561199004451589,"connected_time":743000000000,"state":"active","ping":73},{"user_id":402,"name":"MF DOOM","steam_id":76561199389287069,"connected_time":321000000000,"state":"active","ping":74},{"user_id":278,"name":"Piggypot","steam_id":76561199106826976,"connected_time":9302000000000,"state":"active","ping":80},{"user_id":333,"name":"chen","steam_id":76561198064872330,"connected_time":5268000000000,"state":"active","ping":74},{"user_id":407,"name":"Loopo","steam_id":76561199127035429,"connected_time":142000000000,"state":"active","ping":119},{"user_id":383,"name":"whalemart","steam_id":76561198203395648,"connected_time":2129000000000,"state":"active","ping":75},{"user_id":371,"name":"Hello World","steam_id":76561199093925982,"connected_time":2693000000000,"state":"active","ping":100},{"user_id":337,"name":"MillerWhite","steam_id":76561198076060357,"connected_time":5129000000000,"state":"active","ping":88},{"user_id":340,"name":"Godmode","steam_id":76561198076240365,"connected_time":4011000000000,"state":"active","ping":65},{"user_id":408,"name":"yz","steam_id":76561198008296766,"connected_time":138000000000,"state":"active","ping":46},{"user_id":353,"name":"Gordon Ramsay.","steam_id":76561199167165627,"connected_time":3734000000000,"state":"active","ping":113}]},{"server_id":38,"name":"Uncletopia | Chicago | 7 | Stopwatch","name_short":"chi-7","host":"chi-2.us.uncletopia.com","port":27035,"enabled":true,"region":"us-central","cc":"us","latitude":41.881832,"longitude":-87.62318,"reserved":0,"last_update":"0001-01-01T00:00:00Z","name_a2s":"Uncletopia | Chicago | 7 | Stopwatch","protocol":17,"map":"pl_badwater","folder":"tf","game":"Team Fortress","app_id":440,"player_count":0,"max_players":24,"Bots":0,"server_type":"Dedicated","server_os":"Linux","password":true,"vac":true,"version":"7961495","steam_id":85568392924866364,"keywords":["nocrits","nodmgspread","payload","uncletopia"],"game_id":440,"stv_port":27036,"stv_name":"Uncletopia | Chicago | 7 | Stopwatch | STV","players":null},{"server_id":39,"name":"Uncletopia | Chicago | 8 | Community","name_short":"chi-8","host":"chi-2.us.uncletopia.com","port":27045,"enabled":true,"region":"us-central","cc":"us","latitude":41.881832,"longitude":-87.62318,"reserved":0,"last_update":"0001-01-01T00:00:00Z","name_a2s":"Uncletopia | Chicago | 8 | Community","protocol":17,"map":"workshop/pl_barnblitz_pro7.ugc582280235","folder":"tf","game":"Team Fortress","app_id":440,"player_count":0,"max_players":24,"Bots":0,"server_type":"Dedicated","server_os":"Linux","password":true,"vac":true,"version":"7961495","steam_id":85568392924866365,"keywords":["nocrits","nodmgspread","payload","uncletopia"],"game_id":440,"stv_port":27046,"stv_name":"Uncletopia | Chicago | 8 | Community | STV","players":null},{"server_id":8,"name":"Uncletopia | Dallas | 1 | All Maps","name_short":"dal-1","host":"dal-1.us.uncletopia.com","port":27015,"enabled":true,"region":"us-central","cc":"us","latitude":32.779167,"longitude":-96.80889,"reserved":0,"last_update":"0001-01-01T00:00:00Z","name_a2s":"Uncletopia | Dallas | 1 | All Maps","protocol":17,"map":"koth_harvest_final","folder":"tf","game":"Team Fortress","app_id":440,"player_count":23,"max_players":24,"Bots":0,"server_type":"Dedicated","server_os":"Linux","password":true,"vac":true,"version":"7961495","steam_id":85568392924469986,"keywords":["cp","nocrits","nodmgspread","uncletopia"],"game_id":440,"stv_port":27016,"stv_name":"Uncletopia | Dallas | 1 | All Maps | STV","players":[{"user_id":323,"name":"Rob","steam_id":76561199187786660,"connected_time":4720000000000,"state":"active","ping":53},{"user_id":367,"name":"RusticCarp42989","steam_id":76561198361151865,"connected_time":2170000000000,"state":"active","ping":98},{"user_id":381,"name":"Kintsugi","steam_id":76561198301867054,"connected_time":1180000000000,"state":"active","ping":72},{"user_id":401,"name":"ntGator♔","steam_id":76561198098413875,"connected_time":20000000000,"state":"spawning","ping":68},{"user_id":393,"name":"MapleSyrup","steam_id":76561199222442855,"connected_time":375000000000,"state":"active","ping":81},{"user_id":361,"name":"pea ttv/peabeanz","steam_id":76561198119551968,"connected_time":2488000000000,"state":"active","ping":96},{"user_id":400,"name":"e doctor","steam_id":76561198081851446,"connected_time":37000000000,"state":"active","ping":61},{"user_id":382,"name":"ZILICON","steam_id":76561199044705592,"connected_time":1080000000000,"state":"active","ping":114},{"user_id":371,"name":"Rafl","steam_id":76561198055222756,"connected_time":1944000000000,"state":"active","ping":44},{"user_id":369,"name":"Minus-Abinus","steam_id":76561199080630632,"connected_time":2013000000000,"state":"active","ping":90},{"user_id":354,"name":"firefly","steam_id":76561198151308698,"connected_time":2706000000000,"state":"active","ping":45},{"user_id":363,"name":"Chilis 2 for 20","steam_id":76561198121544531,"connected_time":2343000000000,"state":"active","ping":71},{"user_id":375,"name":"FanaticSalt","steam_id":76561199380123059,"connected_time":1811000000000,"state":"active","ping":42},{"user_id":383,"name":"techdeck","steam_id":76561199022751661,"connected_time":988000000000,"state":"active","ping":53},{"user_id":356,"name":"Smug","steam_id":76561198448205229,"connected_time":2631000000000,"state":"active","ping":69},{"user_id":384,"name":"Cosmic Soup","steam_id":76561198448801117,"connected_time":898000000000,"state":"active","ping":68},{"user_id":390,"name":"pim","steam_id":76561198095163441,"connected_time":452000000000,"state":"active","ping":55},{"user_id":391,"name":"magicmellen","steam_id":76561199210337711,"connected_time":450000000000,"state":"active","ping":96},{"user_id":392,"name":"Dragorf2010","steam_id":76561199238402270,"connected_time":437000000000,"state":"active","ping":77},{"user_id":395,"name":"adult tim","steam_id":76561198075510786,"connected_time":299000000000,"state":"active","ping":68},{"user_id":368,"name":"Deadline","steam_id":76561199079078845,"connected_time":2123000000000,"state":"active","ping":97},{"user_id":338,"name":"IShagMyCat","steam_id":76561199384639549,"connected_time":3712000000000,"state":"active","ping":172},{"user_id":378,"name":"1998 Mazda b2500","steam_id":76561198883172857,"connected_time":1646000000000,"state":"active","ping":97}]},{"server_id":108,"name":"Uncletopia | Dallas | 2 | All Maps","name_short":"dal-2","host":"dal-1.us.uncletopia.com","port":27025,"enabled":true,"region":"us-central","cc":"us","latitude":32.779167,"longitude":-96.80889,"reserved":0,"last_update":"0001-01-01T00:00:00Z","name_a2s":"Uncletopia | Dallas | 2 | All Maps","protocol":17,"map":"pl_upward","folder":"tf","game":"Team Fortress","app_id":440,"player_count":16,"max_players":24,"Bots":0,"server_type":"Dedicated","server_os":"Linux","password":true,"vac":true,"version":"7961495","steam_id":85568392924469988,"keywords":["nocrits","nodmgspread","payload","uncletopia"],"game_id":440,"stv_port":27026,"stv_name":"Uncletopia | Dallas | 2 | All Maps | STV","players":[{"user_id":138,"name":"Aeri","steam_id":76561198041809495,"connected_time":2900000000000,"state":"connecting","ping":98},{"user_id":29,"name":"Captain Bong Rips","steam_id":76561198065946939,"connected_time":12184000000000,"state":"connecting","ping":101},{"user_id":153,"name":"BigPimpin","steam_id":76561198119549348,"connected_time":1215000000000,"state":"connecting","ping":62},{"user_id":148,"name":"Stacy","steam_id":76561198305817355,"connected_time":2089000000000,"state":"connecting","ping":88},{"user_id":161,"name":"clooblert","steam_id":76561199199697406,"connected_time":849000000000,"state":"connecting","ping":102},{"user_id":165,"name":"You Don't Nomi.","steam_id":76561197969137836,"connected_time":344000000000,"state":"connecting","ping":93},{"user_id":126,"name":"Cinnifox","steam_id":76561198068773971,"connected_time":3951000000000,"state":"connecting","ping":83},{"user_id":128,"name":"Panda Loser","steam_id":76561198828745176,"connected_time":3533000000000,"state":"connecting","ping":127},{"user_id":166,"name":"the munch","steam_id":76561199164347838,"connected_time":76000000000,"state":"connecting","ping":75},{"user_id":159,"name":"Easey","steam_id":76561198230316868,"connected_time":1106000000000,"state":"connecting","ping":71},{"user_id":156,"name":"The Benefactor","steam_id":76561198307247913,"connected_time":1158000000000,"state":"connecting","ping":94},{"user_id":157,"name":"harold","steam_id":76561199016285746,"connected_time":1143000000000,"state":"connecting","ping":91},{"user_id":119,"name":"Lydia","steam_id":76561198800417942,"connected_time":4542000000000,"state":"connecting","ping":221},{"user_id":150,"name":"FaZe hyazZzZ","steam_id":76561199100342013,"connected_time":2071000000000,"state":"connecting","ping":95},{"user_id":141,"name":"Duckbeater","steam_id":76561198012421014,"connected_time":2624000000000,"state":"connecting","ping":97},{"user_id":164,"name":"Sovereign","steam_id":76561198018841787,"connected_time":408000000000,"state":"connecting","ping":121}]},{"server_id":404,"name":"Uncletopia | Dallas | 3 | All Maps","name_short":"dal-3","host":"dal-1.us.uncletopia.com","port":27035,"enabled":true,"region":"us-central","cc":"us","latitude":32.779167,"longitude":-96.80889,"reserved":0,"last_update":"0001-01-01T00:00:00Z","name_a2s":"Uncletopia | Dallas | 3 | All Maps","protocol":17,"map":"pl_barnblitz","folder":"tf","game":"Team Fortress","app_id":440,"player_count":5,"max_players":24,"Bots":0,"server_type":"Dedicated","server_os":"Linux","password":true,"vac":true,"version":"7961495","steam_id":85568392924515219,"keywords":["nocrits","nodmgspread","payload","uncletopia"],"game_id":440,"stv_port":27036,"stv_name":"Uncletopia | Dallas | 3 | All Maps | STV","players":[{"user_id":34,"name":"penguinever0","steam_id":76561198882179246,"connected_time":127000000000,"state":"active","ping":49},{"user_id":35,"name":"Infelicitous.","steam_id":76561198978262040,"connected_time":97000000000,"state":"active","ping":175},{"user_id":36,"name":"Hamburgerfan123","steam_id":76561199160718388,"connected_time":65000000000,"state":"active","ping":47},{"user_id":33,"name":"flarifier","steam_id":76561198315072848,"connected_time":338000000000,"state":"active","ping":87},{"user_id":32,"name":"cajun thotsauce","steam_id":76561198101636066,"connected_time":666000000000,"state":"active","ping":87}]},{"server_id":405,"name":"Uncletopia | Dallas | 4 | Community","name_short":"dal-4","host":"dal-1.us.uncletopia.com","port":27045,"enabled":true,"region":"us-central","cc":"us","latitude":32.779167,"longitude":-96.80889,"reserved":0,"last_update":"0001-01-01T00:00:00Z","name_a2s":"Uncletopia | Dallas | 4 | Community","protocol":17,"map":"workshop/cp_glassworks_rc6a.ugc454118349","folder":"tf","game":"Team Fortress","app_id":440,"player_count":0,"max_players":24,"Bots":0,"server_type":"Dedicated","server_os":"Linux","password":true,"vac":true,"version":"7961495","steam_id":85568392924515220,"keywords":["cp","nocrits","nodmgspread","uncletopia"],"game_id":440,"stv_port":27046,"stv_name":"Uncletopia | Dallas | 4 | Community | STV","players":null},{"server_id":5,"name":"Uncletopia | Frankfurt | 1 | All Maps","name_short":"frk-1","host":"frk-1.de.uncletopia.com","port":27015,"enabled":true,"region":"eu","cc":"de","latitude":50.110924,"longitude":8.682127,"reserved":0,"last_update":"0001-01-01T00:00:00Z","name_a2s":"Uncletopia | Frankfurt | 1 | All Maps","protocol":17,"map":"cp_fastlane","folder":"tf","game":"Team Fortress","app_id":440,"player_count":23,"max_players":24,"Bots":0,"server_type":"Dedicated","server_os":"Linux","password":true,"vac":true,"version":"7961495","steam_id":85568392924469989,"keywords":["cp","nocrits","nodmgspread","uncletopia"],"game_id":440,"stv_port":27016,"stv_name":"Uncletopia | Frankfurt | 1 | All Maps | STV","players":[{"user_id":375,"name":"Pryncypał","steam_id":76561198058057224,"connected_time":3211000000000,"state":"active","ping":56},{"user_id":372,"name":"kalumuna","steam_id":76561197996957462,"connected_time":3586000000000,"state":"active","ping":87},{"user_id":404,"name":"hananamanna","steam_id":76561198006570285,"connected_time":836000000000,"state":"active","ping":113},{"user_id":386,"name":"endlesshills","steam_id":76561198081908373,"connected_time":2339000000000,"state":"active","ping":59},{"user_id":405,"name":"Ostara","steam_id":76561198200054489,"connected_time":834000000000,"state":"active","ping":61},{"user_id":417,"name":"Fedm","steam_id":76561199020090514,"connected_time":554000000000,"state":"active","ping":74},{"user_id":418,"name":"Karl3009","steam_id":76561198131306569,"connected_time":428000000000,"state":"active","ping":56},{"user_id":399,"name":"Udinese Dion","steam_id":76561198067931573,"connected_time":1093000000000,"state":"active","ping":52},{"user_id":419,"name":"tete","steam_id":76561198045222850,"connected_time":408000000000,"state":"active","ping":69},{"user_id":401,"name":"Risinger","steam_id":76561198079789688,"connected_time":971000000000,"state":"active","ping":68},{"user_id":420,"name":"MostSereneDogeBestDoge","steam_id":76561198061196566,"connected_time":69000000000,"state":"active","ping":76},{"user_id":359,"name":"Mischail","steam_id":76561198016127010,"connected_time":4460000000000,"state":"active","ping":74},{"user_id":406,"name":"Shromide","steam_id":76561198140382935,"connected_time":831000000000,"state":"active","ping":72},{"user_id":414,"name":"Ignot","steam_id":76561198235896754,"connected_time":677000000000,"state":"active","ping":83},{"user_id":407,"name":"Kamanie","steam_id":76561198135448255,"connected_time":819000000000,"state":"active","ping":48},{"user_id":364,"name":"MR BUBBLES","steam_id":76561198019005259,"connected_time":4158000000000,"state":"active","ping":95},{"user_id":339,"name":"Sheen (Khang)","steam_id":76561198371062974,"connected_time":6459000000000,"state":"active","ping":84},{"user_id":403,"name":"aereo","steam_id":76561198846700800,"connected_time":856000000000,"state":"active","ping":86},{"user_id":412,"name":"Rigby","steam_id":76561198021552128,"connected_time":745000000000,"state":"active","ping":99},{"user_id":416,"name":"Egtu","steam_id":76561198013757235,"connected_time":617000000000,"state":"active","ping":65},{"user_id":411,"name":"Nittugai","steam_id":76561198067366462,"connected_time":793000000000,"state":"active","ping":61},{"user_id":413,"name":"Nobody","steam_id":76561198151116796,"connected_time":686000000000,"state":"active","ping":81},{"user_id":398,"name":"matej","steam_id":76561198242482338,"connected_time":1408000000000,"state":"active","ping":66}]},{"server_id":110,"name":"Uncletopia | Frankfurt | 2 | All Maps","name_short":"frk-2","host":"frk-1.de.uncletopia.com","port":27025,"enabled":true,"region":"eu","cc":"de","latitude":50.110924,"longitude":8.682127,"reserved":0,"last_update":"0001-01-01T00:00:00Z","name_a2s":"Uncletopia | Frankfurt | 2 | All Maps","protocol":17,"map":"cp_snakewater_final1","folder":"tf","game":"Team Fortress","app_id":440,"player_count":0,"max_players":24,"Bots":0,"server_type":"Dedicated","server_os":"Linux","password":true,"vac":true,"version":"7961495","steam_id":85568392924469990,"keywords":["cp","nocrits","nodmgspread","uncletopia"],"game_id":440,"stv_port":27026,"stv_name":"Uncletopia | Frankfurt | 2 | All Maps | STV","players":null},{"server_id":308,"name":"Uncletopia | Frankfurt | 3 | All Maps","name_short":"frk-3","host":"frk-1.de.uncletopia.com","port":27035,"enabled":true,"region":"eu","cc":"de","latitude":50.110924,"longitude":8.682127,"reserved":0,"last_update":"0001-01-01T00:00:00Z","name_a2s":"Uncletopia | Frankfurt | 3 | All Maps","protocol":17,"map":"pl_snowycoast","folder":"tf","game":"Team Fortress","app_id":440,"player_count":24,"max_players":24,"Bots":0,"server_type":"Dedicated","server_os":"Linux","password":true,"vac":true,"version":"7961495","steam_id":85568392924504274,"keywords":["nocrits","nodmgspread","payload","uncletopia"],"game_id":440,"stv_port":27036,"stv_name":"Uncletopia | Frankfurt | 3 | All Maps | STV","players":[{"user_id":408,"name":"DrFast","steam_id":76561198138637093,"connected_time":6858000000000,"state":"active","ping":68},{"user_id":485,"name":"lyudmilakh","steam_id":76561198362779878,"connected_time":716000000000,"state":"active","ping":86},{"user_id":453,"name":"Dyuba","steam_id":76561198016672624,"connected_time":2529000000000,"state":"active","ping":73},{"user_id":482,"name":"Economic crisis","steam_id":76561198063562843,"connected_time":748000000000,"state":"active","ping":62},{"user_id":454,"name":"caramelldancin'","steam_id":76561198193357946,"connected_time":2515000000000,"state":"active","ping":102},{"user_id":472,"name":"madman hesus","steam_id":76561198159702599,"connected_time":1988000000000,"state":"active","ping":79},{"user_id":476,"name":"jabar7","steam_id":76561198055137986,"connected_time":1085000000000,"state":"active","ping":62},{"user_id":457,"name":"hev 7( ^-^7)","steam_id":76561198159297690,"connected_time":2468000000000,"state":"active","ping":102},{"user_id":487,"name":"Qwerty","steam_id":76561198023525894,"connected_time":643000000000,"state":"active","ping":75},{"user_id":473,"name":"Benzo Fury","steam_id":76561198025259336,"connected_time":1975000000000,"state":"active","ping":57},{"user_id":480,"name":"Doslor","steam_id":76561198830028267,"connected_time":772000000000,"state":"active","ping":62},{"user_id":481,"name":"High Fructose Porn Syrup","steam_id":76561197998825323,"connected_time":760000000000,"state":"active","ping":49},{"user_id":458,"name":"everything reminds me of her","steam_id":76561198251165410,"connected_time":2465000000000,"state":"active","ping":58},{"user_id":469,"name":"Ibelieveto","steam_id":76561198831479712,"connected_time":2335000000000,"state":"active","ping":63},{"user_id":424,"name":"squillisky","steam_id":76561198083569327,"connected_time":6132000000000,"state":"active","ping":67},{"user_id":483,"name":"CaptainMac","steam_id":76561198273156139,"connected_time":738000000000,"state":"active","ping":42},{"user_id":490,"name":"Jucatron","steam_id":76561198044259577,"connected_time":275000000000,"state":"active","ping":85},{"user_id":449,"name":"Laki","steam_id":76561198126078953,"connected_time":3200000000000,"state":"active","ping":104},{"user_id":479,"name":"fifrok","steam_id":76561198799267621,"connected_time":902000000000,"state":"active","ping":69},{"user_id":477,"name":"Time-Green","steam_id":76561198133937444,"connected_time":1025000000000,"state":"active","ping":74},{"user_id":464,"name":"REN","steam_id":76561198000596385,"connected_time":2378000000000,"state":"active","ping":71},{"user_id":475,"name":"1ggy","steam_id":76561199051285912,"connected_time":1768000000000,"state":"active","ping":76},{"user_id":488,"name":"Antondi","steam_id":76561198123140065,"connected_time":542000000000,"state":"active","ping":60},{"user_id":486,"name":"bruh","steam_id":76561198109262927,"connected_time":714000000000,"state":"active","ping":64}]},{"server_id":309,"name":"Uncletopia | Frankfurt | 4 | All Maps","name_short":"frk-4","host":"frk-1.de.uncletopia.com","port":27045,"enabled":true,"region":"eu","cc":"de","latitude":50.110924,"longitude":8.682127,"reserved":0,"last_update":"0001-01-01T00:00:00Z","name_a2s":"Uncletopia | Frankfurt | 4 | All Maps","protocol":17,"map":"pl_snowycoast","folder":"tf","game":"Team Fortress","app_id":440,"player_count":13,"max_players":24,"Bots":0,"server_type":"Dedicated","server_os":"Linux","password":true,"vac":true,"version":"7961495","steam_id":85568392924504275,"keywords":["nocrits","nodmgspread","payload","uncletopia"],"game_id":440,"stv_port":27046,"stv_name":"Uncletopia | Frankfurt | 4 | All Maps | STV","players":[{"user_id":539,"name":"Finnish Farmer","steam_id":76561198205366043,"connected_time":5524000000000,"state":"spawning","ping":74},{"user_id":561,"name":"Sir Sandvich","steam_id":76561198213908089,"connected_time":3410000000000,"state":"spawning","ping":66},{"user_id":600,"name":"Odin","steam_id":76561198087800030,"connected_time":16000000000,"state":"spawning","ping":52},{"user_id":574,"name":"Dr.Blushi","steam_id":76561198043829926,"connected_time":2747000000000,"state":"spawning","ping":138},{"user_id":566,"name":"Cypher","steam_id":76561197996967254,"connected_time":3306000000000,"state":"spawning","ping":61},{"user_id":598,"name":"BNbbo|","steam_id":76561199125943412,"connected_time":161000000000,"state":"spawning","ping":58},{"user_id":529,"name":"mewash","steam_id":76561198049529718,"connected_time":6771000000000,"state":"spawning","ping":79},{"user_id":591,"name":"q47tx","steam_id":76561199181333933,"connected_time":577000000000,"state":"spawning","ping":74},{"user_id":570,"name":"FNF","steam_id":76561199151422826,"connected_time":2935000000000,"state":"spawning","ping":125},{"user_id":531,"name":"Average Swiss Cult enjoyer","steam_id":76561199226729354,"connected_time":6699000000000,"state":"spawning","ping":53},{"user_id":590,"name":"/hm/","steam_id":76561199213268288,"connected_time":750000000000,"state":"spawning","ping":90},{"user_id":586,"name":"BabyYodaIsMySoda","steam_id":76561198321846861,"connected_time":1503000000000,"state":"spawning","ping":66},{"user_id":578,"name":"zak","steam_id":76561197998895428,"connected_time":2151000000000,"state":"spawning","ping":49}]},{"server_id":310,"name":"Uncletopia | Frankfurt | 5 | All Maps","name_short":"frk-5","host":"frk-1.de.uncletopia.com","port":27055,"enabled":true,"region":"eu","cc":"de","latitude":50.110924,"longitude":8.682127,"reserved":0,"last_update":"0001-01-01T00:00:00Z","name_a2s":"Uncletopia | Frankfurt | 5 | All Maps","protocol":17,"map":"cp_badlands","folder":"tf","game":"Team Fortress","app_id":440,"player_count":24,"max_players":24,"Bots":0,"server_type":"Dedicated","server_os":"Linux","password":true,"vac":true,"version":"7961495","steam_id":85568392924504277,"keywords":["cp","nocrits","nodmgspread","uncletopia"],"game_id":440,"stv_port":27056,"stv_name":"Uncletopia | Frankfurt | 5 | All Maps | STV","players":[{"user_id":515,"name":"Archive","steam_id":76561198071255385,"connected_time":6609000000000,"state":"active","ping":83},{"user_id":595,"name":"releng0","steam_id":76561198120708390,"connected_time":1035000000000,"state":"active","ping":79},{"user_id":603,"name":"plays tation 3","steam_id":76561198885548458,"connected_time":542000000000,"state":"active","ping":90},{"user_id":601,"name":"Pattis","steam_id":76561198362057972,"connected_time":704000000000,"state":"active","ping":89},{"user_id":599,"name":"Gibby","steam_id":76561198048213112,"connected_time":768000000000,"state":"active","ping":51},{"user_id":604,"name":"Riky95","steam_id":76561198095289436,"connected_time":539000000000,"state":"active","ping":46},{"user_id":480,"name":"ozz-man","steam_id":76561198084676522,"connected_time":9515000000000,"state":"active","ping":104},{"user_id":605,"name":"MK-Ultra Violence","steam_id":76561198081328238,"connected_time":529000000000,"state":"active","ping":59},{"user_id":602,"name":"Hussain_144","steam_id":76561198346029208,"connected_time":691000000000,"state":"active","ping":173},{"user_id":606,"name":"Swift","steam_id":76561197998799889,"connected_time":528000000000,"state":"active","ping":57},{"user_id":580,"name":"chillrend_morphs_high_lod6","steam_id":76561198452963141,"connected_time":1452000000000,"state":"active","ping":72},{"user_id":598,"name":"Jonny J","steam_id":76561198027710849,"connected_time":941000000000,"state":"active","ping":88},{"user_id":485,"name":"n-ski","steam_id":76561198020550849,"connected_time":9478000000000,"state":"active","ping":75},{"user_id":607,"name":"Karaken","steam_id":76561198132566865,"connected_time":447000000000,"state":"active","ping":59},{"user_id":568,"name":"H-say","steam_id":76561198177400362,"connected_time":2476000000000,"state":"active","ping":90},{"user_id":520,"name":"Быдла вой","steam_id":76561198041371314,"connected_time":6501000000000,"state":"active","ping":132},{"user_id":577,"name":"Toxic_Cicity","steam_id":76561198165753440,"connected_time":1609000000000,"state":"active","ping":93},{"user_id":610,"name":"XuMuK","steam_id":76561198102102340,"connected_time":169000000000,"state":"active","ping":78},{"user_id":593,"name":"Eujekas","steam_id":76561198010527145,"connected_time":1068000000000,"state":"active","ping":93},{"user_id":576,"name":"goop soup","steam_id":76561198159928154,"connected_time":1780000000000,"state":"active","ping":47},{"user_id":596,"name":"Mati [EST]","steam_id":76561197994743813,"connected_time":1028000000000,"state":"active","ping":108},{"user_id":579,"name":"dont K*LL john oliver","steam_id":76561198015918787,"connected_time":1475000000000,"state":"active","ping":76},{"user_id":611,"name":"MrBanana","steam_id":76561198116021623,"connected_time":56000000000,"state":"active","ping":46},{"user_id":608,"name":"Saab900","steam_id":76561198143529110,"connected_time":444000000000,"state":"active","ping":59}]},{"server_id":311,"name":"Uncletopia | Frankfurt | 6 | All Maps","name_short":"frk-6","host":"frk-1.de.uncletopia.com","port":27065,"enabled":true,"region":"eu","cc":"de","latitude":50.110924,"longitude":8.682127,"reserved":0,"last_update":"0001-01-01T00:00:00Z","name_a2s":"Uncletopia | Frankfurt | 6 | All Maps","protocol":17,"map":"pl_badwater","folder":"tf","game":"Team Fortress","app_id":440,"player_count":24,"max_players":24,"Bots":0,"server_type":"Dedicated","server_os":"Linux","password":true,"vac":true,"version":"7961495","steam_id":85568392924504278,"keywords":["nocrits","nodmgspread","payload","uncletopia"],"game_id":440,"stv_port":27066,"stv_name":"Uncletopia | Frankfurt | 6 | All Maps | STV","players":[{"user_id":459,"name":"katten","steam_id":76561198163615254,"connected_time":1771000000000,"state":"active","ping":56},{"user_id":493,"name":"Daxie626","steam_id":76561198394588278,"connected_time":98000000000,"state":"active","ping":112},{"user_id":486,"name":"coella","steam_id":76561198442803577,"connected_time":918000000000,"state":"active","ping":81},{"user_id":489,"name":"Fat Pigeon","steam_id":76561198817940142,"connected_time":683000000000,"state":"active","ping":48},{"user_id":495,"name":"swimming pool","steam_id":76561199233125011,"connected_time":8000000000,"state":"spawning","ping":44},{"user_id":469,"name":"w+m1 pyro","steam_id":76561198039097662,"connected_time":1344000000000,"state":"active","ping":75},{"user_id":460,"name":"idiot dumbfuck asshole❤","steam_id":76561198311044984,"connected_time":1766000000000,"state":"active","ping":64},{"user_id":461,"name":"blåhaj","steam_id":76561198094268619,"connected_time":1759000000000,"state":"active","ping":60},{"user_id":462,"name":"fluffy474","steam_id":76561198375486320,"connected_time":1751000000000,"state":"active","ping":65},{"user_id":463,"name":"Graffiti","steam_id":76561198280507478,"connected_time":1750000000000,"state":"active","ping":51},{"user_id":465,"name":"röv","steam_id":76561198170330563,"connected_time":1595000000000,"state":"active","ping":99},{"user_id":470,"name":"Teryon Khan","steam_id":76561198031643268,"connected_time":1341000000000,"state":"active","ping":72},{"user_id":492,"name":"dispenser","steam_id":76561199008411791,"connected_time":130000000000,"state":"active","ping":50},{"user_id":472,"name":"busgrabb","steam_id":76561198055768465,"connected_time":1319000000000,"state":"active","ping":67},{"user_id":485,"name":"Tyler Durden","steam_id":76561199259524970,"connected_time":1065000000000,"state":"active","ping":88},{"user_id":474,"name":"milan","steam_id":76561198858509678,"connected_time":1280000000000,"state":"active","ping":59},{"user_id":494,"name":"gosi","steam_id":76561198084111532,"connected_time":36000000000,"state":"active","ping":57},{"user_id":484,"name":"Jon","steam_id":76561199380849468,"connected_time":1150000000000,"state":"active","ping":60},{"user_id":478,"name":"vekk","steam_id":76561198214848887,"connected_time":1231000000000,"state":"active","ping":70},{"user_id":479,"name":"The Big Bloke","steam_id":76561198124999650,"connected_time":1227000000000,"state":"active","ping":82},{"user_id":488,"name":"Boki","steam_id":76561198044553351,"connected_time":712000000000,"state":"active","ping":75},{"user_id":481,"name":"frosty","steam_id":76561198094560834,"connected_time":1189000000000,"state":"active","ping":67},{"user_id":482,"name":"Twik","steam_id":76561198023835056,"connected_time":1186000000000,"state":"active","ping":45},{"user_id":491,"name":"cinny","steam_id":76561198832112629,"connected_time":530000000000,"state":"active","ping":72}]},{"server_id":23,"name":"Uncletopia | Frankfurt | 7 | Stopwatch","name_short":"frk-7","host":"frk-1.de.uncletopia.com","port":27075,"enabled":true,"region":"eu","cc":"de","latitude":50.110924,"longitude":8.682127,"reserved":0,"last_update":"0001-01-01T00:00:00Z","name_a2s":"Uncletopia | Frankfurt | 7 | Stopwatch","protocol":17,"map":"koth_highpass","folder":"tf","game":"Team Fortress","app_id":440,"player_count":3,"max_players":24,"Bots":0,"server_type":"Dedicated","server_os":"Linux","password":true,"vac":true,"version":"7961495","steam_id":85568392924742827,"keywords":["cp","nocrits","nodmgspread","uncletopia"],"game_id":440,"stv_port":27076,"stv_name":"Uncletopia | Frankfurt | 7 | Stopwatch | STV","players":[{"user_id":15,"name":"BoristheWolfPL","steam_id":76561198390369243,"connected_time":423000000000,"state":"active","ping":82},{"user_id":18,"name":"Pralson","steam_id":76561198864044913,"connected_time":255000000000,"state":"active","ping":70},{"user_id":19,"name":"SWEETHOLE","steam_id":76561198926753466,"connected_time":248000000000,"state":"active","ping":74}]},{"server_id":24,"name":"Uncletopia | Frankfurt | 8 | Community","name_short":"frk-8","host":"frk-1.de.uncletopia.com","port":27085,"enabled":true,"region":"eu","cc":"de","latitude":50.110924,"longitude":8.682127,"reserved":0,"last_update":"0001-01-01T00:00:00Z","name_a2s":"Uncletopia | Frankfurt | 8 | Community","protocol":17,"map":"workshop/pl_emerge_rc2.ugc888027758","folder":"tf","game":"Team Fortress","app_id":440,"player_count":0,"max_players":24,"Bots":0,"server_type":"Dedicated","server_os":"Linux","password":true,"vac":true,"version":"7961495","steam_id":85568392924742828,"keywords":["nocrits","nodmgspread","payload","uncletopia"],"game_id":440,"stv_port":27086,"stv_name":"Uncletopia | Frankfurt | 8 | Community | STV","players":null},{"server_id":202,"name":"Uncletopia | Hong Kong | 1 | All Maps","name_short":"hgk-1","host":"hgk-1.hk.uncletopia.com","port":27015,"enabled":true,"region":"asia","cc":"hk","latitude":22.302711,"longitude":114.177216,"reserved":0,"last_update":"0001-01-01T00:00:00Z","name_a2s":"Uncletopia | Hong Kong | 1 | All Maps","protocol":17,"map":"pl_barnblitz","folder":"tf","game":"Team Fortress","app_id":440,"player_count":2,"max_players":24,"Bots":0,"server_type":"Dedicated","server_os":"Linux","password":true,"vac":true,"version":"7961495","steam_id":85568392924494504,"keywords":["nocrits","nodmgspread","payload","uncletopia"],"game_id":440,"stv_port":27016,"stv_name":"Uncletopia | Hong Kong | 1 | All Maps | STV","players":[{"user_id":778,"name":"Ates164","steam_id":76561199123074978,"connected_time":392000000000,"state":"active","ping":309},{"user_id":779,"name":"SkullOnTheRoll","steam_id":76561199229300107,"connected_time":264000000000,"state":"active","ping":306}]},{"server_id":1,"name":"Uncletopia | Los Angeles | 1 | All Maps","name_short":"lax-1","host":"lax-1.us.uncletopia.com","port":27015,"enabled":true,"region":"us-west","cc":"us","latitude":33.94279,"longitude":-118.41004,"reserved":0,"last_update":"0001-01-01T00:00:00Z","name_a2s":"Uncletopia | Los Angeles | 1 | All Maps","protocol":17,"map":"pl_barnblitz","folder":"tf","game":"Team Fortress","app_id":440,"player_count":24,"max_players":24,"Bots":0,"server_type":"Dedicated","server_os":"Linux","password":true,"vac":true,"version":"7961495","steam_id":85568392924469991,"keywords":["nocrits","nodmgspread","payload","uncletopia"],"game_id":440,"stv_port":27016,"stv_name":"Uncletopia | Los Angeles | 1 | All Maps | STV","players":[{"user_id":78,"name":"Killertaco69","steam_id":76561199156374835,"connected_time":916000000000,"state":"active","ping":97},{"user_id":59,"name":"HiddenEgg","steam_id":76561199045105518,"connected_time":1735000000000,"state":"active","ping":46},{"user_id":60,"name":"momus","steam_id":76561198966979196,"connected_time":1682000000000,"state":"active","ping":47},{"user_id":83,"name":"TheSpiritWolf12","steam_id":76561198186225203,"connected_time":484000000000,"state":"active","ping":76},{"user_id":7,"name":"Dr. Ducks","steam_id":76561198116100707,"connected_time":5002000000000,"state":"active","ping":72},{"user_id":72,"name":"puffer","steam_id":76561199049164456,"connected_time":1134000000000,"state":"active","ping":58},{"user_id":84,"name":"Yoyo-Wo","steam_id":76561198880520205,"connected_time":444000000000,"state":"active","ping":87},{"user_id":90,"name":"Maid 'n' China","steam_id":76561198423392976,"connected_time":252000000000,"state":"active","ping":52},{"user_id":73,"name":"Russian","steam_id":76561198050717787,"connected_time":1099000000000,"state":"active","ping":52},{"user_id":66,"name":"don't get mad","steam_id":76561198064662875,"connected_time":1517000000000,"state":"active","ping":60},{"user_id":94,"name":"Spyincorporated","steam_id":76561198080956951,"connected_time":49000000000,"state":"active","ping":108},{"user_id":51,"name":"Kazoo","steam_id":76561199229748300,"connected_time":2006000000000,"state":"active","ping":57},{"user_id":16,"name":"dab","steam_id":76561197997990613,"connected_time":4050000000000,"state":"active","ping":60},{"user_id":82,"name":"Nine Inch Иipples","steam_id":76561198149413947,"connected_time":569000000000,"state":"active","ping":65},{"user_id":18,"name":"BobBallin","steam_id":76561198355299724,"connected_time":4022000000000,"state":"active","ping":47},{"user_id":93,"name":"Da Boo Brothas","steam_id":76561198167545395,"connected_time":207000000000,"state":"active","ping":60},{"user_id":55,"name":"090-nsalih","steam_id":76561199467467873,"connected_time":1960000000000,"state":"active","ping":96},{"user_id":21,"name":"rad killl raccoon","steam_id":76561198980975595,"connected_time":3958000000000,"state":"active","ping":91},{"user_id":71,"name":"blinker foo","steam_id":76561198105374054,"connected_time":1362000000000,"state":"active","ping":61},{"user_id":23,"name":"poopslapper33","steam_id":76561198294813506,"connected_time":3918000000000,"state":"active","ping":50},{"user_id":86,"name":"zeplinnn","steam_id":76561198301300987,"connected_time":336000000000,"state":"active","ping":55},{"user_id":91,"name":"Rommel2007","steam_id":76561198041744631,"connected_time":231000000000,"state":"active","ping":49},{"user_id":79,"name":"laughs bigman","steam_id":76561198067714032,"connected_time":836000000000,"state":"active","ping":52},{"user_id":89,"name":"Fluid.Pilot","steam_id":76561199013673082,"connected_time":279000000000,"state":"active","ping":100}]},{"server_id":112,"name":"Uncletopia | Los Angeles | 2 | All Maps","name_short":"lax-2","host":"lax-1.us.uncletopia.com","port":27025,"enabled":true,"region":"us-west","cc":"us","latitude":33.94279,"longitude":-118.41004,"reserved":0,"last_update":"0001-01-01T00:00:00Z","name_a2s":"Uncletopia | Los Angeles | 2 | All Maps","protocol":17,"map":"pl_barnblitz","folder":"tf","game":"Team Fortress","app_id":440,"player_count":23,"max_players":24,"Bots":0,"server_type":"Dedicated","server_os":"Linux","password":true,"vac":true,"version":"7961495","steam_id":85568392924469992,"keywords":["nocrits","nodmgspread","payload","uncletopia"],"game_id":440,"stv_port":27026,"stv_name":"Uncletopia | Los Angeles | 2 | All Maps | STV","players":[{"user_id":406,"name":"Mediocre","steam_id":76561198056352693,"connected_time":213000000000,"state":"active","ping":56},{"user_id":339,"name":"Drake from State Farm","steam_id":76561199069029812,"connected_time":3447000000000,"state":"active","ping":66},{"user_id":377,"name":"McSpazatron","steam_id":76561198955942148,"connected_time":1875000000000,"state":"active","ping":85},{"user_id":393,"name":"Windows XP","steam_id":76561197993406695,"connected_time":973000000000,"state":"active","ping":94},{"user_id":401,"name":"Birdman743","steam_id":76561198799636748,"connected_time":495000000000,"state":"active","ping":73},{"user_id":352,"name":"stickg","steam_id":76561199193020423,"connected_time":3003000000000,"state":"active","ping":56},{"user_id":389,"name":"Lots0","steam_id":76561198043143145,"connected_time":1069000000000,"state":"active","ping":101},{"user_id":387,"name":"SAVECASEY","steam_id":76561198857896847,"connected_time":1328000000000,"state":"active","ping":45},{"user_id":322,"name":"roach","steam_id":76561198354811369,"connected_time":4389000000000,"state":"active","ping":47},{"user_id":317,"name":"infetterence","steam_id":76561198410078962,"connected_time":4699000000000,"state":"active","ping":53},{"user_id":354,"name":"maximusbabaximus","steam_id":76561198419378913,"connected_time":2942000000000,"state":"active","ping":69},{"user_id":378,"name":"monkey squirts","steam_id":76561197983101644,"connected_time":1863000000000,"state":"active","ping":44},{"user_id":402,"name":"the man","steam_id":76561198389268114,"connected_time":371000000000,"state":"active","ping":88},{"user_id":408,"name":"Pixelated Pussy","steam_id":76561198002511088,"connected_time":89000000000,"state":"active","ping":57},{"user_id":404,"name":"uufyfuu","steam_id":76561198142787212,"connected_time":276000000000,"state":"active","ping":94},{"user_id":380,"name":"card carrying member","steam_id":76561198043558709,"connected_time":1799000000000,"state":"active","ping":73},{"user_id":368,"name":"Grim","steam_id":76561198016978310,"connected_time":2633000000000,"state":"active","ping":68},{"user_id":397,"name":"lime creator","steam_id":76561198074047574,"connected_time":706000000000,"state":"active","ping":41},{"user_id":374,"name":"Mister Maze","steam_id":76561197970949652,"connected_time":2250000000000,"state":"active","ping":99},{"user_id":329,"name":"allahsdroptop","steam_id":76561198133195238,"connected_time":4079000000000,"state":"active","ping":213},{"user_id":383,"name":"Doppelgänger","steam_id":76561198036730436,"connected_time":1729000000000,"state":"active","ping":85},{"user_id":371,"name":"pan","steam_id":76561198093968095,"connected_time":2426000000000,"state":"active","ping":60},{"user_id":394,"name":"Dcoyotzi","steam_id":76561199124707627,"connected_time":932000000000,"state":"active","ping":86}]},{"server_id":324,"name":"Uncletopia | Los Angeles | 3 | All Maps","name_short":"lax-3","host":"lax-1.us.uncletopia.com","port":27035,"enabled":true,"region":"us-west","cc":"us","latitude":33.94279,"longitude":-118.41004,"reserved":0,"last_update":"0001-01-01T00:00:00Z","name_a2s":"Uncletopia | Los Angeles | 3 | All Maps","protocol":17,"map":"cp_snakewater_final1","folder":"tf","game":"Team Fortress","app_id":440,"player_count":0,"max_players":24,"Bots":0,"server_type":"Dedicated","server_os":"Linux","password":true,"vac":true,"version":"7961495","steam_id":85568392924510198,"keywords":["cp","nocrits","nodmgspread","uncletopia"],"game_id":440,"stv_port":27036,"stv_name":"Uncletopia | Los Angeles | 3 | All Maps | STV","players":null},{"server_id":25,"name":"Uncletopia | Los Angeles | 4 | Stopwatch","name_short":"lax-4","host":"lax-1.us.uncletopia.com","port":27045,"enabled":true,"region":"us-west","cc":"us","latitude":33.94279,"longitude":-118.41004,"reserved":0,"last_update":"0001-01-01T00:00:00Z","name_a2s":"Uncletopia | Los Angeles | 4 | Stopwatch","protocol":17,"map":"cp_granary","folder":"tf","game":"Team Fortress","app_id":440,"player_count":0,"max_players":24,"Bots":0,"server_type":"Dedicated","server_os":"Linux","password":true,"vac":true,"version":"7961495","steam_id":85568392924510199,"keywords":["cp","nocrits","nodmgspread","uncletopia"],"game_id":440,"stv_port":27046,"stv_name":"Uncletopia | Los Angeles | 4 | Stopwatch | STV","players":null},{"server_id":11,"name":"Uncletopia | London | 1 | All Maps","name_short":"lon-1","host":"lon-1.uk.uncletopia.com","port":27015,"enabled":true,"region":"eu","cc":"gb","latitude":51.509865,"longitude":-0.118092,"reserved":0,"last_update":"0001-01-01T00:00:00Z","name_a2s":"Uncletopia | London | 1 | All Maps","protocol":17,"map":"pl_upward","folder":"tf","game":"Team Fortress","app_id":440,"player_count":23,"max_players":24,"Bots":0,"server_type":"Dedicated","server_os":"Linux","password":true,"vac":true,"version":"7961495","steam_id":85568392924367362,"keywords":["nocrits","nodmgspread","payload","uncletopia"],"game_id":440,"stv_port":27016,"stv_name":"Uncletopia | London | 1 | All Maps | STV","players":[{"user_id":532,"name":"Danila_NRJ","steam_id":76561198090586031,"connected_time":1208000000000,"state":"active","ping":94},{"user_id":514,"name":"clean carp","steam_id":76561198127053294,"connected_time":2287000000000,"state":"active","ping":65},{"user_id":539,"name":"shooer!","steam_id":76561198110531281,"connected_time":269000000000,"state":"active","ping":72},{"user_id":534,"name":"Kphi(i)","steam_id":76561198970587061,"connected_time":1176000000000,"state":"active","ping":60},{"user_id":517,"name":"pipe bomb gaming","steam_id":76561199036776540,"connected_time":2265000000000,"state":"active","ping":68},{"user_id":542,"name":"cinder block enthusiast","steam_id":76561199062160061,"connected_time":229000000000,"state":"active","ping":54},{"user_id":541,"name":"ein","steam_id":76561198152162834,"connected_time":256000000000,"state":"active","ping":105},{"user_id":531,"name":"quickfast","steam_id":76561199438900919,"connected_time":1345000000000,"state":"active","ping":45},{"user_id":448,"name":"Slifer the Acorn","steam_id":76561198062255803,"connected_time":7686000000000,"state":"active","ping":73},{"user_id":495,"name":"Implywood (they/them)","steam_id":76561198096762648,"connected_time":3596000000000,"state":"active","ping":48},{"user_id":538,"name":"tier 10 spellcaster","steam_id":76561198031573426,"connected_time":677000000000,"state":"active","ping":75},{"user_id":528,"name":"owo","steam_id":76561198158209651,"connected_time":1958000000000,"state":"active","ping":57},{"user_id":493,"name":"screenshot2020-25-09","steam_id":76561198255275650,"connected_time":3858000000000,"state":"active","ping":60},{"user_id":506,"name":"Hamedius","steam_id":76561199152512027,"connected_time":2786000000000,"state":"active","ping":74},{"user_id":487,"name":"cansado","steam_id":76561198003898089,"connected_time":4023000000000,"state":"active","ping":72},{"user_id":520,"name":"nobodyy","steam_id":76561198027735766,"connected_time":2237000000000,"state":"active","ping":75},{"user_id":521,"name":"jade","steam_id":76561198298576765,"connected_time":2237000000000,"state":"active","ping":76},{"user_id":527,"name":"cuddle","steam_id":76561198805181599,"connected_time":2026000000000,"state":"active","ping":54},{"user_id":452,"name":"CuJIA_TPAHCJIuTA","steam_id":76561198149654361,"connected_time":7392000000000,"state":"active","ping":72},{"user_id":529,"name":"trite","steam_id":76561197983765323,"connected_time":1767000000000,"state":"active","ping":52},{"user_id":530,"name":"jermany","steam_id":76561198126599355,"connected_time":1354000000000,"state":"active","ping":58},{"user_id":540,"name":"Sixie","steam_id":76561198251675360,"connected_time":269000000000,"state":"active","ping":50},{"user_id":513,"name":"Not A Fake Uncletopia Server","steam_id":76561198152871288,"connected_time":2544000000000,"state":"active","ping":65}]},{"server_id":114,"name":"Uncletopia | London | 2 | All Maps","name_short":"lon-2","host":"lon-1.uk.uncletopia.com","port":27025,"enabled":true,"region":"eu","cc":"gb","latitude":51.509865,"longitude":-0.118092,"reserved":0,"last_update":"0001-01-01T00:00:00Z","name_a2s":"Uncletopia | London | 2 | All Maps","protocol":17,"map":"pl_upward","folder":"tf","game":"Team Fortress","app_id":440,"player_count":24,"max_players":24,"Bots":0,"server_type":"Dedicated","server_os":"Linux","password":true,"vac":true,"version":"7961495","steam_id":85568392924470941,"keywords":["nocrits","nodmgspread","payload","uncletopia"],"game_id":440,"stv_port":27026,"stv_name":"Uncletopia | London | 2 | All Maps | STV","players":[{"user_id":402,"name":"jaime","steam_id":76561197980590671,"connected_time":1807000000000,"state":"active","ping":76},{"user_id":382,"name":"Foo.","steam_id":76561198000013666,"connected_time":3124000000000,"state":"active","ping":66},{"user_id":403,"name":"Can I get a Beep Beep","steam_id":76561198010730967,"connected_time":1515000000000,"state":"active","ping":67},{"user_id":414,"name":"Forklift Certified","steam_id":76561198001816577,"connected_time":782000000000,"state":"active","ping":92},{"user_id":386,"name":"thussu","steam_id":76561198890409949,"connected_time":3038000000000,"state":"active","ping":105},{"user_id":407,"name":"GoblinGaming","steam_id":76561198360395476,"connected_time":959000000000,"state":"active","ping":45},{"user_id":326,"name":"Ixsus\u003c3","steam_id":76561198094756869,"connected_time":6144000000000,"state":"active","ping":60},{"user_id":415,"name":"ChPerette 🎮","steam_id":76561198060004887,"connected_time":212000000000,"state":"active","ping":46},{"user_id":416,"name":"Dictatorial Karelian","steam_id":76561198196736457,"connected_time":193000000000,"state":"active","ping":90},{"user_id":409,"name":"Skyfoogle","steam_id":76561198027177883,"connected_time":940000000000,"state":"active","ping":58},{"user_id":380,"name":"El Wiwi","steam_id":76561198134378108,"connected_time":3332000000000,"state":"active","ping":79},{"user_id":393,"name":"Shadowengell","steam_id":76561198019284410,"connected_time":2627000000000,"state":"active","ping":117},{"user_id":395,"name":"Q U E E N A L E X","steam_id":76561198186341157,"connected_time":2458000000000,"state":"active","ping":50},{"user_id":410,"name":"tomo","steam_id":76561199015097595,"connected_time":934000000000,"state":"active","ping":45},{"user_id":411,"name":"Rask","steam_id":76561198052934944,"connected_time":919000000000,"state":"active","ping":87},{"user_id":364,"name":"SuntanPikachu","steam_id":76561198121242476,"connected_time":4483000000000,"state":"active","ping":55},{"user_id":394,"name":"Lorents","steam_id":76561198796919618,"connected_time":2614000000000,"state":"active","ping":65},{"user_id":400,"name":"LivEssense","steam_id":76561198052476979,"connected_time":1825000000000,"state":"active","ping":120},{"user_id":353,"name":"TheBeardedM1G","steam_id":76561198040208946,"connected_time":5547000000000,"state":"active","ping":45},{"user_id":401,"name":"Chubbles","steam_id":76561198237619472,"connected_time":1822000000000,"state":"active","ping":121},{"user_id":412,"name":"JujuBalu","steam_id":76561198207253071,"connected_time":851000000000,"state":"active","ping":29},{"user_id":385,"name":"neophyte78","steam_id":76561198010009076,"connected_time":3066000000000,"state":"active","ping":55},{"user_id":349,"name":"Bruhn","steam_id":76561198106133548,"connected_time":5758000000000,"state":"active","ping":74},{"user_id":406,"name":"Sicmendor ...","steam_id":76561197962107049,"connected_time":1199000000000,"state":"active","ping":74}]},{"server_id":320,"name":"Uncletopia | London | 3 | All Maps","name_short":"lon-3","host":"lon-1.uk.uncletopia.com","port":27035,"enabled":true,"region":"eu","cc":"gb","latitude":51.509865,"longitude":-0.118092,"reserved":0,"last_update":"0001-01-01T00:00:00Z","name_a2s":"Uncletopia | London | 3 | All Maps","protocol":17,"map":"pl_pier","folder":"tf","game":"Team Fortress","app_id":440,"player_count":12,"max_players":24,"Bots":0,"server_type":"Dedicated","server_os":"Linux","password":true,"vac":true,"version":"7961495","steam_id":85568392924510192,"keywords":["nocrits","nodmgspread","payload","uncletopia"],"game_id":440,"stv_port":27036,"stv_name":"Uncletopia | London | 3 | All Maps | STV","players":[{"user_id":329,"name":"Pao_is_good","steam_id":76561199071206846,"connected_time":1216000000000,"state":"active","ping":290},{"user_id":331,"name":"Deez Nuts","steam_id":76561198832925822,"connected_time":1152000000000,"state":"active","ping":62},{"user_id":343,"name":"rogal dork61","steam_id":76561198796210754,"connected_time":78000000000,"state":"active","ping":72},{"user_id":344,"name":"SirDirtbag","steam_id":76561198091890855,"connected_time":73000000000,"state":"active","ping":75},{"user_id":335,"name":"FurbyZone","steam_id":76561198268344503,"connected_time":357000000000,"state":"active","ping":45},{"user_id":337,"name":"Nonok","steam_id":76561199480685498,"connected_time":278000000000,"state":"active","ping":66},{"user_id":338,"name":"Adrian Picche","steam_id":76561198009335657,"connected_time":245000000000,"state":"active","ping":63},{"user_id":339,"name":"Mymy","steam_id":76561198819871606,"connected_time":240000000000,"state":"active","ping":95},{"user_id":340,"name":"Fatal","steam_id":76561198095123242,"connected_time":208000000000,"state":"active","ping":78},{"user_id":341,"name":"Jazz","steam_id":76561198864445147,"connected_time":163000000000,"state":"active","ping":77},{"user_id":342,"name":"Mjölkolisten","steam_id":76561198157896687,"connected_time":127000000000,"state":"active","ping":69},{"user_id":345,"name":"Jeffacakes","steam_id":76561198280101970,"connected_time":34000000000,"state":"spawning","ping":54}]},{"server_id":321,"name":"Uncletopia | London | 4 | All Maps","name_short":"lon-4","host":"lon-1.uk.uncletopia.com","port":27045,"enabled":true,"region":"eu","cc":"gb","latitude":51.509865,"longitude":-0.118092,"reserved":0,"last_update":"0001-01-01T00:00:00Z","name_a2s":"Uncletopia | London | 4 | All Maps","protocol":17,"map":"cp_dustbowl","folder":"tf","game":"Team Fortress","app_id":440,"player_count":23,"max_players":24,"Bots":0,"server_type":"Dedicated","server_os":"Linux","password":true,"vac":true,"version":"7961495","steam_id":85568392924510193,"keywords":["cp","nocrits","nodmgspread","uncletopia"],"game_id":440,"stv_port":27046,"stv_name":"Uncletopia | London | 4 | All Maps | STV","players":[{"user_id":237,"name":"Dogdigger","steam_id":76561198032893130,"connected_time":970000000000,"state":"active","ping":102},{"user_id":239,"name":"scdcsdvgf","steam_id":76561199420937158,"connected_time":810000000000,"state":"active","ping":119},{"user_id":235,"name":"Dimitri_612","steam_id":76561199223984137,"connected_time":1456000000000,"state":"active","ping":45},{"user_id":231,"name":"Lemon","steam_id":76561198093765664,"connected_time":1524000000000,"state":"active","ping":58},{"user_id":183,"name":"Finn","steam_id":76561198179960193,"connected_time":4347000000000,"state":"active","ping":37},{"user_id":185,"name":"sarii ☆","steam_id":76561199155102111,"connected_time":4298000000000,"state":"active","ping":80},{"user_id":204,"name":"protëin","steam_id":76561197998423616,"connected_time":2706000000000,"state":"active","ping":67},{"user_id":229,"name":"Tattletails","steam_id":76561198055690341,"connected_time":1586000000000,"state":"active","ping":57},{"user_id":187,"name":"Barry Bee Benson","steam_id":76561198115199225,"connected_time":4226000000000,"state":"active","ping":54},{"user_id":158,"name":"R8N - Obismal","steam_id":76561198007482714,"connected_time":5120000000000,"state":"active","ping":76},{"user_id":165,"name":"Macci - Obismal","steam_id":76561198050485404,"connected_time":5001000000000,"state":"active","ping":89},{"user_id":232,"name":"Dewisor","steam_id":76561198230971472,"connected_time":1509000000000,"state":"active","ping":79},{"user_id":241,"name":"JJ","steam_id":76561198040955086,"connected_time":618000000000,"state":"active","ping":172},{"user_id":217,"name":"finbar","steam_id":76561198056812396,"connected_time":2010000000000,"state":"active","ping":80},{"user_id":184,"name":"Greencoffee","steam_id":76561198842090589,"connected_time":4328000000000,"state":"active","ping":71},{"user_id":169,"name":"DHD - Obismal","steam_id":76561198000356530,"connected_time":4830000000000,"state":"active","ping":76},{"user_id":218,"name":"SCP-049-1","steam_id":76561198968361808,"connected_time":2009000000000,"state":"active","ping":72},{"user_id":240,"name":"lemon pene","steam_id":76561198206954985,"connected_time":709000000000,"state":"active","ping":126},{"user_id":219,"name":"Virgil","steam_id":76561198248786778,"connected_time":1979000000000,"state":"active","ping":113},{"user_id":222,"name":"Gary_Stuart","steam_id":76561198860008488,"connected_time":1705000000000,"state":"active","ping":55},{"user_id":242,"name":"DonPepito341","steam_id":76561199129299369,"connected_time":176000000000,"state":"active","ping":71},{"user_id":236,"name":"Cpt_frost","steam_id":76561198218034817,"connected_time":1022000000000,"state":"active","ping":39},{"user_id":238,"name":"Not Sussy Tanuki","steam_id":76561198137289375,"connected_time":954000000000,"state":"active","ping":108}]},{"server_id":21,"name":"Uncletopia | London | 5 | All Maps","name_short":"lon-5","host":"lon-1.uk.uncletopia.com","port":27055,"enabled":true,"region":"eu","cc":"gb","latitude":51.509865,"longitude":-0.118092,"reserved":0,"last_update":"0001-01-01T00:00:00Z","name_a2s":"Uncletopia | London | 5 | All Maps","protocol":17,"map":"koth_nucleus","folder":"tf","game":"Team Fortress","app_id":440,"player_count":19,"max_players":24,"Bots":0,"server_type":"Dedicated","server_os":"Linux","password":true,"vac":true,"version":"7961495","steam_id":85568392924742829,"keywords":["cp","nocrits","nodmgspread","uncletopia"],"game_id":440,"stv_port":27056,"stv_name":"Uncletopia | London | 5 | All Maps | STV","players":[{"user_id":773,"name":"The Subway Scientist","steam_id":76561198193757646,"connected_time":1153000000000,"state":"active","ping":122},{"user_id":739,"name":"U F Onion","steam_id":76561198843305350,"connected_time":2523000000000,"state":"spawning","ping":92},{"user_id":761,"name":"baballe","steam_id":76561198302448192,"connected_time":1944000000000,"state":"spawning","ping":28},{"user_id":772,"name":"Flashback","steam_id":76561197973978552,"connected_time":1162000000000,"state":"spawning","ping":430},{"user_id":535,"name":"HaylingZar","steam_id":76561198053559897,"connected_time":15430000000000,"state":"active","ping":156},{"user_id":646,"name":"hyvakii705","steam_id":76561198086630552,"connected_time":8515000000000,"state":"active","ping":92},{"user_id":785,"name":"Yung Lean's Ginseng Strip 2002","steam_id":76561198156224952,"connected_time":498000000000,"state":"active","ping":53},{"user_id":787,"name":"Spykiller42","steam_id":76561199027962230,"connected_time":10000000000,"state":"active","ping":74},{"user_id":782,"name":"Peep","steam_id":76561198132508552,"connected_time":744000000000,"state":"spawning","ping":187},{"user_id":788,"name":"_Context_","steam_id":76561199163359312,"connected_time":4000000000,"state":"spawning","ping":46},{"user_id":569,"name":"Largo","steam_id":76561198844368927,"connected_time":13431000000000,"state":"spawning","ping":123},{"user_id":715,"name":"gatl","steam_id":76561198116926545,"connected_time":4333000000000,"state":"active","ping":131},{"user_id":658,"name":"lulu","steam_id":76561199147764133,"connected_time":8030000000000,"state":"active","ping":148},{"user_id":786,"name":"tf2 botkick simulator","steam_id":76561198001581446,"connected_time":167000000000,"state":"spawning","ping":862},{"user_id":775,"name":"Pyrolander","steam_id":76561198050785450,"connected_time":1145000000000,"state":"spawning","ping":48},{"user_id":731,"name":"zazuza","steam_id":76561198049820905,"connected_time":2720000000000,"state":"active","ping":82},{"user_id":776,"name":"shoras","steam_id":76561198019680159,"connected_time":1143000000000,"state":"spawning","ping":209},{"user_id":727,"name":"bitkomet","steam_id":76561198058232147,"connected_time":3323000000000,"state":"active","ping":106},{"user_id":732,"name":"Vonacht","steam_id":76561198016033944,"connected_time":2720000000000,"state":"active","ping":104}]},{"server_id":22,"name":"Uncletopia | London | 6 | All Maps","name_short":"lon-6","host":"lon-1.uk.uncletopia.com","port":27065,"enabled":true,"region":"eu","cc":"gb","latitude":51.509865,"longitude":-0.118092,"reserved":0,"last_update":"0001-01-01T00:00:00Z","name_a2s":"Uncletopia | London | 6 | All Maps","protocol":17,"map":"pl_thundermountain","folder":"tf","game":"Team Fortress","app_id":440,"player_count":23,"max_players":24,"Bots":0,"server_type":"Dedicated","server_os":"Linux","password":true,"vac":true,"version":"7961495","steam_id":85568392924742830,"keywords":["nocrits","nodmgspread","payload","uncletopia"],"game_id":440,"stv_port":27066,"stv_name":"Uncletopia | London | 6 | All Maps | STV","players":[{"user_id":414,"name":"meow (they/them)","steam_id":76561198416657815,"connected_time":8294000000000,"state":"active","ping":131},{"user_id":464,"name":"Caliban","steam_id":76561197999696839,"connected_time":4591000000000,"state":"active","ping":131},{"user_id":473,"name":"stomi","steam_id":76561198418623427,"connected_time":2889000000000,"state":"active","ping":70},{"user_id":508,"name":"shr","steam_id":76561198449852071,"connected_time":392000000000,"state":"active","ping":40},{"user_id":514,"name":"carrots saved my life","steam_id":76561198069649097,"connected_time":122000000000,"state":"active","ping":51},{"user_id":496,"name":"nug","steam_id":76561198055396568,"connected_time":736000000000,"state":"active","ping":55},{"user_id":497,"name":"Dapper Pan Man","steam_id":76561197981874399,"connected_time":724000000000,"state":"active","ping":93},{"user_id":502,"name":"Adam","steam_id":76561198259467867,"connected_time":540000000000,"state":"active","ping":87},{"user_id":445,"name":"JareJare","steam_id":76561199040893751,"connected_time":5810000000000,"state":"active","ping":91},{"user_id":443,"name":"Professional facestab","steam_id":76561198258721056,"connected_time":6026000000000,"state":"active","ping":47},{"user_id":510,"name":"david.klemen","steam_id":76561198382246222,"connected_time":286000000000,"state":"active","ping":99},{"user_id":511,"name":"i am green (da ba dee)","steam_id":76561198357334558,"connected_time":247000000000,"state":"active","ping":120},{"user_id":515,"name":"Owenter","steam_id":76561198083201886,"connected_time":118000000000,"state":"active","ping":44},{"user_id":488,"name":"clunk","steam_id":76561198836460767,"connected_time":1417000000000,"state":"active","ping":74},{"user_id":487,"name":"Voks_","steam_id":76561198159687785,"connected_time":1434000000000,"state":"active","ping":66},{"user_id":489,"name":"Lewylow","steam_id":76561198005425686,"connected_time":1411000000000,"state":"active","ping":55},{"user_id":495,"name":"Hidden_Slime225","steam_id":76561199089440679,"connected_time":860000000000,"state":"active","ping":134},{"user_id":506,"name":"casper","steam_id":76561198869567040,"connected_time":458000000000,"state":"active","ping":84},{"user_id":491,"name":"Shovelhalfrusty","steam_id":76561198346447513,"connected_time":1396000000000,"state":"active","ping":60},{"user_id":513,"name":"the most annoying man on earth","steam_id":76561199059078922,"connected_time":211000000000,"state":"active","ping":124},{"user_id":492,"name":"ant753","steam_id":76561198103458889,"connected_time":1393000000000,"state":"active","ping":73},{"user_id":472,"name":"kelm","steam_id":76561198027166144,"connected_time":3369000000000,"state":"active","ping":89},{"user_id":507,"name":"r06u3","steam_id":76561198254099253,"connected_time":437000000000,"state":"active","ping":181}]},{"server_id":40,"name":"Uncletopia | London | 7 | Stopwatch","name_short":"lon-7","host":"lon-1.uk.uncletopia.com","port":27075,"enabled":true,"region":"eu","cc":"gb","latitude":51.509865,"longitude":-0.118092,"reserved":0,"last_update":"0001-01-01T00:00:00Z","name_a2s":"Uncletopia | London | 7 | Stopwatch","protocol":17,"map":"workshop/koth_clearcut_b15.ugc2107050255","folder":"tf","game":"Team Fortress","app_id":440,"player_count":0,"max_players":24,"Bots":0,"server_type":"Dedicated","server_os":"Linux","password":true,"vac":true,"version":"7961495","steam_id":85568392924964314,"keywords":["cp","nocrits","nodmgspread","uncletopia"],"game_id":440,"stv_port":27076,"stv_name":"Uncletopia | London | 7 | Stopwatch | STV","players":null},{"server_id":41,"name":"Uncletopia | London | 8 | Community","name_short":"lon-8","host":"lon-1.uk.uncletopia.com","port":27085,"enabled":true,"region":"eu","cc":"gb","latitude":51.509865,"longitude":-0.118092,"reserved":0,"last_update":"0001-01-01T00:00:00Z","name_a2s":"Uncletopia | London | 8 | Community","protocol":17,"map":"workshop/koth_synthetic_rc6a.ugc1549817316","folder":"tf","game":"Team Fortress","app_id":440,"player_count":0,"max_players":24,"Bots":0,"server_type":"Dedicated","server_os":"Linux","password":true,"vac":true,"version":"7961495","steam_id":85568392924964315,"keywords":["cp","nocrits","nodmgspread","uncletopia"],"game_id":440,"stv_port":27086,"stv_name":"Uncletopia | London | 8 | Community | STV","players":null},{"server_id":300,"name":"Uncletopia | Montréal | 1 | All Maps","name_short":"mtl-1","host":"mtl-1.ca.uncletopia.com","port":27015,"enabled":true,"region":"us-east","cc":"ca","latitude":45.50889,"longitude":-73.56167,"reserved":0,"last_update":"0001-01-01T00:00:00Z","name_a2s":"","protocol":0,"map":"","folder":"","game":"","app_id":0,"player_count":17,"max_players":0,"Bots":0,"server_type":"","server_os":"","password":false,"vac":false,"version":"","steam_id":0,"keywords":null,"game_id":0,"stv_port":0,"stv_name":"","players":[{"user_id":10,"name":"t.tv/stabslive","steam_id":76561198293116584,"connected_time":7422000000000,"state":"active","ping":76},{"user_id":106,"name":"Jean Deere","steam_id":76561198105101309,"connected_time":296000000000,"state":"active","ping":60},{"user_id":113,"name":"Citamin V","steam_id":76561198036032168,"connected_time":137000000000,"state":"active","ping":36},{"user_id":105,"name":"Papeese","steam_id":76561198297839897,"connected_time":647000000000,"state":"active","ping":58},{"user_id":88,"name":"Roz257","steam_id":76561198842844532,"connected_time":1927000000000,"state":"active","ping":45},{"user_id":111,"name":"Poodle","steam_id":76561199319713877,"connected_time":194000000000,"state":"active","ping":41},{"user_id":19,"name":"Big Iron","steam_id":76561198798937656,"connected_time":6742000000000,"state":"active","ping":75},{"user_id":95,"name":"A 2008 Laptop.","steam_id":76561198860068961,"connected_time":1445000000000,"state":"active","ping":45},{"user_id":90,"name":"LevelRaisin","steam_id":76561198082924440,"connected_time":1875000000000,"state":"active","ping":44},{"user_id":114,"name":"i'm sleepy!","steam_id":76561198016826181,"connected_time":116000000000,"state":"active","ping":75},{"user_id":50,"name":"xXx Rexxie Rose xXx","steam_id":76561198087993931,"connected_time":5271000000000,"state":"active","ping":120},{"user_id":82,"name":"Django","steam_id":76561197971158403,"connected_time":2392000000000,"state":"active","ping":50},{"user_id":96,"name":"Eighto","steam_id":76561198422537259,"connected_time":1385000000000,"state":"active","ping":160},{"user_id":45,"name":"Yellowtt","steam_id":76561198374834340,"connected_time":5517000000000,"state":"active","ping":135},{"user_id":98,"name":"fish","steam_id":76561199175173199,"connected_time":1054000000000,"state":"active","ping":122},{"user_id":97,"name":"A Terrible Shot","steam_id":76561198045523833,"connected_time":1246000000000,"state":"active","ping":70},{"user_id":94,"name":"bobbymcbobington","steam_id":76561199089411172,"connected_time":1745000000000,"state":"active","ping":133}]},{"server_id":301,"name":"Uncletopia | Montréal | 2 | ???","name_short":"mtl-2","host":"mtl-1.ca.uncletopia.com","port":27025,"enabled":true,"region":"us-east","cc":"ca","latitude":45.50889,"longitude":-73.56167,"reserved":0,"last_update":"0001-01-01T00:00:00Z","name_a2s":"","protocol":0,"map":"","folder":"","game":"","app_id":0,"player_count":0,"max_players":0,"Bots":0,"server_type":"","server_os":"","password":false,"vac":false,"version":"","steam_id":0,"keywords":null,"game_id":0,"stv_port":0,"stv_name":"","players":null},{"server_id":13,"name":"Uncletopia | New York City | 1 | All Maps","name_short":"nyc-1","host":"nyc-1.us.uncletopia.com","port":27015,"enabled":true,"region":"us-east","cc":"us","latitude":40.73061,"longitude":-73.93524,"reserved":0,"last_update":"0001-01-01T00:00:00Z","name_a2s":"Uncletopia | New York City | 1 | All Maps","protocol":17,"map":"cp_steel","folder":"tf","game":"Team Fortress","app_id":440,"player_count":23,"max_players":24,"Bots":0,"server_type":"Dedicated","server_os":"Linux","password":true,"vac":true,"version":"7961495","steam_id":85568392924469993,"keywords":["cp","nocrits","nodmgspread","uncletopia"],"game_id":440,"stv_port":27016,"stv_name":"Uncletopia | New York City | 1 | All Maps | STV","players":[{"user_id":279,"name":"Bagadi","steam_id":76561198150241624,"connected_time":636000000000,"state":"active","ping":56},{"user_id":277,"name":"AwakenedLaser","steam_id":76561198881657823,"connected_time":890000000000,"state":"active","ping":145},{"user_id":282,"name":"Orange Triangle","steam_id":76561198320498182,"connected_time":581000000000,"state":"active","ping":85},{"user_id":244,"name":"Transbian mommy GF","steam_id":76561198153233822,"connected_time":3580000000000,"state":"active","ping":81},{"user_id":268,"name":"Porcupine's Revenge!","steam_id":76561199121615234,"connected_time":1558000000000,"state":"active","ping":46},{"user_id":261,"name":"Moron","steam_id":76561198290041736,"connected_time":2545000000000,"state":"active","ping":79},{"user_id":265,"name":"TheCountryKid #Save Tf2","steam_id":76561199325369064,"connected_time":1742000000000,"state":"active","ping":113},{"user_id":273,"name":"Takeover","steam_id":76561197996081461,"connected_time":1167000000000,"state":"active","ping":46},{"user_id":266,"name":"the spy from team fortress 2","steam_id":76561198047797306,"connected_time":1700000000000,"state":"active","ping":46},{"user_id":280,"name":"Oni","steam_id":76561198112066584,"connected_time":634000000000,"state":"active","ping":75},{"user_id":274,"name":"Dinosaur","steam_id":76561198854695804,"connected_time":1146000000000,"state":"active","ping":59},{"user_id":260,"name":"Fangirl","steam_id":76561198253710690,"connected_time":2821000000000,"state":"active","ping":93},{"user_id":276,"name":"bimbo blow up doll! \u003c3","steam_id":76561198959541006,"connected_time":1097000000000,"state":"active","ping":65},{"user_id":287,"name":"Fleetway","steam_id":76561198392105594,"connected_time":367000000000,"state":"active","ping":67},{"user_id":283,"name":"ndvr","steam_id":76561199379200102,"connected_time":489000000000,"state":"active","ping":55},{"user_id":191,"name":"Ziath","steam_id":76561198094009164,"connected_time":6584000000000,"state":"active","ping":44},{"user_id":264,"name":"Archimedes!","steam_id":76561199446023933,"connected_time":1784000000000,"state":"active","ping":112},{"user_id":263,"name":"SushiYum","steam_id":76561199376772893,"connected_time":1810000000000,"state":"active","ping":100},{"user_id":251,"name":"Mac is Bac #TransRights","steam_id":76561198307352761,"connected_time":3438000000000,"state":"active","ping":118},{"user_id":288,"name":"Antwan","steam_id":76561198246200638,"connected_time":235000000000,"state":"active","ping":77},{"user_id":275,"name":"eaglesfan609","steam_id":76561198151032242,"connected_time":1133000000000,"state":"active","ping":57},{"user_id":284,"name":"The","steam_id":76561198359311605,"connected_time":486000000000,"state":"active","ping":143},{"user_id":286,"name":"Syphal","steam_id":76561198149093386,"connected_time":466000000000,"state":"active","ping":69}]},{"server_id":14,"name":"Uncletopia | New York City | 2 | All Maps","name_short":"nyc-2","host":"nyc-1.us.uncletopia.com","port":27025,"enabled":true,"region":"us-east","cc":"us","latitude":40.73061,"longitude":-73.93524,"reserved":0,"last_update":"0001-01-01T00:00:00Z","name_a2s":"Uncletopia | New York City | 2 | All Maps","protocol":17,"map":"pl_hoodoo_final","folder":"tf","game":"Team Fortress","app_id":440,"player_count":24,"max_players":24,"Bots":0,"server_type":"Dedicated","server_os":"Linux","password":true,"vac":true,"version":"7961495","steam_id":85568392924469994,"keywords":["nocrits","nodmgspread","payload","uncletopia"],"game_id":440,"stv_port":27026,"stv_name":"Uncletopia | New York City | 2 | All Maps | STV","players":[{"user_id":172,"name":"Rabid-Gentleman","steam_id":76561199071967379,"connected_time":387000000000,"state":"active","ping":76},{"user_id":153,"name":"Hamz","steam_id":76561199287459211,"connected_time":1238000000000,"state":"active","ping":85},{"user_id":179,"name":"FrostStorm","steam_id":76561198142685151,"connected_time":105000000000,"state":"active","ping":82},{"user_id":168,"name":"Cigtar","steam_id":76561198079842818,"connected_time":656000000000,"state":"active","ping":65},{"user_id":174,"name":"Blockz","steam_id":76561198049912012,"connected_time":300000000000,"state":"active","ping":52},{"user_id":166,"name":"GaiBerd","steam_id":76561198177100634,"connected_time":785000000000,"state":"active","ping":44},{"user_id":155,"name":"mvn","steam_id":76561198294258002,"connected_time":1190000000000,"state":"active","ping":38},{"user_id":22,"name":"TheWallaby","steam_id":76561198948037546,"connected_time":8148000000000,"state":"active","ping":50},{"user_id":180,"name":"hucklander","steam_id":76561199473487575,"connected_time":92000000000,"state":"active","ping":81},{"user_id":169,"name":"Zhong Xina","steam_id":76561198048157121,"connected_time":469000000000,"state":"active","ping":66},{"user_id":157,"name":"puffy","steam_id":76561198411347037,"connected_time":1107000000000,"state":"active","ping":55},{"user_id":175,"name":"Wolfman","steam_id":76561198095264646,"connected_time":242000000000,"state":"active","ping":86},{"user_id":176,"name":"Tidwell","steam_id":76561198037414410,"connected_time":199000000000,"state":"active","ping":58},{"user_id":158,"name":"Braixen","steam_id":76561198354314389,"connected_time":1104000000000,"state":"active","ping":71},{"user_id":159,"name":"Indigolake","steam_id":76561198202215807,"connected_time":1048000000000,"state":"active","ping":70},{"user_id":112,"name":"Maxx.Yuri","steam_id":76561199000920577,"connected_time":3843000000000,"state":"active","ping":85},{"user_id":160,"name":"Pug_9492","steam_id":76561199078217640,"connected_time":968000000000,"state":"active","ping":121},{"user_id":177,"name":"RZA","steam_id":76561198074428237,"connected_time":176000000000,"state":"active","ping":59},{"user_id":181,"name":"lego star wars on the psp","steam_id":76561198148014773,"connected_time":76000000000,"state":"active","ping":62},{"user_id":178,"name":"invader pro11","steam_id":76561198866930942,"connected_time":150000000000,"state":"active","ping":77},{"user_id":135,"name":"ItsThatKindaNight","steam_id":76561198883206743,"connected_time":2455000000000,"state":"active","ping":64},{"user_id":162,"name":"Idiots against light spam","steam_id":76561199037497493,"connected_time":955000000000,"state":"active","ping":75},{"user_id":164,"name":"engiqueer69","steam_id":76561199153261850,"connected_time":911000000000,"state":"active","ping":119},{"user_id":165,"name":"Oakspace_","steam_id":76561198132487015,"connected_time":882000000000,"state":"active","ping":68}]},{"server_id":15,"name":"Uncletopia | New York City | 3 | Stopwatch","name_short":"nyc-3","host":"nyc-1.us.uncletopia.com","port":27035,"enabled":true,"region":"us-east","cc":"us","latitude":40.73061,"longitude":-73.93524,"reserved":0,"last_update":"0001-01-01T00:00:00Z","name_a2s":"Uncletopia | New York City | 3 | Stopwatch","protocol":17,"map":"workshop/koth_product_final.ugc454272353","folder":"tf","game":"Team Fortress","app_id":440,"player_count":17,"max_players":24,"Bots":0,"server_type":"Dedicated","server_os":"Linux","password":true,"vac":true,"version":"7961495","steam_id":85568392924742820,"keywords":["cp","nocrits","nodmgspread","uncletopia"],"game_id":440,"stv_port":27036,"stv_name":"Uncletopia | New York City | 3 | Stopwatch | STV","players":[{"user_id":117,"name":"Mak donalds","steam_id":76561198856016840,"connected_time":7554000000000,"state":"active","ping":48},{"user_id":177,"name":"Pigeon","steam_id":76561199232498885,"connected_time":3024000000000,"state":"active","ping":59},{"user_id":215,"name":"Skatnaset","steam_id":76561198298457353,"connected_time":112000000000,"state":"active","ping":145},{"user_id":212,"name":"justpixels","steam_id":76561198143717568,"connected_time":247000000000,"state":"active","ping":173},{"user_id":214,"name":"[New Labour] Tony Blair","steam_id":76561197963439537,"connected_time":145000000000,"state":"active","ping":114},{"user_id":174,"name":"The Incredible Fem Boy","steam_id":76561198355754259,"connected_time":3548000000000,"state":"active","ping":63},{"user_id":188,"name":"Hindmost","steam_id":76561199081837220,"connected_time":1931000000000,"state":"active","ping":71},{"user_id":183,"name":"FrostedBlakes","steam_id":76561199091619928,"connected_time":2420000000000,"state":"active","ping":100},{"user_id":210,"name":"guy","steam_id":76561198187155303,"connected_time":329000000000,"state":"active","ping":69},{"user_id":216,"name":"party hat","steam_id":76561198044268609,"connected_time":104000000000,"state":"active","ping":61},{"user_id":187,"name":"Redja","steam_id":76561198075009586,"connected_time":1961000000000,"state":"active","ping":75},{"user_id":217,"name":"hoos","steam_id":76561198045985910,"connected_time":98000000000,"state":"active","ping":98},{"user_id":197,"name":"Oof","steam_id":76561198079354687,"connected_time":1264000000000,"state":"active","ping":43},{"user_id":218,"name":"2020 RX 350","steam_id":76561199123332348,"connected_time":15000000000,"state":"spawning","ping":122},{"user_id":194,"name":"canadian skeleton","steam_id":76561199251749108,"connected_time":1613000000000,"state":"active","ping":55},{"user_id":204,"name":"Nic0","steam_id":76561198305690218,"connected_time":809000000000,"state":"active","ping":56},{"user_id":205,"name":"Octomal800","steam_id":76561199453595616,"connected_time":776000000000,"state":"active","ping":62}]},{"server_id":16,"name":"Uncletopia | New York City | 4 | Community","name_short":"nyc-4","host":"nyc-1.us.uncletopia.com","port":27045,"enabled":true,"region":"us-east","cc":"us","latitude":40.73061,"longitude":-73.93524,"reserved":0,"last_update":"0001-01-01T00:00:00Z","name_a2s":"Uncletopia | New York City | 4 | Community","protocol":17,"map":"cp_altitude","folder":"tf","game":"Team Fortress","app_id":440,"player_count":0,"max_players":24,"Bots":0,"server_type":"Dedicated","server_os":"Linux","password":true,"vac":true,"version":"7961495","steam_id":85568392924742821,"keywords":["cp","nocrits","nodmgspread","uncletopia"],"game_id":440,"stv_port":27046,"stv_name":"Uncletopia | New York City | 4 | Community | STV","players":null},{"server_id":142,"name":"Uncletopia | São Paulo | 1 | All Maps","name_short":"sao-1","host":"sao-1.br.uncletopia.com","port":27015,"enabled":true,"region":"sa","cc":"br","latitude":-23.533773,"longitude":-46.62529,"reserved":0,"last_update":"0001-01-01T00:00:00Z","name_a2s":"Uncletopia | São Paulo | 1 | All Maps","protocol":17,"map":"cp_process_final","folder":"tf","game":"Team Fortress","app_id":440,"player_count":0,"max_players":24,"Bots":0,"server_type":"Dedicated","server_os":"Linux","password":true,"vac":true,"version":"7961495","steam_id":85568392924469996,"keywords":["cp","nocrits","nodmgspread","uncletopia"],"game_id":440,"stv_port":27016,"stv_name":"Uncletopia | São Paulo | 1 | All Maps | STV","players":null},{"server_id":143,"name":"Uncletopia | São Paulo | 2 | Community","name_short":"sao-2","host":"sao-2.br.uncletopia.com","port":27015,"enabled":true,"region":"sa","cc":"br","latitude":-23.533773,"longitude":-46.62529,"reserved":0,"last_update":"0001-01-01T00:00:00Z","name_a2s":"Uncletopia | São Paulo | 2 | Community","protocol":17,"map":"workshop/koth_synthetic_rc6a.ugc1549817316","folder":"tf","game":"Team Fortress","app_id":440,"player_count":0,"max_players":24,"Bots":0,"server_type":"Dedicated","server_os":"Linux","password":true,"vac":true,"version":"7961495","steam_id":85568392924485349,"keywords":["cp","nocrits","nodmgspread","uncletopia"],"game_id":440,"stv_port":27016,"stv_name":"Uncletopia | São Paulo | 2 | Community | STV","players":null},{"server_id":7,"name":"Uncletopia | Seattle | 1 | All Maps","name_short":"sea-1","host":"sea-1.us.uncletopia.com","port":27015,"enabled":true,"region":"us-west","cc":"us","latitude":47.608013,"longitude":-122.33517,"reserved":0,"last_update":"0001-01-01T00:00:00Z","name_a2s":"Uncletopia | Seattle | 1 | All Maps","protocol":17,"map":"cp_egypt_final","folder":"tf","game":"Team Fortress","app_id":440,"player_count":24,"max_players":24,"Bots":0,"server_type":"Dedicated","server_os":"Linux","password":true,"vac":true,"version":"7961495","steam_id":85568392924469997,"keywords":["cp","nocrits","nodmgspread","uncletopia"],"game_id":440,"stv_port":27016,"stv_name":"Uncletopia | Seattle | 1 | All Maps | STV","players":[{"user_id":147,"name":"Abysa.","steam_id":76561198424398862,"connected_time":301000000000,"state":"active","ping":173},{"user_id":121,"name":"toes","steam_id":76561198221151676,"connected_time":2900000000000,"state":"active","ping":58},{"user_id":89,"name":"[TTV]slendermansmoom","steam_id":76561199053946374,"connected_time":6348000000000,"state":"active","ping":54},{"user_id":134,"name":"Apollo","steam_id":76561198162364702,"connected_time":1823000000000,"state":"active","ping":45},{"user_id":137,"name":"The spy","steam_id":76561198202152453,"connected_time":1184000000000,"state":"active","ping":38},{"user_id":138,"name":"✫P∀nck∈✫","steam_id":76561198050163618,"connected_time":1094000000000,"state":"active","ping":63},{"user_id":152,"name":"A UsedNom","steam_id":76561198402832756,"connected_time":26000000000,"state":"active","ping":55},{"user_id":140,"name":"whitr","steam_id":76561198043981478,"connected_time":744000000000,"state":"active","ping":60},{"user_id":139,"name":"Hassium","steam_id":76561198162541373,"connected_time":795000000000,"state":"active","ping":51},{"user_id":108,"name":"Dimple #TF2Center","steam_id":76561198980324190,"connected_time":4150000000000,"state":"active","ping":68},{"user_id":109,"name":"diddy bong","steam_id":76561198870649125,"connected_time":4134000000000,"state":"active","ping":82},{"user_id":141,"name":"Tungsten","steam_id":76561198312854342,"connected_time":731000000000,"state":"active","ping":54},{"user_id":125,"name":"truundrscr","steam_id":76561198213525809,"connected_time":2565000000000,"state":"active","ping":60},{"user_id":143,"name":"envixty","steam_id":76561198839745190,"connected_time":684000000000,"state":"active","ping":48},{"user_id":35,"name":"TinCanDim","steam_id":76561198184039682,"connected_time":9151000000000,"state":"active","ping":48},{"user_id":100,"name":"ZEKKER","steam_id":76561197967968980,"connected_time":5118000000000,"state":"active","ping":31},{"user_id":144,"name":"tagos","steam_id":76561199073587732,"connected_time":666000000000,"state":"active","ping":75},{"user_id":127,"name":"Fallen","steam_id":76561198206490352,"connected_time":2418000000000,"state":"active","ping":72},{"user_id":114,"name":"Optimore","steam_id":76561198047662990,"connected_time":3725000000000,"state":"active","ping":72},{"user_id":151,"name":"Dr. Karl, the AUS Science Guy","steam_id":76561198031278747,"connected_time":95000000000,"state":"active","ping":53},{"user_id":142,"name":"Day Man","steam_id":76561198067154807,"connected_time":731000000000,"state":"active","ping":42},{"user_id":145,"name":"Norriss","steam_id":76561198920296293,"connected_time":634000000000,"state":"active","ping":44},{"user_id":150,"name":"Wafflemuscle","steam_id":76561198868628982,"connected_time":156000000000,"state":"active","ping":39},{"user_id":132,"name":"Forty","steam_id":76561198257410181,"connected_time":1850000000000,"state":"active","ping":47}]},{"server_id":119,"name":"Uncletopia | Seattle | 2 | All Maps","name_short":"sea-2","host":"sea-1.us.uncletopia.com","port":27025,"enabled":true,"region":"us-west","cc":"us","latitude":47.608013,"longitude":-122.33517,"reserved":0,"last_update":"0001-01-01T00:00:00Z","name_a2s":"Uncletopia | Seattle | 2 | All Maps","protocol":17,"map":"koth_lakeside_final","folder":"tf","game":"Team Fortress","app_id":440,"player_count":0,"max_players":24,"Bots":0,"server_type":"Dedicated","server_os":"Linux","password":true,"vac":true,"version":"7961495","steam_id":85568392924469998,"keywords":["cp","nocrits","nodmgspread","uncletopia"],"game_id":440,"stv_port":27026,"stv_name":"Uncletopia | Seattle | 2 | All Maps | STV","players":null},{"server_id":406,"name":"Uncletopia | Seattle | 3 | Stopwatch","name_short":"sea-3","host":"sea-1.us.uncletopia.com","port":27035,"enabled":true,"region":"us-west","cc":"us","latitude":47.608013,"longitude":-122.33517,"reserved":0,"last_update":"0001-01-01T00:00:00Z","name_a2s":"Uncletopia | Seattle | 3 | Stopwatch","protocol":17,"map":"koth_lakeside_final","folder":"tf","game":"Team Fortress","app_id":440,"player_count":0,"max_players":24,"Bots":0,"server_type":"Dedicated","server_os":"Linux","password":true,"vac":true,"version":"7961495","steam_id":85568392924515217,"keywords":["cp","nocrits","nodmgspread","uncletopia"],"game_id":440,"stv_port":27036,"stv_name":"Uncletopia | Seattle | 3 | Stopwatch | STV","players":null},{"server_id":17,"name":"Uncletopia | San Francisco | 1 | All Maps","name_short":"sfo-1","host":"sfo-1.us.uncletopia.com","port":27015,"enabled":true,"region":"us-west","cc":"us","latitude":37.77397,"longitude":-122.4313,"reserved":0,"last_update":"0001-01-01T00:00:00Z","name_a2s":"Uncletopia | San Francisco | 1 | All Maps","protocol":17,"map":"cp_process_final","folder":"tf","game":"Team Fortress","app_id":440,"player_count":0,"max_players":24,"Bots":0,"server_type":"Dedicated","server_os":"Linux","password":true,"vac":true,"version":"7961495","steam_id":85568392924469999,"keywords":["cp","nocrits","nodmgspread","uncletopia"],"game_id":440,"stv_port":27016,"stv_name":"Uncletopia | San Francisco | 1 | All Maps | STV","players":null},{"server_id":18,"name":"Uncletopia | San Francisco | 2 | All Maps","name_short":"sfo-2","host":"sfo-1.us.uncletopia.com","port":27025,"enabled":true,"region":"us-west","cc":"us","latitude":37.77397,"longitude":-122.4313,"reserved":0,"last_update":"0001-01-01T00:00:00Z","name_a2s":"Uncletopia | San Francisco | 2 | All Maps","protocol":17,"map":"koth_cascade","folder":"tf","game":"Team Fortress","app_id":440,"player_count":0,"max_players":24,"Bots":0,"server_type":"Dedicated","server_os":"Linux","password":true,"vac":true,"version":"7961495","steam_id":85568392924470000,"keywords":["cp","nocrits","nodmgspread","uncletopia"],"game_id":440,"stv_port":27026,"stv_name":"Uncletopia | San Francisco | 2 | All Maps | STV","players":null},{"server_id":19,"name":"Uncletopia | San Francisco | 3 | Stopwatch","name_short":"sfo-3","host":"sfo-1.us.uncletopia.com","port":27035,"enabled":true,"region":"us-west","cc":"us","latitude":37.77397,"longitude":-122.4313,"reserved":0,"last_update":"0001-01-01T00:00:00Z","name_a2s":"Uncletopia | San Francisco | 3 | Stopwatch","protocol":17,"map":"pl_upward","folder":"tf","game":"Team Fortress","app_id":440,"player_count":0,"max_players":24,"Bots":0,"server_type":"Dedicated","server_os":"Linux","password":true,"vac":true,"version":"7961495","steam_id":85568392924742824,"keywords":["nocrits","nodmgspread","payload","uncletopia"],"game_id":440,"stv_port":27036,"stv_name":"Uncletopia | San Francisco | 3 | Stopwatch | STV","players":null},{"server_id":20,"name":"Uncletopia | San Francisco | 4 | Community","name_short":"sfo-4","host":"sfo-1.us.uncletopia.com","port":27045,"enabled":true,"region":"us-west","cc":"us","latitude":37.77397,"longitude":-122.4313,"reserved":0,"last_update":"0001-01-01T00:00:00Z","name_a2s":"Uncletopia | San Francisco | 4 | Community","protocol":17,"map":"workshop/pl_divulgence_b4b.ugc2884808746","folder":"tf","game":"Team Fortress","app_id":440,"player_count":0,"max_players":24,"Bots":0,"server_type":"Dedicated","server_os":"Linux","password":true,"vac":true,"version":"7961495","steam_id":85568392924742826,"keywords":["nocrits","nodmgspread","payload","uncletopia"],"game_id":440,"stv_port":27046,"stv_name":"Uncletopia | San Francisco | 4 | Community | STV","players":null},{"server_id":141,"name":"Uncletopia | Sydney | 1 | All Maps","name_short":"syd-1","host":"syd-1.au.uncletopia.com","port":27015,"enabled":true,"region":"au","cc":"au","latitude":-33.865143,"longitude":151.2099,"reserved":0,"last_update":"0001-01-01T00:00:00Z","name_a2s":"Uncletopia | Sydney | 1 | All Maps","protocol":17,"map":"koth_viaduct","folder":"tf","game":"Team Fortress","app_id":440,"player_count":0,"max_players":24,"Bots":0,"server_type":"Dedicated","server_os":"Linux","password":true,"vac":true,"version":"7961495","steam_id":85568392924470001,"keywords":["cp","nocrits","nodmgspread","uncletopia"],"game_id":440,"stv_port":27016,"stv_name":"Uncletopia | Sydney | 1 | All Maps | STV","players":null},{"server_id":123,"name":"Uncletopia | Sydney | 2 | All Maps","name_short":"syd-2","host":"syd-1.au.uncletopia.com","port":27025,"enabled":true,"region":"au","cc":"au","latitude":-33.865143,"longitude":151.2099,"reserved":0,"last_update":"0001-01-01T00:00:00Z","name_a2s":"Uncletopia | Sydney | 2 | All Maps","protocol":17,"map":"koth_lakeside_final","folder":"tf","game":"Team Fortress","app_id":440,"player_count":0,"max_players":24,"Bots":0,"server_type":"Dedicated","server_os":"Linux","password":true,"vac":true,"version":"7961495","steam_id":85568392924470002,"keywords":["cp","nocrits","nodmgspread","uncletopia"],"game_id":440,"stv_port":27026,"stv_name":"Uncletopia | Sydney | 2 | All Maps | STV","players":null},{"server_id":395,"name":"Uncletopia | Sydney | 3 | All Maps","name_short":"syd-3","host":"syd-1.au.uncletopia.com","port":27035,"enabled":true,"region":"au","cc":"au","latitude":-33.865143,"longitude":151.2099,"reserved":0,"last_update":"0001-01-01T00:00:00Z","name_a2s":"Uncletopia | Sydney | 3 | All Maps","protocol":17,"map":"pl_frontier_final","folder":"tf","game":"Team Fortress","app_id":440,"player_count":0,"max_players":24,"Bots":0,"server_type":"Dedicated","server_os":"Linux","password":true,"vac":true,"version":"7961495","steam_id":85568392925194467,"keywords":["nocrits","nodmgspread","payload","uncletopia"],"game_id":440,"stv_port":27036,"stv_name":"Uncletopia | Sydney | 3 | All Maps | STV","players":null},{"server_id":396,"name":"Uncletopia | Sydney | 4 | All Maps","name_short":"syd-4","host":"syd-1.au.uncletopia.com","port":27045,"enabled":true,"region":"au","cc":"au","latitude":-33.865143,"longitude":151.2099,"reserved":0,"last_update":"0001-01-01T00:00:00Z","name_a2s":"Uncletopia | Sydney | 4 | All Maps","protocol":17,"map":"cp_process_final","folder":"tf","game":"Team Fortress","app_id":440,"player_count":0,"max_players":24,"Bots":0,"server_type":"Dedicated","server_os":"Linux","password":true,"vac":true,"version":"7961495","steam_id":85568392925397958,"keywords":["cp","nocrits","nodmgspread","uncletopia"],"game_id":440,"stv_port":27046,"stv_name":"Uncletopia | Sydney | 4 | All Maps | STV","players":null},{"server_id":58,"name":"Uncletopia | Sydney | 5 | Stopwatch","name_short":"syd-5","host":"syd-1.au.uncletopia.com","port":27055,"enabled":true,"region":"au","cc":"au","latitude":-33.865143,"longitude":151.2099,"reserved":0,"last_update":"0001-01-01T00:00:00Z","name_a2s":"Uncletopia | Sydney | 5 | Stopwatch","protocol":17,"map":"pl_frontier_final","folder":"tf","game":"Team Fortress","app_id":440,"player_count":0,"max_players":24,"Bots":0,"server_type":"Dedicated","server_os":"Linux","password":true,"vac":true,"version":"7961495","steam_id":85568392925397959,"keywords":["nocrits","nodmgspread","payload","uncletopia"],"game_id":440,"stv_port":27056,"stv_name":"Uncletopia | Sydney | 5 | Stopwatch | STV","players":null},{"server_id":59,"name":"Uncletopia | Sydney | 6 | Community","name_short":"syd-6","host":"syd-1.au.uncletopia.com","port":27065,"enabled":true,"region":"au","cc":"au","latitude":-33.865143,"longitude":151.2099,"reserved":0,"last_update":"0001-01-01T00:00:00Z","name_a2s":"Uncletopia | Sydney | 6 | Community","protocol":17,"map":"cp_sunshine","folder":"tf","game":"Team Fortress","app_id":440,"player_count":0,"max_players":24,"Bots":0,"server_type":"Dedicated","server_os":"Linux","password":true,"vac":true,"version":"7961495","steam_id":85568392925397960,"keywords":["cp","nocrits","nodmgspread","uncletopia"],"game_id":440,"stv_port":27066,"stv_name":"Uncletopia | Sydney | 6 | Community | STV","players":null},{"server_id":49,"name":"Uncletopia | Warsaw | 1 | All Maps","name_short":"waw-1","host":"waw-1.pl.uncletopia.com","port":27015,"enabled":true,"region":"eu","cc":"pl","latitude":52.2297,"longitude":21.017532,"reserved":0,"last_update":"0001-01-01T00:00:00Z","name_a2s":"Uncletopia | Warsaw | 1 | All Maps","protocol":17,"map":"koth_lakeside_final","folder":"tf","game":"Team Fortress","app_id":440,"player_count":0,"max_players":24,"Bots":0,"server_type":"Dedicated","server_os":"Linux","password":true,"vac":true,"version":"7961495","steam_id":85568392925397850,"keywords":["cp","nocrits","nodmgspread","uncletopia"],"game_id":440,"stv_port":27016,"stv_name":"Uncletopia | Warsaw | 1 | All Maps | STV","players":null},{"server_id":50,"name":"Uncletopia | Warsaw | 2 | All Maps","name_short":"waw-2","host":"waw-1.pl.uncletopia.com","port":27025,"enabled":true,"region":"eu","cc":"pl","latitude":52.2297,"longitude":21.017532,"reserved":0,"last_update":"0001-01-01T00:00:00Z","name_a2s":"Uncletopia | Warsaw | 2 | All Maps","protocol":17,"map":"cp_process_final","folder":"tf","game":"Team Fortress","app_id":440,"player_count":3,"max_players":24,"Bots":0,"server_type":"Dedicated","server_os":"Linux","password":true,"vac":true,"version":"7961495","steam_id":85568392925397851,"keywords":["cp","nocrits","nodmgspread","uncletopia"],"game_id":440,"stv_port":27026,"stv_name":"Uncletopia | Warsaw | 2 | All Maps | STV","players":[{"user_id":41,"name":"39","steam_id":76561199091672937,"connected_time":1403000000000,"state":"active","ping":92},{"user_id":42,"name":"goblin z polských krajin","steam_id":76561198406483941,"connected_time":847000000000,"state":"active","ping":72},{"user_id":43,"name":"stefanbejenari","steam_id":76561199466718294,"connected_time":329000000000,"state":"active","ping":85}]},{"server_id":51,"name":"Uncletopia | Warsaw | 3 | All Maps","name_short":"waw-3","host":"waw-1.pl.uncletopia.com","port":27035,"enabled":true,"region":"eu","cc":"pl","latitude":52.2297,"longitude":21.017532,"reserved":0,"last_update":"0001-01-01T00:00:00Z","name_a2s":"Uncletopia | Warsaw | 3 | All Maps","protocol":17,"map":"koth_lakeside_final","folder":"tf","game":"Team Fortress","app_id":440,"player_count":0,"max_players":24,"Bots":0,"server_type":"Dedicated","server_os":"Linux","password":true,"vac":true,"version":"7961495","steam_id":85568392925397852,"keywords":["cp","nocrits","nodmgspread","uncletopia"],"game_id":440,"stv_port":27036,"stv_name":"Uncletopia | Warsaw | 3 | All Maps | STV","players":null},{"server_id":52,"name":"Uncletopia | Warsaw | 4 | All Maps","name_short":"waw-4","host":"waw-1.pl.uncletopia.com","port":27045,"enabled":true,"region":"eu","cc":"pl","latitude":52.2297,"longitude":21.017532,"reserved":0,"last_update":"0001-01-01T00:00:00Z","name_a2s":"Uncletopia | Warsaw | 4 | All Maps","protocol":17,"map":"pl_upward","folder":"tf","game":"Team Fortress","app_id":440,"player_count":24,"max_players":24,"Bots":0,"server_type":"Dedicated","server_os":"Linux","password":true,"vac":true,"version":"7961495","steam_id":85568392925397853,"keywords":["nocrits","nodmgspread","payload","uncletopia"],"game_id":440,"stv_port":27046,"stv_name":"Uncletopia | Warsaw | 4 | All Maps | STV","players":[{"user_id":85,"name":"white_foxx_","steam_id":76561199142643747,"connected_time":3095000000000,"state":"active","ping":64},{"user_id":89,"name":"Muddii","steam_id":76561198124028045,"connected_time":2533000000000,"state":"active","ping":147},{"user_id":29,"name":"Джекет","steam_id":76561198327897125,"connected_time":7588000000000,"state":"active","ping":102},{"user_id":97,"name":"Huxlqy","steam_id":76561198807591079,"connected_time":1632000000000,"state":"active","ping":116},{"user_id":98,"name":"Polesław","steam_id":76561199063955952,"connected_time":1539000000000,"state":"active","ping":62},{"user_id":82,"name":"PresidencySpirit","steam_id":76561198235159880,"connected_time":3284000000000,"state":"active","ping":75},{"user_id":31,"name":"Juice Box","steam_id":76561199071833454,"connected_time":6569000000000,"state":"active","ping":80},{"user_id":74,"name":"Vyke","steam_id":76561198154810222,"connected_time":3714000000000,"state":"active","ping":35},{"user_id":108,"name":"Sanyaba_08","steam_id":76561199186583687,"connected_time":812000000000,"state":"active","ping":109},{"user_id":73,"name":"Empress of Blades","steam_id":76561198044798583,"connected_time":3741000000000,"state":"active","ping":84},{"user_id":109,"name":"sru308863","steam_id":76561199229647942,"connected_time":811000000000,"state":"active","ping":110},{"user_id":111,"name":"Palkia","steam_id":76561199164395510,"connected_time":647000000000,"state":"active","ping":135},{"user_id":106,"name":"Puhaur","steam_id":76561198404557509,"connected_time":977000000000,"state":"active","ping":71},{"user_id":121,"name":"Cabbch","steam_id":76561198045955679,"connected_time":140000000000,"state":"active","ping":75},{"user_id":84,"name":"not as f2p","steam_id":76561198333850661,"connected_time":3172000000000,"state":"active","ping":74},{"user_id":99,"name":"Benersan the Bread","steam_id":76561198047413192,"connected_time":1457000000000,"state":"active","ping":101},{"user_id":118,"name":"Black Mesa Employee","steam_id":76561198184151394,"connected_time":357000000000,"state":"active","ping":72},{"user_id":119,"name":"@1opgloryboyz","steam_id":76561198046754534,"connected_time":288000000000,"state":"active","ping":105},{"user_id":59,"name":"Filin_Fill","steam_id":76561198044037139,"connected_time":4824000000000,"state":"active","ping":68},{"user_id":110,"name":"Lone Stranger","steam_id":76561198994639500,"connected_time":737000000000,"state":"active","ping":85},{"user_id":114,"name":"klaus","steam_id":76561198150394201,"connected_time":545000000000,"state":"active","ping":69},{"user_id":92,"name":"BGH1009","steam_id":76561198894761820,"connected_time":2220000000000,"state":"active","ping":77},{"user_id":116,"name":"Utkunator","steam_id":76561198967463151,"connected_time":449000000000,"state":"active","ping":106},{"user_id":117,"name":"ILoveMyMom420Blaze","steam_id":76561198981016492,"connected_time":435000000000,"state":"active","ping":50}]},{"server_id":53,"name":"Uncletopia | Warsaw | 5 | Stopwatch","name_short":"waw-5","host":"waw-1.pl.uncletopia.com","port":27055,"enabled":true,"region":"eu","cc":"pl","latitude":52.2297,"longitude":21.017532,"reserved":0,"last_update":"0001-01-01T00:00:00Z","name_a2s":"Uncletopia | Warsaw | 5 | Stopwatch","protocol":17,"map":"workshop/koth_ramjam_rc1.ugc459778887","folder":"tf","game":"Team Fortress","app_id":440,"player_count":0,"max_players":24,"Bots":0,"server_type":"Dedicated","server_os":"Linux","password":true,"vac":true,"version":"7961495","steam_id":85568392925397854,"keywords":["cp","nocrits","nodmgspread","uncletopia"],"game_id":440,"stv_port":27056,"stv_name":"Uncletopia | Warsaw | 5 | Stopwatch | STV","players":null},{"server_id":54,"name":"Uncletopia | Warsaw | 6 | Community","name_short":"waw-6","host":"waw-1.pl.uncletopia.com","port":27065,"enabled":true,"region":"eu","cc":"pl","latitude":52.2297,"longitude":21.017532,"reserved":0,"last_update":"0001-01-01T00:00:00Z","name_a2s":"Uncletopia | Warsaw | 6 | Community","protocol":17,"map":"workshop/koth_kemptown_rc1.ugc767410655","folder":"tf","game":"Team Fortress","app_id":440,"player_count":0,"max_players":24,"Bots":0,"server_type":"Dedicated","server_os":"Linux","password":true,"vac":true,"version":"7961495","steam_id":85568392925397856,"keywords":["cp","nocrits","nodmgspread","uncletopia"],"game_id":440,"stv_port":27066,"stv_name":"Uncletopia | Warsaw | 6 | Community | STV","players":null}]}