{"status":true,"message":"","result":[{"server_id":9,"name":"Uncletopia | Atlanta | 1 | All Maps","name_short":"atl-1","host":"atl-1.us.uncletopia.com","port":27015,"enabled":true,"region":"us-east","cc":"us","latitude":33.753746,"longitude":-84.38633,"reserved":0,"last_update":"0001-01-01T00:00:00Z","name_a2s":"Uncletopia | Atlanta | 1 | All Maps","protocol":17,"map":"cp_mountainlab","folder":"tf","game":"Team Fortress","app_id":440,"player_count":0,"max_players":24,"Bots":0,"server_type":"Dedicated","server_os":"Linux","password":true,"vac":true,"version":"7757534","steam_id":85568392924469982,"keywords":["cp","nocrits","nodmgspread","uncletopia"],"game_id":440,"stv_port":27016,"stv_name":"Uncletopia | Atlanta | 1 | All Maps | STV","players":null},{"server_id":400,"name":"Uncletopia | Atlanta | 3 | Community","name_short":"atl-3","host":"atl-1.us.uncletopia.com","port":27035,"enabled":true,"region":"us-east","cc":"us","latitude":33.753746,"longitude":-84.38633,"reserved":0,"last_update":"0001-01-01T00:00:00Z","name_a2s":"Uncletopia | Atlanta | 3 | Community","protocol":17,"map":"workshop/pl_boundary_final1.ugc456799153","folder":"tf","game":"Team Fortress","app_id":440,"player_count":0,"max_players":24,"Bots":0,"server_type":"Dedicated","server_os":"Linux","password":true,"vac":true,"version":"7757534","steam_id":85568392924515187,"keywords":["nocrits","nodmgspread","payload","uncletopia"],"game_id":440,"stv_port":27036,"stv_name":"Uncletopia | Atlanta | 3 | Community | STV","players":null},{"server_id":401,"name":"Uncletopia | Atlanta | 4 | No Payload","name_short":"atl-4","host":"atl-1.us.uncletopia.com","port":27045,"enabled":true,"region":"us-east","cc":"us","latitude":33.753746,"longitude":-84.38633,"reserved":0,"last_update":"0001-01-01T00:00:00Z","name_a2s":"","protocol":0,"map":"","folder":"","game":"","app_id":0,"player_count":0,"max_players":0,"Bots":0,"server_type":"","server_os":"","password":false,"vac":false,"version":"","steam_id":0,"keywords":null,"game_id":0,"stv_port":0,"stv_name":"","players":null},{"server_id":2,"name":"Uncletopia | Chicago | 1 | All Maps","name_short":"chi-1","host":"chi-1.us.uncletopia.com","port":27015,"enabled":true,"region":"us-central","cc":"us","latitude":41.881832,"longitude":-87.62318,"reserved":0,"last_update":"0001-01-01T00:00:00Z","name_a2s":"Uncletopia | Chicago | 1 | All Maps","protocol":17,"map":"cp_steel","folder":"tf","game":"Team Fortress","app_id":440,"player_count":24,"max_players":24,"Bots":0,"server_type":"Dedicated","server_os":"Linux","password":true,"vac":true,"version":"7757534","steam_id":85568392924469984,"keywords":["cp","nocrits","nodmgspread","uncletopia"],"game_id":440,"stv_port":27016,"stv_name":"Uncletopia | Chicago | 1 | All Maps | STV","players":[{"user_id":5,"name":"chloe","steam_id":76561198369849908,"connected_time":7717000000000,"state":"active","ping":70},{"user_id":77,"name":"Mr. Call You Back","steam_id":76561198025172811,"connected_time":2250000000000,"state":"active","ping":83},{"user_id":96,"name":"Oddball","steam_id":76561198040440984,"connected_time":1354000000000,"state":"active","ping":69},{"user_id":97,"name":"Leviathan","steam_id":76561197997528907,"connected_time":1305000000000,"state":"active","ping":56},{"user_id":104,"name":"momlovie","steam_id":76561198843933742,"connected_time":302000000000,"state":"active","ping":126},{"user_id":29,"name":"RedSock","steam_id":76561198161243404,"connected_time":5075000000000,"state":"active","ping":30},{"user_id":83,"name":"Motreir","steam_id":76561198151717946,"connected_time":2212000000000,"state":"active","ping":79},{"user_id":105,"name":"NerdCuddles","steam_id":76561198078915242,"connected_time":258000000000,"state":"active","ping":56},{"user_id":100,"name":"Big Phony","steam_id":76561199092395311,"connected_time":332000000000,"state":"active","ping":63},{"user_id":67,"name":"rontu","steam_id":76561199072955534,"connected_time":2997000000000,"state":"active","ping":56},{"user_id":101,"name":"Capt. Dominator","steam_id":76561197961154630,"connected_time":331000000000,"state":"active","ping":78},{"user_id":106,"name":"Bastee1021","steam_id":76561199456141163,"connected_time":208000000000,"state":"active","ping":180},{"user_id":89,"name":"Lotad","steam_id":76561199049331265,"connected_time":1971000000000,"state":"active","ping":77},{"user_id":99,"name":"TryX","steam_id":76561199356781475,"connected_time":1100000000000,"state":"active","ping":162},{"user_id":34,"name":"efcegames gg hard","steam_id":76561199274537281,"connected_time":4940000000000,"state":"active","ping":182},{"user_id":71,"name":"Zwahe✟","steam_id":76561198119750206,"connected_time":2614000000000,"state":"active","ping":75},{"user_id":65,"name":"Jailbreak","steam_id":76561198802085218,"connected_time":3073000000000,"state":"active","ping":82},{"user_id":94,"name":"I DECIDE","steam_id":76561198011675372,"connected_time":1500000000000,"state":"active","ping":109},{"user_id":80,"name":"Ris","steam_id":76561198073840980,"connected_time":2239000000000,"state":"active","ping":60},{"user_id":87,"name":"Boo","steam_id":76561199052395729,"connected_time":2072000000000,"state":"active","ping":66},{"user_id":85,"name":"Pixler544","steam_id":76561198240575132,"connected_time":2194000000000,"state":"active","ping":76},{"user_id":50,"name":"Brown_Dream","steam_id":76561198975766145,"connected_time":4377000000000,"state":"active","ping":84},{"user_id":95,"name":"bwehhh","steam_id":76561198354473513,"connected_time":1500000000000,"state":"active","ping":46},{"user_id":102,"name":"mio","steam_id":76561198239286750,"connected_time":330000000000,"state":"active","ping":67}]},{"server_id":106,"name":"Uncletopia | Chicago | 2 | All Maps","name_short":"chi-2","host":"chi-1.us.uncletopia.com","port":27025,"enabled":true,"region":"us-central","cc":"us","latitude":41.881832,"longitude":-87.62318,"reserved":0,"last_update":"0001-01-01T00:00:00Z","name_a2s":"Uncletopia | Chicago | 2 | All Maps","protocol":17,"map":"pl_frontier_final","folder":"tf","game":"Team Fortress","app_id":440,"player_count":24,"max_players":24,"Bots":0,"server_type":"Dedicated","server_os":"Linux","password":true,"vac":true,"version":"7757534","steam_id":85568392924469985,"keywords":["nocrits","nodmgspread","payload","uncletopia"],"game_id":440,"stv_port":27026,"stv_name":"Uncletopia | Chicago | 2 | All Maps | STV","players":[{"user_id":65,"name":"BNTF","steam_id":76561198062740087,"connected_time":1599000000000,"state":"active","ping":75},{"user_id":67,"name":"flat soda","steam_id":76561198074247207,"connected_time":1037000000000,"state":"active","ping":71},{"user_id":66,"name":"Gordon Ramsay","steam_id":76561198123893900,"connected_time":1067000000000,"state":"active","ping":79},{"user_id":13,"name":"el penis","steam_id":76561199389283507,"connected_time":3600000000000,"state":"active","ping":97},{"user_id":68,"name":"Draconic Ballad","steam_id":76561198027191515,"connected_time":960000000000,"state":"active","ping":51},{"user_id":64,"name":"lui","steam_id":76561198332887622,"connected_time":1673000000000,"state":"active","ping":70},{"user_id":18,"name":"es","steam_id":76561198006892337,"connected_time":3248000000000,"state":"active","ping":117},{"user_id":19,"name":"jan kili","steam_id":76561198289894834,"connected_time":3227000000000,"state":"active","ping":63},{"user_id":70,"name":"bobletoob","steam_id":76561199184464900,"connected_time":753000000000,"state":"active","ping":105},{"user_id":69,"name":"Adam (Cursed Confetti Creature)","steam_id":76561198317690197,"connected_time":943000000000,"state":"active","ping":39},{"user_id":53,"name":"FairlyFatFungus","steam_id":76561199152828854,"connected_time":2066000000000,"state":"active","ping":144},{"user_id":72,"name":"worlds richest man","steam_id":76561198028272797,"connected_time":494000000000,"state":"active","ping":70},{"user_id":73,"name":"Shichinitzi","steam_id":76561198003833732,"connected_time":299000000000,"state":"active","ping":54},{"user_id":28,"name":"Female Gamer","steam_id":76561199366482682,"connected_time":3148000000000,"state":"active","ping":111},{"user_id":49,"name":"arrow","steam_id":76561198328109873,"connected_time":2270000000000,"state":"active","ping":74},{"user_id":50,"name":"Slashes","steam_id":76561197968573499,"connected_time":2262000000000,"state":"active","ping":57},{"user_id":32,"name":"Winter the Witchie","steam_id":76561198151971178,"connected_time":3041000000000,"state":"active","ping":52},{"user_id":35,"name":"viper","steam_id":76561198839942937,"connected_time":2937000000000,"state":"active","ping":63},{"user_id":47,"name":"Pendrive","steam_id":76561199427354854,"connected_time":2464000000000,"state":"active","ping":167},{"user_id":58,"name":"O.o","steam_id":76561198056871257,"connected_time":1878000000000,"state":"active","ping":73},{"user_id":55,"name":"biggamerpro","steam_id":76561198309760791,"connected_time":2033000000000,"state":"active","ping":133},{"user_id":74,"name":"conscripted monk","steam_id":76561199029246232,"connected_time":272000000000,"state":"active","ping":73},{"user_id":76,"name":"THESHITRIPPER","steam_id":76561198063099828,"connected_time":208000000000,"state":"active","ping":57},{"user_id":44,"name":"TF2 Scout","steam_id":76561199211023244,"connected_time":2740000000000,"state":"active","ping":182}]},{"server_id":402,"name":"Uncletopia | Chicago | 3 | All Maps","name_short":"chi-3","host":"chi-1.us.uncletopia.com","port":27035,"enabled":true,"region":"us-central","cc":"us","latitude":41.881832,"longitude":-87.62318,"reserved":0,"last_update":"0001-01-01T00:00:00Z","name_a2s":"Uncletopia | Chicago | 3 | All Maps","protocol":17,"map":"koth_cascade","folder":"tf","game":"Team Fortress","app_id":440,"player_count":11,"max_players":24,"Bots":0,"server_type":"Dedicated","server_os":"Linux","password":true,"vac":true,"version":"7757534","steam_id":85568392924515191,"keywords":["cp","nocrits","nodmgspread","uncletopia"],"game_id":440,"stv_port":27036,"stv_name":"Uncletopia | Chicago | 3 | All Maps | STV","players":[{"user_id":18,"name":"NVM!!!","steam_id":76561198432721568,"connected_time":19000000000,"state":"active","ping":72},{"user_id":5,"name":"SL164","steam_id":76561197970800276,"connected_time":433000000000,"state":"active","ping":46},{"user_id":6,"name":"Reedobad","steam_id":76561198259576490,"connected_time":385000000000,"state":"active","ping":57},{"user_id":7,"name":"BIGMONEYZONE","steam_id":76561199160422863,"connected_time":381000000000,"state":"active","ping":122},{"user_id":8,"name":"gritty 2024 (PUB brother)","steam_id":76561198165567310,"connected_time":321000000000,"state":"active","ping":54},{"user_id":9,"name":"sus!","steam_id":76561198202152448,"connected_time":313000000000,"state":"active","ping":59},{"user_id":10,"name":"Huey","steam_id":76561198972816386,"connected_time":302000000000,"state":"active","ping":74},{"user_id":15,"name":"My mommy makes me tea","steam_id":76561198819871606,"connected_time":56000000000,"state":"active","ping":172},{"user_id":19,"name":"Chris","steam_id":76561197970315094,"connected_time":1000000000,"state":"spawning","ping":53},{"user_id":16,"name":"Macro","steam_id":76561199442846226,"connected_time":33000000000,"state":"active","ping":243},{"user_id":17,"name":"Quansen","steam_id":76561198151594550,"connected_time":24000000000,"state":"spawning","ping":50}]},{"server_id":403,"name":"Uncletopia | Chicago | 4 | All Maps","name_short":"chi-4","host":"chi-1.us.uncletopia.com","port":27045,"enabled":true,"region":"us-central","cc":"us","latitude":41.881832,"longitude":-87.62318,"reserved":0,"last_update":"0001-01-01T00:00:00Z","name_a2s":"Uncletopia | Chicago | 4 | All Maps","protocol":17,"map":"pl_swiftwater_final1","folder":"tf","game":"Team Fortress","app_id":440,"player_count":24,"max_players":24,"Bots":0,"server_type":"Dedicated","server_os":"Linux","password":true,"vac":true,"version":"7757534","steam_id":85568392924515193,"keywords":["nocrits","nodmgspread","payload","uncletopia"],"game_id":440,"stv_port":27046,"stv_name":"Uncletopia | Chicago | 4 | All Maps | STV","players":[{"user_id":88,"name":"Zornplays","steam_id":76561199175292302,"connected_time":1949000000000,"state":"active","ping":132},{"user_id":118,"name":"1,000,000 merged Chihuahuas","steam_id":76561198130772096,"connected_time":793000000000,"state":"active","ping":63},{"user_id":85,"name":"Chafn","steam_id":76561197969386702,"connected_time":2185000000000,"state":"active","ping":107},{"user_id":90,"name":"hoOmIN","steam_id":76561198334947079,"connected_time":1735000000000,"state":"active","ping":88},{"user_id":117,"name":"☼  YOUVE BEEN HOODWINKED BABY","steam_id":76561198074180953,"connected_time":913000000000,"state":"active","ping":69},{"user_id":92,"name":"Goat","steam_id":76561198068447650,"connected_time":1704000000000,"state":"active","ping":65},{"user_id":94,"name":"im using tilt controls!","steam_id":76561198295690725,"connected_time":1547000000000,"state":"active","ping":68},{"user_id":95,"name":"Jester","steam_id":76561198153102922,"connected_time":1491000000000,"state":"active","ping":75},{"user_id":96,"name":"killswitch","steam_id":76561199243229769,"connected_time":1488000000000,"state":"active","ping":51},{"user_id":97,"name":"JelloMotion","steam_id":76561198045892038,"connected_time":1485000000000,"state":"active","ping":60},{"user_id":98,"name":"vacuum cleaner","steam_id":76561198073474255,"connected_time":1476000000000,"state":"active","ping":74},{"user_id":99,"name":"AutisticMOFO","steam_id":76561198428723559,"connected_time":1470000000000,"state":"active","ping":69},{"user_id":100,"name":"Focus On God","steam_id":76561198047136927,"connected_time":1463000000000,"state":"active","ping":60},{"user_id":101,"name":"Mirari","steam_id":76561198126889358,"connected_time":1448000000000,"state":"active","ping":85},{"user_id":116,"name":"bulletsponge","steam_id":76561199142072298,"connected_time":1021000000000,"state":"active","ping":160},{"user_id":119,"name":"Carson","steam_id":76561198076771071,"connected_time":643000000000,"state":"active","ping":45},{"user_id":104,"name":"Censing Auto, The Challenger","steam_id":76561198060926681,"connected_time":1419000000000,"state":"active","ping":62},{"user_id":114,"name":"theholyhealer99","steam_id":76561199045905872,"connected_time":1148000000000,"state":"active","ping":53},{"user_id":106,"name":"CulperRing","steam_id":76561198556615605,"connected_time":1417000000000,"state":"active","ping":79},{"user_id":107,"name":"dinguskun","steam_id":76561199264132508,"connected_time":1391000000000,"state":"active","ping":130},{"user_id":110,"name":"The Lonely Croc","steam_id":76561198123241396,"connected_time":1347000000000,"state":"active","ping":84},{"user_id":111,"name":"Quakedad","steam_id":76561198055811307,"connected_time":1343000000000,"state":"active","ping":135},{"user_id":112,"name":"dog","steam_id":76561198263873491,"connected_time":1336000000000,"state":"active","ping":45},{"user_id":113,"name":"shinon","steam_id":76561198373626848,"connected_time":1319000000000,"state":"active","ping":80}]},{"server_id":36,"name":"Uncletopia | Chicago | 5 | All Maps","name_short":"chi-5","host":"chi-2.us.uncletopia.com","port":27015,"enabled":true,"region":"us-central","cc":"us","latitude":41.881832,"longitude":-87.62318,"reserved":0,"last_update":"0001-01-01T00:00:00Z","name_a2s":"Uncletopia | Chicago | 5 | All Maps","protocol":17,"map":"koth_lakeside_final","folder":"tf","game":"Team Fortress","app_id":440,"player_count":0,"max_players":24,"Bots":0,"server_type":"Dedicated","server_os":"Linux","password":true,"vac":true,"version":"7757534","steam_id":85568392924866362,"keywords":["cp","nocrits","nodmgspread","uncletopia"],"game_id":440,"stv_port":27016,"stv_name":"Uncletopia | Chicago | 5 | All Maps | STV","players":null},{"server_id":37,"name":"Uncletopia | Chicago | 6 | All Maps","name_short":"chi-6","host":"chi-2.us.uncletopia.com","port":27025,"enabled":true,"region":"us-central","cc":"us","latitude":41.881832,"longitude":-87.62318,"reserved":0,"last_update":"0001-01-01T00:00:00Z","name_a2s":"Uncletopia | Chicago | 6 | All Maps","protocol":17,"map":"cp_dustbowl","folder":"tf","game":"Team Fortress","app_id":440,"player_count":0,"max_players":24,"Bots":0,"server_type":"Dedicated","server_os":"Linux","password":true,"vac":true,"version":"7757534","steam_id":85568392924866363,"keywords":["cp","nocrits","nodmgspread","uncletopia"],"game_id":440,"stv_port":27026,"stv_name":"Uncletopia | Chicago | 6 | All Maps | STV","players":null},{"server_id":38,"name":"Uncletopia | Chicago | 7 | Stopwatch Beta","name_short":"chi-7","host":"chi-2.us.uncletopia.com","port":27035,"enabled":true,"region":"us-central","cc":"us","latitude":41.881832,"longitude":-87.62318,"reserved":0,"last_update":"0001-01-01T00:00:00Z","name_a2s":"Uncletopia | Chicago | 7 | Stopwatch Beta","protocol":17,"map":"koth_viaduct","folder":"tf","game":"Team Fortress","app_id":440,"player_count":0,"max_players":24,"Bots":0,"server_type":"Dedicated","server_os":"Linux","password":true,"vac":true,"version":"7757534","steam_id":85568392924866364,"keywords":["cp","nocrits","nodmgspread","uncletopia"],"game_id":440,"stv_port":27036,"stv_name":"Uncletopia | Chicago | 7 | Stopwatch Beta | STV","players":null},{"server_id":39,"name":"Uncletopia | Chicago | 8 | Community","name_short":"chi-8","host":"chi-2.us.uncletopia.com","port":27045,"enabled":true,"region":"us-central","cc":"us","latitude":41.881832,"longitude":-87.62318,"reserved":0,"last_update":"0001-01-01T00:00:00Z","name_a2s":"Uncletopia | Chicago | 8 | Community","protocol":17,"map":"koth_lakeside_final","folder":"tf","game":"Team Fortress","app_id":440,"player_count":0,"max_players":24,"Bots":0,"server_type":"Dedicated","server_os":"Linux","password":true,"vac":true,"version":"7757534","steam_id":85568392924866365,"keywords":["cp","nocrits","nodmgspread","uncletopia"],"game_id":440,"stv_port":27046,"stv_name":"Uncletopia | Chicago | 8 | Community | STV","players":null},{"server_id":8,"name":"Uncletopia | Dallas | 1 | All Maps","name_short":"dal-1","host":"dal-1.us.uncletopia.com","port":27015,"enabled":true,"region":"us-central","cc":"us","latitude":32.779167,"longitude":-96.80889,"reserved":0,"last_update":"0001-01-01T00:00:00Z","name_a2s":"Uncletopia | Dallas | 1 | All Maps","protocol":17,"map":"pl_snowycoast","folder":"tf","game":"Team Fortress","app_id":440,"player_count":0,"max_players":24,"Bots":0,"server_type":"Dedicated","server_os":"Linux","password":true,"vac":true,"version":"7757534","steam_id":85568392924469986,"keywords":["nocrits","nodmgspread","payload","uncletopia"],"game_id":440,"stv_port":27016,"stv_name":"Uncletopia | Dallas | 1 | All Maps | STV","players":null},{"server_id":108,"name":"Uncletopia | Dallas | 2 | All Maps","name_short":"dal-2","host":"dal-1.us.uncletopia.com","port":27025,"enabled":true,"region":"us-central","cc":"us","latitude":32.779167,"longitude":-96.80889,"reserved":0,"last_update":"0001-01-01T00:00:00Z","name_a2s":"Uncletopia | Dallas | 2 | All Maps","protocol":17,"map":"cp_altitude","folder":"tf","game":"Team Fortress","app_id":440,"player_count":0,"max_players":24,"Bots":0,"server_type":"Dedicated","server_os":"Linux","password":true,"vac":true,"version":"7757534","steam_id":85568392924469988,"keywords":["cp","nocrits","nodmgspread","uncletopia"],"game_id":440,"stv_port":27026,"stv_name":"Uncletopia | Dallas | 2 | All Maps | STV","players":null},{"server_id":5,"name":"Uncletopia | Frankfurt | 1 | All Maps","name_short":"frk-1","host":"frk-1.de.uncletopia.com","port":27015,"enabled":true,"region":"eu","cc":"de","latitude":50.110924,"longitude":8.682127,"reserved":0,"last_update":"0001-01-01T00:00:00Z","name_a2s":"Uncletopia | Frankfurt | 1 | All Maps","protocol":17,"map":"pl_barnblitz","folder":"tf","game":"Team Fortress","app_id":440,"player_count":24,"max_players":24,"Bots":0,"server_type":"Dedicated","server_os":"Linux","password":true,"vac":true,"version":"7757534","steam_id":85568392924469989,"keywords":["nocrits","nodmgspread","payload","uncletopia"],"game_id":440,"stv_port":27016,"stv_name":"Uncletopia | Frankfurt | 1 | All Maps | STV","players":[{"user_id":313,"name":"jerf","steam_id":76561199213901239,"connected_time":3221000000000,"state":"active","ping":59},{"user_id":322,"name":"Shruk","steam_id":76561198126398022,"connected_time":2017000000000,"state":"active","ping":73},{"user_id":331,"name":"ghost","steam_id":76561198189940229,"connected_time":580000000000,"state":"active","ping":55},{"user_id":302,"name":"pablo","steam_id":76561198002913482,"connected_time":3886000000000,"state":"active","ping":114},{"user_id":330,"name":"Potat Master |Potato Industries","steam_id":76561199112380553,"connected_time":611000000000,"state":"active","ping":86},{"user_id":280,"name":"barni","steam_id":76561198170420173,"connected_time":5143000000000,"state":"active","ping":84},{"user_id":326,"name":"Wario","steam_id":76561198356089255,"connected_time":1488000000000,"state":"active","ping":60},{"user_id":325,"name":"gta_sa","steam_id":76561199433578516,"connected_time":1790000000000,"state":"active","ping":85},{"user_id":291,"name":"Lexios","steam_id":76561198079780864,"connected_time":4319000000000,"state":"active","ping":57},{"user_id":328,"name":"Jerome","steam_id":76561198100464640,"connected_time":730000000000,"state":"active","ping":138},{"user_id":323,"name":"lyudmilakh","steam_id":76561198362779878,"connected_time":1989000000000,"state":"active","ping":89},{"user_id":289,"name":"Guy with squares as username","steam_id":76561198269524918,"connected_time":4340000000000,"state":"active","ping":62},{"user_id":300,"name":"cazador","steam_id":76561198123096922,"connected_time":4064000000000,"state":"active","ping":114},{"user_id":203,"name":"Kyon","steam_id":76561198024098353,"connected_time":10356000000000,"state":"active","ping":142},{"user_id":292,"name":"MattyCzek","steam_id":76561198881990395,"connected_time":4313000000000,"state":"active","ping":73},{"user_id":311,"name":"Deacon Dracul","steam_id":76561198046880663,"connected_time":3274000000000,"state":"active","ping":98},{"user_id":312,"name":"Marcos","steam_id":76561198798925721,"connected_time":3252000000000,"state":"active","ping":72},{"user_id":332,"name":"dAg","steam_id":76561198047819527,"connected_time":546000000000,"state":"active","ping":116},{"user_id":299,"name":"After8","steam_id":76561198090750865,"connected_time":4149000000000,"state":"active","ping":62},{"user_id":333,"name":"hourglass","steam_id":76561198166613799,"connected_time":21000000000,"state":"spawning","ping":88},{"user_id":318,"name":"cracker","steam_id":76561198062107879,"connected_time":2135000000000,"state":"active","ping":76},{"user_id":324,"name":"dob:cob","steam_id":76561198253323044,"connected_time":1917000000000,"state":"active","ping":73},{"user_id":282,"name":"nvs","steam_id":76561198120668070,"connected_time":4704000000000,"state":"active","ping":60},{"user_id":329,"name":"xelez","steam_id":76561198052199492,"connected_time":659000000000,"state":"active","ping":141}]},{"server_id":110,"name":"Uncletopia | Frankfurt | 2 | All Maps","name_short":"frk-2","host":"frk-1.de.uncletopia.com","port":27025,"enabled":true,"region":"eu","cc":"de","latitude":50.110924,"longitude":8.682127,"reserved":0,"last_update":"0001-01-01T00:00:00Z","name_a2s":"Uncletopia | Frankfurt | 2 | All Maps","protocol":17,"map":"pl_frontier_final","folder":"tf","game":"Team Fortress","app_id":440,"player_count":24,"max_players":24,"Bots":0,"server_type":"Dedicated","server_os":"Linux","password":true,"vac":true,"version":"7757534","steam_id":85568392924469990,"keywords":["nocrits","nodmgspread","payload","uncletopia"],"game_id":440,"stv_port":27026,"stv_name":"Uncletopia | Frankfurt | 2 | All Maps | STV","players":[{"user_id":767,"name":"overpriced pitogyro","steam_id":76561199103991437,"connected_time":3681000000000,"state":"active","ping":90},{"user_id":776,"name":"dominus.","steam_id":76561199065917088,"connected_time":2658000000000,"state":"active","ping":68},{"user_id":798,"name":"Persic","steam_id":76561197997828319,"connected_time":1418000000000,"state":"active","ping":75},{"user_id":809,"name":"Goom's guard","steam_id":76561198126634202,"connected_time":717000000000,"state":"active","ping":76},{"user_id":812,"name":"nachtraaf","steam_id":76561197960473205,"connected_time":501000000000,"state":"active","ping":56},{"user_id":814,"name":"I was good before.","steam_id":76561198187045217,"connected_time":297000000000,"state":"active","ping":74},{"user_id":785,"name":"Jendos","steam_id":76561198026471272,"connected_time":1863000000000,"state":"active","ping":105},{"user_id":795,"name":"Langers","steam_id":76561198046966693,"connected_time":1472000000000,"state":"active","ping":60},{"user_id":806,"name":"Piek","steam_id":76561199212421275,"connected_time":1146000000000,"state":"active","ping":58},{"user_id":807,"name":"Flostro","steam_id":76561198259793697,"connected_time":1100000000000,"state":"active","ping":60},{"user_id":800,"name":"truly rare balls inspector","steam_id":76561198315772174,"connected_time":1394000000000,"state":"active","ping":72},{"user_id":783,"name":"dochris.2","steam_id":76561198026478625,"connected_time":2496000000000,"state":"active","ping":44},{"user_id":780,"name":"Raivop","steam_id":76561197980854307,"connected_time":2605000000000,"state":"active","ping":96},{"user_id":794,"name":"...","steam_id":76561198969234594,"connected_time":1551000000000,"state":"active","ping":66},{"user_id":691,"name":"Syd","steam_id":76561198020515027,"connected_time":3761000000000,"state":"active","ping":76},{"user_id":602,"name":"beanie_snail","steam_id":76561199111476299,"connected_time":3852000000000,"state":"active","ping":61},{"user_id":784,"name":"Miatthew","steam_id":76561198034102895,"connected_time":2139000000000,"state":"active","ping":61},{"user_id":808,"name":"Gromov","steam_id":76561198407644131,"connected_time":780000000000,"state":"active","ping":74},{"user_id":811,"name":"j o n","steam_id":76561199229511741,"connected_time":551000000000,"state":"active","ping":70},{"user_id":473,"name":"sareena","steam_id":76561198810194062,"connected_time":4184000000000,"state":"active","ping":79},{"user_id":813,"name":"yeh","steam_id":76561198061197114,"connected_time":339000000000,"state":"active","ping":63},{"user_id":670,"name":"Solu","steam_id":76561198054652468,"connected_time":3777000000000,"state":"active","ping":52},{"user_id":431,"name":"karcia","steam_id":76561198045538788,"connected_time":4688000000000,"state":"active","ping":75},{"user_id":805,"name":"Kapitan Polska","steam_id":76561197968069413,"connected_time":1281000000000,"state":"active","ping":72}]},{"server_id":308,"name":"Uncletopia | Frankfurt | 3 | All Maps","name_short":"frk-3","host":"frk-1.de.uncletopia.com","port":27035,"enabled":true,"region":"eu","cc":"de","latitude":50.110924,"longitude":8.682127,"reserved":0,"last_update":"0001-01-01T00:00:00Z","name_a2s":"Uncletopia | Frankfurt | 3 | All Maps","protocol":17,"map":"koth_harvest_final","folder":"tf","game":"Team Fortress","app_id":440,"player_count":24,"max_players":24,"Bots":0,"server_type":"Dedicated","server_os":"Linux","password":true,"vac":true,"version":"7757534","steam_id":85568392924504274,"keywords":["cp","nocrits","nodmgspread","uncletopia"],"game_id":440,"stv_port":27036,"stv_name":"Uncletopia | Frankfurt | 3 | All Maps | STV","players":[{"user_id":154,"name":"biggest dark souls 2 hater","steam_id":76561198055389492,"connected_time":176000000000,"state":"active","ping":54},{"user_id":111,"name":"Osmo","steam_id":76561199286764992,"connected_time":3484000000000,"state":"active","ping":74},{"user_id":110,"name":"night.s","steam_id":76561198326287823,"connected_time":3583000000000,"state":"active","ping":68},{"user_id":152,"name":"cloud","steam_id":76561198179768931,"connected_time":205000000000,"state":"active","ping":50},{"user_id":147,"name":"No,Why?","steam_id":76561198888755969,"connected_time":344000000000,"state":"active","ping":77},{"user_id":61,"name":"Mugelzz","steam_id":76561198048528709,"connected_time":7993000000000,"state":"active","ping":102},{"user_id":133,"name":"spearfishNL","steam_id":76561199077022985,"connected_time":2089000000000,"state":"active","ping":55},{"user_id":134,"name":"Marco","steam_id":76561198327333965,"connected_time":2011000000000,"state":"active","ping":62},{"user_id":143,"name":"galaxy","steam_id":76561198164819022,"connected_time":858000000000,"state":"active","ping":68},{"user_id":153,"name":"Kan0_","steam_id":76561198129596771,"connected_time":184000000000,"state":"active","ping":59},{"user_id":148,"name":"result","steam_id":76561198269200388,"connected_time":323000000000,"state":"active","ping":74},{"user_id":79,"name":"Silent Person","steam_id":76561198107763537,"connected_time":7119000000000,"state":"active","ping":77},{"user_id":151,"name":"guys? guys?","steam_id":76561198157749464,"connected_time":225000000000,"state":"active","ping":75},{"user_id":137,"name":"TeaFlavouredCoffee","steam_id":76561198925306032,"connected_time":1922000000000,"state":"active","ping":68},{"user_id":156,"name":"Ander Escobar","steam_id":76561198335366902,"connected_time":14000000000,"state":"spawning","ping":86},{"user_id":155,"name":"?","steam_id":76561198267167505,"connected_time":176000000000,"state":"active","ping":75},{"user_id":85,"name":"Trash Cortex","steam_id":76561198991110334,"connected_time":5896000000000,"state":"active","ping":64},{"user_id":131,"name":"Wir suchen dich!","steam_id":76561198307613521,"connected_time":2454000000000,"state":"active","ping":46},{"user_id":86,"name":"Noob_with_source","steam_id":76561198870362103,"connected_time":5866000000000,"state":"active","ping":62},{"user_id":39,"name":"Dor_atar","steam_id":76561198973980542,"connected_time":9499000000000,"state":"active","ping":68},{"user_id":125,"name":"Ted Kaczynski","steam_id":76561198064795519,"connected_time":3253000000000,"state":"active","ping":76},{"user_id":128,"name":"addicted","steam_id":76561199129801006,"connected_time":2647000000000,"state":"active","ping":45},{"user_id":123,"name":"Loyde","steam_id":76561198029919524,"connected_time":3307000000000,"state":"active","ping":99},{"user_id":124,"name":"Dreamstate","steam_id":76561198798566681,"connected_time":3296000000000,"state":"active","ping":72}]},{"server_id":309,"name":"Uncletopia | Frankfurt | 4 | All Maps","name_short":"frk-4","host":"frk-1.de.uncletopia.com","port":27045,"enabled":true,"region":"eu","cc":"de","latitude":50.110924,"longitude":8.682127,"reserved":0,"last_update":"0001-01-01T00:00:00Z","name_a2s":"Uncletopia | Frankfurt | 4 | All Maps","protocol":17,"map":"plr_hightower","folder":"tf","game":"Team Fortress","app_id":440,"player_count":1,"max_players":24,"Bots":0,"server_type":"Dedicated","server_os":"Linux","password":true,"vac":true,"version":"7757534","steam_id":85568392924504275,"keywords":["nocrits","nodmgspread","payload","uncletopia"],"game_id":440,"stv_port":27046,"stv_name":"Uncletopia | Frankfurt | 4 | All Maps | STV","players":[{"user_id":17,"name":"AwZooom","steam_id":76561198154061149,"connected_time":218000000000,"state":"active","ping":41}]},{"server_id":310,"name":"Uncletopia | Frankfurt | 5 | All Maps","name_short":"frk-5","host":"frk-1.de.uncletopia.com","port":27055,"enabled":true,"region":"eu","cc":"de","latitude":50.110924,"longitude":8.682127,"reserved":0,"last_update":"0001-01-01T00:00:00Z","name_a2s":"Uncletopia | Frankfurt | 5 | All Maps","protocol":17,"map":"koth_lakeside_final","folder":"tf","game":"Team Fortress","app_id":440,"player_count":0,"max_players":24,"Bots":0,"server_type":"Dedicated","server_os":"Linux","password":true,"vac":true,"version":"7757534","steam_id":85568392924504277,"keywords":["cp","nocrits","nodmgspread","uncletopia"],"game_id":440,"stv_port":27056,"stv_name":"Uncletopia | Frankfurt | 5 | All Maps | STV","players":null},{"server_id":311,"name":"Uncletopia | Frankfurt | 6 | All Maps","name_short":"frk-6","host":"frk-1.de.uncletopia.com","port":27065,"enabled":true,"region":"eu","cc":"de","latitude":50.110924,"longitude":8.682127,"reserved":0,"last_update":"0001-01-01T00:00:00Z","name_a2s":"Uncletopia | Frankfurt | 6 | All Maps","protocol":17,"map":"pl_upward","folder":"tf","game":"Team Fortress","app_id":440,"player_count":23,"max_players":24,"Bots":0,"server_type":"Dedicated","server_os":"Linux","password":true,"vac":true,"version":"7757534","steam_id":85568392924504278,"keywords":["nocrits","nodmgspread","payload","uncletopia"],"game_id":440,"stv_port":27066,"stv_name":"Uncletopia | Frankfurt | 6 | All Maps | STV","players":[{"user_id":229,"name":"walluu","steam_id":76561198121830870,"connected_time":2976000000000,"state":"active","ping":64},{"user_id":226,"name":"Optimist 50","steam_id":76561198039631442,"connected_time":3127000000000,"state":"active","ping":71},{"user_id":273,"name":"EGirl | Klarra","steam_id":76561198077745407,"connected_time":43000000000,"state":"active","ping":64},{"user_id":209,"name":"Samplee","steam_id":76561198063406140,"connected_time":4610000000000,"state":"active","ping":74},{"user_id":214,"name":"Ablativus","steam_id":76561198025698470,"connected_time":4402000000000,"state":"active","ping":63},{"user_id":221,"name":"gfjhsdf","steam_id":76561198136736426,"connected_time":3205000000000,"state":"active","ping":50},{"user_id":255,"name":"nyanezt","steam_id":76561198253734265,"connected_time":1483000000000,"state":"active","ping":104},{"user_id":274,"name":"kotamine","steam_id":76561198068907991,"connected_time":9000000000,"state":"active","ping":93},{"user_id":258,"name":"Pingu","steam_id":76561198207966532,"connected_time":1053000000000,"state":"active","ping":63},{"user_id":201,"name":"Littleyoshifan","steam_id":76561198445491045,"connected_time":5304000000000,"state":"active","ping":55},{"user_id":270,"name":"twitch.tv/rudy_karma","steam_id":76561198349348738,"connected_time":177000000000,"state":"active","ping":52},{"user_id":267,"name":"nori","steam_id":76561198099077097,"connected_time":449000000000,"state":"active","ping":76},{"user_id":272,"name":"Chicote","steam_id":76561198054689637,"connected_time":107000000000,"state":"connecting","ping":103},{"user_id":244,"name":"Rezkey","steam_id":76561198206079048,"connected_time":2176000000000,"state":"active","ping":54},{"user_id":257,"name":"poy","steam_id":76561198114063534,"connected_time":1293000000000,"state":"active","ping":41},{"user_id":239,"name":"lemao","steam_id":76561198058366676,"connected_time":2533000000000,"state":"spawning","ping":77},{"user_id":252,"name":"gGABEsz","steam_id":76561198117199068,"connected_time":1831000000000,"state":"active","ping":61},{"user_id":206,"name":"ID3NTITY???????????CRISIS/003","steam_id":76561197994492154,"connected_time":4846000000000,"state":"active","ping":61},{"user_id":264,"name":"Doctor Lalve","steam_id":76561198011897357,"connected_time":785000000000,"state":"active","ping":94},{"user_id":253,"name":"MerlinMelon","steam_id":76561198131601158,"connected_time":1797000000000,"state":"active","ping":85},{"user_id":266,"name":"Dicartal","steam_id":76561198295793592,"connected_time":728000000000,"state":"spawning","ping":139},{"user_id":254,"name":"Sca◇","steam_id":76561198172681269,"connected_time":1781000000000,"state":"active","ping":84},{"user_id":262,"name":"house","steam_id":76561198055283295,"connected_time":826000000000,"state":"active","ping":42}]},{"server_id":23,"name":"Uncletopia | Frankfurt | 7 | Stopwatch Beta","name_short":"frk-7","host":"frk-1.de.uncletopia.com","port":27075,"enabled":true,"region":"eu","cc":"de","latitude":50.110924,"longitude":8.682127,"reserved":0,"last_update":"0001-01-01T00:00:00Z","name_a2s":"Uncletopia | Frankfurt | 7 | Stopwatch Beta","protocol":17,"map":"pl_borneo","folder":"tf","game":"Team Fortress","app_id":440,"player_count":0,"max_players":24,"Bots":0,"server_type":"Dedicated","server_os":"Linux","password":true,"vac":true,"version":"7757534","steam_id":85568392924742827,"keywords":["nocrits","nodmgspread","payload","uncletopia"],"game_id":440,"stv_port":27076,"stv_name":"Uncletopia | Frankfurt | 7 | Stopwatch Beta | STV","players":null},{"server_id":24,"name":"Uncletopia | Frankfurt | 8 | Community","name_short":"frk-8","host":"frk-1.de.uncletopia.com","port":27085,"enabled":true,"region":"eu","cc":"de","latitude":50.110924,"longitude":8.682127,"reserved":0,"last_update":"0001-01-01T00:00:00Z","name_a2s":"Uncletopia | Frankfurt | 8 | Community","protocol":17,"map":"workshop/cp_kalinka_rc6a.ugc1272700588","folder":"tf","game":"Team Fortress","app_id":440,"player_count":0,"max_players":24,"Bots":0,"server_type":"Dedicated","server_os":"Linux","password":true,"vac":true,"version":"7757534","steam_id":85568392924742828,"keywords":["cp","nocrits","nodmgspread","uncletopia"],"game_id":440,"stv_port":27086,"stv_name":"Uncletopia | Frankfurt | 8 | Community | STV","players":null},{"server_id":202,"name":"Uncletopia | Hong Kong | 1 | All Maps","name_short":"hgk-1","host":"hgk-1.hk.uncletopia.com","port":27015,"enabled":true,"region":"asia","cc":"hk","latitude":22.302711,"longitude":114.177216,"reserved":0,"last_update":"0001-01-01T00:00:00Z","name_a2s":"Uncletopia | Hong Kong | 1 | All Maps","protocol":17,"map":"cp_dustbowl","folder":"tf","game":"Team Fortress","app_id":440,"player_count":0,"max_players":24,"Bots":0,"server_type":"Dedicated","server_os":"Linux","password":true,"vac":true,"version":"7757534","steam_id":85568392924494504,"keywords":["cp","nocrits","nodmgspread","uncletopia"],"game_id":440,"stv_port":27016,"stv_name":"Uncletopia | Hong Kong | 1 | All Maps | STV","players":null},{"server_id":1,"name":"Uncletopia | Los Angeles | 1 | All Maps","name_short":"lax-1","host":"lax-1.us.uncletopia.com","port":27015,"enabled":true,"region":"us-west","cc":"us","latitude":33.94279,"longitude":-118.41004,"reserved":0,"last_update":"0001-01-01T00:00:00Z","name_a2s":"Uncletopia | Los Angeles | 1 | All Maps","protocol":17,"map":"cp_process_final","folder":"tf","game":"Team Fortress","app_id":440,"player_count":0,"max_players":24,"Bots":0,"server_type":"Dedicated","server_os":"Linux","password":true,"vac":true,"version":"7757534","steam_id":85568392924469991,"keywords":["cp","nocrits","nodmgspread","uncletopia"],"game_id":440,"stv_port":27016,"stv_name":"Uncletopia | Los Angeles | 1 | All Maps | STV","players":null},{"server_id":112,"name":"Uncletopia | Los Angeles | 2 | All Maps","name_short":"lax-2","host":"lax-1.us.uncletopia.com","port":27025,"enabled":true,"region":"us-west","cc":"us","latitude":33.94279,"longitude":-118.41004,"reserved":0,"last_update":"0001-01-01T00:00:00Z","name_a2s":"Uncletopia | Los Angeles | 2 | All Maps","protocol":17,"map":"koth_viaduct","folder":"tf","game":"Team Fortress","app_id":440,"player_count":0,"max_players":24,"Bots":0,"server_type":"Dedicated","server_os":"Linux","password":true,"vac":true,"version":"7757534","steam_id":85568392924469992,"keywords":["cp","nocrits","nodmgspread","uncletopia"],"game_id":440,"stv_port":27026,"stv_name":"Uncletopia | Los Angeles | 2 | All Maps | STV","players":null},{"server_id":324,"name":"Uncletopia | Los Angeles | 3 | All Maps","name_short":"lax-3","host":"lax-1.us.uncletopia.com","port":27035,"enabled":true,"region":"us-west","cc":"us","latitude":33.94279,"longitude":-118.41004,"reserved":0,"last_update":"0001-01-01T00:00:00Z","name_a2s":"Uncletopia | Los Angeles | 3 | All Maps","protocol":17,"map":"cp_altitude","folder":"tf","game":"Team Fortress","app_id":440,"player_count":0,"max_players":24,"Bots":0,"server_type":"Dedicated","server_os":"Linux","password":true,"vac":true,"version":"7757534","steam_id":85568392924510198,"keywords":["cp","nocrits","nodmgspread","uncletopia"],"game_id":440,"stv_port":27036,"stv_name":"Uncletopia | Los Angeles | 3 | All Maps | STV","players":null},{"server_id":25,"name":"Uncletopia | Los Angeles | 4 | Stopwatch Beta","name_short":"lax-4","host":"lax-1.us.uncletopia.com","port":27045,"enabled":true,"region":"us-west","cc":"us","latitude":33.94279,"longitude":-118.41004,"reserved":0,"last_update":"0001-01-01T00:00:00Z","name_a2s":"Uncletopia | Los Angeles | 4 | Stopwatch Beta","protocol":17,"map":"cp_dustbowl","folder":"tf","game":"Team Fortress","app_id":440,"player_count":0,"max_players":24,"Bots":0,"server_type":"Dedicated","server_os":"Linux","password":true,"vac":true,"version":"7757534","steam_id":85568392924510199,"keywords":["cp","nocrits","nodmgspread","uncletopia"],"game_id":440,"stv_port":27046,"stv_name":"Uncletopia | Los Angeles | 4 | Stopwatch Beta | STV","players":null},{"server_id":11,"name":"Uncletopia | London | 1 | All Maps","name_short":"lon-1","host":"lon-1.uk.uncletopia.com","port":27015,"enabled":true,"region":"eu","cc":"gb","latitude":51.509865,"longitude":-0.118092,"reserved":0,"last_update":"0001-01-01T00:00:00Z","name_a2s":"Uncletopia | London | 1 | All Maps","protocol":17,"map":"pl_badwater","folder":"tf","game":"Team Fortress","app_id":440,"player_count":24,"max_players":24,"Bots":0,"server_type":"Dedicated","server_os":"Linux","password":true,"vac":true,"version":"7757534","steam_id":85568392924367362,"keywords":["nocrits","nodmgspread","payload","uncletopia"],"game_id":440,"stv_port":27016,"stv_name":"Uncletopia | London | 1 | All Maps | STV","players":[{"user_id":88,"name":"MEDiUM","steam_id":76561198112328561,"connected_time":2360000000000,"state":"active","ping":89},{"user_id":107,"name":"Tywhip","steam_id":76561199207545191,"connected_time":283000000000,"state":"active","ping":56},{"user_id":96,"name":"Mancubruh BRUB 046","steam_id":76561199158803718,"connected_time":1554000000000,"state":"active","ping":54},{"user_id":21,"name":"SoupER","steam_id":76561198063056668,"connected_time":4729000000000,"state":"active","ping":43},{"user_id":109,"name":"Exodeliwood HUNTING SENPAI","steam_id":76561198102579647,"connected_time":261000000000,"state":"active","ping":109},{"user_id":108,"name":"Bilbo Ballbaggins","steam_id":76561198070593514,"connected_time":274000000000,"state":"active","ping":64},{"user_id":99,"name":"Josh","steam_id":76561198155863376,"connected_time":1127000000000,"state":"active","ping":53},{"user_id":101,"name":"KNARRER","steam_id":76561199130777953,"connected_time":839000000000,"state":"active","ping":58},{"user_id":80,"name":"Incomprehensible","steam_id":76561198305808645,"connected_time":2823000000000,"state":"active","ping":58},{"user_id":84,"name":"JOHN GAMING (based)","steam_id":76561199085822219,"connected_time":2469000000000,"state":"active","ping":89},{"user_id":110,"name":"CiVillain","steam_id":76561198059617732,"connected_time":253000000000,"state":"active","ping":74},{"user_id":111,"name":"Denialman (Muted)","steam_id":76561198309182092,"connected_time":227000000000,"state":"active","ping":69},{"user_id":70,"name":"LordTrap.exe","steam_id":76561198318089716,"connected_time":3121000000000,"state":"active","ping":47},{"user_id":112,"name":"HeroldBaum","steam_id":76561198063420715,"connected_time":224000000000,"state":"active","ping":60},{"user_id":89,"name":"123","steam_id":76561198113733477,"connected_time":2309000000000,"state":"active","ping":56},{"user_id":105,"name":"leminsc8","steam_id":76561198825084995,"connected_time":471000000000,"state":"active","ping":47},{"user_id":42,"name":"I-I","steam_id":76561198267969436,"connected_time":4167000000000,"state":"active","ping":70},{"user_id":86,"name":"xd","steam_id":76561198066523881,"connected_time":2396000000000,"state":"active","ping":62},{"user_id":106,"name":"kim-il-sung","steam_id":76561199142566560,"connected_time":305000000000,"state":"active","ping":37},{"user_id":75,"name":"Españaa","steam_id":76561198879587832,"connected_time":2959000000000,"state":"active","ping":78},{"user_id":113,"name":"Sim","steam_id":76561198086641180,"connected_time":218000000000,"state":"active","ping":95},{"user_id":97,"name":"Rambi","steam_id":76561199058078505,"connected_time":1197000000000,"state":"active","ping":164},{"user_id":94,"name":"shr1mple","steam_id":76561198173537027,"connected_time":1695000000000,"state":"active","ping":45},{"user_id":103,"name":"blindcinema_","steam_id":76561198026908105,"connected_time":603000000000,"state":"active","ping":75}]},{"server_id":114,"name":"Uncletopia | London | 2 | All Maps","name_short":"lon-2","host":"lon-1.uk.uncletopia.com","port":27025,"enabled":true,"region":"eu","cc":"gb","latitude":51.509865,"longitude":-0.118092,"reserved":0,"last_update":"0001-01-01T00:00:00Z","name_a2s":"Uncletopia | London | 2 | All Maps","protocol":17,"map":"pl_pier","folder":"tf","game":"Team Fortress","app_id":440,"player_count":24,"max_players":24,"Bots":0,"server_type":"Dedicated","server_os":"Linux","password":true,"vac":true,"version":"7757534","steam_id":85568392924470941,"keywords":["nocrits","nodmgspread","payload","uncletopia"],"game_id":440,"stv_port":27026,"stv_name":"Uncletopia | London | 2 | All Maps | STV","players":[{"user_id":103,"name":"DrExplosive","steam_id":76561198063678579,"connected_time":7851000000000,"state":"active","ping":52},{"user_id":175,"name":"Camo Leaf","steam_id":76561197999456575,"connected_time":2281000000000,"state":"active","ping":45},{"user_id":193,"name":"Wredny","steam_id":76561199080324754,"connected_time":983000000000,"state":"active","ping":98},{"user_id":202,"name":"JohnnyRakieta","steam_id":76561198855789287,"connected_time":303000000000,"state":"active","ping":73},{"user_id":195,"name":"yush","steam_id":76561198121688934,"connected_time":963000000000,"state":"active","ping":74},{"user_id":170,"name":"Tort","steam_id":76561198329646769,"connected_time":2960000000000,"state":"active","ping":56},{"user_id":197,"name":"Octopixel","steam_id":76561198346310753,"connected_time":960000000000,"state":"active","ping":83},{"user_id":154,"name":"big hoops","steam_id":76561198004703799,"connected_time":3592000000000,"state":"active","ping":45},{"user_id":47,"name":"Zerfesh","steam_id":76561198117534358,"connected_time":11723000000000,"state":"active","ping":91},{"user_id":204,"name":"pond","steam_id":76561198214849363,"connected_time":184000000000,"state":"active","ping":88},{"user_id":141,"name":"Breizbuc","steam_id":76561198118220633,"connected_time":5091000000000,"state":"active","ping":62},{"user_id":189,"name":"TSAR FACE","steam_id":76561198822725169,"connected_time":1695000000000,"state":"active","ping":44},{"user_id":199,"name":"CODSWOLOP","steam_id":76561199114598660,"connected_time":879000000000,"state":"active","ping":143},{"user_id":109,"name":"Dr. Uberschwein","steam_id":76561198111367431,"connected_time":7650000000000,"state":"active","ping":69},{"user_id":196,"name":"Dr. Funkenstein","steam_id":76561197977816210,"connected_time":963000000000,"state":"active","ping":46},{"user_id":187,"name":"Gin-Gi","steam_id":76561198108332859,"connected_time":1893000000000,"state":"active","ping":56},{"user_id":158,"name":"Lognes","steam_id":76561198076569769,"connected_time":3555000000000,"state":"active","ping":56},{"user_id":203,"name":"marceloose","steam_id":76561198360009237,"connected_time":290000000000,"state":"active","ping":45},{"user_id":186,"name":"Wardruna96","steam_id":76561199057083828,"connected_time":1932000000000,"state":"active","ping":90},{"user_id":172,"name":"MAKENTAKEN","steam_id":76561199127359587,"connected_time":2666000000000,"state":"active","ping":102},{"user_id":173,"name":"LemonLeCitron","steam_id":76561198215545267,"connected_time":2457000000000,"state":"active","ping":66},{"user_id":200,"name":"Hexagon","steam_id":76561198151205758,"connected_time":814000000000,"state":"active","ping":60},{"user_id":190,"name":"Comfy Monkey","steam_id":76561197998434936,"connected_time":1673000000000,"state":"active","ping":111},{"user_id":164,"name":"fl1p","steam_id":76561198148565659,"connected_time":3487000000000,"state":"active","ping":71}]},{"server_id":320,"name":"Uncletopia | London | 3 | All Maps","name_short":"lon-3","host":"lon-1.uk.uncletopia.com","port":27035,"enabled":true,"region":"eu","cc":"gb","latitude":51.509865,"longitude":-0.118092,"reserved":0,"last_update":"0001-01-01T00:00:00Z","name_a2s":"Uncletopia | London | 3 | All Maps","protocol":17,"map":"pl_swiftwater_final1","folder":"tf","game":"Team Fortress","app_id":440,"player_count":24,"max_players":24,"Bots":0,"server_type":"Dedicated","server_os":"Linux","password":true,"vac":true,"version":"7757534","steam_id":85568392924510192,"keywords":["nocrits","nodmgspread","payload","uncletopia"],"game_id":440,"stv_port":27036,"stv_name":"Uncletopia | London | 3 | All Maps | STV","players":[{"user_id":389,"name":"Gedeon","steam_id":76561199034143402,"connected_time":2529000000000,"state":"active","ping":89},{"user_id":406,"name":"B4R10N","steam_id":76561198047167954,"connected_time":743000000000,"state":"active","ping":34},{"user_id":355,"name":"Blacksheep","steam_id":76561198019621063,"connected_time":4057000000000,"state":"active","ping":50},{"user_id":393,"name":"ShinxPasta","steam_id":76561198217784611,"connected_time":2342000000000,"state":"active","ping":66},{"user_id":399,"name":"JOÃO MIGUEL","steam_id":76561198066297489,"connected_time":1451000000000,"state":"active","ping":69},{"user_id":269,"name":"Autumnsky","steam_id":76561198055161203,"connected_time":5006000000000,"state":"active","ping":61},{"user_id":420,"name":"Holtzer","steam_id":76561198031573426,"connected_time":446000000000,"state":"active","ping":72},{"user_id":396,"name":"Roj Blake","steam_id":76561197960291725,"connected_time":1542000000000,"state":"active","ping":58},{"user_id":405,"name":"Topia","steam_id":76561198163571788,"connected_time":752000000000,"state":"active","ping":105},{"user_id":421,"name":"poshtoo @_@","steam_id":76561198106182078,"connected_time":408000000000,"state":"active","ping":115},{"user_id":367,"name":"jawA","steam_id":76561198070341774,"connected_time":3700000000000,"state":"active","ping":90},{"user_id":402,"name":"Circular","steam_id":76561198001536710,"connected_time":1009000000000,"state":"active","ping":46},{"user_id":384,"name":"Barneeyy","steam_id":76561198252413532,"connected_time":3014000000000,"state":"active","ping":58},{"user_id":409,"name":"Acrithrope","steam_id":76561198079196707,"connected_time":731000000000,"state":"active","ping":61},{"user_id":418,"name":"Kotlet schabowy","steam_id":76561198048983509,"connected_time":522000000000,"state":"active","ping":84},{"user_id":419,"name":"Tomaash","steam_id":76561198115542042,"connected_time":472000000000,"state":"active","ping":49},{"user_id":411,"name":"Kurage","steam_id":76561198021221288,"connected_time":668000000000,"state":"active","ping":73},{"user_id":413,"name":"Rohnus","steam_id":76561198074049934,"connected_time":636000000000,"state":"active","ping":59},{"user_id":423,"name":"quickfast","steam_id":76561199438900919,"connected_time":29000000000,"state":"active","ping":44},{"user_id":416,"name":"Silva_mlon","steam_id":76561199310242047,"connected_time":585000000000,"state":"active","ping":75},{"user_id":397,"name":"TheBeardedM1G","steam_id":76561198040208946,"connected_time":1538000000000,"state":"active","ping":47},{"user_id":398,"name":"robsan","steam_id":76561198137375391,"connected_time":1533000000000,"state":"active","ping":78},{"user_id":422,"name":"Your friend (maybe)","steam_id":76561198240278328,"connected_time":328000000000,"state":"active","ping":86},{"user_id":371,"name":"Welder","steam_id":76561198355300561,"connected_time":3498000000000,"state":"active","ping":73}]},{"server_id":321,"name":"Uncletopia | London | 4 | All Maps","name_short":"lon-4","host":"lon-1.uk.uncletopia.com","port":27045,"enabled":true,"region":"eu","cc":"gb","latitude":51.509865,"longitude":-0.118092,"reserved":0,"last_update":"0001-01-01T00:00:00Z","name_a2s":"Uncletopia | London | 4 | All Maps","protocol":17,"map":"cp_dustbowl","folder":"tf","game":"Team Fortress","app_id":440,"player_count":24,"max_players":24,"Bots":0,"server_type":"Dedicated","server_os":"Linux","password":true,"vac":true,"version":"7757534","steam_id":85568392924510193,"keywords":["cp","nocrits","nodmgspread","uncletopia"],"game_id":440,"stv_port":27046,"stv_name":"Uncletopia | London | 4 | All Maps | STV","players":[{"user_id":51,"name":"Greggy","steam_id":76561198273319865,"connected_time":1527000000000,"state":"active","ping":86},{"user_id":48,"name":"cheetofinger","steam_id":76561198064052251,"connected_time":1660000000000,"state":"active","ping":61},{"user_id":45,"name":"RiX","steam_id":76561197969053733,"connected_time":1963000000000,"state":"active","ping":54},{"user_id":23,"name":"doomslayer","steam_id":76561199074838148,"connected_time":2420000000000,"state":"active","ping":61},{"user_id":17,"name":"Mery","steam_id":76561198060952754,"connected_time":2936000000000,"state":"active","ping":94},{"user_id":60,"name":"bAdmon","steam_id":76561197961785793,"connected_time":777000000000,"state":"active","ping":59},{"user_id":24,"name":"Rodia","steam_id":76561197968293161,"connected_time":2394000000000,"state":"active","ping":76},{"user_id":25,"name":"ඞbominasus 2137  #SaveTF2","steam_id":76561198030062981,"connected_time":2390000000000,"state":"active","ping":71},{"user_id":67,"name":"Pachakamakk","steam_id":76561197989010401,"connected_time":40000000000,"state":"active","ping":50},{"user_id":62,"name":"Turkish Spy","steam_id":76561198831177630,"connected_time":457000000000,"state":"active","ping":99},{"user_id":28,"name":"Audiofall","steam_id":76561198208814216,"connected_time":2361000000000,"state":"active","ping":49},{"user_id":64,"name":"owlsie","steam_id":76561198094883280,"connected_time":357000000000,"state":"active","ping":62},{"user_id":65,"name":"Boil em mash em","steam_id":76561198026508026,"connected_time":351000000000,"state":"active","ping":74},{"user_id":55,"name":"MuffinConsumer","steam_id":76561199472498725,"connected_time":1373000000000,"state":"active","ping":142},{"user_id":34,"name":"wolffy","steam_id":76561198083145076,"connected_time":2147000000000,"state":"active","ping":56},{"user_id":35,"name":"Scuutte","steam_id":76561198105496293,"connected_time":2147000000000,"state":"active","ping":75},{"user_id":49,"name":"☜(ﾟヮﾟ☜) fribs","steam_id":76561198000461999,"connected_time":1639000000000,"state":"active","ping":48},{"user_id":37,"name":"Senator Armstrong","steam_id":76561198984346408,"connected_time":2101000000000,"state":"active","ping":82},{"user_id":38,"name":"heavy sings (real)","steam_id":76561199023804405,"connected_time":2075000000000,"state":"active","ping":67},{"user_id":66,"name":"♥ TRANS RIGHTS ♥","steam_id":76561198066258544,"connected_time":320000000000,"state":"active","ping":67},{"user_id":50,"name":"rubadub rocker","steam_id":76561197984763237,"connected_time":1617000000000,"state":"active","ping":30},{"user_id":41,"name":"Sarge","steam_id":76561198045435543,"connected_time":2030000000000,"state":"active","ping":74},{"user_id":58,"name":"Aspartus","steam_id":76561198101385763,"connected_time":999000000000,"state":"active","ping":34},{"user_id":47,"name":"festry","steam_id":76561198873296090,"connected_time":1831000000000,"state":"active","ping":78}]},{"server_id":21,"name":"Uncletopia | London | 5 | All Maps","name_short":"lon-5","host":"lon-1.uk.uncletopia.com","port":27055,"enabled":true,"region":"eu","cc":"gb","latitude":51.509865,"longitude":-0.118092,"reserved":0,"last_update":"0001-01-01T00:00:00Z","name_a2s":"Uncletopia | London | 5 | All Maps","protocol":17,"map":"pl_pier","folder":"tf","game":"Team Fortress","app_id":440,"player_count":0,"max_players":24,"Bots":0,"server_type":"Dedicated","server_os":"Linux","password":true,"vac":true,"version":"7757534","steam_id":85568392924742829,"keywords":["nocrits","nodmgspread","payload","uncletopia"],"game_id":440,"stv_port":27056,"stv_name":"Uncletopia | London | 5 | All Maps | STV","players":null},{"server_id":22,"name":"Uncletopia | London | 6 | All Maps","name_short":"lon-6","host":"lon-1.uk.uncletopia.com","port":27065,"enabled":true,"region":"eu","cc":"gb","latitude":51.509865,"longitude":-0.118092,"reserved":0,"last_update":"0001-01-01T00:00:00Z","name_a2s":"Uncletopia | London | 6 | All Maps","protocol":17,"map":"koth_highpass","folder":"tf","game":"Team Fortress","app_id":440,"player_count":0,"max_players":24,"Bots":0,"server_type":"Dedicated","server_os":"Linux","password":true,"vac":true,"version":"7757534","steam_id":85568392924742830,"keywords":["cp","nocrits","nodmgspread","uncletopia"],"game_id":440,"stv_port":27066,"stv_name":"Uncletopia | London | 6 | All Maps | STV","players":null},{"server_id":40,"name":"Uncletopia | London | 7 | No Payload","name_short":"lon-7","host":"lon-1.uk.uncletopia.com","port":27075,"enabled":true,"region":"eu","cc":"gb","latitude":51.509865,"longitude":-0.118092,"reserved":0,"last_update":"0001-01-01T00:00:00Z","name_a2s":"Uncletopia | London | 7 | No Payload","protocol":17,"map":"koth_highpass","folder":"tf","game":"Team Fortress","app_id":440,"player_count":0,"max_players":24,"Bots":0,"server_type":"Dedicated","server_os":"Linux","password":true,"vac":true,"version":"7757534","steam_id":85568392924964314,"keywords":["cp","nocrits","nodmgspread","uncletopia"],"game_id":440,"stv_port":27076,"stv_name":"Uncletopia | London | 7 | No Payload | STV","players":null},{"server_id":41,"name":"Uncletopia | London | 8 | Community","name_short":"lon-8","host":"lon-1.uk.uncletopia.com","port":27085,"enabled":true,"region":"eu","cc":"gb","latitude":51.509865,"longitude":-0.118092,"reserved":0,"last_update":"0001-01-01T00:00:00Z","name_a2s":"Uncletopia | London | 8 | Community","protocol":17,"map":"workshop/cp_hazyfort_rc6.ugc1365963729","folder":"tf","game":"Team Fortress","app_id":440,"player_count":8,"max_players":24,"Bots":0,"server_type":"Dedicated","server_os":"Linux","password":true,"vac":true,"version":"7757534","steam_id":85568392924964315,"keywords":["cp","nocrits","nodmgspread","uncletopia"],"game_id":440,"stv_port":27086,"stv_name":"Uncletopia | London | 8 | Community | STV","players":[{"user_id":186,"name":"mr. biggs","steam_id":76561199118911288,"connected_time":92000000000,"state":"active","ping":135},{"user_id":187,"name":"B0B","steam_id":76561199222523175,"connected_time":68000000000,"state":"spawning","ping":826},{"user_id":183,"name":"Rasa","steam_id":76561198030864396,"connected_time":589000000000,"state":"active","ping":93},{"user_id":184,"name":"Egor Pomidor","steam_id":76561199175688390,"connected_time":589000000000,"state":"active","ping":83},{"user_id":162,"name":"silicon based life form","steam_id":76561199127121346,"connected_time":1801000000000,"state":"active","ping":56},{"user_id":173,"name":"Sgreff","steam_id":76561198036304365,"connected_time":1112000000000,"state":"active","ping":41},{"user_id":87,"name":"TSx* Naxer","steam_id":76561198011986779,"connected_time":6658000000000,"state":"active","ping":76},{"user_id":172,"name":"nastypass","steam_id":76561198002601054,"connected_time":1341000000000,"state":"active","ping":149}]},{"server_id":300,"name":"Uncletopia | Montréal | 1 | All Maps","name_short":"mtl-1","host":"mtl-1.ca.uncletopia.com","port":27015,"enabled":true,"region":"us-east","cc":"ca","latitude":45.50889,"longitude":-73.56167,"reserved":0,"last_update":"0001-01-01T00:00:00Z","name_a2s":"Uncletopia | Montréal | 1 | All Maps","protocol":17,"map":"cp_altitude","folder":"tf","game":"Team Fortress","app_id":440,"player_count":0,"max_players":24,"Bots":0,"server_type":"Dedicated","server_os":"Linux","password":true,"vac":true,"version":"7757534","steam_id":85568392924500087,"keywords":["cp","nocrits","nodmgspread","uncletopia"],"game_id":440,"stv_port":27016,"stv_name":"Uncletopia | Montréal | 1 | All Maps | STV","players":null},{"server_id":301,"name":"Uncletopia | Montréal | 2 | All Maps","name_short":"mtl-2","host":"mtl-1.ca.uncletopia.com","port":27025,"enabled":true,"region":"us-east","cc":"ca","latitude":45.50889,"longitude":-73.56167,"reserved":0,"last_update":"0001-01-01T00:00:00Z","name_a2s":"Uncletopia | Montréal | 2 | All Maps","protocol":17,"map":"cp_sunshine","folder":"tf","game":"Team Fortress","app_id":440,"player_count":0,"max_players":24,"Bots":0,"server_type":"Dedicated","server_os":"Linux","password":true,"vac":true,"version":"7757534","steam_id":85568392924500088,"keywords":["cp","nocrits","nodmgspread","uncletopia"],"game_id":440,"stv_port":27026,"stv_name":"Uncletopia | Montréal | 2 | All Maps | STV","players":null},{"server_id":302,"name":"Uncletopia | Montréal | 3 | All Maps","name_short":"mtl-3","host":"mtl-1.ca.uncletopia.com","port":27035,"enabled":true,"region":"us-east","cc":"ca","latitude":45.50889,"longitude":-73.56167,"reserved":0,"last_update":"0001-01-01T00:00:00Z","name_a2s":"Uncletopia | Montréal | 3 | All Maps","protocol":17,"map":"pl_frontier_final","folder":"tf","game":"Team Fortress","app_id":440,"player_count":0,"max_players":24,"Bots":0,"server_type":"Dedicated","server_os":"Linux","password":true,"vac":true,"version":"7757534","steam_id":85568392924500089,"keywords":["nocrits","nodmgspread","payload","uncletopia"],"game_id":440,"stv_port":27036,"stv_name":"Uncletopia | Montréal | 3 | All Maps | STV","players":null},{"server_id":303,"name":"Uncletopia | Montréal | 4 | No Payload","name_short":"mtl-4","host":"mtl-1.ca.uncletopia.com","port":27045,"enabled":true,"region":"us-east","cc":"ca","latitude":45.50889,"longitude":-73.56167,"reserved":0,"last_update":"0001-01-01T00:00:00Z","name_a2s":"Uncletopia | Montréal | 4 | No Payload","protocol":17,"map":"pl_pier","folder":"tf","game":"Team Fortress","app_id":440,"player_count":0,"max_players":24,"Bots":0,"server_type":"Dedicated","server_os":"Linux","password":true,"vac":true,"version":"7757534","steam_id":85568392924500090,"keywords":["nocrits","nodmgspread","payload","uncletopia"],"game_id":440,"stv_port":27046,"stv_name":"Uncletopia | Montréal | 4 | No Payload | STV","players":null},{"server_id":13,"name":"Uncletopia | New York City | 1 | All Maps","name_short":"nyc-1","host":"nyc-1.us.uncletopia.com","port":27015,"enabled":true,"region":"us-east","cc":"us","latitude":40.73061,"longitude":-73.93524,"reserved":0,"last_update":"0001-01-01T00:00:00Z","name_a2s":"Uncletopia | New York City | 1 | All Maps","protocol":17,"map":"koth_cascade","folder":"tf","game":"Team Fortress","app_id":440,"player_count":0,"max_players":24,"Bots":0,"server_type":"Dedicated","server_os":"Linux","password":true,"vac":true,"version":"7757534","steam_id":85568392924469993,"keywords":["cp","nocrits","nodmgspread","uncletopia"],"game_id":440,"stv_port":27016,"stv_name":"Uncletopia | New York City | 1 | All Maps | STV","players":null},{"server_id":14,"name":"Uncletopia | New York City | 2 | All Maps","name_short":"nyc-2","host":"nyc-1.us.uncletopia.com","port":27025,"enabled":true,"region":"us-east","cc":"us","latitude":40.73061,"longitude":-73.93524,"reserved":0,"last_update":"0001-01-01T00:00:00Z","name_a2s":"Uncletopia | New York City | 2 | All Maps","protocol":17,"map":"cp_dustbowl","folder":"tf","game":"Team Fortress","app_id":440,"player_count":0,"max_players":24,"Bots":0,"server_type":"Dedicated","server_os":"Linux","password":true,"vac":true,"version":"7757534","steam_id":85568392924469994,"keywords":["cp","nocrits","nodmgspread","uncletopia"],"game_id":440,"stv_port":27026,"stv_name":"Uncletopia | New York City | 2 | All Maps | STV","players":null},{"server_id":15,"name":"Uncletopia | New York City | 3 | Stopwatch Beta","name_short":"nyc-3","host":"nyc-1.us.uncletopia.com","port":27035,"enabled":true,"region":"us-east","cc":"us","latitude":40.73061,"longitude":-73.93524,"reserved":0,"last_update":"0001-01-01T00:00:00Z","name_a2s":"Uncletopia | New York City | 3 | Stopwatch Beta","protocol":17,"map":"workshop/pl_summercoast_rc8e.ugc1761528829","folder":"tf","game":"Team Fortress","app_id":440,"player_count":0,"max_players":24,"Bots":0,"server_type":"Dedicated","server_os":"Linux","password":true,"vac":true,"version":"7757534","steam_id":85568392924742820,"keywords":["nocrits","nodmgspread","payload","uncletopia"],"game_id":440,"stv_port":27036,"stv_name":"Uncletopia | New York City | 3 | Stopwatch Beta | STV","players":null},{"server_id":16,"name":"Uncletopia | New York City | 4 | Community","name_short":"nyc-4","host":"nyc-1.us.uncletopia.com","port":27045,"enabled":true,"region":"us-east","cc":"us","latitude":40.73061,"longitude":-73.93524,"reserved":0,"last_update":"0001-01-01T00:00:00Z","name_a2s":"Uncletopia | New York City | 4 | Community","protocol":17,"map":"pl_frontier_final","folder":"tf","game":"Team Fortress","app_id":440,"player_count":0,"max_players":24,"Bots":0,"server_type":"Dedicated","server_os":"Linux","password":true,"vac":true,"version":"7757534","steam_id":85568392924742821,"keywords":["nocrits","nodmgspread","payload","uncletopia"],"game_id":440,"stv_port":27046,"stv_name":"Uncletopia | New York City | 4 | Community | STV","players":null},{"server_id":142,"name":"Uncletopia | São Paulo | 1 | All Maps","name_short":"sao-1","host":"sao-1.br.uncletopia.com","port":27015,"enabled":true,"region":"sa","cc":"br","latitude":-23.533773,"longitude":-46.62529,"reserved":0,"last_update":"0001-01-01T00:00:00Z","name_a2s":"Uncletopia | São Paulo | 1 | All Maps","protocol":17,"map":"cp_altitude","folder":"tf","game":"Team Fortress","app_id":440,"player_count":0,"max_players":24,"Bots":0,"server_type":"Dedicated","server_os":"Linux","password":true,"vac":true,"version":"7757534","steam_id":85568392924469996,"keywords":["cp","nocrits","nodmgspread","uncletopia"],"game_id":440,"stv_port":27016,"stv_name":"Uncletopia | São Paulo | 1 | All Maps | STV","players":null},{"server_id":143,"name":"Uncletopia | São Paulo | 2 | All Maps","name_short":"sao-2","host":"sao-2.br.uncletopia.com","port":27015,"enabled":true,"region":"sa","cc":"br","latitude":-23.533773,"longitude":-46.62529,"reserved":0,"last_update":"0001-01-01T00:00:00Z","name_a2s":"Uncletopia | São Paulo | 2 | All Maps","protocol":17,"map":"koth_viaduct","folder":"tf","game":"Team Fortress","app_id":440,"player_count":0,"max_players":24,"Bots":0,"server_type":"Dedicated","server_os":"Linux","password":true,"vac":true,"version":"7757534","steam_id":85568392924485349,"keywords":["cp","nocrits","nodmgspread","uncletopia"],"game_id":440,"stv_port":27016,"stv_name":"Uncletopia | São Paulo | 2 | All Maps | STV","players":null},{"server_id":7,"name":"Uncletopia | Seattle | 1 | All Maps","name_short":"sea-1","host":"sea-1.us.uncletopia.com","port":27015,"enabled":true,"region":"us-west","cc":"us","latitude":47.608013,"longitude":-122.33517,"reserved":0,"last_update":"0001-01-01T00:00:00Z","name_a2s":"Uncletopia | Seattle | 1 | All Maps","protocol":17,"map":"cp_steel","folder":"tf","game":"Team Fortress","app_id":440,"player_count":24,"max_players":24,"Bots":0,"server_type":"Dedicated","server_os":"Linux","password":true,"vac":true,"version":"7757534","steam_id":85568392924469997,"keywords":["cp","nocrits","nodmgspread","uncletopia"],"game_id":440,"stv_port":27016,"stv_name":"Uncletopia | Seattle | 1 | All Maps | STV","players":[{"user_id":75,"name":"vartion","steam_id":76561198272996824,"connected_time":3251000000000,"state":"connecting","ping":57},{"user_id":66,"name":"jayzak24","steam_id":76561198354267509,"connected_time":4070000000000,"state":"connecting","ping":101},{"user_id":86,"name":"York Oxmall","steam_id":76561198381203143,"connected_time":2504000000000,"state":"spawning","ping":55},{"user_id":108,"name":"HarryjusttHarry","steam_id":76561198982810452,"connected_time":227000000000,"state":"connecting","ping":153},{"user_id":90,"name":"amagicowl","steam_id":76561199060487814,"connected_time":2413000000000,"state":"connecting","ping":78},{"user_id":94,"name":"GuardReady","steam_id":76561199121905416,"connected_time":1952000000000,"state":"connecting","ping":140},{"user_id":9,"name":"rebel","steam_id":76561198026049308,"connected_time":6703000000000,"state":"connecting","ping":60},{"user_id":93,"name":"mobe","steam_id":76561198121633820,"connected_time":1985000000000,"state":"connecting","ping":94},{"user_id":87,"name":"CYBER","steam_id":76561197963237357,"connected_time":2473000000000,"state":"connecting","ping":87},{"user_id":95,"name":"〣dust〣 -she/it-","steam_id":76561198045218909,"connected_time":1646000000000,"state":"spawning","ping":60},{"user_id":101,"name":"Spacey","steam_id":76561198127335850,"connected_time":730000000000,"state":"connecting","ping":98},{"user_id":102,"name":"cludkydoyfoydyo","steam_id":76561198313470079,"connected_time":639000000000,"state":"connecting","ping":75},{"user_id":109,"name":"Themasterman75","steam_id":76561199385573293,"connected_time":25000000000,"state":"connecting","ping":182},{"user_id":84,"name":"Ventastega","steam_id":76561197999366317,"connected_time":2677000000000,"state":"connecting","ping":139},{"user_id":88,"name":"Eduardo Dinero[v][\\]","steam_id":76561198011582976,"connected_time":2439000000000,"state":"connecting","ping":72},{"user_id":107,"name":"Moon","steam_id":76561198007449103,"connected_time":331000000000,"state":"connecting","ping":142},{"user_id":97,"name":"Chasubi","steam_id":76561197971618983,"connected_time":1128000000000,"state":"connecting","ping":133},{"user_id":110,"name":"corporation","steam_id":76561198281612642,"connected_time":3000000000,"state":"connecting","ping":126},{"user_id":55,"name":"Little Linguine","steam_id":76561198816986370,"connected_time":4530000000000,"state":"connecting","ping":63},{"user_id":76,"name":"Predatorial","steam_id":76561198057791254,"connected_time":3175000000000,"state":"connecting","ping":123},{"user_id":73,"name":"Gramma!","steam_id":76561198340989175,"connected_time":3618000000000,"state":"connecting","ping":123},{"user_id":37,"name":"THE NUT","steam_id":76561198067813626,"connected_time":5775000000000,"state":"connecting","ping":52},{"user_id":83,"name":"P90 Enthusiast","steam_id":76561198155176802,"connected_time":2749000000000,"state":"connecting","ping":178},{"user_id":92,"name":"Unban Level Eater (She/They)","steam_id":76561198823616667,"connected_time":2310000000000,"state":"connecting","ping":124}]},{"server_id":119,"name":"Uncletopia | Seattle | 2 | All Maps","name_short":"sea-2","host":"sea-1.us.uncletopia.com","port":27025,"enabled":true,"region":"us-west","cc":"us","latitude":47.608013,"longitude":-122.33517,"reserved":0,"last_update":"0001-01-01T00:00:00Z","name_a2s":"Uncletopia | Seattle | 2 | All Maps","protocol":17,"map":"pl_pier","folder":"tf","game":"Team Fortress","app_id":440,"player_count":0,"max_players":24,"Bots":0,"server_type":"Dedicated","server_os":"Linux","password":true,"vac":true,"version":"7757534","steam_id":85568392924469998,"keywords":["nocrits","nodmgspread","payload","uncletopia"],"game_id":440,"stv_port":27026,"stv_name":"Uncletopia | Seattle | 2 | All Maps | STV","players":null},{"server_id":406,"name":"Uncletopia | Seattle | 3 | Stopwatch Beta","name_short":"sea-3","host":"sea-1.us.uncletopia.com","port":27035,"enabled":true,"region":"us-west","cc":"us","latitude":47.608013,"longitude":-122.33517,"reserved":0,"last_update":"0001-01-01T00:00:00Z","name_a2s":"Uncletopia | Seattle | 3 | Stopwatch Beta","protocol":17,"map":"cp_process_final","folder":"tf","game":"Team Fortress","app_id":440,"player_count":0,"max_players":24,"Bots":0,"server_type":"Dedicated","server_os":"Linux","password":true,"vac":true,"version":"7757534","steam_id":85568392924515217,"keywords":["cp","nocrits","nodmgspread","uncletopia"],"game_id":440,"stv_port":27036,"stv_name":"Uncletopia | Seattle | 3 | Stopwatch Beta | STV","players":null},{"server_id":17,"name":"Uncletopia | San Francisco | 1 | All Maps","name_short":"sfo-1","host":"sfo-1.us.uncletopia.com","port":27015,"enabled":true,"region":"us-west","cc":"us","latitude":37.77397,"longitude":-122.4313,"reserved":0,"last_update":"0001-01-01T00:00:00Z","name_a2s":"Uncletopia | San Francisco | 1 | All Maps","protocol":17,"map":"pl_upward","folder":"tf","game":"Team Fortress","app_id":440,"player_count":2,"max_players":24,"Bots":0,"server_type":"Dedicated","server_os":"Linux","password":true,"vac":true,"version":"7757534","steam_id":85568392924469999,"keywords":["nocrits","nodmgspread","payload","uncletopia"],"game_id":440,"stv_port":27016,"stv_name":"Uncletopia | San Francisco | 1 | All Maps | STV","players":[{"user_id":15,"name":"SpaghettiMaster420","steam_id":76561199024321120,"connected_time":264000000000,"state":"active","ping":67},{"user_id":16,"name":"hersheybargame","steam_id":76561199162003623,"connected_time":76000000000,"state":"active","ping":45}]},{"server_id":18,"name":"Uncletopia | San Francisco | 2 | All Maps","name_short":"sfo-2","host":"sfo-1.us.uncletopia.com","port":27025,"enabled":true,"region":"us-west","cc":"us","latitude":37.77397,"longitude":-122.4313,"reserved":0,"last_update":"0001-01-01T00:00:00Z","name_a2s":"Uncletopia | San Francisco | 2 | All Maps","protocol":17,"map":"koth_viaduct","folder":"tf","game":"Team Fortress","app_id":440,"player_count":0,"max_players":24,"Bots":0,"server_type":"Dedicated","server_os":"Linux","password":true,"vac":true,"version":"7757534","steam_id":85568392924470000,"keywords":["cp","nocrits","nodmgspread","uncletopia"],"game_id":440,"stv_port":27026,"stv_name":"Uncletopia | San Francisco | 2 | All Maps | STV","players":null},{"server_id":19,"name":"Uncletopia | San Francisco | 3 | Stopwatch Beta","name_short":"sfo-3","host":"sfo-1.us.uncletopia.com","port":27035,"enabled":true,"region":"us-west","cc":"us","latitude":37.77397,"longitude":-122.4313,"reserved":0,"last_update":"0001-01-01T00:00:00Z","name_a2s":"Uncletopia | San Francisco | 3 | Stopwatch Beta","protocol":17,"map":"workshop/pl_barnblitz_pro7.ugc582280235","folder":"tf","game":"Team Fortress","app_id":440,"player_count":0,"max_players":24,"Bots":0,"server_type":"Dedicated","server_os":"Linux","password":true,"vac":true,"version":"7757534","steam_id":85568392924742824,"keywords":["nocrits","nodmgspread","payload","uncletopia"],"game_id":440,"stv_port":27036,"stv_name":"Uncletopia | San Francisco | 3 | Stopwatch Beta | STV","players":null},{"server_id":20,"name":"Uncletopia | San Francisco | 4 | Community","name_short":"sfo-4","host":"sfo-1.us.uncletopia.com","port":27045,"enabled":true,"region":"us-west","cc":"us","latitude":37.77397,"longitude":-122.4313,"reserved":0,"last_update":"0001-01-01T00:00:00Z","name_a2s":"Uncletopia | San Francisco | 4 | Community","protocol":17,"map":"pl_frontier_final","folder":"tf","game":"Team Fortress","app_id":440,"player_count":0,"max_players":24,"Bots":0,"server_type":"Dedicated","server_os":"Linux","password":true,"vac":true,"version":"7757534","steam_id":85568392924742826,"keywords":["nocrits","nodmgspread","payload","uncletopia"],"game_id":440,"stv_port":27046,"stv_name":"Uncletopia | San Francisco | 4 | Community | STV","players":null},{"server_id":141,"name":"Uncletopia | Sydney | 1 | All Maps","name_short":"syd-1","host":"syd-1.au.uncletopia.com","port":27015,"enabled":true,"region":"au","cc":"au","latitude":-33.865143,"longitude":151.2099,"reserved":0,"last_update":"0001-01-01T00:00:00Z","name_a2s":"Uncletopia | Sydney | 1 | All Maps","protocol":17,"map":"pl_frontier_final","folder":"tf","game":"Team Fortress","app_id":440,"player_count":0,"max_players":24,"Bots":0,"server_type":"Dedicated","server_os":"Linux","password":true,"vac":true,"version":"7757534","steam_id":85568392924470001,"keywords":["nocrits","nodmgspread","payload","uncletopia"],"game_id":440,"stv_port":27016,"stv_name":"Uncletopia | Sydney | 1 | All Maps | STV","players":null},{"server_id":123,"name":"Uncletopia | Sydney | 2 | All Maps","name_short":"syd-2","host":"syd-1.au.uncletopia.com","port":27025,"enabled":true,"region":"au","cc":"au","latitude":-33.865143,"longitude":151.2099,"reserved":0,"last_update":"0001-01-01T00:00:00Z","name_a2s":"Uncletopia | Sydney | 2 | All Maps","protocol":17,"map":"cp_altitude","folder":"tf","game":"Team Fortress","app_id":440,"player_count":0,"max_players":24,"Bots":0,"server_type":"Dedicated","server_os":"Linux","password":true,"vac":true,"version":"7757534","steam_id":85568392924470002,"keywords":["cp","nocrits","nodmgspread","uncletopia"],"game_id":440,"stv_port":27026,"stv_name":"Uncletopia | Sydney | 2 | All Maps | STV","players":null},{"server_id":395,"name":"Uncletopia | Sydney | 3 | All Maps","name_short":"syd-3","host":"syd-1.au.uncletopia.com","port":27035,"enabled":true,"region":"au","cc":"au","latitude":-33.865143,"longitude":151.2099,"reserved":0,"last_update":"0001-01-01T00:00:00Z","name_a2s":"Uncletopia | Sydney | 3 | All Maps","protocol":17,"map":"koth_lakeside_final","folder":"tf","game":"Team Fortress","app_id":440,"player_count":0,"max_players":24,"Bots":0,"server_type":"Dedicated","server_os":"Linux","password":true,"vac":true,"version":"7757534","steam_id":85568392925194467,"keywords":["cp","nocrits","nodmgspread","uncletopia"],"game_id":440,"stv_port":27036,"stv_name":"Uncletopia | Sydney | 3 | All Maps | STV","players":null},{"server_id":396,"name":"Uncletopia | Sydney | 4 | All Maps","name_short":"syd-4","host":"syd-1.au.uncletopia.com","port":27045,"enabled":true,"region":"au","cc":"au","latitude":-33.865143,"longitude":151.2099,"reserved":0,"last_update":"0001-01-01T00:00:00Z","name_a2s":"Uncletopia | Sydney | 4 | All Maps","protocol":17,"map":"koth_viaduct","folder":"tf","game":"Team Fortress","app_id":440,"player_count":0,"max_players":24,"Bots":0,"server_type":"Dedicated","server_os":"Linux","password":true,"vac":true,"version":"7757534","steam_id":85568392925397958,"keywords":["cp","nocrits","nodmgspread","uncletopia"],"game_id":440,"stv_port":27046,"stv_name":"Uncletopia | Sydney | 4 | All Maps | STV","players":null},{"server_id":58,"name":"Uncletopia | Sydney | 5 | Stopwatch Beta","name_short":"syd-5","host":"syd-1.au.uncletopia.com","port":27055,"enabled":true,"region":"au","cc":"au","latitude":-33.865143,"longitude":151.2099,"reserved":0,"last_update":"0001-01-01T00:00:00Z","name_a2s":"Uncletopia | Sydney | 5 | Stopwatch Beta","protocol":17,"map":"koth_cascade","folder":"tf","game":"Team Fortress","app_id":440,"player_count":0,"max_players":24,"Bots":0,"server_type":"Dedicated","server_os":"Linux","password":true,"vac":true,"version":"7757534","steam_id":85568392925397959,"keywords":["cp","nocrits","nodmgspread","uncletopia"],"game_id":440,"stv_port":27056,"stv_name":"Uncletopia | Sydney | 5 | Stopwatch Beta | STV","players":null},{"server_id":59,"name":"Uncletopia | Sydney | 6 | Community","name_short":"syd-6","host":"syd-1.au.uncletopia.com","port":27065,"enabled":true,"region":"au","cc":"au","latitude":-33.865143,"longitude":151.2099,"reserved":0,"last_update":"0001-01-01T00:00:00Z","name_a2s":"Uncletopia | Sydney | 6 | Community","protocol":17,"map":"workshop/cp_glassworks_rc6a.ugc454118349","folder":"tf","game":"Team Fortress","app_id":440,"player_count":0,"max_players":24,"Bots":0,"server_type":"Dedicated","server_os":"Linux","password":true,"vac":true,"version":"7757534","steam_id":85568392925397960,"keywords":["cp","nocrits","nodmgspread","uncletopia"],"game_id":440,"stv_port":27066,"stv_name":"Uncletopia | Sydney | 6 | Community | STV","players":null},{"server_id":49,"name":"Uncletopia | Warsaw | 1 | All Maps","name_short":"waw-1","host":"waw-1.pl.uncletopia.com","port":27015,"enabled":true,"region":"eu","cc":"pl","latitude":52.2297,"longitude":21.017532,"reserved":0,"last_update":"0001-01-01T00:00:00Z","name_a2s":"","protocol":0,"map":"","folder":"","game":"","app_id":0,"player_count":0,"max_players":0,"Bots":0,"server_type":"","server_os":"","password":false,"vac":false,"version":"","steam_id":0,"keywords":null,"game_id":0,"stv_port":0,"stv_name":"","players":null},{"server_id":50,"name":"Uncletopia | Warsaw | 2 | All Maps","name_short":"waw-2","host":"waw-1.pl.uncletopia.com","port":27025,"enabled":true,"region":"eu","cc":"pl","latitude":52.2297,"longitude":21.017532,"reserved":0,"last_update":"0001-01-01T00:00:00Z","name_a2s":"Uncletopia | Warsaw | 2 | All Maps","protocol":17,"map":"koth_cascade","folder":"tf","game":"Team Fortress","app_id":440,"player_count":0,"max_players":24,"Bots":0,"server_type":"Dedicated","server_os":"Linux","password":true,"vac":true,"version":"7757534","steam_id":85568392925397851,"keywords":["cp","nocrits","nodmgspread","uncletopia"],"game_id":440,"stv_port":27026,"stv_name":"Uncletopia | Warsaw | 2 | All Maps | STV","players":null},{"server_id":51,"name":"Uncletopia | Warsaw | 3 | All Maps","name_short":"waw-3","host":"waw-1.pl.uncletopia.com","port":27035,"enabled":true,"region":"eu","cc":"pl","latitude":52.2297,"longitude":21.017532,"reserved":0,"last_update":"0001-01-01T00:00:00Z","name_a2s":"Uncletopia | Warsaw | 3 | All Maps","protocol":17,"map":"pl_barnblitz","folder":"tf","game":"Team Fortress","app_id":440,"player_count":0,"max_players":24,"Bots":0,"server_type":"Dedicated","server_os":"Linux","password":true,"vac":true,"version":"7757534","steam_id":85568392925397852,"keywords":["nocrits","nodmgspread","payload","uncletopia"],"game_id":440,"stv_port":27036,"stv_name":"Uncletopia | Warsaw | 3 | All Maps | STV","players":null},{"server_id":52,"name":"Uncletopia | Warsaw | 4 | All Maps","name_short":"waw-4","host":"waw-1.pl.uncletopia.com","port":27045,"enabled":true,"region":"eu","cc":"pl","latitude":52.2297,"longitude":21.017532,"reserved":0,"last_update":"0001-01-01T00:00:00Z","name_a2s":"Uncletopia | Warsaw | 4 | All Maps","protocol":17,"map":"cp_process_final","folder":"tf","game":"Team Fortress","app_id":440,"player_count":0,"max_players":24,"Bots":0,"server_type":"Dedicated","server_os":"Linux","password":true,"vac":true,"version":"7757534","steam_id":85568392925397853,"keywords":["cp","nocrits","nodmgspread","uncletopia"],"game_id":440,"stv_port":27046,"stv_name":"Uncletopia | Warsaw | 4 | All Maps | STV","players":null},{"server_id":53,"name":"Uncletopia | Warsaw | 5 | Stopwatch Beta","name_short":"waw-5","host":"waw-1.pl.uncletopia.com","port":27055,"enabled":true,"region":"eu","cc":"pl","latitude":52.2297,"longitude":21.017532,"reserved":0,"last_update":"0001-01-01T00:00:00Z","name_a2s":"Uncletopia | Warsaw | 5 | Stopwatch Beta","protocol":17,"map":"pl_pier","folder":"tf","game":"Team Fortress","app_id":440,"player_count":0,"max_players":24,"Bots":0,"server_type":"Dedicated","server_os":"Linux","password":true,"vac":true,"version":"7757534","steam_id":85568392925397854,"keywords":["nocrits","nodmgspread","payload","uncletopia"],"game_id":440,"stv_port":27056,"stv_name":"Uncletopia | Warsaw | 5 | Stopwatch Beta | STV","players":null},{"server_id":54,"name":"Uncletopia | Warsaw | 6 | Community","name_short":"waw-6","host":"waw-1.pl.uncletopia.com","port":27065,"enabled":true,"region":"eu","cc":"pl","latitude":52.2297,"longitude":21.017532,"reserved":0,"last_update":"0001-01-01T00:00:00Z","name_a2s":"Uncletopia | Warsaw | 6 | Community","protocol":17,"map":"koth_highpass","folder":"tf","game":"Team Fortress","app_id":440,"player_count":0,"max_players":24,"Bots":0,"server_type":"Dedicated","server_os":"Linux","password":true,"vac":true,"version":"7757534","steam_id":85568392925397856,"keywords":["cp","nocrits","nodmgspread","uncletopia"],"game_id":440,"stv_port":27066,"stv_name":"Uncletopia | Warsaw | 6 | Community | STV","players":null}]}