{"status":true,"message":"","result":[{"server_id":9,"name":"Uncletopia | Atlanta | 1 | All Maps","name_short":"atl-1","host":"atl-1.us.uncletopia.com","port":27015,"enabled":true,"region":"us-east","cc":"us","latitude":33.753746,"longitude":-84.38633,"reserved":0,"last_update":"0001-01-01T00:00:00Z","name_a2s":"Uncletopia | Atlanta | 1 | All Maps","protocol":17,"map":"pl_frontier_final","folder":"tf","game":"Team Fortress","app_id":440,"player_count":24,"max_players":24,"Bots":0,"server_type":"Dedicated","server_os":"Linux","password":true,"vac":true,"version":"7961495","steam_id":85568392924469982,"keywords":["nocrits","nodmgspread","payload","uncletopia"],"game_id":440,"stv_port":27016,"stv_name":"Uncletopia | Atlanta | 1 | All Maps | STV","players":[{"user_id":75,"name":"Heathcliff","steam_id":76561198044288534,"connected_time":9351000000000,"state":"active","ping":60},{"user_id":179,"name":"Yam Jazzy Jim","steam_id":76561198000788950,"connected_time":524000000000,"state":"active","ping":83},{"user_id":142,"name":"roii","steam_id":76561198157517892,"connected_time":2298000000000,"state":"active","ping":77},{"user_id":184,"name":"shane938","steam_id":76561198117541261,"connected_time":488000000000,"state":"active","ping":47},{"user_id":175,"name":"Kuri","steam_id":76561199037050183,"connected_time":1073000000000,"state":"active","ping":80},{"user_id":134,"name":"DysfunctionJunction","steam_id":76561198051815183,"connected_time":3863000000000,"state":"active","ping":80},{"user_id":185,"name":"clavin","steam_id":76561198069380992,"connected_time":486000000000,"state":"active","ping":72},{"user_id":148,"name":"amaz","steam_id":76561198386233160,"connected_time":2059000000000,"state":"active","ping":91},{"user_id":186,"name":"toastman","steam_id":76561198207073088,"connected_time":460000000000,"state":"active","ping":89},{"user_id":138,"name":"Punchy","steam_id":76561198200000641,"connected_time":2949000000000,"state":"active","ping":59},{"user_id":168,"name":"zacmattsmith","steam_id":76561199027704149,"connected_time":1588000000000,"state":"active","ping":89},{"user_id":189,"name":"strategic dier","steam_id":76561197999257178,"connected_time":51000000000,"state":"active","ping":76},{"user_id":187,"name":"ÔºîÔºê Ôº¶Ôº∞Ôº≥","steam_id":76561198272394965,"connected_time":457000000000,"state":"active","ping":174},{"user_id":188,"name":"R3L","steam_id":76561199493271991,"connected_time":456000000000,"state":"active","ping":161},{"user_id":140,"name":"Sinta","steam_id":76561198098398841,"connected_time":2927000000000,"state":"active","ping":57},{"user_id":144,"name":"Killbasa","steam_id":76561198064868400,"connected_time":2267000000000,"state":"active","ping":76},{"user_id":180,"name":"guy","steam_id":76561198079925551,"connected_time":517000000000,"state":"active","ping":74},{"user_id":99,"name":"Obelisk","steam_id":76561198049416866,"connected_time":7734000000000,"state":"active","ping":59},{"user_id":183,"name":"Dr.Inkmix(femboy)","steam_id":76561198854070384,"connected_time":515000000000,"state":"active","ping":115},{"user_id":145,"name":"Ashes!","steam_id":76561197998475441,"connected_time":2125000000000,"state":"active","ping":69},{"user_id":182,"name":"The_Stomach_Stone_Surgeon","steam_id":76561198044643725,"connected_time":515000000000,"state":"active","ping":39},{"user_id":173,"name":"Twisty Fresh Pretzel","steam_id":76561198137027826,"connected_time":1294000000000,"state":"active","ping":46},{"user_id":167,"name":"10 hours looking at the ceiling","steam_id":76561198249206656,"connected_time":1645000000000,"state":"active","ping":88},{"user_id":52,"name":"Aku+","steam_id":76561198813782795,"connected_time":11437000000000,"state":"active","ping":165}]},{"server_id":104,"name":"Uncletopia | Atlanta | 2 | All Maps","name_short":"atl-2","host":"atl-1.us.uncletopia.com","port":27025,"enabled":true,"region":"us-east","cc":"us","latitude":33.753746,"longitude":-84.38633,"reserved":0,"last_update":"0001-01-01T00:00:00Z","name_a2s":"Uncletopia | Atlanta | 2 | All Maps","protocol":17,"map":"cp_altitude","folder":"tf","game":"Team Fortress","app_id":440,"player_count":9,"max_players":24,"Bots":0,"server_type":"Dedicated","server_os":"Linux","password":true,"vac":true,"version":"7961495","steam_id":85568392924469983,"keywords":["cp","nocrits","nodmgspread","uncletopia"],"game_id":440,"stv_port":27026,"stv_name":"Uncletopia | Atlanta | 2 | All Maps | STV","players":[{"user_id":7,"name":"Resident Goober","steam_id":76561199205471969,"connected_time":1844000000000,"state":"active","ping":70},{"user_id":6,"name":"AidenNimitz","steam_id":76561198117377908,"connected_time":1908000000000,"state":"active","ping":45},{"user_id":22,"name":"smile4","steam_id":76561199506818749,"connected_time":468000000000,"state":"active","ping":62},{"user_id":14,"name":"ALonelyGhostE","steam_id":76561198184787290,"connected_time":1073000000000,"state":"active","ping":74},{"user_id":25,"name":"blueninjakillerscp","steam_id":76561199506312505,"connected_time":189000000000,"state":"connecting","ping":0},{"user_id":27,"name":"Deathbringer097","steam_id":76561198806994937,"connected_time":157000000000,"state":"active","ping":58},{"user_id":28,"name":"Tlaloc","steam_id":76561198375215983,"connected_time":102000000000,"state":"active","ping":153},{"user_id":18,"name":"Dr. Peppino Spaghetti","steam_id":76561199121285443,"connected_time":903000000000,"state":"active","ping":50},{"user_id":29,"name":"Papa John","steam_id":76561199386119444,"connected_time":29000000000,"state":"active","ping":53}]},{"server_id":400,"name":"Uncletopia | Atlanta | 3 | Stopwatch","name_short":"atl-3","host":"atl-1.us.uncletopia.com","port":27035,"enabled":true,"region":"us-east","cc":"us","latitude":33.753746,"longitude":-84.38633,"reserved":0,"last_update":"0001-01-01T00:00:00Z","name_a2s":"Uncletopia | Atlanta | 3 | Stopwatch","protocol":17,"map":"workshop/koth_clearcut_b15.ugc2107050255","folder":"tf","game":"Team Fortress","app_id":440,"player_count":0,"max_players":24,"Bots":0,"server_type":"Dedicated","server_os":"Linux","password":true,"vac":true,"version":"7961495","steam_id":85568392924515187,"keywords":["cp","nocrits","nodmgspread","uncletopia"],"game_id":440,"stv_port":27036,"stv_name":"Uncletopia | Atlanta | 3 | Stopwatch | STV","players":null},{"server_id":401,"name":"Uncletopia | Atlanta | 4 | Community","name_short":"atl-4","host":"atl-1.us.uncletopia.com","port":27045,"enabled":true,"region":"us-east","cc":"us","latitude":33.753746,"longitude":-84.38633,"reserved":0,"last_update":"0001-01-01T00:00:00Z","name_a2s":"Uncletopia | Atlanta | 4 | Community","protocol":17,"map":"workshop/koth_slaughter_rc1.ugc1712845210","folder":"tf","game":"Team Fortress","app_id":440,"player_count":0,"max_players":24,"Bots":0,"server_type":"Dedicated","server_os":"Linux","password":true,"vac":true,"version":"7961495","steam_id":85568392924515188,"keywords":["cp","nocrits","nodmgspread","uncletopia"],"game_id":440,"stv_port":27046,"stv_name":"Uncletopia | Atlanta | 4 | Community | STV","players":null},{"server_id":2,"name":"Uncletopia | Chicago | 1 | All Maps","name_short":"chi-1","host":"chi-1.us.uncletopia.com","port":27015,"enabled":true,"region":"us-central","cc":"us","latitude":41.881832,"longitude":-87.62318,"reserved":0,"last_update":"0001-01-01T00:00:00Z","name_a2s":"Uncletopia | Chicago | 1 | All Maps","protocol":17,"map":"koth_harvest_final","folder":"tf","game":"Team Fortress","app_id":440,"player_count":24,"max_players":24,"Bots":0,"server_type":"Dedicated","server_os":"Linux","password":true,"vac":true,"version":"7961495","steam_id":85568392924469984,"keywords":["cp","nocrits","nodmgspread","uncletopia"],"game_id":440,"stv_port":27016,"stv_name":"Uncletopia | Chicago | 1 | All Maps | STV","players":[{"user_id":367,"name":"Soda","steam_id":76561198219209367,"connected_time":1803000000000,"state":"active","ping":68},{"user_id":383,"name":"money getting 1 percenter","steam_id":76561198012796388,"connected_time":269000000000,"state":"active","ping":41},{"user_id":354,"name":"Melaza Bois","steam_id":76561199031977210,"connected_time":2716000000000,"state":"active","ping":69},{"user_id":302,"name":"mkl","steam_id":76561197986401685,"connected_time":7087000000000,"state":"active","ping":81},{"user_id":385,"name":"The Heart","steam_id":76561198271979288,"connected_time":221000000000,"state":"active","ping":38},{"user_id":386,"name":"rizzard of oz","steam_id":76561198040907214,"connected_time":159000000000,"state":"active","ping":60},{"user_id":360,"name":"beep","steam_id":76561199096448766,"connected_time":2146000000000,"state":"active","ping":54},{"user_id":341,"name":"I Generate Thrust","steam_id":76561198271907916,"connected_time":3973000000000,"state":"active","ping":52},{"user_id":374,"name":"0bliv","steam_id":76561198122715915,"connected_time":1369000000000,"state":"active","ping":182},{"user_id":332,"name":"Coup de Grass","steam_id":76561198011643226,"connected_time":4373000000000,"state":"active","ping":67},{"user_id":380,"name":"Oddjob","steam_id":76561198976160793,"connected_time":925000000000,"state":"active","ping":71},{"user_id":382,"name":"troll","steam_id":76561198082680563,"connected_time":524000000000,"state":"active","ping":54},{"user_id":347,"name":"AttackCommander","steam_id":76561198111522679,"connected_time":3216000000000,"state":"active","ping":72},{"user_id":376,"name":"BLOCKHEAD","steam_id":76561198808224331,"connected_time":1241000000000,"state":"active","ping":106},{"user_id":372,"name":"Vince Offer","steam_id":76561198991008825,"connected_time":1742000000000,"state":"active","ping":69},{"user_id":217,"name":"ThatGamingKiwi","steam_id":76561199170522237,"connected_time":13709000000000,"state":"active","ping":64},{"user_id":378,"name":"vince","steam_id":76561198054144974,"connected_time":1011000000000,"state":"active","ping":74},{"user_id":373,"name":"what the freak","steam_id":76561198080754727,"connected_time":1457000000000,"state":"active","ping":86},{"user_id":345,"name":"Lennu","steam_id":76561198060730154,"connected_time":3585000000000,"state":"active","ping":68},{"user_id":365,"name":"Ball Juggler","steam_id":76561198031675881,"connected_time":1852000000000,"state":"active","ping":42},{"user_id":210,"name":"Rode hard, put away wet","steam_id":76561198062764039,"connected_time":14248000000000,"state":"active","ping":68},{"user_id":314,"name":"Little Skull Boi","steam_id":76561198093595888,"connected_time":6278000000000,"state":"active","ping":97},{"user_id":377,"name":"SPYCHECK ME","steam_id":76561198980994364,"connected_time":1168000000000,"state":"active","ping":86},{"user_id":320,"name":"RedTheFoxisWow","steam_id":76561198827275380,"connected_time":5240000000000,"state":"active","ping":86}]},{"server_id":106,"name":"Uncletopia | Chicago | 2 | All Maps","name_short":"chi-2","host":"chi-1.us.uncletopia.com","port":27025,"enabled":true,"region":"us-central","cc":"us","latitude":41.881832,"longitude":-87.62318,"reserved":0,"last_update":"0001-01-01T00:00:00Z","name_a2s":"Uncletopia | Chicago | 2 | All Maps","protocol":17,"map":"cp_dustbowl","folder":"tf","game":"Team Fortress","app_id":440,"player_count":0,"max_players":24,"Bots":0,"server_type":"Dedicated","server_os":"Linux","password":true,"vac":true,"version":"7961495","steam_id":85568392924469985,"keywords":["cp","nocrits","nodmgspread","uncletopia"],"game_id":440,"stv_port":27026,"stv_name":"Uncletopia | Chicago | 2 | All Maps | STV","players":null},{"server_id":402,"name":"Uncletopia | Chicago | 3 | All Maps","name_short":"chi-3","host":"chi-1.us.uncletopia.com","port":27035,"enabled":true,"region":"us-central","cc":"us","latitude":41.881832,"longitude":-87.62318,"reserved":0,"last_update":"0001-01-01T00:00:00Z","name_a2s":"Uncletopia | Chicago | 3 | All Maps","protocol":17,"map":"plr_pipeline","folder":"tf","game":"Team Fortress","app_id":440,"player_count":0,"max_players":24,"Bots":0,"server_type":"Dedicated","server_os":"Linux","password":true,"vac":true,"version":"7961495","steam_id":85568392924515191,"keywords":["nocrits","nodmgspread","payload","uncletopia"],"game_id":440,"stv_port":27036,"stv_name":"Uncletopia | Chicago | 3 | All Maps | STV","players":null},{"server_id":403,"name":"Uncletopia | Chicago | 4 | All Maps","name_short":"chi-4","host":"chi-1.us.uncletopia.com","port":27045,"enabled":true,"region":"us-central","cc":"us","latitude":41.881832,"longitude":-87.62318,"reserved":0,"last_update":"0001-01-01T00:00:00Z","name_a2s":"Uncletopia | Chicago | 4 | All Maps","protocol":17,"map":"pl_rumford_event","folder":"tf","game":"Team Fortress","app_id":440,"player_count":0,"max_players":24,"Bots":0,"server_type":"Dedicated","server_os":"Linux","password":true,"vac":true,"version":"7961495","steam_id":85568392924515193,"keywords":["nocrits","nodmgspread","payload","uncletopia"],"game_id":440,"stv_port":27046,"stv_name":"Uncletopia | Chicago | 4 | All Maps | STV","players":null},{"server_id":36,"name":"Uncletopia | Chicago | 5 | All Maps","name_short":"chi-5","host":"chi-2.us.uncletopia.com","port":27015,"enabled":true,"region":"us-central","cc":"us","latitude":41.881832,"longitude":-87.62318,"reserved":0,"last_update":"0001-01-01T00:00:00Z","name_a2s":"Uncletopia | Chicago | 5 | All Maps","protocol":17,"map":"cp_sunshine","folder":"tf","game":"Team Fortress","app_id":440,"player_count":0,"max_players":24,"Bots":0,"server_type":"Dedicated","server_os":"Linux","password":true,"vac":true,"version":"7961495","steam_id":85568392924866362,"keywords":["cp","nocrits","nodmgspread","uncletopia"],"game_id":440,"stv_port":27016,"stv_name":"Uncletopia | Chicago | 5 | All Maps | STV","players":null},{"server_id":37,"name":"Uncletopia | Chicago | 6 | All Maps","name_short":"chi-6","host":"chi-2.us.uncletopia.com","port":27025,"enabled":true,"region":"us-central","cc":"us","latitude":41.881832,"longitude":-87.62318,"reserved":0,"last_update":"0001-01-01T00:00:00Z","name_a2s":"Uncletopia | Chicago | 6 | All Maps","protocol":17,"map":"pl_pier","folder":"tf","game":"Team Fortress","app_id":440,"player_count":24,"max_players":24,"Bots":0,"server_type":"Dedicated","server_os":"Linux","password":true,"vac":true,"version":"7961495","steam_id":85568392924866363,"keywords":["nocrits","nodmgspread","payload","uncletopia"],"game_id":440,"stv_port":27026,"stv_name":"Uncletopia | Chicago | 6 | All Maps | STV","players":[{"user_id":207,"name":"Peppa Pig","steam_id":76561198147772879,"connected_time":5875000000000,"state":"active","ping":82},{"user_id":252,"name":"Philo","steam_id":76561198061873341,"connected_time":2928000000000,"state":"active","ping":80},{"user_id":263,"name":"Overduecat","steam_id":76561198092452824,"connected_time":2201000000000,"state":"active","ping":59},{"user_id":271,"name":"SpongedSocks","steam_id":76561198374009086,"connected_time":1321000000000,"state":"active","ping":60},{"user_id":276,"name":"Orb","steam_id":76561198353963523,"connected_time":851000000000,"state":"active","ping":93},{"user_id":282,"name":"Outtasight Cosmos","steam_id":76561198086466378,"connected_time":587000000000,"state":"active","ping":53},{"user_id":253,"name":"Fresnel","steam_id":76561198266960876,"connected_time":2629000000000,"state":"active","ping":44},{"user_id":268,"name":"Winter the Witchie","steam_id":76561198151971178,"connected_time":1672000000000,"state":"active","ping":53},{"user_id":278,"name":"TTV/YT hunter","steam_id":76561198115812405,"connected_time":796000000000,"state":"active","ping":74},{"user_id":250,"name":"Fatpoob","steam_id":76561198056730096,"connected_time":3128000000000,"state":"active","ping":61},{"user_id":259,"name":"xX$VV@G_R3@P3R_$3X_$1\u0026Y3R_2008X","steam_id":76561198207215752,"connected_time":2373000000000,"state":"active","ping":60},{"user_id":260,"name":"Zini","steam_id":76561198930930400,"connected_time":2361000000000,"state":"active","ping":67},{"user_id":286,"name":"Siz","steam_id":76561198072962154,"connected_time":366000000000,"state":"active","ping":65},{"user_id":283,"name":"Charlie","steam_id":76561199098209171,"connected_time":568000000000,"state":"active","ping":74},{"user_id":270,"name":"William Lovett","steam_id":76561197991063996,"connected_time":1543000000000,"state":"active","ping":50},{"user_id":266,"name":"magnos62564","steam_id":76561198356968225,"connected_time":1734000000000,"state":"active","ping":165},{"user_id":280,"name":"Sunshine","steam_id":76561198885528098,"connected_time":775000000000,"state":"active","ping":74},{"user_id":228,"name":"SecurityCamera","steam_id":76561198117266792,"connected_time":4940000000000,"state":"active","ping":96},{"user_id":288,"name":"doro","steam_id":76561198099041747,"connected_time":142000000000,"state":"active","ping":103},{"user_id":289,"name":"Steeper","steam_id":76561198122650609,"connected_time":110000000000,"state":"active","ping":84},{"user_id":230,"name":"xoms","steam_id":76561199068623664,"connected_time":4893000000000,"state":"active","ping":103},{"user_id":231,"name":"Kerpal45","steam_id":76561198153340350,"connected_time":4882000000000,"state":"active","ping":84},{"user_id":281,"name":"BlinkEcho","steam_id":76561198134004689,"connected_time":773000000000,"state":"active","ping":58},{"user_id":269,"name":"Anomet","steam_id":76561198060246255,"connected_time":1642000000000,"state":"active","ping":66}]},{"server_id":38,"name":"Uncletopia | Chicago | 7 | Stopwatch","name_short":"chi-7","host":"chi-2.us.uncletopia.com","port":27035,"enabled":true,"region":"us-central","cc":"us","latitude":41.881832,"longitude":-87.62318,"reserved":0,"last_update":"0001-01-01T00:00:00Z","name_a2s":"Uncletopia | Chicago | 7 | Stopwatch","protocol":17,"map":"cp_snakewater_final1","folder":"tf","game":"Team Fortress","app_id":440,"player_count":0,"max_players":24,"Bots":0,"server_type":"Dedicated","server_os":"Linux","password":true,"vac":true,"version":"7961495","steam_id":85568392924866364,"keywords":["cp","nocrits","nodmgspread","uncletopia"],"game_id":440,"stv_port":27036,"stv_name":"Uncletopia | Chicago | 7 | Stopwatch | STV","players":null},{"server_id":39,"name":"Uncletopia | Chicago | 8 | Community","name_short":"chi-8","host":"chi-2.us.uncletopia.com","port":27045,"enabled":true,"region":"us-central","cc":"us","latitude":41.881832,"longitude":-87.62318,"reserved":0,"last_update":"0001-01-01T00:00:00Z","name_a2s":"Uncletopia | Chicago | 8 | Community","protocol":17,"map":"workshop/koth_slaughter_rc1.ugc1712845210","folder":"tf","game":"Team Fortress","app_id":440,"player_count":0,"max_players":24,"Bots":0,"server_type":"Dedicated","server_os":"Linux","password":true,"vac":true,"version":"7961495","steam_id":85568392924866365,"keywords":["cp","nocrits","nodmgspread","uncletopia"],"game_id":440,"stv_port":27046,"stv_name":"Uncletopia | Chicago | 8 | Community | STV","players":null},{"server_id":8,"name":"Uncletopia | Dallas | 1 | All Maps","name_short":"dal-1","host":"dal-1.us.uncletopia.com","port":27015,"enabled":true,"region":"us-central","cc":"us","latitude":32.779167,"longitude":-96.80889,"reserved":0,"last_update":"0001-01-01T00:00:00Z","name_a2s":"Uncletopia | Dallas | 1 | All Maps","protocol":17,"map":"cp_dustbowl","folder":"tf","game":"Team Fortress","app_id":440,"player_count":24,"max_players":24,"Bots":0,"server_type":"Dedicated","server_os":"Linux","password":true,"vac":true,"version":"7961495","steam_id":85568392924469986,"keywords":["cp","nocrits","nodmgspread","uncletopia"],"game_id":440,"stv_port":27016,"stv_name":"Uncletopia | Dallas | 1 | All Maps | STV","players":[{"user_id":240,"name":"37 septillion tapeworms","steam_id":76561198186128723,"connected_time":140000000000,"state":"active","ping":46},{"user_id":216,"name":"Pancho","steam_id":76561198155847264,"connected_time":2662000000000,"state":"active","ping":46},{"user_id":226,"name":"Vroooooooooooooooom","steam_id":76561198139913628,"connected_time":1875000000000,"state":"active","ping":45},{"user_id":237,"name":"Lil-Chanka","steam_id":76561199009724257,"connected_time":392000000000,"state":"active","ping":134},{"user_id":234,"name":"Dr. Han","steam_id":76561198811130843,"connected_time":676000000000,"state":"active","ping":91},{"user_id":232,"name":"Arrluk","steam_id":76561198396679452,"connected_time":1277000000000,"state":"active","ping":59},{"user_id":210,"name":"jordanfer111","steam_id":76561198044993097,"connected_time":2857000000000,"state":"active","ping":78},{"user_id":152,"name":"DMM","steam_id":76561198065426171,"connected_time":7269000000000,"state":"active","ping":55},{"user_id":245,"name":"The Black Ghost of Chip Skylark","steam_id":76561199486430601,"connected_time":41000000000,"state":"active","ping":54},{"user_id":231,"name":"1998 Volvo S70 T5","steam_id":76561198258615044,"connected_time":1303000000000,"state":"active","ping":94},{"user_id":223,"name":"Brandino!","steam_id":76561198000446932,"connected_time":2065000000000,"state":"active","ping":97},{"user_id":224,"name":"Bogey","steam_id":76561198096227944,"connected_time":1982000000000,"state":"active","ping":52},{"user_id":242,"name":"shitass | troutsupply.net","steam_id":76561198210572481,"connected_time":104000000000,"state":"active","ping":60},{"user_id":165,"name":"mrpineapple070","steam_id":76561199088278757,"connected_time":6167000000000,"state":"active","ping":66},{"user_id":243,"name":"shotgun sam","steam_id":76561199160884713,"connected_time":98000000000,"state":"active","ping":68},{"user_id":218,"name":"Anonymoose","steam_id":76561198862312405,"connected_time":2449000000000,"state":"active","ping":62},{"user_id":246,"name":"HeroOfTime","steam_id":76561199096218001,"connected_time":36000000000,"state":"active","ping":83},{"user_id":228,"name":"Gl√ºhbirne","steam_id":76561198189278869,"connected_time":1666000000000,"state":"active","ping":72},{"user_id":146,"name":"Derblitz","steam_id":76561198040953176,"connected_time":7872000000000,"state":"active","ping":75},{"user_id":244,"name":"Canned Bread","steam_id":76561199079034911,"connected_time":86000000000,"state":"active","ping":79},{"user_id":220,"name":"Evil little man","steam_id":76561198311053471,"connected_time":2435000000000,"state":"active","ping":57},{"user_id":247,"name":"Mentally Ill Woman","steam_id":76561198072030567,"connected_time":24000000000,"state":"active","ping":79},{"user_id":221,"name":"motherfucker 2.0","steam_id":76561198141189209,"connected_time":2412000000000,"state":"active","ping":33},{"user_id":239,"name":"DlTTO","steam_id":76561199427026752,"connected_time":292000000000,"state":"active","ping":88}]},{"server_id":108,"name":"Uncletopia | Dallas | 2 | All Maps","name_short":"dal-2","host":"dal-1.us.uncletopia.com","port":27025,"enabled":true,"region":"us-central","cc":"us","latitude":32.779167,"longitude":-96.80889,"reserved":0,"last_update":"0001-01-01T00:00:00Z","name_a2s":"Uncletopia | Dallas | 2 | All Maps","protocol":17,"map":"pl_borneo","folder":"tf","game":"Team Fortress","app_id":440,"player_count":0,"max_players":24,"Bots":0,"server_type":"Dedicated","server_os":"Linux","password":true,"vac":true,"version":"7961495","steam_id":85568392924469988,"keywords":["nocrits","nodmgspread","payload","uncletopia"],"game_id":440,"stv_port":27026,"stv_name":"Uncletopia | Dallas | 2 | All Maps | STV","players":null},{"server_id":404,"name":"Uncletopia | Dallas | 3 | All Maps","name_short":"dal-3","host":"dal-1.us.uncletopia.com","port":27035,"enabled":true,"region":"us-central","cc":"us","latitude":32.779167,"longitude":-96.80889,"reserved":0,"last_update":"0001-01-01T00:00:00Z","name_a2s":"Uncletopia | Dallas | 3 | All Maps","protocol":17,"map":"cp_coldfront","folder":"tf","game":"Team Fortress","app_id":440,"player_count":0,"max_players":24,"Bots":0,"server_type":"Dedicated","server_os":"Linux","password":true,"vac":true,"version":"7961495","steam_id":85568392924515219,"keywords":["cp","nocrits","nodmgspread","uncletopia"],"game_id":440,"stv_port":27036,"stv_name":"Uncletopia | Dallas | 3 | All Maps | STV","players":null},{"server_id":405,"name":"Uncletopia | Dallas | 4 | Community","name_short":"dal-4","host":"dal-1.us.uncletopia.com","port":27045,"enabled":true,"region":"us-central","cc":"us","latitude":32.779167,"longitude":-96.80889,"reserved":0,"last_update":"0001-01-01T00:00:00Z","name_a2s":"Uncletopia | Dallas | 4 | Community","protocol":17,"map":"workshop/pl_fifthcurve_rc1.ugc648227046","folder":"tf","game":"Team Fortress","app_id":440,"player_count":0,"max_players":24,"Bots":0,"server_type":"Dedicated","server_os":"Linux","password":true,"vac":true,"version":"7961495","steam_id":85568392924515220,"keywords":["nocrits","nodmgspread","payload","uncletopia"],"game_id":440,"stv_port":27046,"stv_name":"Uncletopia | Dallas | 4 | Community | STV","players":null},{"server_id":5,"name":"Uncletopia | Frankfurt | 1 | All Maps","name_short":"frk-1","host":"frk-1.de.uncletopia.com","port":27015,"enabled":true,"region":"eu","cc":"de","latitude":50.110924,"longitude":8.682127,"reserved":0,"last_update":"0001-01-01T00:00:00Z","name_a2s":"Uncletopia | Frankfurt | 1 | All Maps","protocol":17,"map":"plr_hightower","folder":"tf","game":"Team Fortress","app_id":440,"player_count":24,"max_players":24,"Bots":0,"server_type":"Dedicated","server_os":"Linux","password":true,"vac":true,"version":"7961495","steam_id":85568392924469989,"keywords":["nocrits","nodmgspread","payload","uncletopia"],"game_id":440,"stv_port":27016,"stv_name":"Uncletopia | Frankfurt | 1 | All Maps | STV","players":[{"user_id":426,"name":"Maxin","steam_id":76561197999923364,"connected_time":2134000000000,"state":"active","ping":67},{"user_id":418,"name":"Ebling Mis","steam_id":76561198977948250,"connected_time":2563000000000,"state":"active","ping":58},{"user_id":450,"name":"Eliazz","steam_id":76561198374651481,"connected_time":458000000000,"state":"active","ping":59},{"user_id":378,"name":"—Ç–µ—Å—Ç–æ—Å—Ç–µ—Ä–æ–Ω–≤–∏–∑–ª\ufffd","steam_id":76561198107146733,"connected_time":4565000000000,"state":"active","ping":75},{"user_id":430,"name":"tekszi","steam_id":76561198107220903,"connected_time":1963000000000,"state":"active","ping":45},{"user_id":379,"name":"Rodak","steam_id":76561199135986344,"connected_time":4554000000000,"state":"active","ping":45},{"user_id":382,"name":"MR BUBBLES","steam_id":76561198019005259,"connected_time":4515000000000,"state":"active","ping":89},{"user_id":441,"name":"‚úö–ß—ã–∂‚úö","steam_id":76561198273074492,"connected_time":783000000000,"state":"active","ping":106},{"user_id":390,"name":"Costarona","steam_id":76561197989455970,"connected_time":4332000000000,"state":"active","ping":63},{"user_id":383,"name":"E2-E4","steam_id":76561198184990375,"connected_time":4507000000000,"state":"active","ping":74},{"user_id":442,"name":"Obscure Rock Album","steam_id":76561198032359132,"connected_time":774000000000,"state":"active","ping":54},{"user_id":424,"name":"Master coitus","steam_id":76561198050416948,"connected_time":2202000000000,"state":"active","ping":45},{"user_id":432,"name":"ramko_","steam_id":76561198379753516,"connected_time":1727000000000,"state":"active","ping":76},{"user_id":425,"name":"Maddog","steam_id":76561198401562263,"connected_time":2201000000000,"state":"active","ping":60},{"user_id":436,"name":"ghenios","steam_id":76561198030011207,"connected_time":1520000000000,"state":"active","ping":83},{"user_id":446,"name":"Sauce boy","steam_id":76561198168809700,"connected_time":765000000000,"state":"active","ping":110},{"user_id":445,"name":"The SPy","steam_id":76561198392505656,"connected_time":766000000000,"state":"active","ping":59},{"user_id":427,"name":"–†–µ–î–∞–ù–æ–í–µ–¶ ^_^","steam_id":76561199032612973,"connected_time":2047000000000,"state":"active","ping":71},{"user_id":421,"name":"Stickmakerman","steam_id":76561197960479462,"connected_time":2439000000000,"state":"active","ping":90},{"user_id":433,"name":"Sulfurage","steam_id":76561198192391854,"connected_time":1711000000000,"state":"active","ping":51},{"user_id":447,"name":"waj","steam_id":76561198053628243,"connected_time":755000000000,"state":"active","ping":61},{"user_id":431,"name":"joshi ÀÑÀÖ","steam_id":76561198124857271,"connected_time":1957000000000,"state":"active","ping":89},{"user_id":449,"name":"Mayor Wank from Wanker Town","steam_id":76561197998253588,"connected_time":500000000000,"state":"active","ping":45},{"user_id":452,"name":"Carlo","steam_id":76561198276491098,"connected_time":275000000000,"state":"active","ping":59}]},{"server_id":110,"name":"Uncletopia | Frankfurt | 2 | All Maps","name_short":"frk-2","host":"frk-1.de.uncletopia.com","port":27025,"enabled":true,"region":"eu","cc":"de","latitude":50.110924,"longitude":8.682127,"reserved":0,"last_update":"0001-01-01T00:00:00Z","name_a2s":"Uncletopia | Frankfurt | 2 | All Maps","protocol":17,"map":"pl_enclosure_final","folder":"tf","game":"Team Fortress","app_id":440,"player_count":24,"max_players":24,"Bots":0,"server_type":"Dedicated","server_os":"Linux","password":true,"vac":true,"version":"7961495","steam_id":85568392924469990,"keywords":["nocrits","nodmgspread","payload","uncletopia"],"game_id":440,"stv_port":27026,"stv_name":"Uncletopia | Frankfurt | 2 | All Maps | STV","players":[{"user_id":379,"name":"-.-","steam_id":76561199239412094,"connected_time":3676000000000,"state":"active","ping":61},{"user_id":401,"name":"Ash","steam_id":76561198272001890,"connected_time":2303000000000,"state":"active","ping":58},{"user_id":380,"name":"fifionet","steam_id":76561198026618085,"connected_time":3665000000000,"state":"active","ping":52},{"user_id":415,"name":"Rigby","steam_id":76561198021552128,"connected_time":1090000000000,"state":"active","ping":89},{"user_id":420,"name":"Shourai","steam_id":76561198201192634,"connected_time":920000000000,"state":"active","ping":73},{"user_id":288,"name":"Glada Snickaren","steam_id":76561198019037458,"connected_time":8875000000000,"state":"active","ping":54},{"user_id":402,"name":"TrippyPerson","steam_id":76561198805044643,"connected_time":2283000000000,"state":"active","ping":65},{"user_id":421,"name":"Keke","steam_id":76561198161351567,"connected_time":919000000000,"state":"active","ping":60},{"user_id":431,"name":"compact disc","steam_id":76561198154677956,"connected_time":609000000000,"state":"active","ping":60},{"user_id":422,"name":"Pahvi-Make","steam_id":76561198126135559,"connected_time":908000000000,"state":"active","ping":93},{"user_id":381,"name":"maslowski02","steam_id":76561199410835527,"connected_time":3664000000000,"state":"active","ping":53},{"user_id":428,"name":"Sweetcheesus","steam_id":76561198022299033,"connected_time":688000000000,"state":"active","ping":45},{"user_id":426,"name":"Leviticus Cornwall","steam_id":76561197993702685,"connected_time":722000000000,"state":"active","ping":82},{"user_id":416,"name":"asd_","steam_id":76561198060417920,"connected_time":1027000000000,"state":"active","ping":78},{"user_id":434,"name":"ko","steam_id":76561198010098129,"connected_time":363000000000,"state":"active","ping":62},{"user_id":423,"name":"sex haver","steam_id":76561198798892497,"connected_time":879000000000,"state":"active","ping":52},{"user_id":429,"name":"Relaxedd ü¶îü¶îü¶î","steam_id":76561198072727888,"connected_time":660000000000,"state":"active","ping":73},{"user_id":406,"name":"J'zargo Engineering","steam_id":76561198088898260,"connected_time":2203000000000,"state":"active","ping":61},{"user_id":432,"name":"Interview A","steam_id":76561199012566222,"connected_time":564000000000,"state":"active","ping":50},{"user_id":407,"name":"Odinmuninn99","steam_id":76561198393712705,"connected_time":2192000000000,"state":"active","ping":93},{"user_id":425,"name":"meirfa","steam_id":76561198157193506,"connected_time":874000000000,"state":"active","ping":104},{"user_id":433,"name":"hgvgdwa","steam_id":76561198156499356,"connected_time":536000000000,"state":"active","ping":62},{"user_id":333,"name":"Waltcha","steam_id":76561198007691468,"connected_time":6083000000000,"state":"active","ping":60},{"user_id":409,"name":"DiracDeltaFunction","steam_id":76561199201624841,"connected_time":2162000000000,"state":"active","ping":68}]},{"server_id":308,"name":"Uncletopia | Frankfurt | 3 | All Maps","name_short":"frk-3","host":"frk-1.de.uncletopia.com","port":27035,"enabled":true,"region":"eu","cc":"de","latitude":50.110924,"longitude":8.682127,"reserved":0,"last_update":"0001-01-01T00:00:00Z","name_a2s":"Uncletopia | Frankfurt | 3 | All Maps","protocol":17,"map":"cp_dustbowl","folder":"tf","game":"Team Fortress","app_id":440,"player_count":22,"max_players":24,"Bots":0,"server_type":"Dedicated","server_os":"Linux","password":true,"vac":true,"version":"7961495","steam_id":85568392924504274,"keywords":["cp","nocrits","nodmgspread","uncletopia"],"game_id":440,"stv_port":27036,"stv_name":"Uncletopia | Frankfurt | 3 | All Maps | STV","players":[{"user_id":105,"name":"hoho","steam_id":76561198237378014,"connected_time":4018000000000,"state":"active","ping":61},{"user_id":120,"name":"Vonacht","steam_id":76561198016033944,"connected_time":3781000000000,"state":"active","ping":61},{"user_id":111,"name":"Dronk","steam_id":76561198826005248,"connected_time":3955000000000,"state":"active","ping":62},{"user_id":141,"name":"KST.B1","steam_id":76561199095690614,"connected_time":1440000000000,"state":"active","ping":63},{"user_id":151,"name":"Armand","steam_id":76561198236126774,"connected_time":1024000000000,"state":"active","ping":51},{"user_id":163,"name":"DocterDeez","steam_id":76561198164592120,"connected_time":225000000000,"state":"active","ping":57},{"user_id":164,"name":"Djingis Khan","steam_id":76561197967864460,"connected_time":219000000000,"state":"active","ping":45},{"user_id":162,"name":"Purrplehaze","steam_id":76561198297604298,"connected_time":262000000000,"state":"active","ping":60},{"user_id":165,"name":"Reiyo the Interloper","steam_id":76561198155092485,"connected_time":205000000000,"state":"active","ping":47},{"user_id":156,"name":"Urfangonultasadana","steam_id":76561199389286151,"connected_time":813000000000,"state":"active","ping":80},{"user_id":140,"name":"Arturias","steam_id":76561198188720263,"connected_time":1928000000000,"state":"active","ping":58},{"user_id":112,"name":"cacsm","steam_id":76561199175492954,"connected_time":3952000000000,"state":"active","ping":88},{"user_id":115,"name":"Finnish Farmer","steam_id":76561198205366043,"connected_time":3915000000000,"state":"active","ping":74},{"user_id":116,"name":"zazuza","steam_id":76561198049820905,"connected_time":3894000000000,"state":"active","ping":60},{"user_id":167,"name":"Duff","steam_id":76561198144573381,"connected_time":182000000000,"state":"active","ping":64},{"user_id":168,"name":"DEFENDOR62","steam_id":76561199386703896,"connected_time":170000000000,"state":"active","ping":51},{"user_id":152,"name":"After8","steam_id":76561198090750865,"connected_time":1005000000000,"state":"active","ping":73},{"user_id":169,"name":"Krowzoid","steam_id":76561199095870069,"connected_time":163000000000,"state":"active","ping":92},{"user_id":146,"name":"Rammtrait","steam_id":76561198016436610,"connected_time":1337000000000,"state":"active","ping":60},{"user_id":147,"name":"cock fucker pussy smacker","steam_id":76561198097515215,"connected_time":1322000000000,"state":"active","ping":52},{"user_id":148,"name":"LE$KA","steam_id":76561198211434744,"connected_time":1314000000000,"state":"active","ping":73},{"user_id":170,"name":"luisar02","steam_id":76561198254259783,"connected_time":59000000000,"state":"active","ping":78}]},{"server_id":309,"name":"Uncletopia | Frankfurt | 4 | All Maps","name_short":"frk-4","host":"frk-1.de.uncletopia.com","port":27045,"enabled":true,"region":"eu","cc":"de","latitude":50.110924,"longitude":8.682127,"reserved":0,"last_update":"0001-01-01T00:00:00Z","name_a2s":"Uncletopia | Frankfurt | 4 | All Maps","protocol":17,"map":"pl_borneo","folder":"tf","game":"Team Fortress","app_id":440,"player_count":24,"max_players":24,"Bots":0,"server_type":"Dedicated","server_os":"Linux","password":true,"vac":true,"version":"7961495","steam_id":85568392924504275,"keywords":["nocrits","nodmgspread","payload","uncletopia"],"game_id":440,"stv_port":27046,"stv_name":"Uncletopia | Frankfurt | 4 | All Maps | STV","players":[{"user_id":200,"name":"Maximilian1359","steam_id":76561198152439608,"connected_time":2566000000000,"state":"active","ping":41},{"user_id":161,"name":"NonProphet","steam_id":76561198280149820,"connected_time":5604000000000,"state":"active","ping":61},{"user_id":180,"name":"Catalin8088","steam_id":76561198339094253,"connected_time":3665000000000,"state":"active","ping":72},{"user_id":117,"name":"Lauchboiz | Bannic","steam_id":76561198060362129,"connected_time":9029000000000,"state":"active","ping":52},{"user_id":216,"name":"Hey, I¬¥m Andy!","steam_id":76561198060337777,"connected_time":993000000000,"state":"active","ping":62},{"user_id":218,"name":"0)","steam_id":76561198337388910,"connected_time":481000000000,"state":"active","ping":90},{"user_id":214,"name":"Chappi","steam_id":76561198075512843,"connected_time":1018000000000,"state":"active","ping":103},{"user_id":90,"name":"DocTwoEight","steam_id":76561198153488940,"connected_time":10237000000000,"state":"active","ping":61},{"user_id":212,"name":"Hercules","steam_id":76561198041164170,"connected_time":1261000000000,"state":"active","ping":59},{"user_id":206,"name":"MENTABETAI","steam_id":76561198049728799,"connected_time":2142000000000,"state":"active","ping":78},{"user_id":215,"name":"void","steam_id":76561198035831433,"connected_time":1008000000000,"state":"active","ping":57},{"user_id":222,"name":"3L","steam_id":76561198007208996,"connected_time":418000000000,"state":"active","ping":44},{"user_id":219,"name":"powej","steam_id":76561198056381418,"connected_time":467000000000,"state":"active","ping":57},{"user_id":188,"name":"phr√∂g","steam_id":76561199230709660,"connected_time":3323000000000,"state":"active","ping":60},{"user_id":223,"name":"Huskai","steam_id":76561198141512362,"connected_time":354000000000,"state":"active","ping":45},{"user_id":182,"name":"Inovatik","steam_id":76561198165145696,"connected_time":3646000000000,"state":"active","ping":53},{"user_id":226,"name":"Guwop","steam_id":76561197970425737,"connected_time":119000000000,"state":"active","ping":155},{"user_id":207,"name":"Keroz1n","steam_id":76561197998681491,"connected_time":2016000000000,"state":"active","ping":60},{"user_id":145,"name":"sticks","steam_id":76561198127099299,"connected_time":6980000000000,"state":"active","ping":51},{"user_id":227,"name":"D O M","steam_id":76561199490641827,"connected_time":58000000000,"state":"active","ping":52},{"user_id":210,"name":"Hurans","steam_id":76561198064853199,"connected_time":1563000000000,"state":"active","ping":59},{"user_id":168,"name":"francisco","steam_id":76561198074614581,"connected_time":5457000000000,"state":"active","ping":57},{"user_id":196,"name":"Lers","steam_id":76561198061619788,"connected_time":2621000000000,"state":"active","ping":59},{"user_id":217,"name":"UJAGaming","steam_id":76561198147959101,"connected_time":975000000000,"state":"active","ping":80}]},{"server_id":310,"name":"Uncletopia | Frankfurt | 5 | All Maps","name_short":"frk-5","host":"frk-1.de.uncletopia.com","port":27055,"enabled":true,"region":"eu","cc":"de","latitude":50.110924,"longitude":8.682127,"reserved":0,"last_update":"0001-01-01T00:00:00Z","name_a2s":"Uncletopia | Frankfurt | 5 | All Maps","protocol":17,"map":"koth_highpass","folder":"tf","game":"Team Fortress","app_id":440,"player_count":0,"max_players":24,"Bots":0,"server_type":"Dedicated","server_os":"Linux","password":true,"vac":true,"version":"7961495","steam_id":85568392924504277,"keywords":["cp","nocrits","nodmgspread","uncletopia"],"game_id":440,"stv_port":27056,"stv_name":"Uncletopia | Frankfurt | 5 | All Maps | STV","players":null},{"server_id":311,"name":"Uncletopia | Frankfurt | 6 | All Maps","name_short":"frk-6","host":"frk-1.de.uncletopia.com","port":27065,"enabled":true,"region":"eu","cc":"de","latitude":50.110924,"longitude":8.682127,"reserved":0,"last_update":"0001-01-01T00:00:00Z","name_a2s":"Uncletopia | Frankfurt | 6 | All Maps","protocol":17,"map":"cp_snakewater_final1","folder":"tf","game":"Team Fortress","app_id":440,"player_count":18,"max_players":24,"Bots":0,"server_type":"Dedicated","server_os":"Linux","password":true,"vac":true,"version":"7961495","steam_id":85568392924504278,"keywords":["cp","nocrits","nodmgspread","uncletopia"],"game_id":440,"stv_port":27066,"stv_name":"Uncletopia | Frankfurt | 6 | All Maps | STV","players":[{"user_id":429,"name":"Sir Warock","steam_id":76561198180468693,"connected_time":44000000000,"state":"active","ping":59},{"user_id":423,"name":"SirClyan","steam_id":76561199196651938,"connected_time":250000000000,"state":"active","ping":53},{"user_id":397,"name":"BlackSuperhero","steam_id":76561199500033132,"connected_time":1965000000000,"state":"active","ping":98},{"user_id":414,"name":"sokige","steam_id":76561198167112371,"connected_time":1101000000000,"state":"active","ping":91},{"user_id":430,"name":"_420_StopItDudeCmon","steam_id":76561197997146481,"connected_time":28000000000,"state":"active","ping":53},{"user_id":369,"name":"DooWooD","steam_id":76561198335810106,"connected_time":2779000000000,"state":"active","ping":105},{"user_id":415,"name":"CNTRL","steam_id":76561199125803827,"connected_time":942000000000,"state":"active","ping":58},{"user_id":416,"name":"Diako","steam_id":76561199085740715,"connected_time":930000000000,"state":"active","ping":57},{"user_id":401,"name":"U;j5ua;YB2_amRe3","steam_id":76561198068429874,"connected_time":1943000000000,"state":"active","ping":167},{"user_id":417,"name":"R8N - Obismal","steam_id":76561198007482714,"connected_time":929000000000,"state":"active","ping":74},{"user_id":426,"name":"Bzd","steam_id":76561198204521956,"connected_time":107000000000,"state":"active","ping":73},{"user_id":381,"name":"TylowStar","steam_id":76561198357107806,"connected_time":2463000000000,"state":"active","ping":71},{"user_id":406,"name":"Darkenergy","steam_id":76561199050825961,"connected_time":1778000000000,"state":"active","ping":82},{"user_id":409,"name":"Lord Mendigo","steam_id":76561198207957111,"connected_time":1738000000000,"state":"active","ping":82},{"user_id":425,"name":"Saint","steam_id":76561198003296382,"connected_time":131000000000,"state":"active","ping":62},{"user_id":420,"name":"Flying skyhigh","steam_id":76561198372971096,"connected_time":600000000000,"state":"active","ping":75},{"user_id":402,"name":"Yodawg","steam_id":76561198261933946,"connected_time":1943000000000,"state":"active","ping":47},{"user_id":388,"name":"huutti","steam_id":76561198138304806,"connected_time":2300000000000,"state":"active","ping":82}]},{"server_id":23,"name":"Uncletopia | Frankfurt | 7 | Stopwatch","name_short":"frk-7","host":"frk-1.de.uncletopia.com","port":27075,"enabled":true,"region":"eu","cc":"de","latitude":50.110924,"longitude":8.682127,"reserved":0,"last_update":"0001-01-01T00:00:00Z","name_a2s":"Uncletopia | Frankfurt | 7 | Stopwatch","protocol":17,"map":"workshop/koth_bagel_rc6.ugc2514036946","folder":"tf","game":"Team Fortress","app_id":440,"player_count":0,"max_players":24,"Bots":0,"server_type":"Dedicated","server_os":"Linux","password":true,"vac":true,"version":"7961495","steam_id":85568392924742827,"keywords":["cp","nocrits","nodmgspread","uncletopia"],"game_id":440,"stv_port":27076,"stv_name":"Uncletopia | Frankfurt | 7 | Stopwatch | STV","players":null},{"server_id":24,"name":"Uncletopia | Frankfurt | 8 | Community","name_short":"frk-8","host":"frk-1.de.uncletopia.com","port":27085,"enabled":true,"region":"eu","cc":"de","latitude":50.110924,"longitude":8.682127,"reserved":0,"last_update":"0001-01-01T00:00:00Z","name_a2s":"Uncletopia | Frankfurt | 8 | Community","protocol":17,"map":"workshop/cp_snowbase_b21.ugc2081770490","folder":"tf","game":"Team Fortress","app_id":440,"player_count":0,"max_players":24,"Bots":0,"server_type":"Dedicated","server_os":"Linux","password":true,"vac":true,"version":"7961495","steam_id":85568392924742828,"keywords":["cp","nocrits","nodmgspread","uncletopia"],"game_id":440,"stv_port":27086,"stv_name":"Uncletopia | Frankfurt | 8 | Community | STV","players":null},{"server_id":202,"name":"Uncletopia | Hong Kong | 1 | All Maps","name_short":"hgk-1","host":"hgk-1.hk.uncletopia.com","port":27015,"enabled":true,"region":"asia","cc":"hk","latitude":22.302711,"longitude":114.177216,"reserved":0,"last_update":"0001-01-01T00:00:00Z","name_a2s":"Uncletopia | Hong Kong | 1 | All Maps","protocol":17,"map":"pl_borneo","folder":"tf","game":"Team Fortress","app_id":440,"player_count":0,"max_players":24,"Bots":0,"server_type":"Dedicated","server_os":"Linux","password":true,"vac":true,"version":"7961495","steam_id":85568392924494504,"keywords":["nocrits","nodmgspread","payload","uncletopia"],"game_id":440,"stv_port":27016,"stv_name":"Uncletopia | Hong Kong | 1 | All Maps | STV","players":null},{"server_id":1,"name":"Uncletopia | Los Angeles | 1 | All Maps","name_short":"lax-1","host":"lax-1.us.uncletopia.com","port":27015,"enabled":true,"region":"us-west","cc":"us","latitude":33.94279,"longitude":-118.41004,"reserved":0,"last_update":"0001-01-01T00:00:00Z","name_a2s":"Uncletopia | Los Angeles | 1 | All Maps","protocol":17,"map":"cp_sunshine","folder":"tf","game":"Team Fortress","app_id":440,"player_count":24,"max_players":24,"Bots":0,"server_type":"Dedicated","server_os":"Linux","password":true,"vac":true,"version":"7961495","steam_id":85568392924469991,"keywords":["cp","nocrits","nodmgspread","uncletopia"],"game_id":440,"stv_port":27016,"stv_name":"Uncletopia | Los Angeles | 1 | All Maps | STV","players":[{"user_id":49,"name":"Typh","steam_id":76561198315344079,"connected_time":5352000000000,"state":"active","ping":103},{"user_id":100,"name":"Jokergamma","steam_id":76561198807984541,"connected_time":569000000000,"state":"active","ping":63},{"user_id":82,"name":"skate fast eat ass","steam_id":76561198152007894,"connected_time":2528000000000,"state":"active","ping":108},{"user_id":107,"name":"Sasuri","steam_id":76561198404769732,"connected_time":338000000000,"state":"active","ping":55},{"user_id":89,"name":"Boxhead","steam_id":76561198010183947,"connected_time":1904000000000,"state":"active","ping":42},{"user_id":95,"name":"backspace1","steam_id":76561198192531745,"connected_time":747000000000,"state":"active","ping":58},{"user_id":103,"name":"KaosInfinite","steam_id":76561198009126350,"connected_time":484000000000,"state":"active","ping":38},{"user_id":61,"name":"you just got dyked on","steam_id":76561198018977723,"connected_time":4394000000000,"state":"active","ping":77},{"user_id":73,"name":"IAMNOTHAM","steam_id":76561199501858077,"connected_time":3361000000000,"state":"active","ping":72},{"user_id":94,"name":"June","steam_id":76561198141803658,"connected_time":809000000000,"state":"active","ping":50},{"user_id":18,"name":"aBigPoo","steam_id":76561198425027856,"connected_time":6809000000000,"state":"active","ping":51},{"user_id":104,"name":"snail?","steam_id":76561198093171376,"connected_time":481000000000,"state":"active","ping":55},{"user_id":106,"name":"Real","steam_id":76561198405830028,"connected_time":364000000000,"state":"active","ping":45},{"user_id":97,"name":"fish","steam_id":76561198054070811,"connected_time":709000000000,"state":"active","ping":58},{"user_id":87,"name":"hammythegreat #SaveTF2","steam_id":76561198079526946,"connected_time":2250000000000,"state":"active","ping":105},{"user_id":68,"name":"Fatass Hennessy Sargent","steam_id":76561198363267009,"connected_time":3943000000000,"state":"active","ping":81},{"user_id":85,"name":"Eden","steam_id":76561198081284664,"connected_time":2483000000000,"state":"active","ping":55},{"user_id":55,"name":"HopeTheNeko","steam_id":76561199159285465,"connected_time":5080000000000,"state":"active","ping":48},{"user_id":76,"name":"a chicken","steam_id":76561198313121580,"connected_time":3228000000000,"state":"active","ping":51},{"user_id":93,"name":"Sir BrainDamage the V of Serbia","steam_id":76561198846344452,"connected_time":1142000000000,"state":"active","ping":61},{"user_id":96,"name":"johnny","steam_id":76561198050225055,"connected_time":731000000000,"state":"active","ping":48},{"user_id":98,"name":"mrappledumb","steam_id":76561199133590774,"connected_time":668000000000,"state":"active","ping":111},{"user_id":99,"name":"Antwan","steam_id":76561198246200638,"connected_time":629000000000,"state":"active","ping":67},{"user_id":105,"name":"TrueBoredom","steam_id":76561198027021364,"connected_time":455000000000,"state":"active","ping":59}]},{"server_id":112,"name":"Uncletopia | Los Angeles | 2 | All Maps","name_short":"lax-2","host":"lax-1.us.uncletopia.com","port":27025,"enabled":true,"region":"us-west","cc":"us","latitude":33.94279,"longitude":-118.41004,"reserved":0,"last_update":"0001-01-01T00:00:00Z","name_a2s":"Uncletopia | Los Angeles | 2 | All Maps","protocol":17,"map":"koth_cascade","folder":"tf","game":"Team Fortress","app_id":440,"player_count":0,"max_players":24,"Bots":0,"server_type":"Dedicated","server_os":"Linux","password":true,"vac":true,"version":"7961495","steam_id":85568392924469992,"keywords":["cp","nocrits","nodmgspread","uncletopia"],"game_id":440,"stv_port":27026,"stv_name":"Uncletopia | Los Angeles | 2 | All Maps | STV","players":null},{"server_id":324,"name":"Uncletopia | Los Angeles | 3 | All Maps","name_short":"lax-3","host":"lax-1.us.uncletopia.com","port":27035,"enabled":true,"region":"us-west","cc":"us","latitude":33.94279,"longitude":-118.41004,"reserved":0,"last_update":"0001-01-01T00:00:00Z","name_a2s":"Uncletopia | Los Angeles | 3 | All Maps","protocol":17,"map":"pl_badwater","folder":"tf","game":"Team Fortress","app_id":440,"player_count":0,"max_players":24,"Bots":0,"server_type":"Dedicated","server_os":"Linux","password":true,"vac":true,"version":"7961495","steam_id":85568392924510198,"keywords":["nocrits","nodmgspread","payload","uncletopia"],"game_id":440,"stv_port":27036,"stv_name":"Uncletopia | Los Angeles | 3 | All Maps | STV","players":null},{"server_id":25,"name":"Uncletopia | Los Angeles | 4 | Stopwatch","name_short":"lax-4","host":"lax-1.us.uncletopia.com","port":27045,"enabled":true,"region":"us-west","cc":"us","latitude":33.94279,"longitude":-118.41004,"reserved":0,"last_update":"0001-01-01T00:00:00Z","name_a2s":"Uncletopia | Los Angeles | 4 | Stopwatch","protocol":17,"map":"pl_upward","folder":"tf","game":"Team Fortress","app_id":440,"player_count":0,"max_players":24,"Bots":0,"server_type":"Dedicated","server_os":"Linux","password":true,"vac":true,"version":"7961495","steam_id":85568392924510199,"keywords":["nocrits","nodmgspread","payload","uncletopia"],"game_id":440,"stv_port":27046,"stv_name":"Uncletopia | Los Angeles | 4 | Stopwatch | STV","players":null},{"server_id":11,"name":"Uncletopia | London | 1 | All Maps","name_short":"lon-1","host":"lon-1.uk.uncletopia.com","port":27015,"enabled":true,"region":"eu","cc":"gb","latitude":51.509865,"longitude":-0.118092,"reserved":0,"last_update":"0001-01-01T00:00:00Z","name_a2s":"Uncletopia | London | 1 | All Maps","protocol":17,"map":"cp_sunshine","folder":"tf","game":"Team Fortress","app_id":440,"player_count":24,"max_players":24,"Bots":0,"server_type":"Dedicated","server_os":"Linux","password":true,"vac":true,"version":"7961495","steam_id":85568392924367362,"keywords":["cp","nocrits","nodmgspread","uncletopia"],"game_id":440,"stv_port":27016,"stv_name":"Uncletopia | London | 1 | All Maps | STV","players":[{"user_id":387,"name":"soil.dirt.earth","steam_id":76561198014377623,"connected_time":403000000000,"state":"active","ping":32},{"user_id":366,"name":"Czechmated","steam_id":76561198075648001,"connected_time":2106000000000,"state":"active","ping":51},{"user_id":276,"name":"Son Goku","steam_id":76561199383437138,"connected_time":8754000000000,"state":"active","ping":122},{"user_id":376,"name":"SPONGE","steam_id":76561198040933472,"connected_time":1254000000000,"state":"active","ping":63},{"user_id":385,"name":"FNF","steam_id":76561199151422826,"connected_time":572000000000,"state":"active","ping":110},{"user_id":341,"name":"Daenny","steam_id":76561198053088822,"connected_time":4160000000000,"state":"active","ping":47},{"user_id":379,"name":"Udinese Dion","steam_id":76561198067931573,"connected_time":1187000000000,"state":"active","ping":52},{"user_id":364,"name":"ber","steam_id":76561197993892057,"connected_time":2109000000000,"state":"active","ping":90},{"user_id":367,"name":"impossible whopper eater","steam_id":76561198058641805,"connected_time":2098000000000,"state":"active","ping":57},{"user_id":368,"name":"Daven","steam_id":76561198036522928,"connected_time":2092000000000,"state":"active","ping":68},{"user_id":370,"name":"sab","steam_id":76561197992945483,"connected_time":2073000000000,"state":"active","ping":57},{"user_id":380,"name":"Umbro","steam_id":76561198087930438,"connected_time":922000000000,"state":"active","ping":75},{"user_id":362,"name":"magÃ∂pÃ∂iÃ∂e ‚úø","steam_id":76561198797266244,"connected_time":2325000000000,"state":"active","ping":65},{"user_id":361,"name":"ChikChak","steam_id":76561198010518376,"connected_time":2345000000000,"state":"active","ping":76},{"user_id":363,"name":"toad (ungodly gigantic)","steam_id":76561198870327755,"connected_time":2111000000000,"state":"active","ping":81},{"user_id":381,"name":"Sunshine Moon","steam_id":76561198022604491,"connected_time":884000000000,"state":"active","ping":43},{"user_id":349,"name":"teddy","steam_id":76561198007436837,"connected_time":3035000000000,"state":"active","ping":30},{"user_id":388,"name":"Egor Pomidor","steam_id":76561199175688390,"connected_time":340000000000,"state":"active","ping":86},{"user_id":375,"name":"NotoriousBloke","steam_id":76561198087443895,"connected_time":1675000000000,"state":"active","ping":46},{"user_id":371,"name":"TomNoSocks","steam_id":76561198114071046,"connected_time":1963000000000,"state":"active","ping":55},{"user_id":351,"name":"kelpie","steam_id":76561198128327529,"connected_time":3023000000000,"state":"active","ping":47},{"user_id":377,"name":"Aaron","steam_id":76561197990046953,"connected_time":1240000000000,"state":"active","ping":59},{"user_id":360,"name":"Mich2L","steam_id":76561198015423985,"connected_time":2380000000000,"state":"active","ping":81},{"user_id":203,"name":"whimsy.","steam_id":76561198878171763,"connected_time":15801000000000,"state":"active","ping":57}]},{"server_id":114,"name":"Uncletopia | London | 2 | All Maps","name_short":"lon-2","host":"lon-1.uk.uncletopia.com","port":27025,"enabled":true,"region":"eu","cc":"gb","latitude":51.509865,"longitude":-0.118092,"reserved":0,"last_update":"0001-01-01T00:00:00Z","name_a2s":"Uncletopia | London | 2 | All Maps","protocol":17,"map":"cp_gorge","folder":"tf","game":"Team Fortress","app_id":440,"player_count":22,"max_players":24,"Bots":0,"server_type":"Dedicated","server_os":"Linux","password":true,"vac":true,"version":"7961495","steam_id":85568392924470941,"keywords":["cp","nocrits","nodmgspread","uncletopia"],"game_id":440,"stv_port":27026,"stv_name":"Uncletopia | London | 2 | All Maps | STV","players":[{"user_id":438,"name":"Endi","steam_id":76561198914938199,"connected_time":203000000000,"state":"active","ping":89},{"user_id":440,"name":"SynthBox3","steam_id":76561199094075745,"connected_time":191000000000,"state":"active","ping":92},{"user_id":412,"name":"CONAH","steam_id":76561198227685876,"connected_time":1913000000000,"state":"active","ping":47},{"user_id":441,"name":"Archer","steam_id":76561198132860299,"connected_time":170000000000,"state":"active","ping":49},{"user_id":445,"name":"sneaky snake","steam_id":76561198279965791,"connected_time":117000000000,"state":"active","ping":90},{"user_id":422,"name":"Trapezoid","steam_id":76561198059369295,"connected_time":1702000000000,"state":"active","ping":77},{"user_id":433,"name":"1fairy","steam_id":76561199043766687,"connected_time":664000000000,"state":"active","ping":39},{"user_id":415,"name":"smiley","steam_id":76561198042245117,"connected_time":1825000000000,"state":"active","ping":77},{"user_id":428,"name":"[FP] Shiken","steam_id":76561198257905663,"connected_time":1225000000000,"state":"active","ping":60},{"user_id":423,"name":"Suetolog","steam_id":76561199053090212,"connected_time":1699000000000,"state":"active","ping":64},{"user_id":366,"name":"spake","steam_id":76561198109247682,"connected_time":4812000000000,"state":"active","ping":46},{"user_id":408,"name":"Swayer","steam_id":76561198056192460,"connected_time":2162000000000,"state":"active","ping":46},{"user_id":263,"name":"Marcel","steam_id":76561198348686648,"connected_time":11680000000000,"state":"active","ping":45},{"user_id":389,"name":"Luggy","steam_id":76561198063539966,"connected_time":3520000000000,"state":"active","ping":57},{"user_id":442,"name":"mr.resetti","steam_id":76561198974520642,"connected_time":154000000000,"state":"active","ping":63},{"user_id":418,"name":"Beep","steam_id":76561198120500488,"connected_time":1819000000000,"state":"active","ping":53},{"user_id":405,"name":"Sploigy","steam_id":76561197985773614,"connected_time":2334000000000,"state":"active","ping":62},{"user_id":444,"name":"elijah","steam_id":76561198093936708,"connected_time":138000000000,"state":"active","ping":45},{"user_id":398,"name":"Oak","steam_id":76561198067315672,"connected_time":2972000000000,"state":"active","ping":51},{"user_id":368,"name":"Vermilion.","steam_id":76561198050555372,"connected_time":4801000000000,"state":"active","ping":60},{"user_id":419,"name":"[FP] Rune","steam_id":76561198030842879,"connected_time":1813000000000,"state":"active","ping":45},{"user_id":436,"name":"cat ganster","steam_id":76561199032252417,"connected_time":277000000000,"state":"active","ping":47}]},{"server_id":320,"name":"Uncletopia | London | 3 | All Maps","name_short":"lon-3","host":"lon-1.uk.uncletopia.com","port":27035,"enabled":true,"region":"eu","cc":"gb","latitude":51.509865,"longitude":-0.118092,"reserved":0,"last_update":"0001-01-01T00:00:00Z","name_a2s":"Uncletopia | London | 3 | All Maps","protocol":17,"map":"pl_snowycoast","folder":"tf","game":"Team Fortress","app_id":440,"player_count":25,"max_players":24,"Bots":0,"server_type":"Dedicated","server_os":"Linux","password":true,"vac":true,"version":"7961495","steam_id":85568392924510192,"keywords":["nocrits","nodmgspread","payload","uncletopia"],"game_id":440,"stv_port":27036,"stv_name":"Uncletopia | London | 3 | All Maps | STV","players":[{"user_id":173,"name":"Mr.MemeMaker","steam_id":76561198909088766,"connected_time":472000000000,"state":"active","ping":67},{"user_id":157,"name":"flamingosaurus","steam_id":76561198051455397,"connected_time":1496000000000,"state":"active","ping":46},{"user_id":176,"name":"Haha?","steam_id":76561198056882245,"connected_time":314000000000,"state":"active","ping":42},{"user_id":159,"name":"driftgaming273","steam_id":76561198995236472,"connected_time":1442000000000,"state":"active","ping":60},{"user_id":170,"name":"Diggity","steam_id":76561198297157085,"connected_time":1097000000000,"state":"active","ping":42},{"user_id":60,"name":"Pharaoh","steam_id":76561198974553024,"connected_time":7968000000000,"state":"active","ping":100},{"user_id":172,"name":"Lemon","steam_id":76561198188535947,"connected_time":525000000000,"state":"active","ping":72},{"user_id":164,"name":"JetPackM","steam_id":76561199496973010,"connected_time":1268000000000,"state":"active","ping":57},{"user_id":137,"name":"kornetov.vitalya","steam_id":76561199286034833,"connected_time":3126000000000,"state":"active","ping":88},{"user_id":112,"name":"Yuval","steam_id":76561198241802390,"connected_time":4473000000000,"state":"active","ping":107},{"user_id":148,"name":"yuno appreciator","steam_id":76561198083286511,"connected_time":2603000000000,"state":"active","ping":45},{"user_id":169,"name":"Sugardaddy_pep","steam_id":76561198807512589,"connected_time":1168000000000,"state":"active","ping":76},{"user_id":88,"name":"Luke SpyWalker","steam_id":76561198008643276,"connected_time":5827000000000,"state":"active","ping":75},{"user_id":178,"name":"oskaroku00","steam_id":76561199025360128,"connected_time":11000000000,"state":"active","ping":75},{"user_id":162,"name":"kipod616","steam_id":76561198431183777,"connected_time":1359000000000,"state":"active","ping":92},{"user_id":150,"name":"Scr0b  ï·µî·¥•·µî î","steam_id":76561198100855323,"connected_time":2264000000000,"state":"active","ping":60},{"user_id":163,"name":"P","steam_id":76561198095560087,"connected_time":1356000000000,"state":"active","ping":79},{"user_id":175,"name":"SebDev","steam_id":76561199175679235,"connected_time":457000000000,"state":"active","ping":45},{"user_id":146,"name":"Hoss","steam_id":76561198000169123,"connected_time":2814000000000,"state":"active","ping":91},{"user_id":152,"name":"Uncle Terry","steam_id":76561198396415736,"connected_time":2245000000000,"state":"active","ping":44},{"user_id":155,"name":"Dolcelatte","steam_id":76561198038501770,"connected_time":2015000000000,"state":"active","ping":74},{"user_id":94,"name":"(MAC) [BN] Crazyking","steam_id":76561198001668616,"connected_time":5232000000000,"state":"active","ping":54},{"user_id":141,"name":"SoldierBugsBunny","steam_id":76561199307144598,"connected_time":3074000000000,"state":"active","ping":55},{"user_id":165,"name":"[SpA]Scatterbrain","steam_id":76561197998639769,"connected_time":1254000000000,"state":"active","ping":45},{"user_id":179,"name":"‚ù§ Sparx ‚ù§","steam_id":76561198095009261,"connected_time":1000000000,"state":"spawning","ping":89}]},{"server_id":321,"name":"Uncletopia | London | 4 | All Maps","name_short":"lon-4","host":"lon-1.uk.uncletopia.com","port":27045,"enabled":true,"region":"eu","cc":"gb","latitude":51.509865,"longitude":-0.118092,"reserved":0,"last_update":"0001-01-01T00:00:00Z","name_a2s":"Uncletopia | London | 4 | All Maps","protocol":17,"map":"pl_badwater","folder":"tf","game":"Team Fortress","app_id":440,"player_count":24,"max_players":24,"Bots":0,"server_type":"Dedicated","server_os":"Linux","password":true,"vac":true,"version":"7961495","steam_id":85568392924510193,"keywords":["nocrits","nodmgspread","payload","uncletopia"],"game_id":440,"stv_port":27046,"stv_name":"Uncletopia | London | 4 | All Maps | STV","players":[{"user_id":374,"name":"Woman (Real)","steam_id":76561199151823932,"connected_time":4696000000000,"state":"active","ping":67},{"user_id":394,"name":"Lego Piece 6629","steam_id":76561198330040827,"connected_time":2845000000000,"state":"active","ping":36},{"user_id":437,"name":"Grey","steam_id":76561198187190267,"connected_time":290000000000,"state":"active","ping":48},{"user_id":376,"name":"xavier","steam_id":76561198076494034,"connected_time":4506000000000,"state":"active","ping":47},{"user_id":424,"name":"Eric Catman","steam_id":76561198802117294,"connected_time":1023000000000,"state":"active","ping":46},{"user_id":393,"name":"FireStorm","steam_id":76561198350478325,"connected_time":2927000000000,"state":"active","ping":35},{"user_id":366,"name":"Laru","steam_id":76561197998838438,"connected_time":5280000000000,"state":"active","ping":69},{"user_id":343,"name":"Spinya","steam_id":76561198086653667,"connected_time":6259000000000,"state":"active","ping":53},{"user_id":344,"name":"DudeoftheRock","steam_id":76561198059401865,"connected_time":6257000000000,"state":"active","ping":60},{"user_id":426,"name":"BTD","steam_id":76561199046044993,"connected_time":919000000000,"state":"active","ping":66},{"user_id":430,"name":"Crazyyk","steam_id":76561198882313836,"connected_time":503000000000,"state":"active","ping":47},{"user_id":337,"name":"Bobirulez","steam_id":76561198009125458,"connected_time":7369000000000,"state":"active","ping":75},{"user_id":425,"name":"ran is running","steam_id":76561199443185667,"connected_time":1020000000000,"state":"active","ping":106},{"user_id":420,"name":"Regen","steam_id":76561198038665095,"connected_time":1265000000000,"state":"active","ping":54},{"user_id":429,"name":"alex","steam_id":76561199281389958,"connected_time":555000000000,"state":"active","ping":54},{"user_id":377,"name":"john fortress","steam_id":76561198013237629,"connected_time":4478000000000,"state":"active","ping":87},{"user_id":431,"name":"a meme name","steam_id":76561198363689699,"connected_time":496000000000,"state":"active","ping":84},{"user_id":367,"name":"sowakarana","steam_id":76561199405633261,"connected_time":5253000000000,"state":"active","ping":51},{"user_id":439,"name":"Fran","steam_id":76561199070516960,"connected_time":275000000000,"state":"active","ping":74},{"user_id":407,"name":"hananamanna","steam_id":76561198006570285,"connected_time":1759000000000,"state":"active","ping":114},{"user_id":411,"name":"RLCrazyCat3","steam_id":76561197983757878,"connected_time":1637000000000,"state":"active","ping":54},{"user_id":435,"name":"Duke Fishlord","steam_id":76561198079928327,"connected_time":403000000000,"state":"active","ping":61},{"user_id":400,"name":"Bajas","steam_id":76561198179339326,"connected_time":2621000000000,"state":"active","ping":83},{"user_id":403,"name":"Escobar","steam_id":76561198089785078,"connected_time":1958000000000,"state":"active","ping":107}]},{"server_id":21,"name":"Uncletopia | London | 5 | All Maps","name_short":"lon-5","host":"lon-1.uk.uncletopia.com","port":27055,"enabled":true,"region":"eu","cc":"gb","latitude":51.509865,"longitude":-0.118092,"reserved":0,"last_update":"0001-01-01T00:00:00Z","name_a2s":"Uncletopia | London | 5 | All Maps","protocol":17,"map":"cp_dustbowl","folder":"tf","game":"Team Fortress","app_id":440,"player_count":24,"max_players":24,"Bots":0,"server_type":"Dedicated","server_os":"Linux","password":true,"vac":true,"version":"7961495","steam_id":85568392924742829,"keywords":["cp","nocrits","nodmgspread","uncletopia"],"game_id":440,"stv_port":27056,"stv_name":"Uncletopia | London | 5 | All Maps | STV","players":[{"user_id":281,"name":"Rummin","steam_id":76561198064739834,"connected_time":890000000000,"state":"active","ping":47},{"user_id":272,"name":"Paint","steam_id":76561198166823873,"connected_time":1564000000000,"state":"active","ping":45},{"user_id":294,"name":"GazerBazer","steam_id":76561198879107565,"connected_time":151000000000,"state":"active","ping":48},{"user_id":282,"name":"bluecheesemints","steam_id":76561199490357988,"connected_time":850000000000,"state":"active","ping":50},{"user_id":252,"name":"HardJaguar66","steam_id":76561198149326434,"connected_time":2541000000000,"state":"active","ping":90},{"user_id":248,"name":"Mysterious Stranger","steam_id":76561199029796289,"connected_time":2739000000000,"state":"active","ping":152},{"user_id":297,"name":"Nittugai","steam_id":76561198067366462,"connected_time":83000000000,"state":"active","ping":74},{"user_id":259,"name":"cropping","steam_id":76561198026586456,"connected_time":2188000000000,"state":"active","ping":58},{"user_id":291,"name":"W*","steam_id":76561197972244657,"connected_time":459000000000,"state":"active","ping":48},{"user_id":299,"name":"dongus","steam_id":76561198042774930,"connected_time":21000000000,"state":"active","ping":53},{"user_id":280,"name":"lark","steam_id":76561198091724522,"connected_time":902000000000,"state":"active","ping":57},{"user_id":283,"name":"hauntaholic ‚òÜ","steam_id":76561198315371425,"connected_time":843000000000,"state":"active","ping":45},{"user_id":285,"name":"SirVitek","steam_id":76561198142961758,"connected_time":838000000000,"state":"active","ping":51},{"user_id":284,"name":"Spinosaurus","steam_id":76561199086481600,"connected_time":839000000000,"state":"active","ping":106},{"user_id":289,"name":"Hamhog","steam_id":76561198353967566,"connected_time":646000000000,"state":"active","ping":120},{"user_id":236,"name":"Ozzie","steam_id":76561197992915315,"connected_time":3473000000000,"state":"active","ping":75},{"user_id":270,"name":"Shapeshifter","steam_id":76561198052898368,"connected_time":1838000000000,"state":"active","ping":80},{"user_id":275,"name":"Mr_Alex","steam_id":76561198308929418,"connected_time":1423000000000,"state":"active","ping":68},{"user_id":296,"name":"Ullapool scotsman","steam_id":76561199407941086,"connected_time":91000000000,"state":"active","ping":64},{"user_id":279,"name":"sniper's kangaroo wife","steam_id":76561198334042273,"connected_time":1006000000000,"state":"active","ping":47},{"user_id":298,"name":"Jaggy Snake","steam_id":76561197972779231,"connected_time":62000000000,"state":"active","ping":38},{"user_id":253,"name":"Saken","steam_id":76561198049075295,"connected_time":2347000000000,"state":"active","ping":60},{"user_id":271,"name":"Adam","steam_id":76561198259467867,"connected_time":1832000000000,"state":"active","ping":75},{"user_id":288,"name":"7-8 –≤–µ–Ω–µ—Ä–æ–ª–æ–≥–æ–≤","steam_id":76561199149307190,"connected_time":718000000000,"state":"active","ping":80}]},{"server_id":22,"name":"Uncletopia | London | 6 | All Maps","name_short":"lon-6","host":"lon-1.uk.uncletopia.com","port":27065,"enabled":true,"region":"eu","cc":"gb","latitude":51.509865,"longitude":-0.118092,"reserved":0,"last_update":"0001-01-01T00:00:00Z","name_a2s":"Uncletopia | London | 6 | All Maps","protocol":17,"map":"cp_dustbowl","folder":"tf","game":"Team Fortress","app_id":440,"player_count":24,"max_players":24,"Bots":0,"server_type":"Dedicated","server_os":"Linux","password":true,"vac":true,"version":"7961495","steam_id":85568392924742830,"keywords":["cp","nocrits","nodmgspread","uncletopia"],"game_id":440,"stv_port":27066,"stv_name":"Uncletopia | London | 6 | All Maps | STV","players":[{"user_id":336,"name":"ratsnrats","steam_id":76561199187258021,"connected_time":1191000000000,"state":"active","ping":35},{"user_id":350,"name":"new chair who dis","steam_id":76561198105348049,"connected_time":674000000000,"state":"active","ping":75},{"user_id":337,"name":"Violet","steam_id":76561198079388610,"connected_time":1179000000000,"state":"active","ping":58},{"user_id":351,"name":"BigZZZ","steam_id":76561197998461614,"connected_time":659000000000,"state":"active","ping":47},{"user_id":346,"name":"Nuko_atlantic_flame","steam_id":76561199143922333,"connected_time":693000000000,"state":"active","ping":52},{"user_id":347,"name":"man of wealth and taste","steam_id":76561198047828651,"connected_time":685000000000,"state":"active","ping":45},{"user_id":326,"name":"Qwertuss","steam_id":76561198026305366,"connected_time":2237000000000,"state":"active","ping":44},{"user_id":324,"name":"Nurdbot","steam_id":76561197972640060,"connected_time":2479000000000,"state":"active","ping":45},{"user_id":290,"name":"Spligbo","steam_id":76561198412491145,"connected_time":3899000000000,"state":"active","ping":116},{"user_id":356,"name":"heavy sings (real)","steam_id":76561199023804405,"connected_time":420000000000,"state":"active","ping":75},{"user_id":354,"name":"bryophyta","steam_id":76561197968945306,"connected_time":455000000000,"state":"active","ping":63},{"user_id":348,"name":"kuno","steam_id":76561198068081430,"connected_time":684000000000,"state":"active","ping":45},{"user_id":301,"name":"timshel","steam_id":76561198100612264,"connected_time":3453000000000,"state":"active","ping":72},{"user_id":325,"name":"Gibbo","steam_id":76561198021814576,"connected_time":2247000000000,"state":"active","ping":39},{"user_id":355,"name":"Supercoxylac","steam_id":76561198376300138,"connected_time":450000000000,"state":"active","ping":53},{"user_id":340,"name":"finbar","steam_id":76561198056812396,"connected_time":1086000000000,"state":"active","ping":75},{"user_id":357,"name":"zebulon","steam_id":76561198384683504,"connected_time":417000000000,"state":"active","ping":45},{"user_id":352,"name":"(OG)ANIMEGOD","steam_id":76561198053890930,"connected_time":655000000000,"state":"active","ping":74},{"user_id":344,"name":"AftiksPL","steam_id":76561198875182686,"connected_time":1011000000000,"state":"active","ping":86},{"user_id":319,"name":"!XD","steam_id":76561198059224158,"connected_time":2844000000000,"state":"active","ping":80},{"user_id":328,"name":"niandits","steam_id":76561198419798900,"connected_time":1813000000000,"state":"active","ping":112},{"user_id":349,"name":"heatburn","steam_id":76561198019001992,"connected_time":682000000000,"state":"active","ping":46},{"user_id":308,"name":"onixed","steam_id":76561198995478547,"connected_time":3341000000000,"state":"active","ping":61},{"user_id":309,"name":"tapeworms!","steam_id":76561198069649097,"connected_time":3341000000000,"state":"active","ping":42}]},{"server_id":40,"name":"Uncletopia | London | 7 | Stopwatch","name_short":"lon-7","host":"lon-1.uk.uncletopia.com","port":27075,"enabled":true,"region":"eu","cc":"gb","latitude":51.509865,"longitude":-0.118092,"reserved":0,"last_update":"0001-01-01T00:00:00Z","name_a2s":"Uncletopia | London | 7 | Stopwatch","protocol":17,"map":"workshop/koth_clearcut_b15.ugc2107050255","folder":"tf","game":"Team Fortress","app_id":440,"player_count":0,"max_players":24,"Bots":0,"server_type":"Dedicated","server_os":"Linux","password":true,"vac":true,"version":"7961495","steam_id":85568392924964314,"keywords":["cp","nocrits","nodmgspread","uncletopia"],"game_id":440,"stv_port":27076,"stv_name":"Uncletopia | London | 7 | Stopwatch | STV","players":null},{"server_id":41,"name":"Uncletopia | London | 8 | Community","name_short":"lon-8","host":"lon-1.uk.uncletopia.com","port":27085,"enabled":true,"region":"eu","cc":"gb","latitude":51.509865,"longitude":-0.118092,"reserved":0,"last_update":"0001-01-01T00:00:00Z","name_a2s":"Uncletopia | London | 8 | Community","protocol":17,"map":"workshop/rd_asteroid_redux_b1.ugc2154902912","folder":"tf","game":"Team Fortress","app_id":440,"player_count":1,"max_players":24,"Bots":0,"server_type":"Dedicated","server_os":"Linux","password":true,"vac":true,"version":"7961495","steam_id":85568392924964315,"keywords":["beta","nocrits","nodmgspread","rd","uncletopia"],"game_id":440,"stv_port":27086,"stv_name":"Uncletopia | London | 8 | Community | STV","players":[{"user_id":32,"name":"GMAN_L@ver_6978 [GMF][Priest]","steam_id":76561199461851882,"connected_time":99000000000,"state":"active","ping":46}]},{"server_id":300,"name":"Uncletopia | Montr√©al | 1 | One Thousand Uncles","name_short":"mtl-1","host":"mtl-1.ca.uncletopia.com","port":27015,"enabled":true,"region":"us-east","cc":"ca","latitude":45.50889,"longitude":-73.56167,"reserved":0,"last_update":"0001-01-01T00:00:00Z","name_a2s":"Uncletopia | Montr√©al | 1 | One Thousand Uncles","protocol":17,"map":"pl_chilly","folder":"tf","game":"Team Fortress","app_id":440,"player_count":0,"max_players":32,"Bots":0,"server_type":"Dedicated","server_os":"Linux","password":true,"vac":true,"version":"7961495","steam_id":85568392924500087,"keywords":["alltalk","danepve","increased_maxplayers","norespawntime","payload","uncletopia"],"game_id":440,"stv_port":0,"stv_name":"","players":null},{"server_id":301,"name":"Uncletopia | Montr√©al | 2 | One Thousand Uncles","name_short":"mtl-2","host":"mtl-1.ca.uncletopia.com","port":27025,"enabled":true,"region":"us-east","cc":"ca","latitude":45.50889,"longitude":-73.56167,"reserved":0,"last_update":"0001-01-01T00:00:00Z","name_a2s":"Uncletopia | Montr√©al | 2 | One Thousand Uncles","protocol":17,"map":"pl_chilly","folder":"tf","game":"Team Fortress","app_id":440,"player_count":0,"max_players":32,"Bots":0,"server_type":"Dedicated","server_os":"Linux","password":true,"vac":true,"version":"7961495","steam_id":85568392924500088,"keywords":["alltalk","danepve","increased_maxplayers","norespawntime","payload","uncletopia"],"game_id":440,"stv_port":0,"stv_name":"","players":null},{"server_id":302,"name":"Uncletopia | Montr√©al | 3 | One Thousand Uncles","name_short":"mtl-3","host":"mtl-1.ca.uncletopia.com","port":27035,"enabled":true,"region":"us-east","cc":"ca","latitude":45.50889,"longitude":-73.56167,"reserved":0,"last_update":"0001-01-01T00:00:00Z","name_a2s":"Uncletopia | Montr√©al | 3 | One Thousand Uncles","protocol":17,"map":"pl_upward","folder":"tf","game":"Team Fortress","app_id":440,"player_count":24,"max_players":32,"Bots":16,"server_type":"Dedicated","server_os":"Linux","password":true,"vac":true,"version":"7961495","steam_id":85568392924500089,"keywords":["alltalk","bots","danepve","increased_maxplayers","norespawntime","payload","uncletopia"],"game_id":440,"stv_port":0,"stv_name":"","players":[{"user_id":114,"name":"Sindri","steam_id":76561199082381766,"connected_time":262000000000,"state":"active","ping":76},{"user_id":115,"name":"blueninjakillerscp","steam_id":76561199506312505,"connected_time":186000000000,"state":"active","ping":48},{"user_id":54,"name":"Waaagh!","steam_id":76561197995317887,"connected_time":4796000000000,"state":"active","ping":34},{"user_id":91,"name":"Heartgold","steam_id":76561199062592062,"connected_time":1347000000000,"state":"active","ping":69},{"user_id":93,"name":"TheBrocklobster","steam_id":76561198039682984,"connected_time":989000000000,"state":"active","ping":120},{"user_id":94,"name":"Legit_Jaxer","steam_id":76561198172234053,"connected_time":908000000000,"state":"active","ping":102},{"user_id":97,"name":"samallwise","steam_id":76561199011855102,"connected_time":425000000000,"state":"active","ping":43},{"user_id":62,"name":"Venk","steam_id":76561198251131422,"connected_time":3935000000000,"state":"active","ping":69}]},{"server_id":13,"name":"Uncletopia | New York City | 1 | All Maps","name_short":"nyc-1","host":"nyc-1.us.uncletopia.com","port":27015,"enabled":true,"region":"us-east","cc":"us","latitude":40.73061,"longitude":-73.93524,"reserved":0,"last_update":"0001-01-01T00:00:00Z","name_a2s":"Uncletopia | New York City | 1 | All Maps","protocol":17,"map":"pl_upward","folder":"tf","game":"Team Fortress","app_id":440,"player_count":24,"max_players":24,"Bots":0,"server_type":"Dedicated","server_os":"Linux","password":true,"vac":true,"version":"7961495","steam_id":85568392924469993,"keywords":["nocrits","nodmgspread","payload","uncletopia"],"game_id":440,"stv_port":27016,"stv_name":"Uncletopia | New York City | 1 | All Maps | STV","players":[{"user_id":69,"name":"a bellhop","steam_id":76561198046797995,"connected_time":376000000000,"state":"active","ping":69},{"user_id":65,"name":"Shuko","steam_id":76561197995563378,"connected_time":971000000000,"state":"active","ping":41},{"user_id":27,"name":"Gibusize","steam_id":76561198081758770,"connected_time":3299000000000,"state":"active","ping":46},{"user_id":71,"name":"NaughtyLink","steam_id":76561198003958657,"connected_time":358000000000,"state":"active","ping":91},{"user_id":66,"name":"Reiner","steam_id":76561199201762178,"connected_time":740000000000,"state":"active","ping":71},{"user_id":14,"name":"dicksnip","steam_id":76561198356515396,"connected_time":4158000000000,"state":"active","ping":89},{"user_id":22,"name":"Nehammer","steam_id":76561198260743692,"connected_time":3418000000000,"state":"active","ping":67},{"user_id":38,"name":"emotional suppport e-cigarette","steam_id":76561198172120615,"connected_time":3038000000000,"state":"active","ping":33},{"user_id":52,"name":"ndvr (femboy (REAL))","steam_id":76561199379200102,"connected_time":2262000000000,"state":"active","ping":45},{"user_id":50,"name":"Chip","steam_id":76561198182205245,"connected_time":2266000000000,"state":"active","ping":74},{"user_id":59,"name":"Raizen","steam_id":76561199092445367,"connected_time":1181000000000,"state":"active","ping":60},{"user_id":48,"name":"Oni","steam_id":76561198112066584,"connected_time":2324000000000,"state":"active","ping":75},{"user_id":51,"name":"Nestor","steam_id":76561198070782619,"connected_time":2266000000000,"state":"active","ping":73},{"user_id":57,"name":"Succulent Chinese Mayo","steam_id":76561198092483430,"connected_time":1637000000000,"state":"active","ping":75},{"user_id":67,"name":"Arty","steam_id":76561198064047186,"connected_time":662000000000,"state":"active","ping":42},{"user_id":60,"name":"Berb","steam_id":76561198193911899,"connected_time":1145000000000,"state":"active","ping":65},{"user_id":64,"name":"Clyde","steam_id":76561198158206236,"connected_time":989000000000,"state":"active","ping":109},{"user_id":72,"name":"Shack","steam_id":76561198035503322,"connected_time":42000000000,"state":"active","ping":60},{"user_id":68,"name":"Kritzburgh","steam_id":76561198149466938,"connected_time":506000000000,"state":"active","ping":55},{"user_id":62,"name":"flimsy steve","steam_id":76561198421249296,"connected_time":1134000000000,"state":"active","ping":75},{"user_id":58,"name":"Grazzunk","steam_id":76561198290227691,"connected_time":1611000000000,"state":"active","ping":61},{"user_id":35,"name":"Bender Bending Rodriguez","steam_id":76561198203806144,"connected_time":3142000000000,"state":"active","ping":61},{"user_id":49,"name":"Lettuce_Plays","steam_id":76561198872255639,"connected_time":2274000000000,"state":"active","ping":50},{"user_id":37,"name":"Disco Fever","steam_id":76561198069532215,"connected_time":3122000000000,"state":"active","ping":47}]},{"server_id":14,"name":"Uncletopia | New York City | 2 | All Maps","name_short":"nyc-2","host":"nyc-1.us.uncletopia.com","port":27025,"enabled":true,"region":"us-east","cc":"us","latitude":40.73061,"longitude":-73.93524,"reserved":0,"last_update":"0001-01-01T00:00:00Z","name_a2s":"Uncletopia | New York City | 2 | All Maps","protocol":17,"map":"ctf_2fort","folder":"tf","game":"Team Fortress","app_id":440,"player_count":0,"max_players":24,"Bots":0,"server_type":"Dedicated","server_os":"Linux","password":true,"vac":true,"version":"7961495","steam_id":85568392924469994,"keywords":["ctf","nocrits","nodmgspread","uncletopia"],"game_id":440,"stv_port":27026,"stv_name":"Uncletopia | New York City | 2 | All Maps | STV","players":null},{"server_id":15,"name":"Uncletopia | New York City | 3 | Stopwatch","name_short":"nyc-3","host":"nyc-1.us.uncletopia.com","port":27035,"enabled":true,"region":"us-east","cc":"us","latitude":40.73061,"longitude":-73.93524,"reserved":0,"last_update":"0001-01-01T00:00:00Z","name_a2s":"Uncletopia | New York City | 3 | Stopwatch","protocol":17,"map":"cp_snakewater_final1","folder":"tf","game":"Team Fortress","app_id":440,"player_count":0,"max_players":24,"Bots":0,"server_type":"Dedicated","server_os":"Linux","password":true,"vac":true,"version":"7961495","steam_id":85568392924742820,"keywords":["cp","nocrits","nodmgspread","uncletopia"],"game_id":440,"stv_port":27036,"stv_name":"Uncletopia | New York City | 3 | Stopwatch | STV","players":null},{"server_id":16,"name":"Uncletopia | New York City | 4 | Community","name_short":"nyc-4","host":"nyc-1.us.uncletopia.com","port":27045,"enabled":true,"region":"us-east","cc":"us","latitude":40.73061,"longitude":-73.93524,"reserved":0,"last_update":"0001-01-01T00:00:00Z","name_a2s":"Uncletopia | New York City | 4 | Community","protocol":17,"map":"workshop/pl_highwood_b13.ugc1769496557","folder":"tf","game":"Team Fortress","app_id":440,"player_count":0,"max_players":24,"Bots":0,"server_type":"Dedicated","server_os":"Linux","password":true,"vac":true,"version":"7961495","steam_id":85568392924742821,"keywords":["nocrits","nodmgspread","payload","uncletopia"],"game_id":440,"stv_port":27046,"stv_name":"Uncletopia | New York City | 4 | Community | STV","players":null},{"server_id":142,"name":"Uncletopia | S√£o Paulo | 1 | All Maps","name_short":"sao-1","host":"sao-1.br.uncletopia.com","port":27015,"enabled":true,"region":"sa","cc":"br","latitude":-23.533773,"longitude":-46.62529,"reserved":0,"last_update":"0001-01-01T00:00:00Z","name_a2s":"Uncletopia | S√£o Paulo | 1 | All Maps","protocol":17,"map":"cp_granary","folder":"tf","game":"Team Fortress","app_id":440,"player_count":0,"max_players":24,"Bots":0,"server_type":"Dedicated","server_os":"Linux","password":true,"vac":true,"version":"7961495","steam_id":85568392924469996,"keywords":["cp","nocrits","nodmgspread","uncletopia"],"game_id":440,"stv_port":27016,"stv_name":"Uncletopia | S√£o Paulo | 1 | All Maps | STV","players":null},{"server_id":143,"name":"Uncletopia | S√£o Paulo | 2 | Community","name_short":"sao-2","host":"sao-2.br.uncletopia.com","port":27015,"enabled":true,"region":"sa","cc":"br","latitude":-23.533773,"longitude":-46.62529,"reserved":0,"last_update":"0001-01-01T00:00:00Z","name_a2s":"Uncletopia | S√£o Paulo | 2 | Community","protocol":17,"map":"workshop/cp_mannbase_rc2a.ugc1900737467","folder":"tf","game":"Team Fortress","app_id":440,"player_count":0,"max_players":24,"Bots":0,"server_type":"Dedicated","server_os":"Linux","password":true,"vac":true,"version":"7961495","steam_id":85568392924485349,"keywords":["cp","nocrits","nodmgspread","uncletopia"],"game_id":440,"stv_port":27016,"stv_name":"Uncletopia | S√£o Paulo | 2 | Community | STV","players":null},{"server_id":7,"name":"Uncletopia | Seattle | 1 | All Maps","name_short":"sea-1","host":"sea-1.us.uncletopia.com","port":27015,"enabled":true,"region":"us-west","cc":"us","latitude":47.608013,"longitude":-122.33517,"reserved":0,"last_update":"0001-01-01T00:00:00Z","name_a2s":"Uncletopia | Seattle | 1 | All Maps","protocol":17,"map":"cp_dustbowl","folder":"tf","game":"Team Fortress","app_id":440,"player_count":22,"max_players":24,"Bots":0,"server_type":"Dedicated","server_os":"Linux","password":true,"vac":true,"version":"7961495","steam_id":85568392924469997,"keywords":["cp","nocrits","nodmgspread","uncletopia"],"game_id":440,"stv_port":27016,"stv_name":"Uncletopia | Seattle | 1 | All Maps | STV","players":[{"user_id":56,"name":"Big Tonka","steam_id":76561198891584971,"connected_time":1998000000000,"state":"active","ping":120},{"user_id":57,"name":"ChinatownPapi","steam_id":76561198062870880,"connected_time":1986000000000,"state":"active","ping":64},{"user_id":37,"name":"Jumkin","steam_id":76561198136887468,"connected_time":3262000000000,"state":"active","ping":63},{"user_id":88,"name":"a dead horse","steam_id":76561198002521217,"connected_time":58000000000,"state":"spawning","ping":109},{"user_id":44,"name":"Thequirka","steam_id":76561198968058652,"connected_time":2685000000000,"state":"active","ping":48},{"user_id":42,"name":"Quigi","steam_id":76561198144645874,"connected_time":2877000000000,"state":"active","ping":73},{"user_id":86,"name":"zzzz","steam_id":76561198310495200,"connected_time":290000000000,"state":"active","ping":102},{"user_id":40,"name":"FOX News goblin","steam_id":76561198167648580,"connected_time":3116000000000,"state":"active","ping":67},{"user_id":89,"name":"Miss Tate‚òº","steam_id":76561199096263556,"connected_time":12000000000,"state":"spawning","ping":84},{"user_id":81,"name":"Artgrendadier","steam_id":76561198063305359,"connected_time":755000000000,"state":"active","ping":114},{"user_id":49,"name":"Frank","steam_id":76561198126681511,"connected_time":2331000000000,"state":"active","ping":73},{"user_id":50,"name":"Jerphf","steam_id":76561198328825964,"connected_time":2323000000000,"state":"active","ping":100},{"user_id":53,"name":"Youngblood5780","steam_id":76561198113934410,"connected_time":2255000000000,"state":"active","ping":75},{"user_id":84,"name":"Lard","steam_id":76561198290315229,"connected_time":328000000000,"state":"active","ping":60},{"user_id":60,"name":"Nom Skirrett","steam_id":76561198014600788,"connected_time":1928000000000,"state":"active","ping":60},{"user_id":87,"name":"Compile","steam_id":76561198242842394,"connected_time":236000000000,"state":"active","ping":99},{"user_id":62,"name":"tmm (theManMan)","steam_id":76561199488457138,"connected_time":1858000000000,"state":"active","ping":53},{"user_id":65,"name":"Fluffy Senpai","steam_id":76561198288022043,"connected_time":1742000000000,"state":"active","ping":107},{"user_id":75,"name":"Blackhealer","steam_id":76561198051415255,"connected_time":1340000000000,"state":"active","ping":47},{"user_id":71,"name":"Menachem","steam_id":76561198041226420,"connected_time":1580000000000,"state":"active","ping":90},{"user_id":73,"name":"Shrew","steam_id":76561198085421224,"connected_time":1561000000000,"state":"active","ping":44},{"user_id":78,"name":"EightySix","steam_id":76561198186678831,"connected_time":929000000000,"state":"active","ping":75}]},{"server_id":119,"name":"Uncletopia | Seattle | 2 | All Maps","name_short":"sea-2","host":"sea-1.us.uncletopia.com","port":27025,"enabled":true,"region":"us-west","cc":"us","latitude":47.608013,"longitude":-122.33517,"reserved":0,"last_update":"0001-01-01T00:00:00Z","name_a2s":"Uncletopia | Seattle | 2 | All Maps","protocol":17,"map":"koth_lakeside_final","folder":"tf","game":"Team Fortress","app_id":440,"player_count":0,"max_players":24,"Bots":0,"server_type":"Dedicated","server_os":"Linux","password":true,"vac":true,"version":"7961495","steam_id":85568392924469998,"keywords":["cp","nocrits","nodmgspread","uncletopia"],"game_id":440,"stv_port":27026,"stv_name":"Uncletopia | Seattle | 2 | All Maps | STV","players":null},{"server_id":406,"name":"Uncletopia | Seattle | 3 | Stopwatch","name_short":"sea-3","host":"sea-1.us.uncletopia.com","port":27035,"enabled":true,"region":"us-west","cc":"us","latitude":47.608013,"longitude":-122.33517,"reserved":0,"last_update":"0001-01-01T00:00:00Z","name_a2s":"Uncletopia | Seattle | 3 | Stopwatch","protocol":17,"map":"workshop/pl_barnblitz_pro7.ugc582280235","folder":"tf","game":"Team Fortress","app_id":440,"player_count":0,"max_players":24,"Bots":0,"server_type":"Dedicated","server_os":"Linux","password":true,"vac":true,"version":"7961495","steam_id":85568392924515217,"keywords":["nocrits","nodmgspread","payload","uncletopia"],"game_id":440,"stv_port":27036,"stv_name":"Uncletopia | Seattle | 3 | Stopwatch | STV","players":null},{"server_id":17,"name":"Uncletopia | San Francisco | 1 | All Maps","name_short":"sfo-1","host":"sfo-1.us.uncletopia.com","port":27015,"enabled":true,"region":"us-west","cc":"us","latitude":37.77397,"longitude":-122.4313,"reserved":0,"last_update":"0001-01-01T00:00:00Z","name_a2s":"Uncletopia | San Francisco | 1 | All Maps","protocol":17,"map":"koth_highpass","folder":"tf","game":"Team Fortress","app_id":440,"player_count":0,"max_players":24,"Bots":0,"server_type":"Dedicated","server_os":"Linux","password":true,"vac":true,"version":"7961495","steam_id":85568392924469999,"keywords":["cp","nocrits","nodmgspread","uncletopia"],"game_id":440,"stv_port":27016,"stv_name":"Uncletopia | San Francisco | 1 | All Maps | STV","players":null},{"server_id":18,"name":"Uncletopia | San Francisco | 2 | All Maps","name_short":"sfo-2","host":"sfo-1.us.uncletopia.com","port":27025,"enabled":true,"region":"us-west","cc":"us","latitude":37.77397,"longitude":-122.4313,"reserved":0,"last_update":"0001-01-01T00:00:00Z","name_a2s":"Uncletopia | San Francisco | 2 | All Maps","protocol":17,"map":"cp_dustbowl","folder":"tf","game":"Team Fortress","app_id":440,"player_count":0,"max_players":24,"Bots":0,"server_type":"Dedicated","server_os":"Linux","password":true,"vac":true,"version":"7961495","steam_id":85568392924470000,"keywords":["cp","nocrits","nodmgspread","uncletopia"],"game_id":440,"stv_port":27026,"stv_name":"Uncletopia | San Francisco | 2 | All Maps | STV","players":null},{"server_id":19,"name":"Uncletopia | San Francisco | 3 | Stopwatch","name_short":"sfo-3","host":"sfo-1.us.uncletopia.com","port":27035,"enabled":true,"region":"us-west","cc":"us","latitude":37.77397,"longitude":-122.4313,"reserved":0,"last_update":"0001-01-01T00:00:00Z","name_a2s":"Uncletopia | San Francisco | 3 | Stopwatch","protocol":17,"map":"workshop/koth_product_final.ugc454272353","folder":"tf","game":"Team Fortress","app_id":440,"player_count":0,"max_players":24,"Bots":0,"server_type":"Dedicated","server_os":"Linux","password":true,"vac":true,"version":"7961495","steam_id":85568392924742824,"keywords":["cp","nocrits","nodmgspread","uncletopia"],"game_id":440,"stv_port":27036,"stv_name":"Uncletopia | San Francisco | 3 | Stopwatch | STV","players":null},{"server_id":20,"name":"Uncletopia | San Francisco | 4 | Community","name_short":"sfo-4","host":"sfo-1.us.uncletopia.com","port":27045,"enabled":true,"region":"us-west","cc":"us","latitude":37.77397,"longitude":-122.4313,"reserved":0,"last_update":"0001-01-01T00:00:00Z","name_a2s":"Uncletopia | San Francisco | 4 | Community","protocol":17,"map":"workshop/pl_cactuscanyon_redux_final2.ugc2579644293","folder":"tf","game":"Team Fortress","app_id":440,"player_count":0,"max_players":24,"Bots":0,"server_type":"Dedicated","server_os":"Linux","password":true,"vac":true,"version":"7961495","steam_id":85568392924742826,"keywords":["nocrits","nodmgspread","payload","uncletopia"],"game_id":440,"stv_port":27046,"stv_name":"Uncletopia | San Francisco | 4 | Community | STV","players":null},{"server_id":141,"name":"Uncletopia | Sydney | 1 | All Maps","name_short":"syd-1","host":"syd-1.au.uncletopia.com","port":27015,"enabled":true,"region":"au","cc":"au","latitude":-33.865143,"longitude":151.2099,"reserved":0,"last_update":"0001-01-01T00:00:00Z","name_a2s":"Uncletopia | Sydney | 1 | All Maps","protocol":17,"map":"ctf_turbine","folder":"tf","game":"Team Fortress","app_id":440,"player_count":0,"max_players":24,"Bots":0,"server_type":"Dedicated","server_os":"Linux","password":true,"vac":true,"version":"7961495","steam_id":85568392924470001,"keywords":["ctf","nocrits","nodmgspread","uncletopia"],"game_id":440,"stv_port":27016,"stv_name":"Uncletopia | Sydney | 1 | All Maps | STV","players":null},{"server_id":123,"name":"Uncletopia | Sydney | 2 | All Maps","name_short":"syd-2","host":"syd-1.au.uncletopia.com","port":27025,"enabled":true,"region":"au","cc":"au","latitude":-33.865143,"longitude":151.2099,"reserved":0,"last_update":"0001-01-01T00:00:00Z","name_a2s":"Uncletopia | Sydney | 2 | All Maps","protocol":17,"map":"pl_pier","folder":"tf","game":"Team Fortress","app_id":440,"player_count":0,"max_players":24,"Bots":0,"server_type":"Dedicated","server_os":"Linux","password":true,"vac":true,"version":"7961495","steam_id":85568392924470002,"keywords":["nocrits","nodmgspread","payload","uncletopia"],"game_id":440,"stv_port":27026,"stv_name":"Uncletopia | Sydney | 2 | All Maps | STV","players":null},{"server_id":395,"name":"Uncletopia | Sydney | 3 | All Maps","name_short":"syd-3","host":"syd-1.au.uncletopia.com","port":27035,"enabled":true,"region":"au","cc":"au","latitude":-33.865143,"longitude":151.2099,"reserved":0,"last_update":"0001-01-01T00:00:00Z","name_a2s":"Uncletopia | Sydney | 3 | All Maps","protocol":17,"map":"cp_metalworks","folder":"tf","game":"Team Fortress","app_id":440,"player_count":0,"max_players":24,"Bots":0,"server_type":"Dedicated","server_os":"Linux","password":true,"vac":true,"version":"7961495","steam_id":85568392925194467,"keywords":["cp","nocrits","nodmgspread","uncletopia"],"game_id":440,"stv_port":27036,"stv_name":"Uncletopia | Sydney | 3 | All Maps | STV","players":null},{"server_id":396,"name":"Uncletopia | Sydney | 4 | All Maps","name_short":"syd-4","host":"syd-1.au.uncletopia.com","port":27045,"enabled":true,"region":"au","cc":"au","latitude":-33.865143,"longitude":151.2099,"reserved":0,"last_update":"0001-01-01T00:00:00Z","name_a2s":"Uncletopia | Sydney | 4 | All Maps","protocol":17,"map":"koth_cascade","folder":"tf","game":"Team Fortress","app_id":440,"player_count":0,"max_players":24,"Bots":0,"server_type":"Dedicated","server_os":"Linux","password":true,"vac":true,"version":"7961495","steam_id":85568392925397958,"keywords":["cp","nocrits","nodmgspread","uncletopia"],"game_id":440,"stv_port":27046,"stv_name":"Uncletopia | Sydney | 4 | All Maps | STV","players":null},{"server_id":58,"name":"Uncletopia | Sydney | 5 | Stopwatch","name_short":"syd-5","host":"syd-1.au.uncletopia.com","port":27055,"enabled":true,"region":"au","cc":"au","latitude":-33.865143,"longitude":151.2099,"reserved":0,"last_update":"0001-01-01T00:00:00Z","name_a2s":"Uncletopia | Sydney | 5 | Stopwatch","protocol":17,"map":"cp_sunshine","folder":"tf","game":"Team Fortress","app_id":440,"player_count":0,"max_players":24,"Bots":0,"server_type":"Dedicated","server_os":"Linux","password":true,"vac":true,"version":"7961495","steam_id":85568392925397959,"keywords":["cp","nocrits","nodmgspread","uncletopia"],"game_id":440,"stv_port":27056,"stv_name":"Uncletopia | Sydney | 5 | Stopwatch | STV","players":null},{"server_id":59,"name":"Uncletopia | Sydney | 6 | Community","name_short":"syd-6","host":"syd-1.au.uncletopia.com","port":27065,"enabled":true,"region":"au","cc":"au","latitude":-33.865143,"longitude":151.2099,"reserved":0,"last_update":"0001-01-01T00:00:00Z","name_a2s":"Uncletopia | Sydney | 6 | Community","protocol":17,"map":"workshop/koth_trenchfoot_ab1.ugc731436616","folder":"tf","game":"Team Fortress","app_id":440,"player_count":0,"max_players":24,"Bots":0,"server_type":"Dedicated","server_os":"Linux","password":true,"vac":true,"version":"7961495","steam_id":85568392925397960,"keywords":["cp","nocrits","nodmgspread","uncletopia"],"game_id":440,"stv_port":27066,"stv_name":"Uncletopia | Sydney | 6 | Community | STV","players":null},{"server_id":49,"name":"Uncletopia | Warsaw | 1 | One Thousand Uncles","name_short":"waw-1","host":"waw-1.pl.uncletopia.com","port":27015,"enabled":true,"region":"eu","cc":"pl","latitude":52.2297,"longitude":21.017532,"reserved":0,"last_update":"0001-01-01T00:00:00Z","name_a2s":"Uncletopia | Warsaw | 1 | One Thousand Uncles","protocol":17,"map":"pl_badwater","folder":"tf","game":"Team Fortress","app_id":440,"player_count":29,"max_players":32,"Bots":16,"server_type":"Dedicated","server_os":"Linux","password":true,"vac":true,"version":"7961495","steam_id":85568392925397850,"keywords":["alltalk","bots","danepve","increased_maxplayers","norespawntime","payload","uncletopia"],"game_id":440,"stv_port":0,"stv_name":"","players":[{"user_id":519,"name":"Red wine gaming","steam_id":76561198134378108,"connected_time":1163000000000,"state":"active","ping":88},{"user_id":501,"name":"√•ldepth","steam_id":76561198427965963,"connected_time":1293000000000,"state":"active","ping":98},{"user_id":493,"name":"[HK]Êàë‰øÇÈ¶ôÊ∏Ø‰∫∫","steam_id":76561198165376815,"connected_time":2488000000000,"state":"active","ping":78},{"user_id":522,"name":"PuPuruPuruPumPu","steam_id":76561198391950490,"connected_time":745000000000,"state":"active","ping":101},{"user_id":465,"name":"The f2p enjoyer","steam_id":76561199100077788,"connected_time":3772000000000,"state":"active","ping":68},{"user_id":445,"name":"Lucas096br","steam_id":76561198350760997,"connected_time":5306000000000,"state":"active","ping":305},{"user_id":520,"name":"Dj_Bear","steam_id":76561198149865187,"connected_time":1124000000000,"state":"active","ping":44},{"user_id":495,"name":"Denton","steam_id":76561198367991717,"connected_time":1928000000000,"state":"active","ping":59},{"user_id":529,"name":"mineofmaggots","steam_id":76561199418921451,"connected_time":441000000000,"state":"active","ping":118},{"user_id":532,"name":"aaaaaa","steam_id":76561198086304421,"connected_time":87000000000,"state":"active","ping":79},{"user_id":525,"name":"Phantom","steam_id":76561199161244218,"connected_time":637000000000,"state":"active","ping":53},{"user_id":452,"name":"WEEN | :0","steam_id":76561198073607799,"connected_time":4556000000000,"state":"active","ping":88},{"user_id":467,"name":"Retro","steam_id":76561199181824842,"connected_time":3718000000000,"state":"active","ping":62}]},{"server_id":50,"name":"Uncletopia | Warsaw | 2 | One Thousand Uncles","name_short":"waw-2","host":"waw-1.pl.uncletopia.com","port":27025,"enabled":true,"region":"eu","cc":"pl","latitude":52.2297,"longitude":21.017532,"reserved":0,"last_update":"0001-01-01T00:00:00Z","name_a2s":"Uncletopia | Warsaw | 2 | One Thousand Uncles","protocol":17,"map":"pl_thundermountain","folder":"tf","game":"Team Fortress","app_id":440,"player_count":24,"max_players":32,"Bots":16,"server_type":"Dedicated","server_os":"Linux","password":true,"vac":true,"version":"7961495","steam_id":85568392925397851,"keywords":["alltalk","bots","danepve","increased_maxplayers","norespawntime","payload","uncletopia"],"game_id":440,"stv_port":0,"stv_name":"","players":[{"user_id":220,"name":"Claw","steam_id":76561198060985181,"connected_time":178000000000,"state":"active","ping":90},{"user_id":201,"name":"_D4VID","steam_id":76561198163317060,"connected_time":1977000000000,"state":"active","ping":44},{"user_id":190,"name":"Oreo Principle","steam_id":76561198063929217,"connected_time":2685000000000,"state":"active","ping":44},{"user_id":213,"name":"Chillax","steam_id":76561198051192502,"connected_time":957000000000,"state":"active","ping":48},{"user_id":186,"name":"lord-carlos","steam_id":76561198025150761,"connected_time":3215000000000,"state":"active","ping":69},{"user_id":214,"name":"Rejdory","steam_id":76561198416604100,"connected_time":829000000000,"state":"active","ping":47},{"user_id":218,"name":"D3jvr1k","steam_id":76561198953681253,"connected_time":629000000000,"state":"active","ping":39},{"user_id":219,"name":"Riky95","steam_id":76561198095289436,"connected_time":320000000000,"state":"active","ping":59}]},{"server_id":51,"name":"Uncletopia | Warsaw | 3 | All Maps","name_short":"waw-3","host":"waw-1.pl.uncletopia.com","port":27035,"enabled":true,"region":"eu","cc":"pl","latitude":52.2297,"longitude":21.017532,"reserved":0,"last_update":"0001-01-01T00:00:00Z","name_a2s":"Uncletopia | Warsaw | 3 | All Maps","protocol":17,"map":"pl_barnblitz","folder":"tf","game":"Team Fortress","app_id":440,"player_count":8,"max_players":24,"Bots":0,"server_type":"Dedicated","server_os":"Linux","password":true,"vac":true,"version":"7961495","steam_id":85568392925397852,"keywords":["nocrits","nodmgspread","payload","uncletopia"],"game_id":440,"stv_port":27036,"stv_name":"Uncletopia | Warsaw | 3 | All Maps | STV","players":[{"user_id":12,"name":"Juuni","steam_id":76561198388345739,"connected_time":947000000000,"state":"active","ping":89},{"user_id":13,"name":"h e a v y","steam_id":76561199161084988,"connected_time":928000000000,"state":"active","ping":90},{"user_id":14,"name":"Kotya","steam_id":76561198264896621,"connected_time":807000000000,"state":"active","ping":93},{"user_id":15,"name":"Smol","steam_id":76561199001607121,"connected_time":783000000000,"state":"active","ping":55},{"user_id":16,"name":"ARBUZ z murzynem","steam_id":76561198446272479,"connected_time":438000000000,"state":"active","ping":65},{"user_id":17,"name":"Gul'dan","steam_id":76561198240466940,"connected_time":290000000000,"state":"active","ping":85},{"user_id":18,"name":"Mr.Cupcake","steam_id":76561198152711174,"connected_time":63000000000,"state":"active","ping":73},{"user_id":19,"name":"Stan Marsh","steam_id":76561199152484286,"connected_time":54000000000,"state":"active","ping":59}]},{"server_id":52,"name":"Uncletopia | Warsaw | 4 | All Maps","name_short":"waw-4","host":"waw-1.pl.uncletopia.com","port":27045,"enabled":true,"region":"eu","cc":"pl","latitude":52.2297,"longitude":21.017532,"reserved":0,"last_update":"0001-01-01T00:00:00Z","name_a2s":"Uncletopia | Warsaw | 4 | All Maps","protocol":17,"map":"koth_cascade","folder":"tf","game":"Team Fortress","app_id":440,"player_count":0,"max_players":24,"Bots":0,"server_type":"Dedicated","server_os":"Linux","password":true,"vac":true,"version":"7961495","steam_id":85568392925397853,"keywords":["cp","nocrits","nodmgspread","uncletopia"],"game_id":440,"stv_port":27046,"stv_name":"Uncletopia | Warsaw | 4 | All Maps | STV","players":null},{"server_id":53,"name":"Uncletopia | Warsaw | 5 | Stopwatch","name_short":"waw-5","host":"waw-1.pl.uncletopia.com","port":27055,"enabled":true,"region":"eu","cc":"pl","latitude":52.2297,"longitude":21.017532,"reserved":0,"last_update":"0001-01-01T00:00:00Z","name_a2s":"Uncletopia | Warsaw | 5 | Stopwatch","protocol":17,"map":"koth_highpass","folder":"tf","game":"Team Fortress","app_id":440,"player_count":0,"max_players":24,"Bots":0,"server_type":"Dedicated","server_os":"Linux","password":true,"vac":true,"version":"7961495","steam_id":85568392925397854,"keywords":["cp","nocrits","nodmgspread","uncletopia"],"game_id":440,"stv_port":27056,"stv_name":"Uncletopia | Warsaw | 5 | Stopwatch | STV","players":null},{"server_id":54,"name":"Uncletopia | Warsaw | 6 | Community","name_short":"waw-6","host":"waw-1.pl.uncletopia.com","port":27065,"enabled":true,"region":"eu","cc":"pl","latitude":52.2297,"longitude":21.017532,"reserved":0,"last_update":"0001-01-01T00:00:00Z","name_a2s":"Uncletopia | Warsaw | 6 | Community","protocol":17,"map":"workshop/rd_asteroid_redux_b1.ugc2154902912","folder":"tf","game":"Team Fortress","app_id":440,"player_count":3,"max_players":24,"Bots":0,"server_type":"Dedicated","server_os":"Linux","password":true,"vac":true,"version":"7961495","steam_id":85568392925397856,"keywords":["beta","nocrits","nodmgspread","rd","uncletopia"],"game_id":440,"stv_port":27066,"stv_name":"Uncletopia | Warsaw | 6 | Community | STV","players":[{"user_id":5,"name":"GliTcHScOpzZ","steam_id":76561198446363604,"connected_time":3385000000000,"state":"active","ping":150},{"user_id":6,"name":"JenLen","steam_id":76561198271337742,"connected_time":3355000000000,"state":"active","ping":131},{"user_id":10,"name":"Gonda","steam_id":76561198431121334,"connected_time":1071000000000,"state":"active","ping":128}]}]}