{"status":true,"message":"","result":[{"server_id":9,"name":"Uncletopia | Atlanta | 1 | All Maps","name_short":"atl-1","host":"atl-1.us.uncletopia.com","port":27015,"enabled":true,"region":"us-east","cc":"us","latitude":33.753746,"longitude":-84.38633,"reserved":0,"last_update":"0001-01-01T00:00:00Z","name_a2s":"Uncletopia | Atlanta | 1 | All Maps","protocol":17,"map":"pl_upward","folder":"tf","game":"Team Fortress","app_id":440,"player_count":24,"max_players":24,"Bots":0,"server_type":"Dedicated","server_os":"Linux","password":true,"vac":true,"version":"7757534","steam_id":85568392924469982,"keywords":["nocrits","nodmgspread","payload","uncletopia"],"game_id":440,"stv_port":27016,"stv_name":"Uncletopia | Atlanta | 1 | All Maps | STV","players":[{"user_id":6,"name":"Karma","steam_id":76561198030565234,"connected_time":2049000000000,"state":"active","ping":68},{"user_id":7,"name":"ATL1 | Lancer Fan Club","steam_id":76561198355495948,"connected_time":1872000000000,"state":"active","ping":62},{"user_id":8,"name":"CreativeUsername","steam_id":76561198186045503,"connected_time":1420000000000,"state":"active","ping":69},{"user_id":9,"name":"Larry McGarry","steam_id":76561198982810452,"connected_time":1414000000000,"state":"active","ping":75},{"user_id":35,"name":"TastyCrayons63","steam_id":76561199002087591,"connected_time":640000000000,"state":"active","ping":75},{"user_id":11,"name":"Bingo Oklahoma","steam_id":76561198991982630,"connected_time":1377000000000,"state":"active","ping":51},{"user_id":12,"name":"Ros","steam_id":76561199055963822,"connected_time":1369000000000,"state":"active","ping":52},{"user_id":38,"name":"Monster","steam_id":76561198189429665,"connected_time":588000000000,"state":"active","ping":58},{"user_id":14,"name":"DRLdestroyer","steam_id":76561198085803893,"connected_time":1351000000000,"state":"active","ping":72},{"user_id":31,"name":"Vipes","steam_id":76561198405773074,"connected_time":670000000000,"state":"active","ping":72},{"user_id":16,"name":"Jared In Target","steam_id":76561198372449718,"connected_time":1311000000000,"state":"active","ping":80},{"user_id":17,"name":"canakblasteran","steam_id":76561199472518822,"connected_time":1301000000000,"state":"active","ping":116},{"user_id":39,"name":"heywaitasecond","steam_id":76561199064548292,"connected_time":131000000000,"state":"active","ping":73},{"user_id":19,"name":"Connie","steam_id":76561198068661013,"connected_time":1295000000000,"state":"active","ping":57},{"user_id":20,"name":"andyiscolorless","steam_id":76561199239870921,"connected_time":1287000000000,"state":"active","ping":124},{"user_id":30,"name":"Bear of the Polar Variety","steam_id":76561198370330710,"connected_time":896000000000,"state":"active","ping":60},{"user_id":40,"name":"Neoplix","steam_id":76561199012756422,"connected_time":129000000000,"state":"active","ping":85},{"user_id":32,"name":"Sarbanes-Oxley","steam_id":76561197975898479,"connected_time":665000000000,"state":"active","ping":81},{"user_id":36,"name":"Medic Girlfriend (Lollichop)","steam_id":76561198143422702,"connected_time":640000000000,"state":"active","ping":73},{"user_id":43,"name":"BurgerPizza","steam_id":76561198151256410,"connected_time":68000000000,"state":"active","ping":127},{"user_id":26,"name":"Tempus Fugit - Memento Mori","steam_id":76561198047672832,"connected_time":1227000000000,"state":"active","ping":63},{"user_id":27,"name":"silverus","steam_id":76561198417289824,"connected_time":1198000000000,"state":"active","ping":69},{"user_id":28,"name":"Poodwecker","steam_id":76561198344264859,"connected_time":1193000000000,"state":"active","ping":79},{"user_id":42,"name":"chubbbo","steam_id":76561198943598378,"connected_time":86000000000,"state":"active","ping":44}]},{"server_id":104,"name":"Uncletopia | Atlanta | 2 | All Maps","name_short":"atl-2","host":"atl-1.us.uncletopia.com","port":27025,"enabled":true,"region":"us-east","cc":"us","latitude":33.753746,"longitude":-84.38633,"reserved":0,"last_update":"0001-01-01T00:00:00Z","name_a2s":"Uncletopia | Atlanta | 2 | All Maps","protocol":17,"map":"pl_barnblitz","folder":"tf","game":"Team Fortress","app_id":440,"player_count":24,"max_players":24,"Bots":0,"server_type":"Dedicated","server_os":"Linux","password":true,"vac":true,"version":"7757534","steam_id":85568392924469983,"keywords":["nocrits","nodmgspread","payload","uncletopia"],"game_id":440,"stv_port":27026,"stv_name":"Uncletopia | Atlanta | 2 | All Maps | STV","players":[{"user_id":149,"name":"woozy","steam_id":76561198077321435,"connected_time":253000000000,"state":"active","ping":61},{"user_id":144,"name":"Porky Minch","steam_id":76561198116168773,"connected_time":274000000000,"state":"active","ping":75},{"user_id":123,"name":"ゴ?!Jon Chainsaw!?ゴ","steam_id":76561198400240040,"connected_time":2095000000000,"state":"active","ping":78},{"user_id":150,"name":"Reptikality","steam_id":76561199057211698,"connected_time":251000000000,"state":"active","ping":88},{"user_id":154,"name":"Deki","steam_id":76561198031914490,"connected_time":198000000000,"state":"active","ping":159},{"user_id":84,"name":"Eins","steam_id":76561199030343810,"connected_time":5595000000000,"state":"active","ping":46},{"user_id":152,"name":"D(b) Hell","steam_id":76561198067869016,"connected_time":238000000000,"state":"active","ping":65},{"user_id":130,"name":"dr sex, md (sexologist)","steam_id":76561198115874625,"connected_time":1941000000000,"state":"active","ping":67},{"user_id":98,"name":"Broadsword","steam_id":76561198011160411,"connected_time":3519000000000,"state":"active","ping":64},{"user_id":145,"name":"Waffle Wannabe","steam_id":76561198064510650,"connected_time":268000000000,"state":"active","ping":49},{"user_id":139,"name":"♥ PsychicCellar ♥","steam_id":76561198045923020,"connected_time":1131000000000,"state":"active","ping":64},{"user_id":140,"name":"\\|)=|_|=(|/","steam_id":76561198171491110,"connected_time":1130000000000,"state":"active","ping":67},{"user_id":153,"name":"dan","steam_id":76561198061589465,"connected_time":236000000000,"state":"active","ping":61},{"user_id":100,"name":"Mayo Monkey","steam_id":76561198090023039,"connected_time":3498000000000,"state":"active","ping":94},{"user_id":146,"name":"magic","steam_id":76561198031957385,"connected_time":265000000000,"state":"active","ping":128},{"user_id":143,"name":"Grumpy","steam_id":76561198039465859,"connected_time":289000000000,"state":"active","ping":74},{"user_id":138,"name":"Ghandi","steam_id":76561198046702733,"connected_time":1181000000000,"state":"active","ping":84},{"user_id":147,"name":"k3ramb1t","steam_id":76561198097880352,"connected_time":265000000000,"state":"active","ping":81},{"user_id":135,"name":"Nexusuxen","steam_id":76561198117547131,"connected_time":1607000000000,"state":"active","ping":92},{"user_id":128,"name":"(◔) Neville","steam_id":76561198025637970,"connected_time":2047000000000,"state":"active","ping":71},{"user_id":142,"name":"Pathara44","steam_id":76561198048238620,"connected_time":409000000000,"state":"active","ping":82},{"user_id":148,"name":"SneakyJayMLP","steam_id":76561198969565685,"connected_time":265000000000,"state":"active","ping":76},{"user_id":155,"name":"Shrakn3l","steam_id":76561198131675625,"connected_time":165000000000,"state":"active","ping":90},{"user_id":118,"name":"Caoticaos","steam_id":76561198114800227,"connected_time":2287000000000,"state":"active","ping":142}]},{"server_id":400,"name":"Uncletopia | Atlanta | 3 | Community","name_short":"atl-3","host":"atl-1.us.uncletopia.com","port":27035,"enabled":true,"region":"us-east","cc":"us","latitude":33.753746,"longitude":-84.38633,"reserved":0,"last_update":"0001-01-01T00:00:00Z","name_a2s":"Uncletopia | Atlanta | 3 | Community","protocol":17,"map":"workshop/cp_alloy_rc3.ugc592805587","folder":"tf","game":"Team Fortress","app_id":440,"player_count":0,"max_players":24,"Bots":0,"server_type":"Dedicated","server_os":"Linux","password":true,"vac":true,"version":"7757534","steam_id":85568392924515187,"keywords":["cp","nocrits","nodmgspread","uncletopia"],"game_id":440,"stv_port":27036,"stv_name":"Uncletopia | Atlanta | 3 | Community | STV","players":null},{"server_id":401,"name":"Uncletopia | Atlanta | 4 | No Payload","name_short":"atl-4","host":"atl-1.us.uncletopia.com","port":27045,"enabled":true,"region":"us-east","cc":"us","latitude":33.753746,"longitude":-84.38633,"reserved":0,"last_update":"0001-01-01T00:00:00Z","name_a2s":"","protocol":0,"map":"","folder":"","game":"","app_id":0,"player_count":0,"max_players":0,"Bots":0,"server_type":"","server_os":"","password":false,"vac":false,"version":"","steam_id":0,"keywords":null,"game_id":0,"stv_port":0,"stv_name":"","players":null},{"server_id":2,"name":"Uncletopia | Chicago | 1 | All Maps","name_short":"chi-1","host":"chi-1.us.uncletopia.com","port":27015,"enabled":true,"region":"us-central","cc":"us","latitude":41.881832,"longitude":-87.62318,"reserved":0,"last_update":"0001-01-01T00:00:00Z","name_a2s":"Uncletopia | Chicago | 1 | All Maps","protocol":17,"map":"pl_barnblitz","folder":"tf","game":"Team Fortress","app_id":440,"player_count":0,"max_players":24,"Bots":0,"server_type":"Dedicated","server_os":"Linux","password":true,"vac":true,"version":"7757534","steam_id":85568392924469984,"keywords":["nocrits","nodmgspread","payload","uncletopia"],"game_id":440,"stv_port":27016,"stv_name":"Uncletopia | Chicago | 1 | All Maps | STV","players":null},{"server_id":106,"name":"Uncletopia | Chicago | 2 | All Maps","name_short":"chi-2","host":"chi-1.us.uncletopia.com","port":27025,"enabled":true,"region":"us-central","cc":"us","latitude":41.881832,"longitude":-87.62318,"reserved":0,"last_update":"0001-01-01T00:00:00Z","name_a2s":"Uncletopia | Chicago | 2 | All Maps","protocol":17,"map":"cp_dustbowl","folder":"tf","game":"Team Fortress","app_id":440,"player_count":24,"max_players":24,"Bots":0,"server_type":"Dedicated","server_os":"Linux","password":true,"vac":true,"version":"7757534","steam_id":85568392924469985,"keywords":["cp","nocrits","nodmgspread","uncletopia"],"game_id":440,"stv_port":27026,"stv_name":"Uncletopia | Chicago | 2 | All Maps | STV","players":[{"user_id":177,"name":"tA.CHRONIC","steam_id":76561197960760990,"connected_time":344000000000,"state":"active","ping":48},{"user_id":174,"name":"bear","steam_id":76561198313696546,"connected_time":961000000000,"state":"active","ping":86},{"user_id":190,"name":"_Lusty_","steam_id":76561198876948142,"connected_time":27000000000,"state":"active","ping":62},{"user_id":179,"name":"Gibby","steam_id":76561199336569123,"connected_time":253000000000,"state":"active","ping":140},{"user_id":180,"name":"[LPH] the poopenfarter","steam_id":76561198358777210,"connected_time":253000000000,"state":"active","ping":46},{"user_id":161,"name":"perpetual stew","steam_id":76561198081220016,"connected_time":2301000000000,"state":"active","ping":49},{"user_id":135,"name":"Adam (Cursed Confetti Creature)","steam_id":76561198317690197,"connected_time":4730000000000,"state":"active","ping":45},{"user_id":134,"name":"BONZ","steam_id":76561199445629071,"connected_time":4883000000000,"state":"active","ping":61},{"user_id":181,"name":"Geist","steam_id":76561198061056093,"connected_time":252000000000,"state":"active","ping":91},{"user_id":167,"name":"gideon nav my beloved","steam_id":76561198259092181,"connected_time":1283000000000,"state":"active","ping":63},{"user_id":182,"name":"Mediocre Gaming","steam_id":76561199230467980,"connected_time":224000000000,"state":"active","ping":71},{"user_id":176,"name":"Gr4ywullf","steam_id":76561198271637621,"connected_time":356000000000,"state":"active","ping":66},{"user_id":191,"name":"Beefycactus","steam_id":76561198146650577,"connected_time":12000000000,"state":"spawning","ping":93},{"user_id":189,"name":"vyx","steam_id":76561198037205391,"connected_time":61000000000,"state":"active","ping":75},{"user_id":183,"name":"tomoko","steam_id":76561199036394030,"connected_time":170000000000,"state":"active","ping":275},{"user_id":184,"name":"Rads","steam_id":76561198110943046,"connected_time":162000000000,"state":"active","ping":63},{"user_id":185,"name":"Beees","steam_id":76561199020562768,"connected_time":149000000000,"state":"active","ping":76},{"user_id":186,"name":"hollyhog","steam_id":76561198095215536,"connected_time":147000000000,"state":"active","ping":83},{"user_id":160,"name":"Retro Phoenix","steam_id":76561198077176271,"connected_time":2314000000000,"state":"active","ping":58},{"user_id":162,"name":"vanilla gorilla","steam_id":76561197989019617,"connected_time":2301000000000,"state":"active","ping":45},{"user_id":188,"name":"Captain Rex","steam_id":76561198077851245,"connected_time":111000000000,"state":"active","ping":57},{"user_id":156,"name":"AYAYA!!!","steam_id":76561198992102180,"connected_time":2847000000000,"state":"active","ping":47},{"user_id":164,"name":"Besagues","steam_id":76561198373893302,"connected_time":2244000000000,"state":"active","ping":79},{"user_id":157,"name":"SmokeyGalaxy","steam_id":76561198118780516,"connected_time":2847000000000,"state":"active","ping":78}]},{"server_id":402,"name":"Uncletopia | Chicago | 3 | All Maps","name_short":"chi-3","host":"chi-1.us.uncletopia.com","port":27035,"enabled":true,"region":"us-central","cc":"us","latitude":41.881832,"longitude":-87.62318,"reserved":0,"last_update":"0001-01-01T00:00:00Z","name_a2s":"Uncletopia | Chicago | 3 | All Maps","protocol":17,"map":"pl_borneo","folder":"tf","game":"Team Fortress","app_id":440,"player_count":24,"max_players":24,"Bots":0,"server_type":"Dedicated","server_os":"Linux","password":true,"vac":true,"version":"7757534","steam_id":85568392924515191,"keywords":["nocrits","nodmgspread","payload","uncletopia"],"game_id":440,"stv_port":27036,"stv_name":"Uncletopia | Chicago | 3 | All Maps | STV","players":[{"user_id":38,"name":"StupidSexyFlanders","steam_id":76561198029760463,"connected_time":2065000000000,"state":"active","ping":66},{"user_id":30,"name":"whimsical little creature","steam_id":76561198271710504,"connected_time":2297000000000,"state":"active","ping":55},{"user_id":15,"name":"whittlo","steam_id":76561198056793479,"connected_time":3167000000000,"state":"active","ping":69},{"user_id":61,"name":"Flint","steam_id":76561198148412420,"connected_time":713000000000,"state":"active","ping":68},{"user_id":63,"name":"Skab","steam_id":76561199126112357,"connected_time":636000000000,"state":"active","ping":75},{"user_id":36,"name":"amablehughes","steam_id":76561199007131236,"connected_time":2167000000000,"state":"active","ping":77},{"user_id":62,"name":"DemonicAngelT6","steam_id":76561199121673701,"connected_time":679000000000,"state":"active","ping":61},{"user_id":57,"name":"NBA2k22hoodmoments","steam_id":76561198383103506,"connected_time":885000000000,"state":"active","ping":54},{"user_id":25,"name":"crittr","steam_id":76561198014302068,"connected_time":2438000000000,"state":"active","ping":75},{"user_id":29,"name":"OKUYA5U","steam_id":76561198815127418,"connected_time":2333000000000,"state":"active","ping":177},{"user_id":37,"name":"CHEEKY EUNUCH","steam_id":76561198990825232,"connected_time":2166000000000,"state":"active","ping":67},{"user_id":39,"name":"KrautCakes!","steam_id":76561198133973878,"connected_time":2044000000000,"state":"active","ping":87},{"user_id":52,"name":"Rein","steam_id":76561198300340427,"connected_time":1663000000000,"state":"active","ping":60},{"user_id":71,"name":"Fuzzy Toast","steam_id":76561198028067781,"connected_time":105000000000,"state":"active","ping":41},{"user_id":69,"name":"Jinks","steam_id":76561198027980233,"connected_time":131000000000,"state":"active","ping":83},{"user_id":60,"name":"WatchWill","steam_id":76561198157237945,"connected_time":734000000000,"state":"active","ping":72},{"user_id":43,"name":"be","steam_id":76561198000824533,"connected_time":1960000000000,"state":"active","ping":336},{"user_id":58,"name":"CuSO4","steam_id":76561199278147589,"connected_time":877000000000,"state":"active","ping":70},{"user_id":45,"name":"Stickeez Nuts","steam_id":76561199031241776,"connected_time":1898000000000,"state":"active","ping":75},{"user_id":68,"name":"Lovedaddy","steam_id":76561198006569710,"connected_time":205000000000,"state":"active","ping":82},{"user_id":67,"name":"threethree","steam_id":76561198177354155,"connected_time":311000000000,"state":"active","ping":45},{"user_id":72,"name":"teaspinator","steam_id":76561199069748074,"connected_time":98000000000,"state":"active","ping":59},{"user_id":53,"name":"sky_guy","steam_id":76561198058668342,"connected_time":1193000000000,"state":"active","ping":64},{"user_id":66,"name":"Shadowstone67","steam_id":76561198199459430,"connected_time":547000000000,"state":"active","ping":70}]},{"server_id":403,"name":"Uncletopia | Chicago | 4 | All Maps","name_short":"chi-4","host":"chi-1.us.uncletopia.com","port":27045,"enabled":true,"region":"us-central","cc":"us","latitude":41.881832,"longitude":-87.62318,"reserved":0,"last_update":"0001-01-01T00:00:00Z","name_a2s":"Uncletopia | Chicago | 4 | All Maps","protocol":17,"map":"koth_lakeside_final","folder":"tf","game":"Team Fortress","app_id":440,"player_count":0,"max_players":24,"Bots":0,"server_type":"Dedicated","server_os":"Linux","password":true,"vac":true,"version":"7757534","steam_id":85568392924515193,"keywords":["cp","nocrits","nodmgspread","uncletopia"],"game_id":440,"stv_port":27046,"stv_name":"Uncletopia | Chicago | 4 | All Maps | STV","players":null},{"server_id":36,"name":"Uncletopia | Chicago | 5 | All Maps","name_short":"chi-5","host":"chi-2.us.uncletopia.com","port":27015,"enabled":true,"region":"us-central","cc":"us","latitude":41.881832,"longitude":-87.62318,"reserved":0,"last_update":"0001-01-01T00:00:00Z","name_a2s":"Uncletopia | Chicago | 5 | All Maps","protocol":17,"map":"koth_cascade","folder":"tf","game":"Team Fortress","app_id":440,"player_count":0,"max_players":24,"Bots":0,"server_type":"Dedicated","server_os":"Linux","password":true,"vac":true,"version":"7757534","steam_id":85568392924866362,"keywords":["cp","nocrits","nodmgspread","uncletopia"],"game_id":440,"stv_port":27016,"stv_name":"Uncletopia | Chicago | 5 | All Maps | STV","players":null},{"server_id":37,"name":"Uncletopia | Chicago | 6 | All Maps","name_short":"chi-6","host":"chi-2.us.uncletopia.com","port":27025,"enabled":true,"region":"us-central","cc":"us","latitude":41.881832,"longitude":-87.62318,"reserved":0,"last_update":"0001-01-01T00:00:00Z","name_a2s":"Uncletopia | Chicago | 6 | All Maps","protocol":17,"map":"pl_borneo","folder":"tf","game":"Team Fortress","app_id":440,"player_count":0,"max_players":24,"Bots":0,"server_type":"Dedicated","server_os":"Linux","password":true,"vac":true,"version":"7757534","steam_id":85568392924866363,"keywords":["nocrits","nodmgspread","payload","uncletopia"],"game_id":440,"stv_port":27026,"stv_name":"Uncletopia | Chicago | 6 | All Maps | STV","players":null},{"server_id":38,"name":"Uncletopia | Chicago | 7 | Stopwatch Beta","name_short":"chi-7","host":"chi-2.us.uncletopia.com","port":27035,"enabled":true,"region":"us-central","cc":"us","latitude":41.881832,"longitude":-87.62318,"reserved":0,"last_update":"0001-01-01T00:00:00Z","name_a2s":"Uncletopia | Chicago | 7 | Stopwatch Beta","protocol":17,"map":"pl_barnblitz","folder":"tf","game":"Team Fortress","app_id":440,"player_count":0,"max_players":24,"Bots":0,"server_type":"Dedicated","server_os":"Linux","password":true,"vac":true,"version":"7757534","steam_id":85568392924866364,"keywords":["nocrits","nodmgspread","payload","uncletopia"],"game_id":440,"stv_port":27036,"stv_name":"Uncletopia | Chicago | 7 | Stopwatch Beta | STV","players":null},{"server_id":39,"name":"Uncletopia | Chicago | 8 | Community","name_short":"chi-8","host":"chi-2.us.uncletopia.com","port":27045,"enabled":true,"region":"us-central","cc":"us","latitude":41.881832,"longitude":-87.62318,"reserved":0,"last_update":"0001-01-01T00:00:00Z","name_a2s":"Uncletopia | Chicago | 8 | Community","protocol":17,"map":"koth_cascade","folder":"tf","game":"Team Fortress","app_id":440,"player_count":0,"max_players":24,"Bots":0,"server_type":"Dedicated","server_os":"Linux","password":true,"vac":true,"version":"7757534","steam_id":85568392924866365,"keywords":["cp","nocrits","nodmgspread","uncletopia"],"game_id":440,"stv_port":27046,"stv_name":"Uncletopia | Chicago | 8 | Community | STV","players":null},{"server_id":8,"name":"Uncletopia | Dallas | 1 | All Maps","name_short":"dal-1","host":"dal-1.us.uncletopia.com","port":27015,"enabled":true,"region":"us-central","cc":"us","latitude":32.779167,"longitude":-96.80889,"reserved":0,"last_update":"0001-01-01T00:00:00Z","name_a2s":"Uncletopia | Dallas | 1 | All Maps","protocol":17,"map":"koth_cascade","folder":"tf","game":"Team Fortress","app_id":440,"player_count":3,"max_players":24,"Bots":0,"server_type":"Dedicated","server_os":"Linux","password":true,"vac":true,"version":"7757534","steam_id":85568392924469986,"keywords":["cp","nocrits","nodmgspread","uncletopia"],"game_id":440,"stv_port":27016,"stv_name":"Uncletopia | Dallas | 1 | All Maps | STV","players":[{"user_id":17,"name":"LeFunnyMan","steam_id":76561199081645289,"connected_time":374000000000,"state":"active","ping":58},{"user_id":18,"name":"Busness_pig","steam_id":76561199244823990,"connected_time":216000000000,"state":"active","ping":42},{"user_id":19,"name":"McSnapperDapple","steam_id":76561199163296508,"connected_time":147000000000,"state":"active","ping":56}]},{"server_id":108,"name":"Uncletopia | Dallas | 2 | All Maps","name_short":"dal-2","host":"dal-1.us.uncletopia.com","port":27025,"enabled":true,"region":"us-central","cc":"us","latitude":32.779167,"longitude":-96.80889,"reserved":0,"last_update":"0001-01-01T00:00:00Z","name_a2s":"Uncletopia | Dallas | 2 | All Maps","protocol":17,"map":"koth_cascade","folder":"tf","game":"Team Fortress","app_id":440,"player_count":0,"max_players":24,"Bots":0,"server_type":"Dedicated","server_os":"Linux","password":true,"vac":true,"version":"7757534","steam_id":85568392924469988,"keywords":["cp","nocrits","nodmgspread","uncletopia"],"game_id":440,"stv_port":27026,"stv_name":"Uncletopia | Dallas | 2 | All Maps | STV","players":null},{"server_id":5,"name":"Uncletopia | Frankfurt | 1 | All Maps","name_short":"frk-1","host":"frk-1.de.uncletopia.com","port":27015,"enabled":true,"region":"eu","cc":"de","latitude":50.110924,"longitude":8.682127,"reserved":0,"last_update":"0001-01-01T00:00:00Z","name_a2s":"Uncletopia | Frankfurt | 1 | All Maps","protocol":17,"map":"pl_badwater","folder":"tf","game":"Team Fortress","app_id":440,"player_count":24,"max_players":24,"Bots":0,"server_type":"Dedicated","server_os":"Linux","password":true,"vac":true,"version":"7757534","steam_id":85568392924469989,"keywords":["nocrits","nodmgspread","payload","uncletopia"],"game_id":440,"stv_port":27016,"stv_name":"Uncletopia | Frankfurt | 1 | All Maps | STV","players":[{"user_id":353,"name":"tqla","steam_id":76561198073092585,"connected_time":2337000000000,"state":"active","ping":85},{"user_id":387,"name":"Soerlssoelssöen","steam_id":76561197993060585,"connected_time":19000000000,"state":"spawning","ping":77},{"user_id":214,"name":"✪ qua ✪","steam_id":76561198066408333,"connected_time":10441000000000,"state":"active","ping":62},{"user_id":369,"name":"Canis[Magnus]Pectus","steam_id":76561198363775072,"connected_time":1686000000000,"state":"active","ping":125},{"user_id":386,"name":"Ziltoid","steam_id":76561198020753675,"connected_time":324000000000,"state":"active","ping":72},{"user_id":361,"name":"Flash","steam_id":76561198067379855,"connected_time":2179000000000,"state":"active","ping":52},{"user_id":311,"name":"Gorogaz","steam_id":76561198207157679,"connected_time":4271000000000,"state":"active","ping":68},{"user_id":366,"name":"Nifi","steam_id":76561198102682566,"connected_time":1854000000000,"state":"active","ping":60},{"user_id":372,"name":"somehow danced","steam_id":76561198128250460,"connected_time":1629000000000,"state":"active","ping":100},{"user_id":374,"name":"howabe","steam_id":76561197996486818,"connected_time":1284000000000,"state":"active","ping":49},{"user_id":161,"name":"Francisco","steam_id":76561198074614581,"connected_time":14167000000000,"state":"active","ping":74},{"user_id":378,"name":"Hoff","steam_id":76561198138540938,"connected_time":735000000000,"state":"active","ping":72},{"user_id":376,"name":"romos","steam_id":76561199123161420,"connected_time":1091000000000,"state":"active","ping":59},{"user_id":351,"name":"Cypher","steam_id":76561197996967254,"connected_time":2352000000000,"state":"active","ping":56},{"user_id":370,"name":"MateMO","steam_id":76561198146180114,"connected_time":1653000000000,"state":"active","ping":85},{"user_id":360,"name":"sape","steam_id":76561198089322416,"connected_time":2195000000000,"state":"active","ping":109},{"user_id":384,"name":"coffee","steam_id":76561198382387303,"connected_time":558000000000,"state":"active","ping":117},{"user_id":337,"name":"180' Phil Taylor -----\u003e oOo","steam_id":76561198154067937,"connected_time":3024000000000,"state":"active","ping":70},{"user_id":371,"name":"thuurs","steam_id":76561198095850568,"connected_time":1648000000000,"state":"active","ping":55},{"user_id":348,"name":"jmp","steam_id":76561198168283286,"connected_time":2409000000000,"state":"active","ping":75},{"user_id":363,"name":"Jnyu","steam_id":76561198070532575,"connected_time":2089000000000,"state":"active","ping":76},{"user_id":356,"name":"Temmie500","steam_id":76561199067942631,"connected_time":2327000000000,"state":"active","ping":123},{"user_id":380,"name":"Mechanical Man","steam_id":76561198031573426,"connected_time":662000000000,"state":"active","ping":61},{"user_id":381,"name":"John Noob","steam_id":76561197999170026,"connected_time":662000000000,"state":"active","ping":93}]},{"server_id":110,"name":"Uncletopia | Frankfurt | 2 | All Maps","name_short":"frk-2","host":"frk-1.de.uncletopia.com","port":27025,"enabled":true,"region":"eu","cc":"de","latitude":50.110924,"longitude":8.682127,"reserved":0,"last_update":"0001-01-01T00:00:00Z","name_a2s":"Uncletopia | Frankfurt | 2 | All Maps","protocol":17,"map":"cp_process_final","folder":"tf","game":"Team Fortress","app_id":440,"player_count":23,"max_players":24,"Bots":0,"server_type":"Dedicated","server_os":"Linux","password":true,"vac":true,"version":"7757534","steam_id":85568392924469990,"keywords":["cp","nocrits","nodmgspread","uncletopia"],"game_id":440,"stv_port":27026,"stv_name":"Uncletopia | Frankfurt | 2 | All Maps | STV","players":[{"user_id":333,"name":"Tywhip","steam_id":76561199207545191,"connected_time":187000000000,"state":"active","ping":55},{"user_id":274,"name":"lilith","steam_id":76561198280056127,"connected_time":3113000000000,"state":"active","ping":57},{"user_id":332,"name":"Greencoffee","steam_id":76561198842090589,"connected_time":227000000000,"state":"active","ping":86},{"user_id":234,"name":"Ducky[WADZ]","steam_id":76561198060341245,"connected_time":5875000000000,"state":"active","ping":61},{"user_id":292,"name":"ambatukam","steam_id":76561199062586342,"connected_time":2365000000000,"state":"active","ping":80},{"user_id":305,"name":"BlackFireHealer","steam_id":76561198035912038,"connected_time":1602000000000,"state":"active","ping":68},{"user_id":278,"name":"Aaron Rodgers Gaming","steam_id":76561198394221491,"connected_time":2861000000000,"state":"active","ping":58},{"user_id":304,"name":"Cave Johnson","steam_id":76561198366456565,"connected_time":1621000000000,"state":"active","ping":61},{"user_id":321,"name":"The Sex","steam_id":76561199142022395,"connected_time":841000000000,"state":"active","ping":70},{"user_id":318,"name":"Fish 'n' Chips","steam_id":76561198033476886,"connected_time":943000000000,"state":"active","ping":45},{"user_id":316,"name":"AwterSix","steam_id":76561198042561678,"connected_time":1203000000000,"state":"active","ping":56},{"user_id":325,"name":"Dåvid","steam_id":76561198184135755,"connected_time":823000000000,"state":"active","ping":61},{"user_id":320,"name":"meppo","steam_id":76561198165773900,"connected_time":849000000000,"state":"active","ping":57},{"user_id":300,"name":"H2Orange","steam_id":76561198082128552,"connected_time":1893000000000,"state":"active","ping":80},{"user_id":282,"name":"Tea","steam_id":76561198799243030,"connected_time":2799000000000,"state":"active","ping":69},{"user_id":331,"name":"Syde","steam_id":76561198071725346,"connected_time":422000000000,"state":"active","ping":57},{"user_id":265,"name":"Soyboy","steam_id":76561198053885716,"connected_time":3445000000000,"state":"active","ping":85},{"user_id":297,"name":"Utkunator","steam_id":76561198967463151,"connected_time":2018000000000,"state":"active","ping":91},{"user_id":307,"name":"Biały","steam_id":76561197996016988,"connected_time":1500000000000,"state":"active","ping":71},{"user_id":308,"name":"mushroom","steam_id":76561198817034571,"connected_time":1499000000000,"state":"active","ping":78},{"user_id":311,"name":"ducks","steam_id":76561198166148685,"connected_time":1392000000000,"state":"active","ping":48},{"user_id":329,"name":"Menty","steam_id":76561198036748212,"connected_time":737000000000,"state":"active","ping":46},{"user_id":330,"name":"Garoiop","steam_id":76561198082326459,"connected_time":710000000000,"state":"active","ping":45}]},{"server_id":308,"name":"Uncletopia | Frankfurt | 3 | All Maps","name_short":"frk-3","host":"frk-1.de.uncletopia.com","port":27035,"enabled":true,"region":"eu","cc":"de","latitude":50.110924,"longitude":8.682127,"reserved":0,"last_update":"0001-01-01T00:00:00Z","name_a2s":"Uncletopia | Frankfurt | 3 | All Maps","protocol":17,"map":"pl_frontier_final","folder":"tf","game":"Team Fortress","app_id":440,"player_count":24,"max_players":24,"Bots":0,"server_type":"Dedicated","server_os":"Linux","password":true,"vac":true,"version":"7757534","steam_id":85568392924504274,"keywords":["nocrits","nodmgspread","payload","uncletopia"],"game_id":440,"stv_port":27036,"stv_name":"Uncletopia | Frankfurt | 3 | All Maps | STV","players":[{"user_id":54,"name":"Lucasqfd","steam_id":76561198008400277,"connected_time":1855000000000,"state":"active","ping":64},{"user_id":61,"name":"PanPatrik","steam_id":76561198293331527,"connected_time":1253000000000,"state":"active","ping":55},{"user_id":66,"name":"Sinny","steam_id":76561197999598422,"connected_time":1114000000000,"state":"active","ping":71},{"user_id":21,"name":"Sir Walrus IV","steam_id":76561198229119520,"connected_time":2962000000000,"state":"active","ping":71},{"user_id":14,"name":"Kjat","steam_id":76561198839433592,"connected_time":4133000000000,"state":"active","ping":52},{"user_id":22,"name":"sHIFTINGvORTEX","steam_id":76561198231648332,"connected_time":2920000000000,"state":"active","ping":75},{"user_id":75,"name":"jovi_","steam_id":76561198449280552,"connected_time":151000000000,"state":"active","ping":62},{"user_id":74,"name":"Akane","steam_id":76561197990407312,"connected_time":223000000000,"state":"active","ping":69},{"user_id":25,"name":"Ray","steam_id":76561198084254790,"connected_time":2587000000000,"state":"active","ping":83},{"user_id":67,"name":"Firevell","steam_id":76561198154813359,"connected_time":983000000000,"state":"active","ping":54},{"user_id":76,"name":".Aq","steam_id":76561198043376092,"connected_time":107000000000,"state":"spawning","ping":92},{"user_id":32,"name":"Maru","steam_id":76561198030931030,"connected_time":2440000000000,"state":"active","ping":67},{"user_id":30,"name":"Neplex","steam_id":76561198002055899,"connected_time":2482000000000,"state":"active","ping":56},{"user_id":73,"name":"mr. bean bananza","steam_id":76561198842567021,"connected_time":236000000000,"state":"active","ping":188},{"user_id":51,"name":"Smoking poop","steam_id":76561198043166723,"connected_time":1933000000000,"state":"active","ping":79},{"user_id":71,"name":"Not A Fake Uncletopia Server","steam_id":76561198152871288,"connected_time":533000000000,"state":"active","ping":59},{"user_id":77,"name":"seeyouauntie","steam_id":76561198045852999,"connected_time":79000000000,"state":"active","ping":164},{"user_id":40,"name":"Greenmaker","steam_id":76561198060466591,"connected_time":2201000000000,"state":"active","ping":80},{"user_id":72,"name":"NAxERON","steam_id":76561198271037396,"connected_time":349000000000,"state":"active","ping":105},{"user_id":78,"name":"the babadook","steam_id":76561198040168682,"connected_time":56000000000,"state":"active","ping":54},{"user_id":79,"name":"Alfred Schroom","steam_id":76561198117990411,"connected_time":52000000000,"state":"active","ping":89},{"user_id":44,"name":"Cuuts","steam_id":76561198043053852,"connected_time":2091000000000,"state":"active","ping":60},{"user_id":59,"name":"jona3838","steam_id":76561199097658195,"connected_time":1327000000000,"state":"active","ping":106},{"user_id":60,"name":"BunkerBoy","steam_id":76561198859439313,"connected_time":1316000000000,"state":"active","ping":79}]},{"server_id":309,"name":"Uncletopia | Frankfurt | 4 | All Maps","name_short":"frk-4","host":"frk-1.de.uncletopia.com","port":27045,"enabled":true,"region":"eu","cc":"de","latitude":50.110924,"longitude":8.682127,"reserved":0,"last_update":"0001-01-01T00:00:00Z","name_a2s":"Uncletopia | Frankfurt | 4 | All Maps","protocol":17,"map":"koth_viaduct","folder":"tf","game":"Team Fortress","app_id":440,"player_count":0,"max_players":24,"Bots":0,"server_type":"Dedicated","server_os":"Linux","password":true,"vac":true,"version":"7757534","steam_id":85568392924504275,"keywords":["cp","nocrits","nodmgspread","uncletopia"],"game_id":440,"stv_port":27046,"stv_name":"Uncletopia | Frankfurt | 4 | All Maps | STV","players":null},{"server_id":310,"name":"Uncletopia | Frankfurt | 5 | All Maps","name_short":"frk-5","host":"frk-1.de.uncletopia.com","port":27055,"enabled":true,"region":"eu","cc":"de","latitude":50.110924,"longitude":8.682127,"reserved":0,"last_update":"0001-01-01T00:00:00Z","name_a2s":"Uncletopia | Frankfurt | 5 | All Maps","protocol":17,"map":"pl_frontier_final","folder":"tf","game":"Team Fortress","app_id":440,"player_count":24,"max_players":24,"Bots":0,"server_type":"Dedicated","server_os":"Linux","password":true,"vac":true,"version":"7757534","steam_id":85568392924504277,"keywords":["nocrits","nodmgspread","payload","uncletopia"],"game_id":440,"stv_port":27056,"stv_name":"Uncletopia | Frankfurt | 5 | All Maps | STV","players":[{"user_id":444,"name":"Mr_Poo_Sham_","steam_id":76561197999518810,"connected_time":375000000000,"state":"active","ping":41},{"user_id":395,"name":"CptHavvock","steam_id":76561199189740651,"connected_time":3543000000000,"state":"active","ping":91},{"user_id":384,"name":"☯","steam_id":76561198351154533,"connected_time":3823000000000,"state":"active","ping":66},{"user_id":440,"name":"Zedifo","steam_id":76561198044032070,"connected_time":767000000000,"state":"active","ping":46},{"user_id":413,"name":"Spy Gaming","steam_id":76561198257225296,"connected_time":2715000000000,"state":"active","ping":82},{"user_id":434,"name":"$outhside","steam_id":76561198045407897,"connected_time":1076000000000,"state":"active","ping":71},{"user_id":432,"name":"Bagel","steam_id":76561198372722828,"connected_time":1121000000000,"state":"active","ping":94},{"user_id":429,"name":"Lempii","steam_id":76561198433507634,"connected_time":1479000000000,"state":"active","ping":91},{"user_id":425,"name":"Maddie","steam_id":76561198165654207,"connected_time":2072000000000,"state":"active","ping":60},{"user_id":415,"name":"JamesPepega","steam_id":76561198019156154,"connected_time":2690000000000,"state":"active","ping":71},{"user_id":421,"name":"milof","steam_id":76561198809199604,"connected_time":2347000000000,"state":"active","ping":78},{"user_id":422,"name":"Viking Jeff","steam_id":76561198062000324,"connected_time":2340000000000,"state":"active","ping":58},{"user_id":398,"name":"Pancakes","steam_id":76561198196259989,"connected_time":3386000000000,"state":"active","ping":62},{"user_id":430,"name":"Shovelhalfrusty","steam_id":76561198346447513,"connected_time":1151000000000,"state":"active","ping":85},{"user_id":445,"name":"Voruna's Juicy Wolf Milkers","steam_id":76561198376776616,"connected_time":366000000000,"state":"active","ping":56},{"user_id":443,"name":"SCRAMMMBLED","steam_id":76561197998307746,"connected_time":484000000000,"state":"active","ping":73},{"user_id":404,"name":"errisauroh","steam_id":76561198112701938,"connected_time":3102000000000,"state":"active","ping":60},{"user_id":435,"name":"PapaMaxy","steam_id":76561198256362726,"connected_time":1053000000000,"state":"active","ping":88},{"user_id":341,"name":"fector","steam_id":76561199204249586,"connected_time":7729000000000,"state":"active","ping":133},{"user_id":410,"name":"H2n9","steam_id":76561198055811259,"connected_time":2753000000000,"state":"active","ping":69},{"user_id":441,"name":"XPullaHiiri","steam_id":76561198031652375,"connected_time":530000000000,"state":"active","ping":86},{"user_id":436,"name":"never fucking again","steam_id":76561198821335888,"connected_time":1038000000000,"state":"active","ping":119},{"user_id":446,"name":"SlowMode","steam_id":76561198039631442,"connected_time":264000000000,"state":"active","ping":81},{"user_id":423,"name":"night.s","steam_id":76561198326287823,"connected_time":2167000000000,"state":"active","ping":77}]},{"server_id":311,"name":"Uncletopia | Frankfurt | 6 | All Maps","name_short":"frk-6","host":"frk-1.de.uncletopia.com","port":27065,"enabled":true,"region":"eu","cc":"de","latitude":50.110924,"longitude":8.682127,"reserved":0,"last_update":"0001-01-01T00:00:00Z","name_a2s":"Uncletopia | Frankfurt | 6 | All Maps","protocol":17,"map":"pl_thundermountain","folder":"tf","game":"Team Fortress","app_id":440,"player_count":23,"max_players":24,"Bots":0,"server_type":"Dedicated","server_os":"Linux","password":true,"vac":true,"version":"7757534","steam_id":85568392924504278,"keywords":["nocrits","nodmgspread","payload","uncletopia"],"game_id":440,"stv_port":27066,"stv_name":"Uncletopia | Frankfurt | 6 | All Maps | STV","players":[{"user_id":230,"name":"Lil Ari","steam_id":76561198218178180,"connected_time":4366000000000,"state":"active","ping":83},{"user_id":272,"name":"jD_x2r2","steam_id":76561198061001376,"connected_time":1218000000000,"state":"active","ping":60},{"user_id":276,"name":"Chopperson_","steam_id":76561198873728497,"connected_time":289000000000,"state":"active","ping":107},{"user_id":233,"name":"finbar","steam_id":76561198056812396,"connected_time":4038000000000,"state":"active","ping":81},{"user_id":235,"name":"Popop","steam_id":76561198004793795,"connected_time":3988000000000,"state":"active","ping":48},{"user_id":206,"name":"nhtson","steam_id":76561199113295118,"connected_time":6797000000000,"state":"active","ping":78},{"user_id":275,"name":"Haha?","steam_id":76561198056882245,"connected_time":863000000000,"state":"active","ping":44},{"user_id":255,"name":"A stripper","steam_id":76561198034865891,"connected_time":2961000000000,"state":"active","ping":62},{"user_id":237,"name":"Keku","steam_id":76561199243275120,"connected_time":3904000000000,"state":"active","ping":68},{"user_id":263,"name":"Deacon Dracul","steam_id":76561198046880663,"connected_time":2261000000000,"state":"active","ping":92},{"user_id":273,"name":"SnusRunkarn","steam_id":76561199124072329,"connected_time":906000000000,"state":"active","ping":95},{"user_id":261,"name":"Chocofrolik","steam_id":76561198454779847,"connected_time":2369000000000,"state":"active","ping":83},{"user_id":248,"name":"G.R.E","steam_id":76561197979806514,"connected_time":3514000000000,"state":"active","ping":53},{"user_id":259,"name":"Elfie","steam_id":76561198206802255,"connected_time":2435000000000,"state":"active","ping":72},{"user_id":264,"name":"Tyra","steam_id":76561198043739064,"connected_time":2228000000000,"state":"active","ping":74},{"user_id":252,"name":"uqsz","steam_id":76561198092062820,"connected_time":3222000000000,"state":"active","ping":71},{"user_id":262,"name":"Napole","steam_id":76561198267530436,"connected_time":2292000000000,"state":"active","ping":114},{"user_id":176,"name":"Cabbch","steam_id":76561198045955679,"connected_time":9254000000000,"state":"active","ping":57},{"user_id":269,"name":"dash.","steam_id":76561198084796149,"connected_time":1784000000000,"state":"active","ping":55},{"user_id":277,"name":"B@yka","steam_id":76561198986736592,"connected_time":187000000000,"state":"active","ping":77},{"user_id":266,"name":"TerraformerBeing","steam_id":76561198281011934,"connected_time":1930000000000,"state":"active","ping":100},{"user_id":185,"name":"Pico","steam_id":76561198063552545,"connected_time":8843000000000,"state":"active","ping":96},{"user_id":258,"name":"Josh","steam_id":76561198274546904,"connected_time":2843000000000,"state":"active","ping":143}]},{"server_id":23,"name":"Uncletopia | Frankfurt | 7 | Stopwatch Beta","name_short":"frk-7","host":"frk-1.de.uncletopia.com","port":27075,"enabled":true,"region":"eu","cc":"de","latitude":50.110924,"longitude":8.682127,"reserved":0,"last_update":"0001-01-01T00:00:00Z","name_a2s":"Uncletopia | Frankfurt | 7 | Stopwatch Beta","protocol":17,"map":"workshop/koth_bagel_rc6.ugc2514036946","folder":"tf","game":"Team Fortress","app_id":440,"player_count":0,"max_players":24,"Bots":0,"server_type":"Dedicated","server_os":"Linux","password":true,"vac":true,"version":"7757534","steam_id":85568392924742827,"keywords":["cp","nocrits","nodmgspread","uncletopia"],"game_id":440,"stv_port":27076,"stv_name":"Uncletopia | Frankfurt | 7 | Stopwatch Beta | STV","players":null},{"server_id":24,"name":"Uncletopia | Frankfurt | 8 | Community","name_short":"frk-8","host":"frk-1.de.uncletopia.com","port":27085,"enabled":true,"region":"eu","cc":"de","latitude":50.110924,"longitude":8.682127,"reserved":0,"last_update":"0001-01-01T00:00:00Z","name_a2s":"Uncletopia | Frankfurt | 8 | Community","protocol":17,"map":"workshop/pl_cashworks_final1.ugc2904065412","folder":"tf","game":"Team Fortress","app_id":440,"player_count":21,"max_players":24,"Bots":0,"server_type":"Dedicated","server_os":"Linux","password":true,"vac":true,"version":"7757534","steam_id":85568392924742828,"keywords":["nocrits","nodmgspread","payload","uncletopia"],"game_id":440,"stv_port":27086,"stv_name":"Uncletopia | Frankfurt | 8 | Community | STV","players":[{"user_id":257,"name":"Envy","steam_id":76561198132723219,"connected_time":101000000000,"state":"active","ping":92},{"user_id":240,"name":"Chill Spirit","steam_id":76561198845001725,"connected_time":911000000000,"state":"active","ping":47},{"user_id":241,"name":"ASAP","steam_id":76561198322078500,"connected_time":904000000000,"state":"active","ping":89},{"user_id":242,"name":"pootis sentry","steam_id":76561199225363633,"connected_time":897000000000,"state":"active","ping":152},{"user_id":210,"name":"Operunter","steam_id":76561198059937616,"connected_time":3319000000000,"state":"active","ping":72},{"user_id":247,"name":"Криминальный уще","steam_id":76561198034136409,"connected_time":659000000000,"state":"active","ping":92},{"user_id":245,"name":"mesλ","steam_id":76561198324582918,"connected_time":724000000000,"state":"active","ping":103},{"user_id":248,"name":"Kleiner Engel","steam_id":76561198009922500,"connected_time":569000000000,"state":"active","ping":60},{"user_id":162,"name":"Neoantox","steam_id":76561198216828713,"connected_time":6409000000000,"state":"active","ping":91},{"user_id":253,"name":"Surfyx","steam_id":76561199110545477,"connected_time":311000000000,"state":"active","ping":47},{"user_id":250,"name":"Tesla","steam_id":76561198378649144,"connected_time":483000000000,"state":"active","ping":70},{"user_id":258,"name":"invaliden straẞe","steam_id":76561198048250715,"connected_time":16000000000,"state":"spawning","ping":109},{"user_id":225,"name":"killbind irl","steam_id":76561198180637374,"connected_time":2296000000000,"state":"active","ping":89},{"user_id":209,"name":"brehs","steam_id":76561198150653454,"connected_time":3435000000000,"state":"active","ping":60},{"user_id":194,"name":"Sim","steam_id":76561198086641180,"connected_time":4498000000000,"state":"active","ping":73},{"user_id":254,"name":"ALARM","steam_id":76561198120686521,"connected_time":284000000000,"state":"active","ping":62},{"user_id":231,"name":"cryne","steam_id":76561198042120598,"connected_time":1579000000000,"state":"active","ping":69},{"user_id":255,"name":"Bananagame (Youtube)","steam_id":76561199275399457,"connected_time":276000000000,"state":"active","ping":173},{"user_id":256,"name":"SzamanB3","steam_id":76561198169240273,"connected_time":198000000000,"state":"active","ping":101},{"user_id":227,"name":"rob","steam_id":76561198122211848,"connected_time":2253000000000,"state":"active","ping":88},{"user_id":232,"name":"- 84n4n3n8r07 -","steam_id":76561198047887705,"connected_time":1495000000000,"state":"active","ping":57}]},{"server_id":202,"name":"Uncletopia | Hong Kong | 1 | All Maps","name_short":"hgk-1","host":"hgk-1.hk.uncletopia.com","port":27015,"enabled":true,"region":"asia","cc":"hk","latitude":22.302711,"longitude":114.177216,"reserved":0,"last_update":"0001-01-01T00:00:00Z","name_a2s":"Uncletopia | Hong Kong | 1 | All Maps","protocol":17,"map":"pl_upward","folder":"tf","game":"Team Fortress","app_id":440,"player_count":24,"max_players":24,"Bots":0,"server_type":"Dedicated","server_os":"Linux","password":true,"vac":true,"version":"7757534","steam_id":85568392924494504,"keywords":["nocrits","nodmgspread","payload","uncletopia"],"game_id":440,"stv_port":27016,"stv_name":"Uncletopia | Hong Kong | 1 | All Maps | STV","players":[{"user_id":431,"name":"Slim3rs","steam_id":76561199088010585,"connected_time":1613000000000,"state":"active","ping":175},{"user_id":361,"name":"母の肉団子@hao123.com","steam_id":76561198069561896,"connected_time":8900000000000,"state":"active","ping":42},{"user_id":382,"name":"Hao's titty delivery","steam_id":76561199122491157,"connected_time":7900000000000,"state":"active","ping":71},{"user_id":411,"name":"killman47","steam_id":76561198348487408,"connected_time":4853000000000,"state":"active","ping":41},{"user_id":438,"name":"Youtube Algorithm#no112","steam_id":76561198095713423,"connected_time":895000000000,"state":"active","ping":95},{"user_id":428,"name":"Aug","steam_id":76561199212711900,"connected_time":1820000000000,"state":"active","ping":106},{"user_id":355,"name":"no vc no c","steam_id":76561197989503095,"connected_time":9576000000000,"state":"active","ping":103},{"user_id":398,"name":"tiden2000","steam_id":76561198092969425,"connected_time":6035000000000,"state":"active","ping":119},{"user_id":439,"name":"Beef Wellington","steam_id":76561197995635241,"connected_time":243000000000,"state":"active","ping":133},{"user_id":408,"name":"P","steam_id":76561198304514505,"connected_time":5008000000000,"state":"active","ping":81},{"user_id":334,"name":"YourMailisHere","steam_id":76561199222388500,"connected_time":12175000000000,"state":"active","ping":60},{"user_id":179,"name":"Vortex Artemisio","steam_id":76561198833527091,"connected_time":27549000000000,"state":"active","ping":87},{"user_id":426,"name":"uptriste","steam_id":76561198158666692,"connected_time":2340000000000,"state":"active","ping":42},{"user_id":370,"name":"๋","steam_id":76561198413116920,"connected_time":8771000000000,"state":"active","ping":78},{"user_id":429,"name":"Stupid B","steam_id":76561198131423270,"connected_time":1694000000000,"state":"active","ping":64},{"user_id":283,"name":"Azi","steam_id":76561198147872523,"connected_time":17260000000000,"state":"active","ping":76},{"user_id":416,"name":"Milf (The fan O'Milk)","steam_id":76561198213031155,"connected_time":4543000000000,"state":"active","ping":103},{"user_id":440,"name":"쿠키","steam_id":76561197997220367,"connected_time":243000000000,"state":"active","ping":54},{"user_id":442,"name":"brizzard","steam_id":76561198048438653,"connected_time":220000000000,"state":"active","ping":52},{"user_id":430,"name":"taiwanpinglord","steam_id":76561199010058387,"connected_time":1693000000000,"state":"active","ping":85},{"user_id":261,"name":"ArcticDolphin","steam_id":76561198203626319,"connected_time":19771000000000,"state":"active","ping":157},{"user_id":433,"name":"domjni","steam_id":76561198287931508,"connected_time":1579000000000,"state":"active","ping":81},{"user_id":437,"name":"Bepo","steam_id":76561198136685157,"connected_time":1056000000000,"state":"active","ping":59},{"user_id":414,"name":"17","steam_id":76561198241530712,"connected_time":4779000000000,"state":"active","ping":67}]},{"server_id":1,"name":"Uncletopia | Los Angeles | 1 | All Maps","name_short":"lax-1","host":"lax-1.us.uncletopia.com","port":27015,"enabled":true,"region":"us-west","cc":"us","latitude":33.94279,"longitude":-118.41004,"reserved":0,"last_update":"0001-01-01T00:00:00Z","name_a2s":"Uncletopia | Los Angeles | 1 | All Maps","protocol":17,"map":"koth_lakeside_final","folder":"tf","game":"Team Fortress","app_id":440,"player_count":0,"max_players":24,"Bots":0,"server_type":"Dedicated","server_os":"Linux","password":true,"vac":true,"version":"7757534","steam_id":85568392924469991,"keywords":["cp","nocrits","nodmgspread","uncletopia"],"game_id":440,"stv_port":27016,"stv_name":"Uncletopia | Los Angeles | 1 | All Maps | STV","players":null},{"server_id":112,"name":"Uncletopia | Los Angeles | 2 | All Maps","name_short":"lax-2","host":"lax-1.us.uncletopia.com","port":27025,"enabled":true,"region":"us-west","cc":"us","latitude":33.94279,"longitude":-118.41004,"reserved":0,"last_update":"0001-01-01T00:00:00Z","name_a2s":"Uncletopia | Los Angeles | 2 | All Maps","protocol":17,"map":"pl_badwater","folder":"tf","game":"Team Fortress","app_id":440,"player_count":0,"max_players":24,"Bots":0,"server_type":"Dedicated","server_os":"Linux","password":true,"vac":true,"version":"7757534","steam_id":85568392924469992,"keywords":["nocrits","nodmgspread","payload","uncletopia"],"game_id":440,"stv_port":27026,"stv_name":"Uncletopia | Los Angeles | 2 | All Maps | STV","players":null},{"server_id":324,"name":"Uncletopia | Los Angeles | 3 | All Maps","name_short":"lax-3","host":"lax-1.us.uncletopia.com","port":27035,"enabled":true,"region":"us-west","cc":"us","latitude":33.94279,"longitude":-118.41004,"reserved":0,"last_update":"0001-01-01T00:00:00Z","name_a2s":"Uncletopia | Los Angeles | 3 | All Maps","protocol":17,"map":"pl_barnblitz","folder":"tf","game":"Team Fortress","app_id":440,"player_count":0,"max_players":24,"Bots":0,"server_type":"Dedicated","server_os":"Linux","password":true,"vac":true,"version":"7757534","steam_id":85568392924510198,"keywords":["nocrits","nodmgspread","payload","uncletopia"],"game_id":440,"stv_port":27036,"stv_name":"Uncletopia | Los Angeles | 3 | All Maps | STV","players":null},{"server_id":25,"name":"Uncletopia | Los Angeles | 4 | Stopwatch Beta","name_short":"lax-4","host":"lax-1.us.uncletopia.com","port":27045,"enabled":true,"region":"us-west","cc":"us","latitude":33.94279,"longitude":-118.41004,"reserved":0,"last_update":"0001-01-01T00:00:00Z","name_a2s":"Uncletopia | Los Angeles | 4 | Stopwatch Beta","protocol":17,"map":"pl_swiftwater_final1","folder":"tf","game":"Team Fortress","app_id":440,"player_count":0,"max_players":24,"Bots":0,"server_type":"Dedicated","server_os":"Linux","password":true,"vac":true,"version":"7757534","steam_id":85568392924510199,"keywords":["nocrits","nodmgspread","payload","uncletopia"],"game_id":440,"stv_port":27046,"stv_name":"Uncletopia | Los Angeles | 4 | Stopwatch Beta | STV","players":null},{"server_id":11,"name":"Uncletopia | London | 1 | All Maps","name_short":"lon-1","host":"lon-1.uk.uncletopia.com","port":27015,"enabled":true,"region":"eu","cc":"gb","latitude":51.509865,"longitude":-0.118092,"reserved":0,"last_update":"0001-01-01T00:00:00Z","name_a2s":"Uncletopia | London | 1 | All Maps","protocol":17,"map":"cp_dustbowl","folder":"tf","game":"Team Fortress","app_id":440,"player_count":24,"max_players":24,"Bots":0,"server_type":"Dedicated","server_os":"Linux","password":true,"vac":true,"version":"7757534","steam_id":85568392924367362,"keywords":["cp","nocrits","nodmgspread","uncletopia"],"game_id":440,"stv_port":27016,"stv_name":"Uncletopia | London | 1 | All Maps | STV","players":[{"user_id":391,"name":"LOBZIK","steam_id":76561198114830120,"connected_time":1634000000000,"state":"active","ping":82},{"user_id":353,"name":"Jinx my beloved","steam_id":76561198819986745,"connected_time":4764000000000,"state":"active","ping":91},{"user_id":323,"name":"Depressed","steam_id":76561198154405093,"connected_time":7372000000000,"state":"active","ping":76},{"user_id":396,"name":"shop owner dr disrespects wife","steam_id":76561199028670732,"connected_time":1262000000000,"state":"active","ping":58},{"user_id":360,"name":"Nope.avi","steam_id":76561198396687651,"connected_time":4426000000000,"state":"active","ping":90},{"user_id":344,"name":"Qpangfire","steam_id":76561198094354139,"connected_time":5330000000000,"state":"active","ping":45},{"user_id":361,"name":"British Disapproval","steam_id":76561198001375260,"connected_time":4068000000000,"state":"active","ping":55},{"user_id":404,"name":"MedicMania","steam_id":76561199013190566,"connected_time":462000000000,"state":"active","ping":50},{"user_id":318,"name":"nudjura","steam_id":76561198281986139,"connected_time":7769000000000,"state":"active","ping":48},{"user_id":399,"name":"Dr. Funkenstein","steam_id":76561197977816210,"connected_time":1181000000000,"state":"active","ping":47},{"user_id":375,"name":"Knugen the Conqueror","steam_id":76561198127091993,"connected_time":3324000000000,"state":"active","ping":62},{"user_id":402,"name":"vet","steam_id":76561198110545854,"connected_time":653000000000,"state":"active","ping":157},{"user_id":401,"name":"Comrade_BUCKETS","steam_id":76561198053853136,"connected_time":1125000000000,"state":"active","ping":42},{"user_id":407,"name":"astra","steam_id":76561198042980579,"connected_time":258000000000,"state":"active","ping":71},{"user_id":357,"name":"whimsy.","steam_id":76561198878171763,"connected_time":4525000000000,"state":"active","ping":47},{"user_id":383,"name":"0xDEADBEEF","steam_id":76561199075416111,"connected_time":2788000000000,"state":"active","ping":77},{"user_id":350,"name":"BONK-TEC!","steam_id":76561198272667029,"connected_time":4983000000000,"state":"active","ping":54},{"user_id":382,"name":"jimmy bob","steam_id":76561198319583692,"connected_time":2856000000000,"state":"active","ping":55},{"user_id":386,"name":"duchess abigail","steam_id":76561198166953966,"connected_time":2051000000000,"state":"active","ping":62},{"user_id":403,"name":"Highphin","steam_id":76561198986584680,"connected_time":589000000000,"state":"active","ping":146},{"user_id":327,"name":"♥ aura ♥","steam_id":76561198066258544,"connected_time":7009000000000,"state":"active","ping":66},{"user_id":406,"name":"trite","steam_id":76561197983765323,"connected_time":429000000000,"state":"active","ping":50},{"user_id":356,"name":"noob_STALIN","steam_id":76561198273030727,"connected_time":4547000000000,"state":"active","ping":88},{"user_id":370,"name":"foof ETF2L APE","steam_id":76561198308439257,"connected_time":3793000000000,"state":"active","ping":51}]},{"server_id":114,"name":"Uncletopia | London | 2 | All Maps","name_short":"lon-2","host":"lon-1.uk.uncletopia.com","port":27025,"enabled":true,"region":"eu","cc":"gb","latitude":51.509865,"longitude":-0.118092,"reserved":0,"last_update":"0001-01-01T00:00:00Z","name_a2s":"Uncletopia | London | 2 | All Maps","protocol":17,"map":"pl_frontier_final","folder":"tf","game":"Team Fortress","app_id":440,"player_count":24,"max_players":24,"Bots":0,"server_type":"Dedicated","server_os":"Linux","password":true,"vac":true,"version":"7757534","steam_id":85568392924470941,"keywords":["nocrits","nodmgspread","payload","uncletopia"],"game_id":440,"stv_port":27026,"stv_name":"Uncletopia | London | 2 | All Maps | STV","players":[{"user_id":193,"name":"SneKeTo","steam_id":76561198199302578,"connected_time":225000000000,"state":"active","ping":88},{"user_id":172,"name":"Hetmanych","steam_id":76561198870926865,"connected_time":1616000000000,"state":"active","ping":40},{"user_id":119,"name":"Mygod561","steam_id":76561198798799068,"connected_time":4937000000000,"state":"active","ping":31},{"user_id":196,"name":"Gucio [CSC]","steam_id":76561198797330806,"connected_time":112000000000,"state":"active","ping":95},{"user_id":194,"name":"[O\u0026O]YaboiDucki","steam_id":76561198195976589,"connected_time":211000000000,"state":"active","ping":71},{"user_id":177,"name":"Stayprone","steam_id":76561197963491785,"connected_time":1565000000000,"state":"active","ping":64},{"user_id":178,"name":"i woke up sucking a lemon","steam_id":76561198057722639,"connected_time":1030000000000,"state":"active","ping":74},{"user_id":179,"name":"Senior","steam_id":76561198065014164,"connected_time":1020000000000,"state":"active","ping":45},{"user_id":184,"name":"LordTrap.exe","steam_id":76561198318089716,"connected_time":702000000000,"state":"active","ping":52},{"user_id":135,"name":"kojitori","steam_id":76561198838072150,"connected_time":3899000000000,"state":"active","ping":43},{"user_id":163,"name":"Germanium_Ge","steam_id":76561198130561775,"connected_time":2288000000000,"state":"active","ping":56},{"user_id":192,"name":"theres a bomb in my tea","steam_id":76561199134149296,"connected_time":294000000000,"state":"active","ping":141},{"user_id":167,"name":"Magirby","steam_id":76561198818777390,"connected_time":2239000000000,"state":"active","ping":109},{"user_id":189,"name":"MT Foxtrot","steam_id":76561198058003989,"connected_time":548000000000,"state":"active","ping":62},{"user_id":165,"name":"Mean Green Peen","steam_id":76561198228455736,"connected_time":2265000000000,"state":"active","ping":48},{"user_id":180,"name":"Célério","steam_id":76561198088253576,"connected_time":1007000000000,"state":"active","ping":84},{"user_id":52,"name":"slightly drunk","steam_id":76561199184873889,"connected_time":9725000000000,"state":"active","ping":59},{"user_id":195,"name":"hud_saytext_time 0","steam_id":76561198010327228,"connected_time":161000000000,"state":"active","ping":67},{"user_id":137,"name":"sekaaaaaaaaaaaaaaaaa","steam_id":76561198158219063,"connected_time":3297000000000,"state":"active","ping":106},{"user_id":141,"name":"halo 3 rat","steam_id":76561198439007717,"connected_time":3254000000000,"state":"active","ping":64},{"user_id":188,"name":"[Sheep] Tomco","steam_id":76561198388549261,"connected_time":605000000000,"state":"active","ping":58},{"user_id":168,"name":"Teecho","steam_id":76561197995269610,"connected_time":2217000000000,"state":"active","ping":55},{"user_id":120,"name":"Wardruna96","steam_id":76561199057083828,"connected_time":4853000000000,"state":"active","ping":81},{"user_id":176,"name":"Tort","steam_id":76561198329646769,"connected_time":1588000000000,"state":"active","ping":61}]},{"server_id":320,"name":"Uncletopia | London | 3 | All Maps","name_short":"lon-3","host":"lon-1.uk.uncletopia.com","port":27035,"enabled":true,"region":"eu","cc":"gb","latitude":51.509865,"longitude":-0.118092,"reserved":0,"last_update":"0001-01-01T00:00:00Z","name_a2s":"Uncletopia | London | 3 | All Maps","protocol":17,"map":"pl_pier","folder":"tf","game":"Team Fortress","app_id":440,"player_count":0,"max_players":24,"Bots":0,"server_type":"Dedicated","server_os":"Linux","password":true,"vac":true,"version":"7757534","steam_id":85568392924510192,"keywords":["nocrits","nodmgspread","payload","uncletopia"],"game_id":440,"stv_port":27036,"stv_name":"Uncletopia | London | 3 | All Maps | STV","players":null},{"server_id":321,"name":"Uncletopia | London | 4 | All Maps","name_short":"lon-4","host":"lon-1.uk.uncletopia.com","port":27045,"enabled":true,"region":"eu","cc":"gb","latitude":51.509865,"longitude":-0.118092,"reserved":0,"last_update":"0001-01-01T00:00:00Z","name_a2s":"Uncletopia | London | 4 | All Maps","protocol":17,"map":"cp_powerhouse","folder":"tf","game":"Team Fortress","app_id":440,"player_count":23,"max_players":24,"Bots":0,"server_type":"Dedicated","server_os":"Linux","password":true,"vac":true,"version":"7757534","steam_id":85568392924510193,"keywords":["cp","nocrits","nodmgspread","uncletopia"],"game_id":440,"stv_port":27046,"stv_name":"Uncletopia | London | 4 | All Maps | STV","players":[{"user_id":17,"name":"laza's boy","steam_id":76561199074095198,"connected_time":3053000000000,"state":"active","ping":116},{"user_id":37,"name":"boofing prozac","steam_id":76561198851157897,"connected_time":1157000000000,"state":"active","ping":61},{"user_id":58,"name":"zuzu","steam_id":76561198132995289,"connected_time":351000000000,"state":"active","ping":76},{"user_id":59,"name":"Boxedpolygon","steam_id":76561199058722278,"connected_time":351000000000,"state":"active","ping":120},{"user_id":23,"name":"1 toke 4 mars bars","steam_id":76561198056460000,"connected_time":2209000000000,"state":"active","ping":47},{"user_id":24,"name":"Snoucher","steam_id":76561198955323108,"connected_time":1839000000000,"state":"active","ping":77},{"user_id":25,"name":"Illegally Legal","steam_id":76561198982674420,"connected_time":1818000000000,"state":"active","ping":40},{"user_id":30,"name":"meatsoupcube","steam_id":76561198276802249,"connected_time":1382000000000,"state":"active","ping":94},{"user_id":57,"name":"konanki2017","steam_id":76561198962694339,"connected_time":568000000000,"state":"active","ping":159},{"user_id":47,"name":"FUKAYU","steam_id":76561198380484033,"connected_time":971000000000,"state":"active","ping":50},{"user_id":32,"name":"1Ndigo","steam_id":76561199109470283,"connected_time":1293000000000,"state":"active","ping":58},{"user_id":33,"name":"poshtoo @_@","steam_id":76561198106182078,"connected_time":1267000000000,"state":"active","ping":107},{"user_id":34,"name":"milk and fish gaming \u003e:)","steam_id":76561199203870510,"connected_time":1242000000000,"state":"active","ping":73},{"user_id":35,"name":"gneeda","steam_id":76561198147249160,"connected_time":1239000000000,"state":"active","ping":113},{"user_id":48,"name":"makin' piss","steam_id":76561198052136478,"connected_time":947000000000,"state":"active","ping":75},{"user_id":54,"name":"noodlehairronaldoprime","steam_id":76561199471954402,"connected_time":868000000000,"state":"active","ping":71},{"user_id":39,"name":"KenPendersOfficial","steam_id":76561198065112022,"connected_time":1136000000000,"state":"active","ping":93},{"user_id":40,"name":"Creature from the piss drawer","steam_id":76561198055949151,"connected_time":1135000000000,"state":"active","ping":45},{"user_id":60,"name":"Ablativus","steam_id":76561198025698470,"connected_time":316000000000,"state":"active","ping":76},{"user_id":42,"name":"Gray","steam_id":76561198014465498,"connected_time":1129000000000,"state":"active","ping":59},{"user_id":44,"name":"Jimmy jam123","steam_id":76561199216003981,"connected_time":1123000000000,"state":"active","ping":138},{"user_id":45,"name":"antuio","steam_id":76561198259489016,"connected_time":1119000000000,"state":"active","ping":93},{"user_id":49,"name":"twitch.tv/vision515","steam_id":76561198065293729,"connected_time":947000000000,"state":"active","ping":161}]},{"server_id":21,"name":"Uncletopia | London | 5 | All Maps","name_short":"lon-5","host":"lon-1.uk.uncletopia.com","port":27055,"enabled":true,"region":"eu","cc":"gb","latitude":51.509865,"longitude":-0.118092,"reserved":0,"last_update":"0001-01-01T00:00:00Z","name_a2s":"Uncletopia | London | 5 | All Maps","protocol":17,"map":"koth_cascade","folder":"tf","game":"Team Fortress","app_id":440,"player_count":2,"max_players":24,"Bots":0,"server_type":"Dedicated","server_os":"Linux","password":true,"vac":true,"version":"7757534","steam_id":85568392924742829,"keywords":["cp","nocrits","nodmgspread","uncletopia"],"game_id":440,"stv_port":27056,"stv_name":"Uncletopia | London | 5 | All Maps | STV","players":[{"user_id":12,"name":"Truegr","steam_id":76561198811912339,"connected_time":758000000000,"state":"active","ping":79},{"user_id":13,"name":"fried","steam_id":76561198307522022,"connected_time":684000000000,"state":"active","ping":48}]},{"server_id":22,"name":"Uncletopia | London | 6 | All Maps","name_short":"lon-6","host":"lon-1.uk.uncletopia.com","port":27065,"enabled":true,"region":"eu","cc":"gb","latitude":51.509865,"longitude":-0.118092,"reserved":0,"last_update":"0001-01-01T00:00:00Z","name_a2s":"Uncletopia | London | 6 | All Maps","protocol":17,"map":"cp_snakewater_final1","folder":"tf","game":"Team Fortress","app_id":440,"player_count":2,"max_players":24,"Bots":0,"server_type":"Dedicated","server_os":"Linux","password":true,"vac":true,"version":"7757534","steam_id":85568392924742830,"keywords":["cp","nocrits","nodmgspread","uncletopia"],"game_id":440,"stv_port":27066,"stv_name":"Uncletopia | London | 6 | All Maps | STV","players":[{"user_id":8,"name":"peacekeeper","steam_id":76561199260462952,"connected_time":1964000000000,"state":"active","ping":112},{"user_id":9,"name":"twitch.tv/Cowick1","steam_id":76561199212015586,"connected_time":1712000000000,"state":"active","ping":167}]},{"server_id":40,"name":"Uncletopia | London | 7 | No Payload","name_short":"lon-7","host":"lon-1.uk.uncletopia.com","port":27075,"enabled":true,"region":"eu","cc":"gb","latitude":51.509865,"longitude":-0.118092,"reserved":0,"last_update":"0001-01-01T00:00:00Z","name_a2s":"Uncletopia | London | 7 | No Payload","protocol":17,"map":"cp_sunshine","folder":"tf","game":"Team Fortress","app_id":440,"player_count":24,"max_players":24,"Bots":0,"server_type":"Dedicated","server_os":"Linux","password":true,"vac":true,"version":"7757534","steam_id":85568392924964314,"keywords":["cp","nocrits","nodmgspread","uncletopia"],"game_id":440,"stv_port":27076,"stv_name":"Uncletopia | London | 7 | No Payload | STV","players":[{"user_id":129,"name":"Minimi","steam_id":76561198873850443,"connected_time":2923000000000,"state":"active","ping":42},{"user_id":164,"name":"Fat Pigeon","steam_id":76561198817940142,"connected_time":1317000000000,"state":"active","ping":47},{"user_id":130,"name":"Pinkchup","steam_id":76561198106802803,"connected_time":2804000000000,"state":"active","ping":75},{"user_id":182,"name":"washed up","steam_id":76561198275742101,"connected_time":179000000000,"state":"active","ping":68},{"user_id":140,"name":"tummaluppo taivaltaja","steam_id":76561198093458326,"connected_time":2479000000000,"state":"active","ping":73},{"user_id":178,"name":"Mr. Hunts","steam_id":76561197981910397,"connected_time":432000000000,"state":"active","ping":60},{"user_id":141,"name":"Trans Cat GF","steam_id":76561198436817109,"connected_time":2402000000000,"state":"active","ping":53},{"user_id":64,"name":"Petra","steam_id":76561199029129226,"connected_time":5459000000000,"state":"active","ping":67},{"user_id":172,"name":"soup","steam_id":76561198386933065,"connected_time":583000000000,"state":"active","ping":73},{"user_id":135,"name":"uwu uwu uwu uwu uwu uwu uwu uwu","steam_id":76561198186954897,"connected_time":2671000000000,"state":"active","ping":70},{"user_id":183,"name":"Johan","steam_id":76561199380849468,"connected_time":66000000000,"state":"active","ping":59},{"user_id":179,"name":"Urantij","steam_id":76561198047920299,"connected_time":318000000000,"state":"active","ping":119},{"user_id":143,"name":"new headphones :)","steam_id":76561198334042273,"connected_time":2171000000000,"state":"active","ping":57},{"user_id":153,"name":"mesoni","steam_id":76561199141290973,"connected_time":1768000000000,"state":"active","ping":94},{"user_id":175,"name":"Husk","steam_id":76561198271808519,"connected_time":495000000000,"state":"active","ping":63},{"user_id":176,"name":"Glenn Quagmire","steam_id":76561199348527880,"connected_time":480000000000,"state":"active","ping":91},{"user_id":177,"name":"Mailer","steam_id":76561198062690074,"connected_time":454000000000,"state":"active","ping":59},{"user_id":158,"name":"Twisted Logic ∞","steam_id":76561198002245428,"connected_time":1614000000000,"state":"active","ping":41},{"user_id":159,"name":"Fisty","steam_id":76561198007831016,"connected_time":1605000000000,"state":"active","ping":50},{"user_id":160,"name":"King Sans","steam_id":76561198294198517,"connected_time":1596000000000,"state":"active","ping":112},{"user_id":161,"name":"mt","steam_id":76561197961319303,"connected_time":1491000000000,"state":"active","ping":60},{"user_id":180,"name":"battlekruiser","steam_id":76561198061907053,"connected_time":276000000000,"state":"active","ping":88},{"user_id":181,"name":"lipaul777","steam_id":76561199090751367,"connected_time":270000000000,"state":"active","ping":73},{"user_id":110,"name":"Der Herr Doktor","steam_id":76561198119476089,"connected_time":3578000000000,"state":"active","ping":74}]},{"server_id":41,"name":"Uncletopia | London | 8 | Community","name_short":"lon-8","host":"lon-1.uk.uncletopia.com","port":27085,"enabled":true,"region":"eu","cc":"gb","latitude":51.509865,"longitude":-0.118092,"reserved":0,"last_update":"0001-01-01T00:00:00Z","name_a2s":"Uncletopia | London | 8 | Community","protocol":17,"map":"workshop/koth_bagel_rc6.ugc2514036946","folder":"tf","game":"Team Fortress","app_id":440,"player_count":0,"max_players":24,"Bots":0,"server_type":"Dedicated","server_os":"Linux","password":true,"vac":true,"version":"7757534","steam_id":85568392924964315,"keywords":["cp","nocrits","nodmgspread","uncletopia"],"game_id":440,"stv_port":27086,"stv_name":"Uncletopia | London | 8 | Community | STV","players":null},{"server_id":300,"name":"Uncletopia | Montréal | 1 | All Maps","name_short":"mtl-1","host":"mtl-1.ca.uncletopia.com","port":27015,"enabled":true,"region":"us-east","cc":"ca","latitude":45.50889,"longitude":-73.56167,"reserved":0,"last_update":"0001-01-01T00:00:00Z","name_a2s":"Uncletopia | Montréal | 1 | All Maps","protocol":17,"map":"cp_process_final","folder":"tf","game":"Team Fortress","app_id":440,"player_count":0,"max_players":24,"Bots":0,"server_type":"Dedicated","server_os":"Linux","password":true,"vac":true,"version":"7757534","steam_id":85568392924500087,"keywords":["cp","nocrits","nodmgspread","uncletopia"],"game_id":440,"stv_port":27016,"stv_name":"Uncletopia | Montréal | 1 | All Maps | STV","players":null},{"server_id":301,"name":"Uncletopia | Montréal | 2 | All Maps","name_short":"mtl-2","host":"mtl-1.ca.uncletopia.com","port":27025,"enabled":true,"region":"us-east","cc":"ca","latitude":45.50889,"longitude":-73.56167,"reserved":0,"last_update":"0001-01-01T00:00:00Z","name_a2s":"Uncletopia | Montréal | 2 | All Maps","protocol":17,"map":"pl_snowycoast","folder":"tf","game":"Team Fortress","app_id":440,"player_count":0,"max_players":24,"Bots":0,"server_type":"Dedicated","server_os":"Linux","password":true,"vac":true,"version":"7757534","steam_id":85568392924500088,"keywords":["nocrits","nodmgspread","payload","uncletopia"],"game_id":440,"stv_port":27026,"stv_name":"Uncletopia | Montréal | 2 | All Maps | STV","players":null},{"server_id":302,"name":"Uncletopia | Montréal | 3 | All Maps","name_short":"mtl-3","host":"mtl-1.ca.uncletopia.com","port":27035,"enabled":true,"region":"us-east","cc":"ca","latitude":45.50889,"longitude":-73.56167,"reserved":0,"last_update":"0001-01-01T00:00:00Z","name_a2s":"Uncletopia | Montréal | 3 | All Maps","protocol":17,"map":"pl_badwater","folder":"tf","game":"Team Fortress","app_id":440,"player_count":1,"max_players":24,"Bots":0,"server_type":"Dedicated","server_os":"Linux","password":true,"vac":true,"version":"7757534","steam_id":85568392924500089,"keywords":["nocrits","nodmgspread","payload","uncletopia"],"game_id":440,"stv_port":27036,"stv_name":"Uncletopia | Montréal | 3 | All Maps | STV","players":[{"user_id":3,"name":"sap.","steam_id":76561198850974155,"connected_time":437000000000,"state":"active","ping":68}]},{"server_id":303,"name":"Uncletopia | Montréal | 4 | No Payload","name_short":"mtl-4","host":"mtl-1.ca.uncletopia.com","port":27045,"enabled":true,"region":"us-east","cc":"ca","latitude":45.50889,"longitude":-73.56167,"reserved":0,"last_update":"0001-01-01T00:00:00Z","name_a2s":"Uncletopia | Montréal | 4 | No Payload","protocol":17,"map":"pl_pier","folder":"tf","game":"Team Fortress","app_id":440,"player_count":0,"max_players":24,"Bots":0,"server_type":"Dedicated","server_os":"Linux","password":true,"vac":true,"version":"7757534","steam_id":85568392924500090,"keywords":["nocrits","nodmgspread","payload","uncletopia"],"game_id":440,"stv_port":27046,"stv_name":"Uncletopia | Montréal | 4 | No Payload | STV","players":null},{"server_id":13,"name":"Uncletopia | New York City | 1 | All Maps","name_short":"nyc-1","host":"nyc-1.us.uncletopia.com","port":27015,"enabled":true,"region":"us-east","cc":"us","latitude":40.73061,"longitude":-73.93524,"reserved":0,"last_update":"0001-01-01T00:00:00Z","name_a2s":"Uncletopia | New York City | 1 | All Maps","protocol":17,"map":"cp_dustbowl","folder":"tf","game":"Team Fortress","app_id":440,"player_count":21,"max_players":24,"Bots":0,"server_type":"Dedicated","server_os":"Linux","password":true,"vac":true,"version":"7757534","steam_id":85568392924469993,"keywords":["cp","nocrits","nodmgspread","uncletopia"],"game_id":440,"stv_port":27016,"stv_name":"Uncletopia | New York City | 1 | All Maps | STV","players":[{"user_id":46,"name":"SC|Formuoli","steam_id":76561198254354595,"connected_time":334000000000,"state":"active","ping":52},{"user_id":54,"name":"DualiTea","steam_id":76561198081733870,"connected_time":25000000000,"state":"active","ping":68},{"user_id":17,"name":"champion  turkey","steam_id":76561198151338482,"connected_time":1805000000000,"state":"active","ping":55},{"user_id":12,"name":"Nice21","steam_id":76561199427548141,"connected_time":2442000000000,"state":"active","ping":69},{"user_id":30,"name":"a","steam_id":76561198058079708,"connected_time":871000000000,"state":"active","ping":70},{"user_id":51,"name":"Wiener Hole Paper Cut","steam_id":76561198000808203,"connected_time":138000000000,"state":"active","ping":55},{"user_id":22,"name":"SippinTeaInYoHood","steam_id":76561198310944756,"connected_time":1468000000000,"state":"active","ping":45},{"user_id":48,"name":"FreonAddict9x19","steam_id":76561198060010824,"connected_time":271000000000,"state":"active","ping":62},{"user_id":55,"name":"Zacktracker2","steam_id":76561199077819190,"connected_time":5000000000,"state":"spawning","ping":65},{"user_id":31,"name":"Literal Pencil","steam_id":76561199480771089,"connected_time":765000000000,"state":"active","ping":59},{"user_id":49,"name":"Yankee_Pirate","steam_id":76561198260667117,"connected_time":256000000000,"state":"active","ping":62},{"user_id":39,"name":"cremeoner","steam_id":76561198372332251,"connected_time":568000000000,"state":"active","ping":35},{"user_id":40,"name":"Knuckles","steam_id":76561198000704259,"connected_time":546000000000,"state":"active","ping":36},{"user_id":35,"name":"Nixrom","steam_id":76561198285120471,"connected_time":652000000000,"state":"active","ping":65},{"user_id":36,"name":"deric.santiago1234","steam_id":76561199351872034,"connected_time":645000000000,"state":"active","ping":62},{"user_id":52,"name":"Aeris","steam_id":76561198287271028,"connected_time":134000000000,"state":"active","ping":83},{"user_id":41,"name":"09robcraft2","steam_id":76561199073189184,"connected_time":521000000000,"state":"active","ping":79},{"user_id":42,"name":"Skyrim killable children mod","steam_id":76561198862836173,"connected_time":489000000000,"state":"active","ping":121},{"user_id":43,"name":"macironi and chesse","steam_id":76561199098060805,"connected_time":478000000000,"state":"active","ping":78},{"user_id":53,"name":"FURPAPA","steam_id":76561198992896125,"connected_time":118000000000,"state":"active","ping":107},{"user_id":45,"name":"sandvish makes me strong","steam_id":76561199475216957,"connected_time":436000000000,"state":"active","ping":164}]},{"server_id":14,"name":"Uncletopia | New York City | 2 | All Maps","name_short":"nyc-2","host":"nyc-1.us.uncletopia.com","port":27025,"enabled":true,"region":"us-east","cc":"us","latitude":40.73061,"longitude":-73.93524,"reserved":0,"last_update":"0001-01-01T00:00:00Z","name_a2s":"Uncletopia | New York City | 2 | All Maps","protocol":17,"map":"pl_upward","folder":"tf","game":"Team Fortress","app_id":440,"player_count":24,"max_players":24,"Bots":0,"server_type":"Dedicated","server_os":"Linux","password":true,"vac":true,"version":"7757534","steam_id":85568392924469994,"keywords":["nocrits","nodmgspread","payload","uncletopia"],"game_id":440,"stv_port":27026,"stv_name":"Uncletopia | New York City | 2 | All Maps | STV","players":[{"user_id":38,"name":"Dr Roach","steam_id":76561199242750887,"connected_time":3522000000000,"state":"active","ping":84},{"user_id":8,"name":"autogynocelia","steam_id":76561198038995286,"connected_time":5613000000000,"state":"active","ping":85},{"user_id":11,"name":"MC Lemon Squeeze","steam_id":76561198079397980,"connected_time":5558000000000,"state":"active","ping":85},{"user_id":104,"name":"The Paladin","steam_id":76561199110579692,"connected_time":2202000000000,"state":"active","ping":52},{"user_id":160,"name":"TheRageOfAfrica","steam_id":76561198238243124,"connected_time":1102000000000,"state":"active","ping":92},{"user_id":159,"name":"jema","steam_id":76561198276513608,"connected_time":1119000000000,"state":"active","ping":162},{"user_id":16,"name":"medome","steam_id":76561198399990744,"connected_time":4852000000000,"state":"active","ping":120},{"user_id":188,"name":"XBOX 360","steam_id":76561198066590783,"connected_time":630000000000,"state":"active","ping":60},{"user_id":18,"name":"PotatoSaladMyDood","steam_id":76561198974226056,"connected_time":4687000000000,"state":"active","ping":69},{"user_id":205,"name":"jarby","steam_id":76561198130689358,"connected_time":188000000000,"state":"active","ping":42},{"user_id":142,"name":"HATEWORK.","steam_id":76561198286792807,"connected_time":1430000000000,"state":"active","ping":79},{"user_id":122,"name":"anabolic steroids","steam_id":76561199097771720,"connected_time":1643000000000,"state":"active","ping":72},{"user_id":189,"name":"LoveShark","steam_id":76561198141498508,"connected_time":615000000000,"state":"active","ping":45},{"user_id":211,"name":"nnobi","steam_id":76561198878729277,"connected_time":9000000000,"state":"spawning","ping":74},{"user_id":101,"name":"Blue⛧Melon","steam_id":76561197970926435,"connected_time":2246000000000,"state":"active","ping":56},{"user_id":26,"name":"Johnny Ballsack","steam_id":76561198072876620,"connected_time":4470000000000,"state":"active","ping":66},{"user_id":187,"name":"wolfninja","steam_id":76561199218099629,"connected_time":658000000000,"state":"active","ping":84},{"user_id":41,"name":"Chef","steam_id":76561198305260425,"connected_time":3468000000000,"state":"active","ping":85},{"user_id":78,"name":"LunarrD","steam_id":76561198811220107,"connected_time":2851000000000,"state":"active","ping":68},{"user_id":30,"name":"danko_skills1345","steam_id":76561199146399559,"connected_time":4454000000000,"state":"active","ping":148},{"user_id":127,"name":"LuBzEur0b3ats","steam_id":76561199041041574,"connected_time":1576000000000,"state":"active","ping":57},{"user_id":163,"name":"._.","steam_id":76561198110775575,"connected_time":1036000000000,"state":"active","ping":67},{"user_id":212,"name":"Huntpk","steam_id":76561198340591674,"connected_time":6000000000,"state":"active","ping":172},{"user_id":46,"name":"Reno Gato","steam_id":76561198048417246,"connected_time":3450000000000,"state":"active","ping":86}]},{"server_id":15,"name":"Uncletopia | New York City | 3 | Stopwatch Beta","name_short":"nyc-3","host":"nyc-1.us.uncletopia.com","port":27035,"enabled":true,"region":"us-east","cc":"us","latitude":40.73061,"longitude":-73.93524,"reserved":0,"last_update":"0001-01-01T00:00:00Z","name_a2s":"Uncletopia | New York City | 3 | Stopwatch Beta","protocol":17,"map":"pl_upward","folder":"tf","game":"Team Fortress","app_id":440,"player_count":0,"max_players":24,"Bots":0,"server_type":"Dedicated","server_os":"Linux","password":true,"vac":true,"version":"7757534","steam_id":85568392924742820,"keywords":["nocrits","nodmgspread","payload","uncletopia"],"game_id":440,"stv_port":27036,"stv_name":"Uncletopia | New York City | 3 | Stopwatch Beta | STV","players":null},{"server_id":16,"name":"Uncletopia | New York City | 4 | Community","name_short":"nyc-4","host":"nyc-1.us.uncletopia.com","port":27045,"enabled":true,"region":"us-east","cc":"us","latitude":40.73061,"longitude":-73.93524,"reserved":0,"last_update":"0001-01-01T00:00:00Z","name_a2s":"Uncletopia | New York City | 4 | Community","protocol":17,"map":"pl_swiftwater_final1","folder":"tf","game":"Team Fortress","app_id":440,"player_count":0,"max_players":24,"Bots":0,"server_type":"Dedicated","server_os":"Linux","password":true,"vac":true,"version":"7757534","steam_id":85568392924742821,"keywords":["nocrits","nodmgspread","payload","uncletopia"],"game_id":440,"stv_port":27046,"stv_name":"Uncletopia | New York City | 4 | Community | STV","players":null},{"server_id":142,"name":"Uncletopia | São Paulo | 1 | All Maps","name_short":"sao-1","host":"sao-1.br.uncletopia.com","port":27015,"enabled":true,"region":"sa","cc":"br","latitude":-23.533773,"longitude":-46.62529,"reserved":0,"last_update":"0001-01-01T00:00:00Z","name_a2s":"Uncletopia | São Paulo | 1 | All Maps","protocol":17,"map":"koth_cascade","folder":"tf","game":"Team Fortress","app_id":440,"player_count":0,"max_players":24,"Bots":0,"server_type":"Dedicated","server_os":"Linux","password":true,"vac":true,"version":"7757534","steam_id":85568392924469996,"keywords":["cp","nocrits","nodmgspread","uncletopia"],"game_id":440,"stv_port":27016,"stv_name":"Uncletopia | São Paulo | 1 | All Maps | STV","players":null},{"server_id":143,"name":"Uncletopia | São Paulo | 2 | All Maps","name_short":"sao-2","host":"sao-2.br.uncletopia.com","port":27015,"enabled":true,"region":"sa","cc":"br","latitude":-23.533773,"longitude":-46.62529,"reserved":0,"last_update":"0001-01-01T00:00:00Z","name_a2s":"Uncletopia | São Paulo | 2 | All Maps","protocol":17,"map":"koth_viaduct","folder":"tf","game":"Team Fortress","app_id":440,"player_count":0,"max_players":24,"Bots":0,"server_type":"Dedicated","server_os":"Linux","password":true,"vac":true,"version":"7757534","steam_id":85568392924485349,"keywords":["cp","nocrits","nodmgspread","uncletopia"],"game_id":440,"stv_port":27016,"stv_name":"Uncletopia | São Paulo | 2 | All Maps | STV","players":null},{"server_id":7,"name":"Uncletopia | Seattle | 1 | All Maps","name_short":"sea-1","host":"sea-1.us.uncletopia.com","port":27015,"enabled":true,"region":"us-west","cc":"us","latitude":47.608013,"longitude":-122.33517,"reserved":0,"last_update":"0001-01-01T00:00:00Z","name_a2s":"Uncletopia | Seattle | 1 | All Maps","protocol":17,"map":"koth_lakeside_final","folder":"tf","game":"Team Fortress","app_id":440,"player_count":0,"max_players":24,"Bots":0,"server_type":"Dedicated","server_os":"Linux","password":true,"vac":true,"version":"7757534","steam_id":85568392924469997,"keywords":["cp","nocrits","nodmgspread","uncletopia"],"game_id":440,"stv_port":27016,"stv_name":"Uncletopia | Seattle | 1 | All Maps | STV","players":null},{"server_id":119,"name":"Uncletopia | Seattle | 2 | All Maps","name_short":"sea-2","host":"sea-1.us.uncletopia.com","port":27025,"enabled":true,"region":"us-west","cc":"us","latitude":47.608013,"longitude":-122.33517,"reserved":0,"last_update":"0001-01-01T00:00:00Z","name_a2s":"Uncletopia | Seattle | 2 | All Maps","protocol":17,"map":"cp_snakewater_final1","folder":"tf","game":"Team Fortress","app_id":440,"player_count":24,"max_players":24,"Bots":0,"server_type":"Dedicated","server_os":"Linux","password":true,"vac":true,"version":"7757534","steam_id":85568392924469998,"keywords":["cp","nocrits","nodmgspread","uncletopia"],"game_id":440,"stv_port":27026,"stv_name":"Uncletopia | Seattle | 2 | All Maps | STV","players":[{"user_id":63,"name":"TwoBit","steam_id":76561198062437559,"connected_time":3298000000000,"state":"active","ping":144},{"user_id":84,"name":"DafuQ","steam_id":76561198010166265,"connected_time":1164000000000,"state":"active","ping":113},{"user_id":56,"name":"tsaide","steam_id":76561198384120999,"connected_time":3516000000000,"state":"active","ping":113},{"user_id":6,"name":"HAT-WEARING™ Maggot Gamer Cat","steam_id":76561197973992705,"connected_time":6730000000000,"state":"active","ping":77},{"user_id":67,"name":"Tom","steam_id":76561198070630154,"connected_time":2883000000000,"state":"active","ping":77},{"user_id":49,"name":"Tyler\u0026Fingers","steam_id":76561198085154485,"connected_time":4409000000000,"state":"active","ping":134},{"user_id":78,"name":"Frank","steam_id":76561198126681511,"connected_time":2035000000000,"state":"active","ping":77},{"user_id":92,"name":"Pneumo.","steam_id":76561197987911883,"connected_time":51000000000,"state":"active","ping":64},{"user_id":74,"name":"Cam(era)","steam_id":76561198285054047,"connected_time":2187000000000,"state":"active","ping":80},{"user_id":90,"name":"Bony","steam_id":76561199001748822,"connected_time":543000000000,"state":"active","ping":45},{"user_id":71,"name":"viaodeegsm","steam_id":76561198025295263,"connected_time":2760000000000,"state":"active","ping":115},{"user_id":16,"name":"CPTforever","steam_id":76561198237767198,"connected_time":6386000000000,"state":"active","ping":60},{"user_id":86,"name":"mumbles(muted)","steam_id":76561197994528974,"connected_time":1110000000000,"state":"active","ping":80},{"user_id":91,"name":"Karl Wheezer","steam_id":76561198848722936,"connected_time":273000000000,"state":"active","ping":52},{"user_id":88,"name":"dust | she/it","steam_id":76561198045218909,"connected_time":776000000000,"state":"active","ping":40},{"user_id":83,"name":"Raptortastico","steam_id":76561198105613110,"connected_time":1529000000000,"state":"active","ping":105},{"user_id":82,"name":"Bastee1021","steam_id":76561199456141163,"connected_time":1563000000000,"state":"active","ping":105},{"user_id":38,"name":"deokemi","steam_id":76561199480055194,"connected_time":4896000000000,"state":"active","ping":89},{"user_id":87,"name":"bad","steam_id":76561198090531755,"connected_time":1092000000000,"state":"active","ping":105},{"user_id":80,"name":"01000001 01101100 01000101 0101","steam_id":76561199028815111,"connected_time":1726000000000,"state":"active","ping":166},{"user_id":41,"name":"Pyro410","steam_id":76561199241277109,"connected_time":4750000000000,"state":"active","ping":123},{"user_id":40,"name":"atlas","steam_id":76561198398383076,"connected_time":4766000000000,"state":"active","ping":104},{"user_id":66,"name":"ark","steam_id":76561198041066271,"connected_time":2953000000000,"state":"active","ping":76},{"user_id":70,"name":"Highground","steam_id":76561199197544789,"connected_time":2870000000000,"state":"active","ping":158}]},{"server_id":406,"name":"Uncletopia | Seattle | 3 | Stopwatch Beta","name_short":"sea-3","host":"sea-1.us.uncletopia.com","port":27035,"enabled":true,"region":"us-west","cc":"us","latitude":47.608013,"longitude":-122.33517,"reserved":0,"last_update":"0001-01-01T00:00:00Z","name_a2s":"Uncletopia | Seattle | 3 | Stopwatch Beta","protocol":17,"map":"cp_granary","folder":"tf","game":"Team Fortress","app_id":440,"player_count":0,"max_players":24,"Bots":0,"server_type":"Dedicated","server_os":"Linux","password":true,"vac":true,"version":"7757534","steam_id":85568392924515217,"keywords":["cp","nocrits","nodmgspread","uncletopia"],"game_id":440,"stv_port":27036,"stv_name":"Uncletopia | Seattle | 3 | Stopwatch Beta | STV","players":null},{"server_id":17,"name":"Uncletopia | San Francisco | 1 | All Maps","name_short":"sfo-1","host":"sfo-1.us.uncletopia.com","port":27015,"enabled":true,"region":"us-west","cc":"us","latitude":37.77397,"longitude":-122.4313,"reserved":0,"last_update":"0001-01-01T00:00:00Z","name_a2s":"Uncletopia | San Francisco | 1 | All Maps","protocol":17,"map":"cp_process_final","folder":"tf","game":"Team Fortress","app_id":440,"player_count":0,"max_players":24,"Bots":0,"server_type":"Dedicated","server_os":"Linux","password":true,"vac":true,"version":"7757534","steam_id":85568392924469999,"keywords":["cp","nocrits","nodmgspread","uncletopia"],"game_id":440,"stv_port":27016,"stv_name":"Uncletopia | San Francisco | 1 | All Maps | STV","players":null},{"server_id":18,"name":"Uncletopia | San Francisco | 2 | All Maps","name_short":"sfo-2","host":"sfo-1.us.uncletopia.com","port":27025,"enabled":true,"region":"us-west","cc":"us","latitude":37.77397,"longitude":-122.4313,"reserved":0,"last_update":"0001-01-01T00:00:00Z","name_a2s":"Uncletopia | San Francisco | 2 | All Maps","protocol":17,"map":"koth_highpass","folder":"tf","game":"Team Fortress","app_id":440,"player_count":0,"max_players":24,"Bots":0,"server_type":"Dedicated","server_os":"Linux","password":true,"vac":true,"version":"7757534","steam_id":85568392924470000,"keywords":["cp","nocrits","nodmgspread","uncletopia"],"game_id":440,"stv_port":27026,"stv_name":"Uncletopia | San Francisco | 2 | All Maps | STV","players":null},{"server_id":19,"name":"Uncletopia | San Francisco | 3 | Stopwatch Beta","name_short":"sfo-3","host":"sfo-1.us.uncletopia.com","port":27035,"enabled":true,"region":"us-west","cc":"us","latitude":37.77397,"longitude":-122.4313,"reserved":0,"last_update":"0001-01-01T00:00:00Z","name_a2s":"Uncletopia | San Francisco | 3 | Stopwatch Beta","protocol":17,"map":"koth_lakeside_final","folder":"tf","game":"Team Fortress","app_id":440,"player_count":0,"max_players":24,"Bots":0,"server_type":"Dedicated","server_os":"Linux","password":true,"vac":true,"version":"7757534","steam_id":85568392924742824,"keywords":["cp","nocrits","nodmgspread","uncletopia"],"game_id":440,"stv_port":27036,"stv_name":"Uncletopia | San Francisco | 3 | Stopwatch Beta | STV","players":null},{"server_id":20,"name":"Uncletopia | San Francisco | 4 | Community","name_short":"sfo-4","host":"sfo-1.us.uncletopia.com","port":27045,"enabled":true,"region":"us-west","cc":"us","latitude":37.77397,"longitude":-122.4313,"reserved":0,"last_update":"0001-01-01T00:00:00Z","name_a2s":"Uncletopia | San Francisco | 4 | Community","protocol":17,"map":"cp_altitude","folder":"tf","game":"Team Fortress","app_id":440,"player_count":0,"max_players":24,"Bots":0,"server_type":"Dedicated","server_os":"Linux","password":true,"vac":true,"version":"7757534","steam_id":85568392924742826,"keywords":["cp","nocrits","nodmgspread","uncletopia"],"game_id":440,"stv_port":27046,"stv_name":"Uncletopia | San Francisco | 4 | Community | STV","players":null},{"server_id":141,"name":"Uncletopia | Sydney | 1 | All Maps","name_short":"syd-1","host":"syd-1.au.uncletopia.com","port":27015,"enabled":true,"region":"au","cc":"au","latitude":-33.865143,"longitude":151.2099,"reserved":0,"last_update":"0001-01-01T00:00:00Z","name_a2s":"Uncletopia | Sydney | 1 | All Maps","protocol":17,"map":"pl_snowycoast","folder":"tf","game":"Team Fortress","app_id":440,"player_count":4,"max_players":24,"Bots":0,"server_type":"Dedicated","server_os":"Linux","password":true,"vac":true,"version":"7757534","steam_id":85568392924470001,"keywords":["nocrits","nodmgspread","payload","uncletopia"],"game_id":440,"stv_port":27016,"stv_name":"Uncletopia | Sydney | 1 | All Maps | STV","players":[{"user_id":494,"name":"Branko","steam_id":76561199262196710,"connected_time":3091000000000,"state":"active","ping":40},{"user_id":503,"name":"Pineapple","steam_id":76561199039454236,"connected_time":2443000000000,"state":"active","ping":57},{"user_id":497,"name":"Atner","steam_id":76561198442934454,"connected_time":2955000000000,"state":"active","ping":90},{"user_id":462,"name":"Foxtonnes","steam_id":76561198007628373,"connected_time":5712000000000,"state":"active","ping":47}]},{"server_id":123,"name":"Uncletopia | Sydney | 2 | All Maps","name_short":"syd-2","host":"syd-1.au.uncletopia.com","port":27025,"enabled":true,"region":"au","cc":"au","latitude":-33.865143,"longitude":151.2099,"reserved":0,"last_update":"0001-01-01T00:00:00Z","name_a2s":"Uncletopia | Sydney | 2 | All Maps","protocol":17,"map":"cp_snakewater_final1","folder":"tf","game":"Team Fortress","app_id":440,"player_count":0,"max_players":24,"Bots":0,"server_type":"Dedicated","server_os":"Linux","password":true,"vac":true,"version":"7757534","steam_id":85568392924470002,"keywords":["cp","nocrits","nodmgspread","uncletopia"],"game_id":440,"stv_port":27026,"stv_name":"Uncletopia | Sydney | 2 | All Maps | STV","players":null},{"server_id":395,"name":"Uncletopia | Sydney | 3 | All Maps","name_short":"syd-3","host":"syd-1.au.uncletopia.com","port":27035,"enabled":true,"region":"au","cc":"au","latitude":-33.865143,"longitude":151.2099,"reserved":0,"last_update":"0001-01-01T00:00:00Z","name_a2s":"Uncletopia | Sydney | 3 | All Maps","protocol":17,"map":"cp_sunshine","folder":"tf","game":"Team Fortress","app_id":440,"player_count":0,"max_players":24,"Bots":0,"server_type":"Dedicated","server_os":"Linux","password":true,"vac":true,"version":"7757534","steam_id":85568392925194467,"keywords":["cp","nocrits","nodmgspread","uncletopia"],"game_id":440,"stv_port":27036,"stv_name":"Uncletopia | Sydney | 3 | All Maps | STV","players":null},{"server_id":396,"name":"Uncletopia | Sydney | 4 | All Maps","name_short":"syd-4","host":"syd-1.au.uncletopia.com","port":27045,"enabled":true,"region":"au","cc":"au","latitude":-33.865143,"longitude":151.2099,"reserved":0,"last_update":"0001-01-01T00:00:00Z","name_a2s":"Uncletopia | Sydney | 4 | All Maps","protocol":17,"map":"pl_upward","folder":"tf","game":"Team Fortress","app_id":440,"player_count":0,"max_players":24,"Bots":0,"server_type":"Dedicated","server_os":"Linux","password":true,"vac":true,"version":"7757534","steam_id":85568392925397958,"keywords":["nocrits","nodmgspread","payload","uncletopia"],"game_id":440,"stv_port":27046,"stv_name":"Uncletopia | Sydney | 4 | All Maps | STV","players":null},{"server_id":58,"name":"Uncletopia | Sydney | 5 | Stopwatch Beta","name_short":"syd-5","host":"syd-1.au.uncletopia.com","port":27055,"enabled":true,"region":"au","cc":"au","latitude":-33.865143,"longitude":151.2099,"reserved":0,"last_update":"0001-01-01T00:00:00Z","name_a2s":"Uncletopia | Sydney | 5 | Stopwatch Beta","protocol":17,"map":"workshop/cp_reckoner_rc6.ugc674719999","folder":"tf","game":"Team Fortress","app_id":440,"player_count":0,"max_players":24,"Bots":0,"server_type":"Dedicated","server_os":"Linux","password":true,"vac":true,"version":"7757534","steam_id":85568392925397959,"keywords":["cp","nocrits","nodmgspread","uncletopia"],"game_id":440,"stv_port":27056,"stv_name":"Uncletopia | Sydney | 5 | Stopwatch Beta | STV","players":null},{"server_id":59,"name":"Uncletopia | Sydney | 6 | Community","name_short":"syd-6","host":"syd-1.au.uncletopia.com","port":27065,"enabled":true,"region":"au","cc":"au","latitude":-33.865143,"longitude":151.2099,"reserved":0,"last_update":"0001-01-01T00:00:00Z","name_a2s":"Uncletopia | Sydney | 6 | Community","protocol":17,"map":"workshop/koth_ramjam_rc1.ugc459778887","folder":"tf","game":"Team Fortress","app_id":440,"player_count":0,"max_players":24,"Bots":0,"server_type":"Dedicated","server_os":"Linux","password":true,"vac":true,"version":"7757534","steam_id":85568392925397960,"keywords":["cp","nocrits","nodmgspread","uncletopia"],"game_id":440,"stv_port":27066,"stv_name":"Uncletopia | Sydney | 6 | Community | STV","players":null},{"server_id":49,"name":"Uncletopia | Warsaw | 1 | All Maps","name_short":"waw-1","host":"waw-1.pl.uncletopia.com","port":27015,"enabled":true,"region":"eu","cc":"pl","latitude":52.2297,"longitude":21.017532,"reserved":0,"last_update":"0001-01-01T00:00:00Z","name_a2s":"","protocol":0,"map":"","folder":"","game":"","app_id":0,"player_count":0,"max_players":0,"Bots":0,"server_type":"","server_os":"","password":false,"vac":false,"version":"","steam_id":0,"keywords":null,"game_id":0,"stv_port":0,"stv_name":"","players":null},{"server_id":50,"name":"Uncletopia | Warsaw | 2 | All Maps","name_short":"waw-2","host":"waw-1.pl.uncletopia.com","port":27025,"enabled":true,"region":"eu","cc":"pl","latitude":52.2297,"longitude":21.017532,"reserved":0,"last_update":"0001-01-01T00:00:00Z","name_a2s":"Uncletopia | Warsaw | 2 | All Maps","protocol":17,"map":"koth_viaduct","folder":"tf","game":"Team Fortress","app_id":440,"player_count":0,"max_players":24,"Bots":0,"server_type":"Dedicated","server_os":"Linux","password":true,"vac":true,"version":"7757534","steam_id":85568392925397851,"keywords":["cp","nocrits","nodmgspread","uncletopia"],"game_id":440,"stv_port":27026,"stv_name":"Uncletopia | Warsaw | 2 | All Maps | STV","players":null},{"server_id":51,"name":"Uncletopia | Warsaw | 3 | All Maps","name_short":"waw-3","host":"waw-1.pl.uncletopia.com","port":27035,"enabled":true,"region":"eu","cc":"pl","latitude":52.2297,"longitude":21.017532,"reserved":0,"last_update":"0001-01-01T00:00:00Z","name_a2s":"Uncletopia | Warsaw | 3 | All Maps","protocol":17,"map":"koth_viaduct","folder":"tf","game":"Team Fortress","app_id":440,"player_count":0,"max_players":24,"Bots":0,"server_type":"Dedicated","server_os":"Linux","password":true,"vac":true,"version":"7757534","steam_id":85568392925397852,"keywords":["cp","nocrits","nodmgspread","uncletopia"],"game_id":440,"stv_port":27036,"stv_name":"Uncletopia | Warsaw | 3 | All Maps | STV","players":null},{"server_id":52,"name":"Uncletopia | Warsaw | 4 | All Maps","name_short":"waw-4","host":"waw-1.pl.uncletopia.com","port":27045,"enabled":true,"region":"eu","cc":"pl","latitude":52.2297,"longitude":21.017532,"reserved":0,"last_update":"0001-01-01T00:00:00Z","name_a2s":"Uncletopia | Warsaw | 4 | All Maps","protocol":17,"map":"koth_lakeside_final","folder":"tf","game":"Team Fortress","app_id":440,"player_count":0,"max_players":24,"Bots":0,"server_type":"Dedicated","server_os":"Linux","password":true,"vac":true,"version":"7757534","steam_id":85568392925397853,"keywords":["cp","nocrits","nodmgspread","uncletopia"],"game_id":440,"stv_port":27046,"stv_name":"Uncletopia | Warsaw | 4 | All Maps | STV","players":null},{"server_id":53,"name":"Uncletopia | Warsaw | 5 | Stopwatch Beta","name_short":"waw-5","host":"waw-1.pl.uncletopia.com","port":27055,"enabled":true,"region":"eu","cc":"pl","latitude":52.2297,"longitude":21.017532,"reserved":0,"last_update":"0001-01-01T00:00:00Z","name_a2s":"Uncletopia | Warsaw | 5 | Stopwatch Beta","protocol":17,"map":"pl_borneo","folder":"tf","game":"Team Fortress","app_id":440,"player_count":0,"max_players":24,"Bots":0,"server_type":"Dedicated","server_os":"Linux","password":true,"vac":true,"version":"7757534","steam_id":85568392925397854,"keywords":["nocrits","nodmgspread","payload","uncletopia"],"game_id":440,"stv_port":27056,"stv_name":"Uncletopia | Warsaw | 5 | Stopwatch Beta | STV","players":null},{"server_id":54,"name":"Uncletopia | Warsaw | 6 | Community","name_short":"waw-6","host":"waw-1.pl.uncletopia.com","port":27065,"enabled":true,"region":"eu","cc":"pl","latitude":52.2297,"longitude":21.017532,"reserved":0,"last_update":"0001-01-01T00:00:00Z","name_a2s":"Uncletopia | Warsaw | 6 | Community","protocol":17,"map":"koth_lakeside_final","folder":"tf","game":"Team Fortress","app_id":440,"player_count":0,"max_players":24,"Bots":0,"server_type":"Dedicated","server_os":"Linux","password":true,"vac":true,"version":"7757534","steam_id":85568392925397856,"keywords":["cp","nocrits","nodmgspread","uncletopia"],"game_id":440,"stv_port":27066,"stv_name":"Uncletopia | Warsaw | 6 | Community | STV","players":null}]}