{"status":true,"message":"","result":[{"server_id":9,"name":"Uncletopia | Atlanta | 1 | All Maps","name_short":"atl-1","host":"atl-1.us.uncletopia.com","port":27015,"enabled":true,"region":"us-east","cc":"us","latitude":33.753746,"longitude":-84.38633,"reserved":0,"last_update":"0001-01-01T00:00:00Z","name_a2s":"Uncletopia | Atlanta | 1 | All Maps","protocol":17,"map":"pl_swiftwater_final1","folder":"tf","game":"Team Fortress","app_id":440,"player_count":24,"max_players":24,"Bots":0,"server_type":"Dedicated","server_os":"Linux","password":true,"vac":true,"version":"7961495","steam_id":85568392924469982,"keywords":["nocrits","nodmgspread","payload","uncletopia"],"game_id":440,"stv_port":27016,"stv_name":"Uncletopia | Atlanta | 1 | All Maps | STV","players":[{"user_id":52,"name":"lu","steam_id":76561198080731872,"connected_time":1424000000000,"state":"active","ping":71},{"user_id":45,"name":"Kick Down Door 6:00AM TUCK☃RO","steam_id":76561197976146738,"connected_time":1815000000000,"state":"active","ping":75},{"user_id":53,"name":"Nyle","steam_id":76561198045652639,"connected_time":1406000000000,"state":"active","ping":120},{"user_id":58,"name":"The Horselords and Animal Gods","steam_id":76561197975094050,"connected_time":1245000000000,"state":"active","ping":91},{"user_id":40,"name":"lil hog","steam_id":76561199230929836,"connected_time":2444000000000,"state":"active","ping":85},{"user_id":79,"name":"joyeuxnoelle","steam_id":76561198062423120,"connected_time":524000000000,"state":"active","ping":84},{"user_id":42,"name":"Mantis Toboggan","steam_id":76561197996309419,"connected_time":2311000000000,"state":"active","ping":45},{"user_id":70,"name":"DevSlashUser","steam_id":76561198805884205,"connected_time":956000000000,"state":"active","ping":70},{"user_id":44,"name":"I need to reach my friend!","steam_id":76561198982810452,"connected_time":2016000000000,"state":"active","ping":77},{"user_id":75,"name":"Ruby Splashcarp","steam_id":76561198271397320,"connected_time":794000000000,"state":"active","ping":78},{"user_id":47,"name":"Alpha","steam_id":76561199482290132,"connected_time":1656000000000,"state":"active","ping":75},{"user_id":51,"name":"ATL1 | cola","steam_id":76561198374390458,"connected_time":1461000000000,"state":"active","ping":62},{"user_id":49,"name":"QueueTea","steam_id":76561198095042882,"connected_time":1624000000000,"state":"active","ping":76},{"user_id":50,"name":"Jesus Burgess","steam_id":76561199343316814,"connected_time":1494000000000,"state":"active","ping":45},{"user_id":56,"name":"robes","steam_id":76561198350747953,"connected_time":1293000000000,"state":"active","ping":80},{"user_id":57,"name":"MausWaffles","steam_id":76561198193160991,"connected_time":1278000000000,"state":"active","ping":81},{"user_id":59,"name":"Super Mario 64 (1996)","steam_id":76561198849764285,"connected_time":1160000000000,"state":"active","ping":73},{"user_id":60,"name":"SpyMann","steam_id":76561198242718980,"connected_time":1159000000000,"state":"active","ping":82},{"user_id":61,"name":"Malarkey","steam_id":76561198844473584,"connected_time":1143000000000,"state":"active","ping":40},{"user_id":64,"name":"Boxpipe","steam_id":76561197964501915,"connected_time":1069000000000,"state":"active","ping":90},{"user_id":71,"name":"BMoney","steam_id":76561198799389030,"connected_time":917000000000,"state":"active","ping":101},{"user_id":80,"name":"Electroid","steam_id":76561199092263960,"connected_time":73000000000,"state":"active","ping":46},{"user_id":68,"name":"chrisd149","steam_id":76561198018710480,"connected_time":973000000000,"state":"active","ping":64},{"user_id":77,"name":"Decolour","steam_id":76561199045608372,"connected_time":718000000000,"state":"active","ping":64}]},{"server_id":104,"name":"Uncletopia | Atlanta | 2 | All Maps","name_short":"atl-2","host":"atl-1.us.uncletopia.com","port":27025,"enabled":true,"region":"us-east","cc":"us","latitude":33.753746,"longitude":-84.38633,"reserved":0,"last_update":"0001-01-01T00:00:00Z","name_a2s":"Uncletopia | Atlanta | 2 | All Maps","protocol":17,"map":"koth_lakeside_final","folder":"tf","game":"Team Fortress","app_id":440,"player_count":0,"max_players":24,"Bots":0,"server_type":"Dedicated","server_os":"Linux","password":true,"vac":true,"version":"7961495","steam_id":85568392924469983,"keywords":["cp","nocrits","nodmgspread","uncletopia"],"game_id":440,"stv_port":27026,"stv_name":"Uncletopia | Atlanta | 2 | All Maps | STV","players":null},{"server_id":400,"name":"Uncletopia | Atlanta | 3 | Stopwatch","name_short":"atl-3","host":"atl-1.us.uncletopia.com","port":27035,"enabled":true,"region":"us-east","cc":"us","latitude":33.753746,"longitude":-84.38633,"reserved":0,"last_update":"0001-01-01T00:00:00Z","name_a2s":"Uncletopia | Atlanta | 3 | Stopwatch","protocol":17,"map":"workshop/pl_summercoast_rc8e.ugc1761528829","folder":"tf","game":"Team Fortress","app_id":440,"player_count":20,"max_players":24,"Bots":0,"server_type":"Dedicated","server_os":"Linux","password":true,"vac":true,"version":"7961495","steam_id":85568392924515187,"keywords":["nocrits","nodmgspread","payload","uncletopia"],"game_id":440,"stv_port":27036,"stv_name":"Uncletopia | Atlanta | 3 | Stopwatch | STV","players":[{"user_id":78,"name":"MetalClone","steam_id":76561198042506295,"connected_time":682000000000,"state":"active","ping":59},{"user_id":84,"name":"IamLightning","steam_id":76561198193881559,"connected_time":88000000000,"state":"active","ping":44},{"user_id":63,"name":"Waff00","steam_id":76561198848377100,"connected_time":1885000000000,"state":"active","ping":71},{"user_id":66,"name":"NOBODY","steam_id":76561198094578887,"connected_time":1648000000000,"state":"active","ping":58},{"user_id":55,"name":"Coolant","steam_id":76561198353456379,"connected_time":2270000000000,"state":"active","ping":81},{"user_id":56,"name":"need a dispenser here","steam_id":76561198060912995,"connected_time":2264000000000,"state":"active","ping":87},{"user_id":79,"name":"Walmart Employee","steam_id":76561198840373909,"connected_time":645000000000,"state":"active","ping":65},{"user_id":37,"name":"trans rights","steam_id":76561198044183038,"connected_time":2812000000000,"state":"active","ping":45},{"user_id":61,"name":"Ivory","steam_id":76561198978827841,"connected_time":2076000000000,"state":"active","ping":58},{"user_id":71,"name":"rat","steam_id":76561198272622003,"connected_time":1500000000000,"state":"active","ping":53},{"user_id":21,"name":"Timmy The Tyrant","steam_id":76561199156409732,"connected_time":3573000000000,"state":"active","ping":53},{"user_id":73,"name":"d=√(x₁ – x₂)² + (y₁","steam_id":76561199472976531,"connected_time":1371000000000,"state":"active","ping":50},{"user_id":25,"name":"Luci★Fer","steam_id":76561199030343810,"connected_time":3379000000000,"state":"active","ping":40},{"user_id":80,"name":"☼Barracuda☼","steam_id":76561198013022083,"connected_time":645000000000,"state":"active","ping":71},{"user_id":85,"name":"bing","steam_id":76561198121256356,"connected_time":20000000000,"state":"spawning","ping":629},{"user_id":81,"name":"THE GIGGLER","steam_id":76561199275294643,"connected_time":644000000000,"state":"active","ping":71},{"user_id":72,"name":"Punkin","steam_id":76561198334301755,"connected_time":1481000000000,"state":"active","ping":59},{"user_id":54,"name":"Helmet Hands","steam_id":76561197961141994,"connected_time":2307000000000,"state":"active","ping":111},{"user_id":83,"name":"Grimprr","steam_id":76561198275816797,"connected_time":326000000000,"state":"active","ping":61},{"user_id":75,"name":"nik","steam_id":76561198062270123,"connected_time":1226000000000,"state":"active","ping":62}]},{"server_id":401,"name":"Uncletopia | Atlanta | 4 | Community","name_short":"atl-4","host":"atl-1.us.uncletopia.com","port":27045,"enabled":true,"region":"us-east","cc":"us","latitude":33.753746,"longitude":-84.38633,"reserved":0,"last_update":"0001-01-01T00:00:00Z","name_a2s":"Uncletopia | Atlanta | 4 | Community","protocol":17,"map":"workshop/pl_vigil_rc10.ugc1266210012","folder":"tf","game":"Team Fortress","app_id":440,"player_count":0,"max_players":24,"Bots":0,"server_type":"Dedicated","server_os":"Linux","password":true,"vac":true,"version":"7961495","steam_id":85568392924515188,"keywords":["nocrits","nodmgspread","payload","uncletopia"],"game_id":440,"stv_port":27046,"stv_name":"Uncletopia | Atlanta | 4 | Community | STV","players":null},{"server_id":2,"name":"Uncletopia | Chicago | 1 | All Maps","name_short":"chi-1","host":"chi-1.us.uncletopia.com","port":27015,"enabled":true,"region":"us-central","cc":"us","latitude":41.881832,"longitude":-87.62318,"reserved":0,"last_update":"0001-01-01T00:00:00Z","name_a2s":"Uncletopia | Chicago | 1 | All Maps","protocol":17,"map":"pl_upward","folder":"tf","game":"Team Fortress","app_id":440,"player_count":22,"max_players":24,"Bots":0,"server_type":"Dedicated","server_os":"Linux","password":true,"vac":true,"version":"7961495","steam_id":85568392924469984,"keywords":["nocrits","nodmgspread","payload","uncletopia"],"game_id":440,"stv_port":27016,"stv_name":"Uncletopia | Chicago | 1 | All Maps | STV","players":[{"user_id":160,"name":"chikin.sauce","steam_id":76561198042464635,"connected_time":5193000000000,"state":"active","ping":81},{"user_id":209,"name":"Jonathan","steam_id":76561199066653753,"connected_time":1034000000000,"state":"active","ping":65},{"user_id":218,"name":"Stacks63bs","steam_id":76561198067797130,"connected_time":31000000000,"state":"active","ping":67},{"user_id":191,"name":"zonc","steam_id":76561198322104962,"connected_time":2887000000000,"state":"active","ping":108},{"user_id":212,"name":"Whoopsy","steam_id":76561198128103529,"connected_time":760000000000,"state":"active","ping":71},{"user_id":202,"name":"leopardo123atl","steam_id":76561198872648238,"connected_time":1678000000000,"state":"active","ping":91},{"user_id":170,"name":"indi","steam_id":76561198045917538,"connected_time":4590000000000,"state":"active","ping":45},{"user_id":205,"name":"nana","steam_id":76561198214690269,"connected_time":1457000000000,"state":"active","ping":69},{"user_id":217,"name":"Distraction","steam_id":76561199445895882,"connected_time":379000000000,"state":"active","ping":81},{"user_id":195,"name":"subdromeda","steam_id":76561198884351860,"connected_time":2429000000000,"state":"active","ping":61},{"user_id":208,"name":"Eomy","steam_id":76561198297783627,"connected_time":1231000000000,"state":"active","ping":70},{"user_id":190,"name":"↑Slimbro","steam_id":76561198088926489,"connected_time":2898000000000,"state":"active","ping":63},{"user_id":124,"name":"hearthian","steam_id":76561198113235260,"connected_time":7798000000000,"state":"active","ping":97},{"user_id":211,"name":"finn the human","steam_id":76561198072592880,"connected_time":874000000000,"state":"active","ping":45},{"user_id":213,"name":"Imposter","steam_id":76561199043966809,"connected_time":679000000000,"state":"active","ping":64},{"user_id":198,"name":"Ranger","steam_id":76561198064096654,"connected_time":2163000000000,"state":"active","ping":48},{"user_id":159,"name":"donatello ツ","steam_id":76561198091157081,"connected_time":5215000000000,"state":"active","ping":57},{"user_id":214,"name":"Strategic Pierogi","steam_id":76561198918807750,"connected_time":604000000000,"state":"active","ping":139},{"user_id":174,"name":"funny","steam_id":76561198034502018,"connected_time":4134000000000,"state":"active","ping":70},{"user_id":184,"name":"corbenis","steam_id":76561199012442511,"connected_time":3261000000000,"state":"active","ping":77},{"user_id":207,"name":"leumas","steam_id":76561198240408540,"connected_time":1434000000000,"state":"active","ping":78},{"user_id":215,"name":"tf2 moment","steam_id":76561199054660228,"connected_time":598000000000,"state":"active","ping":42}]},{"server_id":106,"name":"Uncletopia | Chicago | 2 | All Maps","name_short":"chi-2","host":"chi-1.us.uncletopia.com","port":27025,"enabled":true,"region":"us-central","cc":"us","latitude":41.881832,"longitude":-87.62318,"reserved":0,"last_update":"0001-01-01T00:00:00Z","name_a2s":"Uncletopia | Chicago | 2 | All Maps","protocol":17,"map":"pl_barnblitz","folder":"tf","game":"Team Fortress","app_id":440,"player_count":24,"max_players":24,"Bots":0,"server_type":"Dedicated","server_os":"Linux","password":true,"vac":true,"version":"7961495","steam_id":85568392924469985,"keywords":["nocrits","nodmgspread","payload","uncletopia"],"game_id":440,"stv_port":27026,"stv_name":"Uncletopia | Chicago | 2 | All Maps | STV","players":[{"user_id":256,"name":"MenacingMekhet","steam_id":76561198053165462,"connected_time":3722000000000,"state":"active","ping":59},{"user_id":291,"name":"yourlocalforecast","steam_id":76561198042243083,"connected_time":263000000000,"state":"active","ping":60},{"user_id":151,"name":"TheDeemguy64","steam_id":76561198852876387,"connected_time":11860000000000,"state":"active","ping":60},{"user_id":259,"name":"Nathan","steam_id":76561198127924646,"connected_time":3034000000000,"state":"active","ping":77},{"user_id":276,"name":"ItsAValencia","steam_id":76561199028413562,"connected_time":1519000000000,"state":"active","ping":66},{"user_id":271,"name":"The Capn Fake Taxi","steam_id":76561198028236497,"connected_time":1944000000000,"state":"active","ping":111},{"user_id":177,"name":"King","steam_id":76561198039763676,"connected_time":9241000000000,"state":"active","ping":77},{"user_id":287,"name":"kicks","steam_id":76561199228854923,"connected_time":853000000000,"state":"active","ping":49},{"user_id":255,"name":"loot","steam_id":76561198069954956,"connected_time":3763000000000,"state":"active","ping":63},{"user_id":283,"name":"cheech","steam_id":76561198105391757,"connected_time":1236000000000,"state":"active","ping":76},{"user_id":257,"name":"nested deep in the dirty dirty","steam_id":76561198142756572,"connected_time":3623000000000,"state":"active","ping":61},{"user_id":289,"name":"Menachem","steam_id":76561198041226420,"connected_time":747000000000,"state":"active","ping":50},{"user_id":201,"name":"Raizen","steam_id":76561199092445367,"connected_time":7432000000000,"state":"active","ping":49},{"user_id":274,"name":"DeezNoodlez","steam_id":76561198246700372,"connected_time":1598000000000,"state":"active","ping":74},{"user_id":254,"name":"estrogen burger (healthy dose)","steam_id":76561198249206656,"connected_time":3797000000000,"state":"active","ping":67},{"user_id":278,"name":"lorient","steam_id":76561198150831438,"connected_time":1488000000000,"state":"active","ping":76},{"user_id":279,"name":"badmanting155","steam_id":76561198174026262,"connected_time":1483000000000,"state":"active","ping":165},{"user_id":258,"name":"kirby7","steam_id":76561199167006749,"connected_time":3602000000000,"state":"active","ping":119},{"user_id":204,"name":"Chromatic Bliss","steam_id":76561198252604816,"connected_time":7381000000000,"state":"active","ping":69},{"user_id":280,"name":"otwtomarsoffdabars(spacecore)","steam_id":76561199085974120,"connected_time":1477000000000,"state":"active","ping":73},{"user_id":282,"name":"mark!","steam_id":76561198184639801,"connected_time":1287000000000,"state":"active","ping":103},{"user_id":281,"name":"Dragus","steam_id":76561198032967285,"connected_time":1472000000000,"state":"active","ping":53},{"user_id":284,"name":"Order for Delivery","steam_id":76561198070850386,"connected_time":1222000000000,"state":"active","ping":83},{"user_id":288,"name":"Dabbledornk","steam_id":76561198065241300,"connected_time":831000000000,"state":"active","ping":60}]},{"server_id":402,"name":"Uncletopia | Chicago | 3 | All Maps","name_short":"chi-3","host":"chi-1.us.uncletopia.com","port":27035,"enabled":true,"region":"us-central","cc":"us","latitude":41.881832,"longitude":-87.62318,"reserved":0,"last_update":"0001-01-01T00:00:00Z","name_a2s":"Uncletopia | Chicago | 3 | All Maps","protocol":17,"map":"plr_pipeline","folder":"tf","game":"Team Fortress","app_id":440,"player_count":0,"max_players":24,"Bots":0,"server_type":"Dedicated","server_os":"Linux","password":true,"vac":true,"version":"7961495","steam_id":85568392924515191,"keywords":["nocrits","nodmgspread","payload","uncletopia"],"game_id":440,"stv_port":27036,"stv_name":"Uncletopia | Chicago | 3 | All Maps | STV","players":null},{"server_id":403,"name":"Uncletopia | Chicago | 4 | All Maps","name_short":"chi-4","host":"chi-1.us.uncletopia.com","port":27045,"enabled":true,"region":"us-central","cc":"us","latitude":41.881832,"longitude":-87.62318,"reserved":0,"last_update":"0001-01-01T00:00:00Z","name_a2s":"Uncletopia | Chicago | 4 | All Maps","protocol":17,"map":"pl_frontier_final","folder":"tf","game":"Team Fortress","app_id":440,"player_count":24,"max_players":24,"Bots":0,"server_type":"Dedicated","server_os":"Linux","password":true,"vac":true,"version":"7961495","steam_id":85568392924515193,"keywords":["nocrits","nodmgspread","payload","uncletopia"],"game_id":440,"stv_port":27046,"stv_name":"Uncletopia | Chicago | 4 | All Maps | STV","players":[{"user_id":150,"name":"vivian tf2","steam_id":76561198059229612,"connected_time":2885000000000,"state":"active","ping":56},{"user_id":166,"name":"Chai","steam_id":76561198044327873,"connected_time":1348000000000,"state":"active","ping":58},{"user_id":156,"name":"Donkski","steam_id":76561198406895347,"connected_time":2049000000000,"state":"active","ping":69},{"user_id":180,"name":"castro","steam_id":76561198834358497,"connected_time":262000000000,"state":"active","ping":67},{"user_id":181,"name":"deionel","steam_id":76561199180417279,"connected_time":238000000000,"state":"active","ping":81},{"user_id":140,"name":"mister slippery","steam_id":76561198057076267,"connected_time":3127000000000,"state":"active","ping":64},{"user_id":142,"name":"Remis","steam_id":76561198282267073,"connected_time":3114000000000,"state":"active","ping":75},{"user_id":167,"name":"bikerkid207","steam_id":76561198390782783,"connected_time":1272000000000,"state":"active","ping":60},{"user_id":139,"name":"[MADTAS] The Madnetastrophe","steam_id":76561197995620232,"connected_time":3131000000000,"state":"active","ping":56},{"user_id":182,"name":"Sharkwark","steam_id":76561199218566982,"connected_time":193000000000,"state":"active","ping":64},{"user_id":185,"name":"Dr. Han","steam_id":76561198811130843,"connected_time":92000000000,"state":"active","ping":64},{"user_id":176,"name":"pastapete1999","steam_id":76561198874120857,"connected_time":372000000000,"state":"active","ping":51},{"user_id":147,"name":"room temp IQ","steam_id":76561198018724712,"connected_time":3046000000000,"state":"active","ping":60},{"user_id":119,"name":"Rornir","steam_id":76561198081829615,"connected_time":4756000000000,"state":"active","ping":41},{"user_id":179,"name":"Jesse Bear","steam_id":76561198217075305,"connected_time":290000000000,"state":"active","ping":69},{"user_id":183,"name":"The jesus guy (FRNK)","steam_id":76561198237997622,"connected_time":159000000000,"state":"active","ping":158},{"user_id":168,"name":"lcy13vv","steam_id":76561197995997446,"connected_time":1270000000000,"state":"active","ping":53},{"user_id":177,"name":"The Hose on Upward","steam_id":76561197965092192,"connected_time":304000000000,"state":"active","ping":73},{"user_id":173,"name":"MackDaddy69","steam_id":76561198060121935,"connected_time":699000000000,"state":"active","ping":60},{"user_id":184,"name":"the pest","steam_id":76561198826298849,"connected_time":151000000000,"state":"active","ping":83},{"user_id":137,"name":"airy","steam_id":76561198174632198,"connected_time":3150000000000,"state":"active","ping":76},{"user_id":175,"name":"Baron von Whoopsie","steam_id":76561197996691013,"connected_time":428000000000,"state":"active","ping":56},{"user_id":186,"name":"dormio","steam_id":76561198400723170,"connected_time":42000000000,"state":"active","ping":60},{"user_id":90,"name":"Xx_gam3rberg_xX","steam_id":76561199035781025,"connected_time":6575000000000,"state":"active","ping":83}]},{"server_id":36,"name":"Uncletopia | Chicago | 5 | All Maps","name_short":"chi-5","host":"chi-2.us.uncletopia.com","port":27015,"enabled":true,"region":"us-central","cc":"us","latitude":41.881832,"longitude":-87.62318,"reserved":0,"last_update":"0001-01-01T00:00:00Z","name_a2s":"Uncletopia | Chicago | 5 | All Maps","protocol":17,"map":"pl_borneo","folder":"tf","game":"Team Fortress","app_id":440,"player_count":0,"max_players":24,"Bots":0,"server_type":"Dedicated","server_os":"Linux","password":true,"vac":true,"version":"7961495","steam_id":85568392924866362,"keywords":["nocrits","nodmgspread","payload","uncletopia"],"game_id":440,"stv_port":27016,"stv_name":"Uncletopia | Chicago | 5 | All Maps | STV","players":null},{"server_id":37,"name":"Uncletopia | Chicago | 6 | All Maps","name_short":"chi-6","host":"chi-2.us.uncletopia.com","port":27025,"enabled":true,"region":"us-central","cc":"us","latitude":41.881832,"longitude":-87.62318,"reserved":0,"last_update":"0001-01-01T00:00:00Z","name_a2s":"Uncletopia | Chicago | 6 | All Maps","protocol":17,"map":"pl_frontier_final","folder":"tf","game":"Team Fortress","app_id":440,"player_count":0,"max_players":24,"Bots":0,"server_type":"Dedicated","server_os":"Linux","password":true,"vac":true,"version":"7961495","steam_id":85568392924866363,"keywords":["nocrits","nodmgspread","payload","uncletopia"],"game_id":440,"stv_port":27026,"stv_name":"Uncletopia | Chicago | 6 | All Maps | STV","players":null},{"server_id":38,"name":"Uncletopia | Chicago | 7 | Stopwatch","name_short":"chi-7","host":"chi-2.us.uncletopia.com","port":27035,"enabled":true,"region":"us-central","cc":"us","latitude":41.881832,"longitude":-87.62318,"reserved":0,"last_update":"0001-01-01T00:00:00Z","name_a2s":"Uncletopia | Chicago | 7 | Stopwatch","protocol":17,"map":"cp_snakewater_final1","folder":"tf","game":"Team Fortress","app_id":440,"player_count":0,"max_players":24,"Bots":0,"server_type":"Dedicated","server_os":"Linux","password":true,"vac":true,"version":"7961495","steam_id":85568392924866364,"keywords":["cp","nocrits","nodmgspread","uncletopia"],"game_id":440,"stv_port":27036,"stv_name":"Uncletopia | Chicago | 7 | Stopwatch | STV","players":null},{"server_id":39,"name":"Uncletopia | Chicago | 8 | Community","name_short":"chi-8","host":"chi-2.us.uncletopia.com","port":27045,"enabled":true,"region":"us-central","cc":"us","latitude":41.881832,"longitude":-87.62318,"reserved":0,"last_update":"0001-01-01T00:00:00Z","name_a2s":"Uncletopia | Chicago | 8 | Community","protocol":17,"map":"workshop/koth_slaughter_rc1.ugc1712845210","folder":"tf","game":"Team Fortress","app_id":440,"player_count":0,"max_players":24,"Bots":0,"server_type":"Dedicated","server_os":"Linux","password":true,"vac":true,"version":"7961495","steam_id":85568392924866365,"keywords":["cp","nocrits","nodmgspread","uncletopia"],"game_id":440,"stv_port":27046,"stv_name":"Uncletopia | Chicago | 8 | Community | STV","players":null},{"server_id":8,"name":"Uncletopia | Dallas | 1 | All Maps","name_short":"dal-1","host":"dal-1.us.uncletopia.com","port":27015,"enabled":true,"region":"us-central","cc":"us","latitude":32.779167,"longitude":-96.80889,"reserved":0,"last_update":"0001-01-01T00:00:00Z","name_a2s":"Uncletopia | Dallas | 1 | All Maps","protocol":17,"map":"pl_upward","folder":"tf","game":"Team Fortress","app_id":440,"player_count":24,"max_players":24,"Bots":0,"server_type":"Dedicated","server_os":"Linux","password":true,"vac":true,"version":"7961495","steam_id":85568392924469986,"keywords":["nocrits","nodmgspread","payload","uncletopia"],"game_id":440,"stv_port":27016,"stv_name":"Uncletopia | Dallas | 1 | All Maps | STV","players":[{"user_id":260,"name":"Radio_Troll","steam_id":76561199223701309,"connected_time":1193000000000,"state":"active","ping":63},{"user_id":252,"name":"Cassie","steam_id":76561198972619900,"connected_time":1442000000000,"state":"active","ping":33},{"user_id":240,"name":"William Lovett","steam_id":76561197991063996,"connected_time":2361000000000,"state":"active","ping":81},{"user_id":269,"name":"New\u0026Fresh!","steam_id":76561199209236950,"connected_time":557000000000,"state":"active","ping":68},{"user_id":226,"name":"Rob","steam_id":76561199187786660,"connected_time":3557000000000,"state":"active","ping":44},{"user_id":256,"name":"Schwartzy","steam_id":76561198098576795,"connected_time":1348000000000,"state":"active","ping":47},{"user_id":223,"name":"Killbasa","steam_id":76561198064868400,"connected_time":3606000000000,"state":"active","ping":79},{"user_id":265,"name":"cheeseburger","steam_id":76561198810670246,"connected_time":726000000000,"state":"active","ping":59},{"user_id":216,"name":"Lee Surge (fishtank.live)","steam_id":76561198202272884,"connected_time":3752000000000,"state":"active","ping":88},{"user_id":267,"name":"shakoiwa","steam_id":76561199059441773,"connected_time":717000000000,"state":"active","ping":76},{"user_id":224,"name":"Aku+","steam_id":76561198813782795,"connected_time":3596000000000,"state":"active","ping":171},{"user_id":261,"name":"JustAnotherHuman","steam_id":76561199018122924,"connected_time":1141000000000,"state":"active","ping":108},{"user_id":211,"name":"SgtMaj Soggy Titties","steam_id":76561198067732216,"connected_time":4016000000000,"state":"active","ping":64},{"user_id":268,"name":"North","steam_id":76561198814844969,"connected_time":619000000000,"state":"active","ping":68},{"user_id":270,"name":"spacetoven","steam_id":76561198115821131,"connected_time":513000000000,"state":"active","ping":87},{"user_id":271,"name":"Underage02","steam_id":76561199475358510,"connected_time":509000000000,"state":"active","ping":92},{"user_id":272,"name":"Critical","steam_id":76561198123744966,"connected_time":502000000000,"state":"active","ping":72},{"user_id":246,"name":"magnoly","steam_id":76561199228865188,"connected_time":1987000000000,"state":"active","ping":45},{"user_id":241,"name":"yourcollectivemothers","steam_id":76561198875958142,"connected_time":2357000000000,"state":"active","ping":77},{"user_id":273,"name":"yomo","steam_id":76561198063175935,"connected_time":447000000000,"state":"active","ping":76},{"user_id":274,"name":"Gadmt_","steam_id":76561198077910059,"connected_time":414000000000,"state":"active","ping":60},{"user_id":276,"name":"pickup truck with huge honks","steam_id":76561198111447214,"connected_time":388000000000,"state":"active","ping":77},{"user_id":207,"name":"Lord Theodore XIII","steam_id":76561198085842797,"connected_time":4301000000000,"state":"active","ping":61},{"user_id":214,"name":"Lazsathel","steam_id":76561198008743002,"connected_time":3904000000000,"state":"active","ping":169}]},{"server_id":108,"name":"Uncletopia | Dallas | 2 | All Maps","name_short":"dal-2","host":"dal-1.us.uncletopia.com","port":27025,"enabled":true,"region":"us-central","cc":"us","latitude":32.779167,"longitude":-96.80889,"reserved":0,"last_update":"0001-01-01T00:00:00Z","name_a2s":"Uncletopia | Dallas | 2 | All Maps","protocol":17,"map":"koth_lakeside_final","folder":"tf","game":"Team Fortress","app_id":440,"player_count":0,"max_players":24,"Bots":0,"server_type":"Dedicated","server_os":"Linux","password":true,"vac":true,"version":"7961495","steam_id":85568392924469988,"keywords":["cp","nocrits","nodmgspread","uncletopia"],"game_id":440,"stv_port":27026,"stv_name":"Uncletopia | Dallas | 2 | All Maps | STV","players":null},{"server_id":404,"name":"Uncletopia | Dallas | 3 | All Maps","name_short":"dal-3","host":"dal-1.us.uncletopia.com","port":27035,"enabled":true,"region":"us-central","cc":"us","latitude":32.779167,"longitude":-96.80889,"reserved":0,"last_update":"0001-01-01T00:00:00Z","name_a2s":"Uncletopia | Dallas | 3 | All Maps","protocol":17,"map":"cp_coldfront","folder":"tf","game":"Team Fortress","app_id":440,"player_count":0,"max_players":24,"Bots":0,"server_type":"Dedicated","server_os":"Linux","password":true,"vac":true,"version":"7961495","steam_id":85568392924515219,"keywords":["cp","nocrits","nodmgspread","uncletopia"],"game_id":440,"stv_port":27036,"stv_name":"Uncletopia | Dallas | 3 | All Maps | STV","players":null},{"server_id":405,"name":"Uncletopia | Dallas | 4 | Community","name_short":"dal-4","host":"dal-1.us.uncletopia.com","port":27045,"enabled":true,"region":"us-central","cc":"us","latitude":32.779167,"longitude":-96.80889,"reserved":0,"last_update":"0001-01-01T00:00:00Z","name_a2s":"Uncletopia | Dallas | 4 | Community","protocol":17,"map":"workshop/koth_synthetic_rc6a.ugc1549817316","folder":"tf","game":"Team Fortress","app_id":440,"player_count":0,"max_players":24,"Bots":0,"server_type":"Dedicated","server_os":"Linux","password":true,"vac":true,"version":"7961495","steam_id":85568392924515220,"keywords":["cp","nocrits","nodmgspread","uncletopia"],"game_id":440,"stv_port":27046,"stv_name":"Uncletopia | Dallas | 4 | Community | STV","players":null},{"server_id":5,"name":"Uncletopia | Frankfurt | 1 | All Maps","name_short":"frk-1","host":"frk-1.de.uncletopia.com","port":27015,"enabled":true,"region":"eu","cc":"de","latitude":50.110924,"longitude":8.682127,"reserved":0,"last_update":"0001-01-01T00:00:00Z","name_a2s":"Uncletopia | Frankfurt | 1 | All Maps","protocol":17,"map":"pl_frontier_final","folder":"tf","game":"Team Fortress","app_id":440,"player_count":24,"max_players":24,"Bots":0,"server_type":"Dedicated","server_os":"Linux","password":true,"vac":true,"version":"7961495","steam_id":85568392924469989,"keywords":["nocrits","nodmgspread","payload","uncletopia"],"game_id":440,"stv_port":27016,"stv_name":"Uncletopia | Frankfurt | 1 | All Maps | STV","players":[{"user_id":454,"name":"Nochimo","steam_id":76561199508647757,"connected_time":434000000000,"state":"active","ping":75},{"user_id":456,"name":"laido riteris","steam_id":76561199098499873,"connected_time":225000000000,"state":"active","ping":59},{"user_id":437,"name":"JohnTraveltime","steam_id":76561199244281754,"connected_time":1193000000000,"state":"active","ping":50},{"user_id":431,"name":"Anti-Capitalist Weapon","steam_id":76561198143526071,"connected_time":1906000000000,"state":"active","ping":61},{"user_id":457,"name":"Rachugh","steam_id":76561199235852578,"connected_time":194000000000,"state":"active","ping":158},{"user_id":422,"name":"Cencut","steam_id":76561198989449047,"connected_time":2395000000000,"state":"active","ping":120},{"user_id":455,"name":"Bob Sacamano","steam_id":76561198085610701,"connected_time":272000000000,"state":"active","ping":86},{"user_id":435,"name":"Luuk","steam_id":76561198088266026,"connected_time":1237000000000,"state":"active","ping":82},{"user_id":461,"name":"System","steam_id":76561199442503973,"connected_time":77000000000,"state":"active","ping":45},{"user_id":442,"name":"Banana khan (F2P)","steam_id":76561198992414056,"connected_time":931000000000,"state":"active","ping":192},{"user_id":438,"name":"Smoukup","steam_id":76561198156372330,"connected_time":1192000000000,"state":"active","ping":51},{"user_id":440,"name":"I hate alien ruins I hate alien","steam_id":76561198173218318,"connected_time":1035000000000,"state":"active","ping":52},{"user_id":441,"name":"Radigan-Flanders::","steam_id":76561198100439744,"connected_time":1015000000000,"state":"active","ping":47},{"user_id":443,"name":"TheOxideGamer","steam_id":76561199445897326,"connected_time":925000000000,"state":"active","ping":87},{"user_id":452,"name":"finbar","steam_id":76561198056812396,"connected_time":684000000000,"state":"active","ping":75},{"user_id":459,"name":"AsuX","steam_id":76561197990333289,"connected_time":160000000000,"state":"active","ping":60},{"user_id":453,"name":"Pestilence","steam_id":76561198140938904,"connected_time":555000000000,"state":"active","ping":57},{"user_id":448,"name":"CriticalFeesh","steam_id":76561199208877293,"connected_time":856000000000,"state":"active","ping":44},{"user_id":460,"name":"xSamyaza","steam_id":76561198058447257,"connected_time":153000000000,"state":"active","ping":56},{"user_id":388,"name":"Owlet","steam_id":76561198065613974,"connected_time":4719000000000,"state":"active","ping":75},{"user_id":402,"name":"Neon","steam_id":76561198069049007,"connected_time":4051000000000,"state":"active","ping":120},{"user_id":403,"name":"SirVitek","steam_id":76561198142961758,"connected_time":4048000000000,"state":"active","ping":56},{"user_id":314,"name":"Gordon Birdman","steam_id":76561198013382324,"connected_time":9028000000000,"state":"active","ping":66},{"user_id":450,"name":"Duktigafred","steam_id":76561199211222396,"connected_time":827000000000,"state":"active","ping":55}]},{"server_id":110,"name":"Uncletopia | Frankfurt | 2 | All Maps","name_short":"frk-2","host":"frk-1.de.uncletopia.com","port":27025,"enabled":true,"region":"eu","cc":"de","latitude":50.110924,"longitude":8.682127,"reserved":0,"last_update":"0001-01-01T00:00:00Z","name_a2s":"Uncletopia | Frankfurt | 2 | All Maps","protocol":17,"map":"pl_barnblitz","folder":"tf","game":"Team Fortress","app_id":440,"player_count":24,"max_players":24,"Bots":0,"server_type":"Dedicated","server_os":"Linux","password":true,"vac":true,"version":"7961495","steam_id":85568392924469990,"keywords":["nocrits","nodmgspread","payload","uncletopia"],"game_id":440,"stv_port":27026,"stv_name":"Uncletopia | Frankfurt | 2 | All Maps | STV","players":[{"user_id":447,"name":"MercuryPlate","steam_id":76561199154144220,"connected_time":2631000000000,"state":"active","ping":135},{"user_id":449,"name":"LOBZIK","steam_id":76561198114830120,"connected_time":2535000000000,"state":"active","ping":75},{"user_id":465,"name":"Anus01","steam_id":76561198101884780,"connected_time":1344000000000,"state":"active","ping":61},{"user_id":472,"name":"joachym","steam_id":76561198428579761,"connected_time":916000000000,"state":"active","ping":51},{"user_id":482,"name":"Shogg","steam_id":76561198056382237,"connected_time":424000000000,"state":"active","ping":74},{"user_id":476,"name":"Brian","steam_id":76561198077756206,"connected_time":799000000000,"state":"active","ping":48},{"user_id":424,"name":"Armand #NEWTF2Hunt","steam_id":76561198236126774,"connected_time":3872000000000,"state":"active","ping":55},{"user_id":464,"name":"lucabargagli","steam_id":76561199353783858,"connected_time":1548000000000,"state":"active","ping":50},{"user_id":360,"name":"Arthur rail","steam_id":76561199187229518,"connected_time":7149000000000,"state":"active","ping":80},{"user_id":425,"name":"Delting","steam_id":76561198221808192,"connected_time":3861000000000,"state":"active","ping":89},{"user_id":458,"name":"KiteNock","steam_id":76561198160622922,"connected_time":1896000000000,"state":"active","ping":63},{"user_id":477,"name":"SimplyJarvis","steam_id":76561198000654287,"connected_time":769000000000,"state":"active","ping":67},{"user_id":460,"name":"FWDTRKR","steam_id":76561198060369427,"connected_time":1845000000000,"state":"active","ping":180},{"user_id":427,"name":"Keke","steam_id":76561199052783561,"connected_time":3822000000000,"state":"active","ping":68},{"user_id":417,"name":"tiamat","steam_id":76561198116027948,"connected_time":4479000000000,"state":"active","ping":63},{"user_id":468,"name":"gagalak","steam_id":76561198089979108,"connected_time":1237000000000,"state":"active","ping":122},{"user_id":481,"name":"Oriuke","steam_id":76561197992166123,"connected_time":552000000000,"state":"active","ping":57},{"user_id":474,"name":"[Thrall891]","steam_id":76561198136402128,"connected_time":887000000000,"state":"active","ping":69},{"user_id":479,"name":"Lenupera**","steam_id":76561198172960435,"connected_time":728000000000,"state":"active","ping":90},{"user_id":453,"name":"dongy","steam_id":76561198050319619,"connected_time":2421000000000,"state":"active","ping":46},{"user_id":466,"name":"⅒","steam_id":76561199079879112,"connected_time":1314000000000,"state":"active","ping":67},{"user_id":480,"name":"pablo","steam_id":76561199009805208,"connected_time":706000000000,"state":"active","ping":104},{"user_id":434,"name":"dog?","steam_id":76561199232839385,"connected_time":3310000000000,"state":"active","ping":91},{"user_id":384,"name":"Alexandr","steam_id":76561198415594381,"connected_time":6555000000000,"state":"active","ping":49}]},{"server_id":308,"name":"Uncletopia | Frankfurt | 3 | All Maps","name_short":"frk-3","host":"frk-1.de.uncletopia.com","port":27035,"enabled":true,"region":"eu","cc":"de","latitude":50.110924,"longitude":8.682127,"reserved":0,"last_update":"0001-01-01T00:00:00Z","name_a2s":"Uncletopia | Frankfurt | 3 | All Maps","protocol":17,"map":"koth_lakeside_final","folder":"tf","game":"Team Fortress","app_id":440,"player_count":0,"max_players":24,"Bots":0,"server_type":"Dedicated","server_os":"Linux","password":true,"vac":true,"version":"7961495","steam_id":85568392924504274,"keywords":["cp","nocrits","nodmgspread","uncletopia"],"game_id":440,"stv_port":27036,"stv_name":"Uncletopia | Frankfurt | 3 | All Maps | STV","players":null},{"server_id":309,"name":"Uncletopia | Frankfurt | 4 | All Maps","name_short":"frk-4","host":"frk-1.de.uncletopia.com","port":27045,"enabled":true,"region":"eu","cc":"de","latitude":50.110924,"longitude":8.682127,"reserved":0,"last_update":"0001-01-01T00:00:00Z","name_a2s":"Uncletopia | Frankfurt | 4 | All Maps","protocol":17,"map":"pl_badwater","folder":"tf","game":"Team Fortress","app_id":440,"player_count":23,"max_players":24,"Bots":0,"server_type":"Dedicated","server_os":"Linux","password":true,"vac":true,"version":"7961495","steam_id":85568392924504275,"keywords":["nocrits","nodmgspread","payload","uncletopia"],"game_id":440,"stv_port":27046,"stv_name":"Uncletopia | Frankfurt | 4 | All Maps | STV","players":[{"user_id":279,"name":"Wattseyy","steam_id":76561198248567360,"connected_time":1134000000000,"state":"active","ping":53},{"user_id":285,"name":"how he chain on 10 perc?","steam_id":76561198276681691,"connected_time":691000000000,"state":"active","ping":61},{"user_id":300,"name":"bella","steam_id":76561198367634211,"connected_time":90000000000,"state":"active","ping":68},{"user_id":302,"name":"IHaveConsumed50KmofMeth","steam_id":76561199221172552,"connected_time":73000000000,"state":"active","ping":108},{"user_id":269,"name":"DarkMelody","steam_id":76561198063225937,"connected_time":1744000000000,"state":"active","ping":124},{"user_id":280,"name":"botan_krutan","steam_id":76561199130127786,"connected_time":1105000000000,"state":"active","ping":61},{"user_id":178,"name":"lion.mesi4","steam_id":76561198890409949,"connected_time":6822000000000,"state":"active","ping":92},{"user_id":258,"name":"john fortress","steam_id":76561198013237629,"connected_time":2150000000000,"state":"active","ping":105},{"user_id":281,"name":"install gentoo","steam_id":76561198185257982,"connected_time":1095000000000,"state":"active","ping":69},{"user_id":270,"name":"Iris","steam_id":76561198430295815,"connected_time":1716000000000,"state":"active","ping":63},{"user_id":303,"name":"ToTenLis","steam_id":76561198168581334,"connected_time":63000000000,"state":"active","ping":92},{"user_id":265,"name":"öööö✪","steam_id":76561198181645822,"connected_time":2024000000000,"state":"active","ping":75},{"user_id":301,"name":"lightwizard912","steam_id":76561198798803845,"connected_time":89000000000,"state":"active","ping":56},{"user_id":296,"name":"st. pheenis hell","steam_id":76561198128250460,"connected_time":386000000000,"state":"active","ping":98},{"user_id":277,"name":"sin","steam_id":76561198193416785,"connected_time":1527000000000,"state":"active","ping":96},{"user_id":291,"name":"KaasKrans","steam_id":76561198240451972,"connected_time":554000000000,"state":"active","ping":47},{"user_id":292,"name":"Dr. Phil","steam_id":76561198047254219,"connected_time":528000000000,"state":"active","ping":49},{"user_id":298,"name":"Bgm_","steam_id":76561198056452044,"connected_time":280000000000,"state":"active","ping":55},{"user_id":286,"name":"Soulman25 (FIN)","steam_id":76561198103611974,"connected_time":683000000000,"state":"active","ping":79},{"user_id":304,"name":"agruk","steam_id":76561198082516068,"connected_time":55000000000,"state":"active","ping":65},{"user_id":297,"name":"Uncle Dale","steam_id":76561199144302768,"connected_time":384000000000,"state":"active","ping":150},{"user_id":264,"name":"Heavy Duty","steam_id":76561198219594541,"connected_time":2061000000000,"state":"active","ping":93},{"user_id":266,"name":"nanc","steam_id":76561198823042579,"connected_time":1883000000000,"state":"active","ping":111}]},{"server_id":310,"name":"Uncletopia | Frankfurt | 5 | All Maps","name_short":"frk-5","host":"frk-1.de.uncletopia.com","port":27055,"enabled":true,"region":"eu","cc":"de","latitude":50.110924,"longitude":8.682127,"reserved":0,"last_update":"0001-01-01T00:00:00Z","name_a2s":"Uncletopia | Frankfurt | 5 | All Maps","protocol":17,"map":"pl_pier","folder":"tf","game":"Team Fortress","app_id":440,"player_count":24,"max_players":24,"Bots":0,"server_type":"Dedicated","server_os":"Linux","password":true,"vac":true,"version":"7961495","steam_id":85568392924504277,"keywords":["nocrits","nodmgspread","payload","uncletopia"],"game_id":440,"stv_port":27056,"stv_name":"Uncletopia | Frankfurt | 5 | All Maps | STV","players":[{"user_id":296,"name":"grapenor cork ass","steam_id":76561199188012230,"connected_time":469000000000,"state":"active","ping":79},{"user_id":304,"name":"Bonjour","steam_id":76561198186063665,"connected_time":68000000000,"state":"active","ping":71},{"user_id":265,"name":"syms","steam_id":76561198066679812,"connected_time":2426000000000,"state":"active","ping":73},{"user_id":298,"name":"Name","steam_id":76561197990757157,"connected_time":367000000000,"state":"active","ping":73},{"user_id":303,"name":"Áďa :)","steam_id":76561198090773089,"connected_time":177000000000,"state":"active","ping":48},{"user_id":250,"name":"KALACH","steam_id":76561198028664460,"connected_time":3332000000000,"state":"active","ping":101},{"user_id":264,"name":"AleXandriX","steam_id":76561198035203950,"connected_time":2450000000000,"state":"active","ping":60},{"user_id":221,"name":"AsianPersuasion","steam_id":76561198202112536,"connected_time":4138000000000,"state":"active","ping":67},{"user_id":274,"name":"Kriofty","steam_id":76561198811696536,"connected_time":2177000000000,"state":"active","ping":82},{"user_id":288,"name":"TekuSP","steam_id":76561198072367754,"connected_time":1340000000000,"state":"active","ping":46},{"user_id":299,"name":"Volodya","steam_id":76561198124484658,"connected_time":322000000000,"state":"active","ping":103},{"user_id":286,"name":"veki","steam_id":76561199059047474,"connected_time":1436000000000,"state":"active","ping":60},{"user_id":300,"name":"TheJubo","steam_id":76561198050223306,"connected_time":297000000000,"state":"active","ping":73},{"user_id":301,"name":"Dolcelatte","steam_id":76561198038501770,"connected_time":255000000000,"state":"active","ping":60},{"user_id":229,"name":"Sunduchek","steam_id":76561198067934157,"connected_time":3901000000000,"state":"active","ping":125},{"user_id":268,"name":"H-say","steam_id":76561198177400362,"connected_time":2417000000000,"state":"active","ping":61},{"user_id":283,"name":"medicinal man","steam_id":76561198202668788,"connected_time":1539000000000,"state":"active","ping":59},{"user_id":245,"name":"old man oberon","steam_id":76561198355291251,"connected_time":3471000000000,"state":"active","ping":89},{"user_id":295,"name":"siema","steam_id":76561198033698248,"connected_time":811000000000,"state":"active","ping":83},{"user_id":232,"name":"tr4ce","steam_id":76561198085296732,"connected_time":3870000000000,"state":"active","ping":52},{"user_id":263,"name":"cazador","steam_id":76561198123096922,"connected_time":2456000000000,"state":"active","ping":97},{"user_id":302,"name":"Littleyoshifan","steam_id":76561198445491045,"connected_time":232000000000,"state":"active","ping":59},{"user_id":285,"name":"Gugu gaga","steam_id":76561198161822358,"connected_time":1478000000000,"state":"active","ping":60},{"user_id":270,"name":"kurd","steam_id":76561198116530769,"connected_time":2416000000000,"state":"active","ping":87}]},{"server_id":311,"name":"Uncletopia | Frankfurt | 6 | All Maps","name_short":"frk-6","host":"frk-1.de.uncletopia.com","port":27065,"enabled":true,"region":"eu","cc":"de","latitude":50.110924,"longitude":8.682127,"reserved":0,"last_update":"0001-01-01T00:00:00Z","name_a2s":"Uncletopia | Frankfurt | 6 | All Maps","protocol":17,"map":"pl_badwater","folder":"tf","game":"Team Fortress","app_id":440,"player_count":24,"max_players":24,"Bots":0,"server_type":"Dedicated","server_os":"Linux","password":true,"vac":true,"version":"7961495","steam_id":85568392924504278,"keywords":["nocrits","nodmgspread","payload","uncletopia"],"game_id":440,"stv_port":27066,"stv_name":"Uncletopia | Frankfurt | 6 | All Maps | STV","players":[{"user_id":354,"name":"ata","steam_id":76561199017885132,"connected_time":1624000000000,"state":"active","ping":67},{"user_id":342,"name":"Adamkarz","steam_id":76561198796428403,"connected_time":1858000000000,"state":"active","ping":88},{"user_id":295,"name":"pavel_mkd","steam_id":76561199088118112,"connected_time":4007000000000,"state":"active","ping":70},{"user_id":343,"name":"Enjoyer","steam_id":76561198147399855,"connected_time":1851000000000,"state":"active","ping":117},{"user_id":365,"name":"Ixsus\u003c3","steam_id":76561198094756869,"connected_time":591000000000,"state":"active","ping":50},{"user_id":298,"name":"Tekor","steam_id":76561198088542862,"connected_time":3910000000000,"state":"active","ping":59},{"user_id":366,"name":"Mr. Hunts","steam_id":76561197981910397,"connected_time":244000000000,"state":"active","ping":72},{"user_id":340,"name":"Glitchas","steam_id":76561198883610618,"connected_time":1925000000000,"state":"active","ping":89},{"user_id":367,"name":"Reihenhausbewohner","steam_id":76561198049820307,"connected_time":205000000000,"state":"active","ping":45},{"user_id":356,"name":"The Rizzler","steam_id":76561198195159941,"connected_time":1562000000000,"state":"active","ping":50},{"user_id":329,"name":"Nicreven | #SAVETF2","steam_id":76561198381515455,"connected_time":2874000000000,"state":"active","ping":82},{"user_id":344,"name":"Destinys","steam_id":76561198056132894,"connected_time":1850000000000,"state":"active","ping":45},{"user_id":350,"name":"yumyum","steam_id":76561198049405872,"connected_time":1719000000000,"state":"active","ping":38},{"user_id":363,"name":"boykisser","steam_id":76561198452372965,"connected_time":807000000000,"state":"active","ping":55},{"user_id":358,"name":"Saint","steam_id":76561198003296382,"connected_time":1132000000000,"state":"active","ping":76},{"user_id":326,"name":"Waffel","steam_id":76561198113552009,"connected_time":2916000000000,"state":"active","ping":91},{"user_id":311,"name":"ilwes","steam_id":76561198438137570,"connected_time":3314000000000,"state":"active","ping":63},{"user_id":368,"name":"silicon based life form","steam_id":76561199127121346,"connected_time":107000000000,"state":"active","ping":59},{"user_id":337,"name":"meirfa","steam_id":76561198157193506,"connected_time":2182000000000,"state":"active","ping":116},{"user_id":352,"name":"Tre3","steam_id":76561198054795379,"connected_time":1642000000000,"state":"active","ping":59},{"user_id":341,"name":"AfroCookie","steam_id":76561198138362851,"connected_time":1922000000000,"state":"active","ping":60},{"user_id":334,"name":"Burnout6010","steam_id":76561198029867543,"connected_time":2433000000000,"state":"active","ping":69},{"user_id":347,"name":"Altiross","steam_id":76561198091593317,"connected_time":1816000000000,"state":"active","ping":63}]},{"server_id":23,"name":"Uncletopia | Frankfurt | 7 | Stopwatch","name_short":"frk-7","host":"frk-1.de.uncletopia.com","port":27075,"enabled":true,"region":"eu","cc":"de","latitude":50.110924,"longitude":8.682127,"reserved":0,"last_update":"0001-01-01T00:00:00Z","name_a2s":"Uncletopia | Frankfurt | 7 | Stopwatch","protocol":17,"map":"cp_snakewater_final1","folder":"tf","game":"Team Fortress","app_id":440,"player_count":19,"max_players":24,"Bots":0,"server_type":"Dedicated","server_os":"Linux","password":true,"vac":true,"version":"7961495","steam_id":85568392924742827,"keywords":["cp","nocrits","nodmgspread","uncletopia"],"game_id":440,"stv_port":27076,"stv_name":"Uncletopia | Frankfurt | 7 | Stopwatch | STV","players":[{"user_id":35,"name":"Errordood","steam_id":76561198263263692,"connected_time":5393000000000,"state":"active","ping":81},{"user_id":87,"name":"ash","steam_id":76561198004728744,"connected_time":1890000000000,"state":"active","ping":58},{"user_id":119,"name":"matisslee","steam_id":76561199010101918,"connected_time":31000000000,"state":"active","ping":57},{"user_id":45,"name":"Alyx","steam_id":76561198064654326,"connected_time":4363000000000,"state":"active","ping":67},{"user_id":106,"name":"typomen","steam_id":76561198405351951,"connected_time":697000000000,"state":"active","ping":75},{"user_id":110,"name":"Yrjö Koskinen Yrjö-Koskinen","steam_id":76561198368181145,"connected_time":326000000000,"state":"active","ping":78},{"user_id":38,"name":"lesbian jumpscare","steam_id":76561198864161505,"connected_time":5100000000000,"state":"active","ping":63},{"user_id":112,"name":"_Chelik_","steam_id":76561199076069284,"connected_time":256000000000,"state":"active","ping":85},{"user_id":102,"name":"Hussain_144","steam_id":76561198346029208,"connected_time":1011000000000,"state":"active","ping":174},{"user_id":70,"name":"The Bamboozler","steam_id":76561199286764992,"connected_time":3023000000000,"state":"active","ping":74},{"user_id":80,"name":"JC","steam_id":76561198029213352,"connected_time":2769000000000,"state":"active","ping":46},{"user_id":105,"name":"daquavious bingleton","steam_id":76561199112671611,"connected_time":748000000000,"state":"active","ping":75},{"user_id":113,"name":"The Funny F2P Man","steam_id":76561199432400835,"connected_time":152000000000,"state":"active","ping":97},{"user_id":114,"name":"eevee","steam_id":76561198447072392,"connected_time":141000000000,"state":"active","ping":77},{"user_id":53,"name":"Turek","steam_id":76561198280066503,"connected_time":3722000000000,"state":"active","ping":63},{"user_id":84,"name":"zek","steam_id":76561198862763731,"connected_time":2257000000000,"state":"active","ping":56},{"user_id":115,"name":"medium rare chicken enjoyer","steam_id":76561198050214002,"connected_time":139000000000,"state":"active","ping":59},{"user_id":117,"name":"goz","steam_id":76561198155229347,"connected_time":125000000000,"state":"active","ping":47},{"user_id":118,"name":"Beni 🦧🍌","steam_id":76561198011340227,"connected_time":117000000000,"state":"active","ping":61}]},{"server_id":24,"name":"Uncletopia | Frankfurt | 8 | Community","name_short":"frk-8","host":"frk-1.de.uncletopia.com","port":27085,"enabled":true,"region":"eu","cc":"de","latitude":50.110924,"longitude":8.682127,"reserved":0,"last_update":"0001-01-01T00:00:00Z","name_a2s":"Uncletopia | Frankfurt | 8 | Community","protocol":17,"map":"workshop/koth_slaughter_rc1.ugc1712845210","folder":"tf","game":"Team Fortress","app_id":440,"player_count":0,"max_players":24,"Bots":0,"server_type":"Dedicated","server_os":"Linux","password":true,"vac":true,"version":"7961495","steam_id":85568392924742828,"keywords":["cp","nocrits","nodmgspread","uncletopia"],"game_id":440,"stv_port":27086,"stv_name":"Uncletopia | Frankfurt | 8 | Community | STV","players":null},{"server_id":202,"name":"Uncletopia | Hong Kong | 1 | All Maps","name_short":"hgk-1","host":"hgk-1.hk.uncletopia.com","port":27015,"enabled":true,"region":"asia","cc":"hk","latitude":22.302711,"longitude":114.177216,"reserved":0,"last_update":"0001-01-01T00:00:00Z","name_a2s":"Uncletopia | Hong Kong | 1 | All Maps","protocol":17,"map":"pl_badwater","folder":"tf","game":"Team Fortress","app_id":440,"player_count":0,"max_players":24,"Bots":0,"server_type":"Dedicated","server_os":"Linux","password":true,"vac":true,"version":"7961495","steam_id":85568392924494504,"keywords":["nocrits","nodmgspread","payload","uncletopia"],"game_id":440,"stv_port":27016,"stv_name":"Uncletopia | Hong Kong | 1 | All Maps | STV","players":null},{"server_id":1,"name":"Uncletopia | Los Angeles | 1 | All Maps","name_short":"lax-1","host":"lax-1.us.uncletopia.com","port":27015,"enabled":true,"region":"us-west","cc":"us","latitude":33.94279,"longitude":-118.41004,"reserved":0,"last_update":"0001-01-01T00:00:00Z","name_a2s":"Uncletopia | Los Angeles | 1 | All Maps","protocol":17,"map":"cp_gorge","folder":"tf","game":"Team Fortress","app_id":440,"player_count":0,"max_players":24,"Bots":0,"server_type":"Dedicated","server_os":"Linux","password":true,"vac":true,"version":"7961495","steam_id":85568392924469991,"keywords":["cp","nocrits","nodmgspread","uncletopia"],"game_id":440,"stv_port":27016,"stv_name":"Uncletopia | Los Angeles | 1 | All Maps | STV","players":null},{"server_id":112,"name":"Uncletopia | Los Angeles | 2 | All Maps","name_short":"lax-2","host":"lax-1.us.uncletopia.com","port":27025,"enabled":true,"region":"us-west","cc":"us","latitude":33.94279,"longitude":-118.41004,"reserved":0,"last_update":"0001-01-01T00:00:00Z","name_a2s":"Uncletopia | Los Angeles | 2 | All Maps","protocol":17,"map":"koth_cascade","folder":"tf","game":"Team Fortress","app_id":440,"player_count":0,"max_players":24,"Bots":0,"server_type":"Dedicated","server_os":"Linux","password":true,"vac":true,"version":"7961495","steam_id":85568392924469992,"keywords":["cp","nocrits","nodmgspread","uncletopia"],"game_id":440,"stv_port":27026,"stv_name":"Uncletopia | Los Angeles | 2 | All Maps | STV","players":null},{"server_id":324,"name":"Uncletopia | Los Angeles | 3 | All Maps","name_short":"lax-3","host":"lax-1.us.uncletopia.com","port":27035,"enabled":true,"region":"us-west","cc":"us","latitude":33.94279,"longitude":-118.41004,"reserved":0,"last_update":"0001-01-01T00:00:00Z","name_a2s":"Uncletopia | Los Angeles | 3 | All Maps","protocol":17,"map":"pl_hoodoo_final","folder":"tf","game":"Team Fortress","app_id":440,"player_count":0,"max_players":24,"Bots":0,"server_type":"Dedicated","server_os":"Linux","password":true,"vac":true,"version":"7961495","steam_id":85568392924510198,"keywords":["nocrits","nodmgspread","payload","uncletopia"],"game_id":440,"stv_port":27036,"stv_name":"Uncletopia | Los Angeles | 3 | All Maps | STV","players":null},{"server_id":25,"name":"Uncletopia | Los Angeles | 4 | Stopwatch","name_short":"lax-4","host":"lax-1.us.uncletopia.com","port":27045,"enabled":true,"region":"us-west","cc":"us","latitude":33.94279,"longitude":-118.41004,"reserved":0,"last_update":"0001-01-01T00:00:00Z","name_a2s":"Uncletopia | Los Angeles | 4 | Stopwatch","protocol":17,"map":"pl_upward","folder":"tf","game":"Team Fortress","app_id":440,"player_count":0,"max_players":24,"Bots":0,"server_type":"Dedicated","server_os":"Linux","password":true,"vac":true,"version":"7961495","steam_id":85568392924510199,"keywords":["nocrits","nodmgspread","payload","uncletopia"],"game_id":440,"stv_port":27046,"stv_name":"Uncletopia | Los Angeles | 4 | Stopwatch | STV","players":null},{"server_id":11,"name":"Uncletopia | London | 1 | All Maps","name_short":"lon-1","host":"lon-1.uk.uncletopia.com","port":27015,"enabled":true,"region":"eu","cc":"gb","latitude":51.509865,"longitude":-0.118092,"reserved":0,"last_update":"0001-01-01T00:00:00Z","name_a2s":"Uncletopia | London | 1 | All Maps","protocol":17,"map":"pl_barnblitz","folder":"tf","game":"Team Fortress","app_id":440,"player_count":24,"max_players":24,"Bots":0,"server_type":"Dedicated","server_os":"Linux","password":true,"vac":true,"version":"7961495","steam_id":85568392924367362,"keywords":["nocrits","nodmgspread","payload","uncletopia"],"game_id":440,"stv_port":27016,"stv_name":"Uncletopia | London | 1 | All Maps | STV","players":[{"user_id":206,"name":"Mea","steam_id":76561198353496134,"connected_time":1045000000000,"state":"active","ping":56},{"user_id":185,"name":"YaBoiDomenik","steam_id":76561199042937056,"connected_time":3424000000000,"state":"active","ping":105},{"user_id":207,"name":"Levis Saltator","steam_id":76561198035945247,"connected_time":859000000000,"state":"active","ping":54},{"user_id":212,"name":"GrosFumiste","steam_id":76561198850134909,"connected_time":531000000000,"state":"active","ping":53},{"user_id":124,"name":"❤ [HoneyBe_] ❤","steam_id":76561198288930154,"connected_time":8036000000000,"state":"active","ping":59},{"user_id":187,"name":"Sunshine","steam_id":76561198885528098,"connected_time":3355000000000,"state":"active","ping":116},{"user_id":204,"name":"Curls","steam_id":76561198079039937,"connected_time":1575000000000,"state":"active","ping":53},{"user_id":180,"name":"*Stare*","steam_id":76561199072209884,"connected_time":3953000000000,"state":"active","ping":46},{"user_id":205,"name":"Zamorocian","steam_id":76561198076604017,"connected_time":1198000000000,"state":"active","ping":40},{"user_id":196,"name":"rigel_","steam_id":76561198148640847,"connected_time":1981000000000,"state":"active","ping":75},{"user_id":211,"name":"Trapezoid","steam_id":76561198059369295,"connected_time":649000000000,"state":"active","ping":75},{"user_id":208,"name":"Dark ^^","steam_id":76561198036241064,"connected_time":857000000000,"state":"active","ping":74},{"user_id":192,"name":"Riman-Shwartz Abuzer","steam_id":76561198054279487,"connected_time":2658000000000,"state":"active","ping":135},{"user_id":200,"name":"ROX","steam_id":76561198272289320,"connected_time":1786000000000,"state":"active","ping":46},{"user_id":203,"name":"El Gran Dovich","steam_id":76561199155718202,"connected_time":1743000000000,"state":"active","ping":85},{"user_id":169,"name":"jjkun786","steam_id":76561199438517484,"connected_time":4453000000000,"state":"active","ping":36},{"user_id":147,"name":"clunk","steam_id":76561198836460767,"connected_time":5886000000000,"state":"active","ping":67},{"user_id":166,"name":"Fuck it (unhandicaps)","steam_id":76561197983095579,"connected_time":4751000000000,"state":"active","ping":78},{"user_id":202,"name":"Ullr","steam_id":76561198140547483,"connected_time":1752000000000,"state":"active","ping":42},{"user_id":193,"name":"Topia","steam_id":76561198163571788,"connected_time":2206000000000,"state":"active","ping":88},{"user_id":195,"name":"nappo","steam_id":76561198060105180,"connected_time":2095000000000,"state":"active","ping":61},{"user_id":164,"name":"Snake-chan","steam_id":76561199044755854,"connected_time":4791000000000,"state":"active","ping":84},{"user_id":197,"name":"DOKTOR MEOW","steam_id":76561198226378616,"connected_time":1862000000000,"state":"active","ping":80},{"user_id":210,"name":"♡ Birdy ♡","steam_id":76561198139632682,"connected_time":770000000000,"state":"active","ping":87}]},{"server_id":114,"name":"Uncletopia | London | 2 | All Maps","name_short":"lon-2","host":"lon-1.uk.uncletopia.com","port":27025,"enabled":true,"region":"eu","cc":"gb","latitude":51.509865,"longitude":-0.118092,"reserved":0,"last_update":"0001-01-01T00:00:00Z","name_a2s":"Uncletopia | London | 2 | All Maps","protocol":17,"map":"cp_dustbowl","folder":"tf","game":"Team Fortress","app_id":440,"player_count":24,"max_players":24,"Bots":0,"server_type":"Dedicated","server_os":"Linux","password":true,"vac":true,"version":"7961495","steam_id":85568392924470941,"keywords":["cp","nocrits","nodmgspread","uncletopia"],"game_id":440,"stv_port":27026,"stv_name":"Uncletopia | London | 2 | All Maps | STV","players":[{"user_id":267,"name":"Saken","steam_id":76561198049075295,"connected_time":3846000000000,"state":"active","ping":61},{"user_id":315,"name":"goofy goober","steam_id":76561198068054530,"connected_time":229000000000,"state":"active","ping":79},{"user_id":316,"name":"Pip","steam_id":76561198049587565,"connected_time":177000000000,"state":"active","ping":45},{"user_id":290,"name":"bryophyta","steam_id":76561197968945306,"connected_time":2132000000000,"state":"active","ping":71},{"user_id":289,"name":"sv_MrGibbs","steam_id":76561198114071972,"connected_time":2188000000000,"state":"active","ping":41},{"user_id":301,"name":"Daddy-O Dizzy","steam_id":76561198292349348,"connected_time":1674000000000,"state":"active","ping":136},{"user_id":318,"name":"Kisari15","steam_id":76561198204362701,"connected_time":143000000000,"state":"active","ping":55},{"user_id":314,"name":"I'm using Tilt Controls.","steam_id":76561198077864552,"connected_time":268000000000,"state":"active","ping":44},{"user_id":311,"name":"Fearly","steam_id":76561198798684016,"connected_time":781000000000,"state":"active","ping":45},{"user_id":296,"name":"Vinnidict","steam_id":76561198037087000,"connected_time":1882000000000,"state":"active","ping":61},{"user_id":221,"name":"Warrior555MainsGanon","steam_id":76561198388627786,"connected_time":7123000000000,"state":"active","ping":54},{"user_id":297,"name":"Vel0city","steam_id":76561198049687798,"connected_time":1849000000000,"state":"active","ping":45},{"user_id":269,"name":"lark","steam_id":76561198091724522,"connected_time":3751000000000,"state":"active","ping":59},{"user_id":317,"name":"Shaunymon","steam_id":76561198089311104,"connected_time":161000000000,"state":"active","ping":181},{"user_id":155,"name":"Jeryx","steam_id":76561197995602803,"connected_time":12297000000000,"state":"active","ping":45},{"user_id":270,"name":"cropping","steam_id":76561198026586456,"connected_time":3672000000000,"state":"active","ping":60},{"user_id":307,"name":"xx_soy_xx","steam_id":76561198333779084,"connected_time":1139000000000,"state":"active","ping":83},{"user_id":300,"name":"r06u3","steam_id":76561198254099253,"connected_time":1687000000000,"state":"active","ping":174},{"user_id":319,"name":"zzz","steam_id":76561199167288279,"connected_time":95000000000,"state":"active","ping":67},{"user_id":260,"name":"bigeon","steam_id":76561198078601337,"connected_time":4026000000000,"state":"active","ping":92},{"user_id":320,"name":"Angles of water below 0°C","steam_id":76561199231461228,"connected_time":91000000000,"state":"active","ping":51},{"user_id":306,"name":"Dromeka","steam_id":76561198963557200,"connected_time":1367000000000,"state":"active","ping":42},{"user_id":312,"name":"Scarlet","steam_id":76561198075966579,"connected_time":688000000000,"state":"active","ping":37},{"user_id":305,"name":"Emerald","steam_id":76561199141384216,"connected_time":1627000000000,"state":"active","ping":53}]},{"server_id":320,"name":"Uncletopia | London | 3 | All Maps","name_short":"lon-3","host":"lon-1.uk.uncletopia.com","port":27035,"enabled":true,"region":"eu","cc":"gb","latitude":51.509865,"longitude":-0.118092,"reserved":0,"last_update":"0001-01-01T00:00:00Z","name_a2s":"Uncletopia | London | 3 | All Maps","protocol":17,"map":"pl_swiftwater_final1","folder":"tf","game":"Team Fortress","app_id":440,"player_count":21,"max_players":24,"Bots":0,"server_type":"Dedicated","server_os":"Linux","password":true,"vac":true,"version":"7961495","steam_id":85568392924510192,"keywords":["nocrits","nodmgspread","payload","uncletopia"],"game_id":440,"stv_port":27036,"stv_name":"Uncletopia | London | 3 | All Maps | STV","players":[{"user_id":200,"name":"southwest florida","steam_id":76561198049639319,"connected_time":230000000000,"state":"active","ping":74},{"user_id":159,"name":"calzone","steam_id":76561198368725089,"connected_time":2360000000000,"state":"active","ping":52},{"user_id":204,"name":"Keany","steam_id":76561199041393458,"connected_time":27000000000,"state":"active","ping":43},{"user_id":203,"name":"Picolas Cage","steam_id":76561199013233409,"connected_time":67000000000,"state":"active","ping":53},{"user_id":186,"name":"ran is running","steam_id":76561199443185667,"connected_time":871000000000,"state":"active","ping":113},{"user_id":205,"name":"Pats (Gifted items Collector)","steam_id":76561198418538887,"connected_time":24000000000,"state":"active","ping":85},{"user_id":187,"name":"SENSITIVITY OVERDRIVE!!!!","steam_id":76561198163615254,"connected_time":798000000000,"state":"active","ping":60},{"user_id":182,"name":"Jughead","steam_id":76561198000355410,"connected_time":1037000000000,"state":"active","ping":22},{"user_id":180,"name":"Peakey The Bard","steam_id":76561198196607831,"connected_time":1194000000000,"state":"active","ping":44},{"user_id":206,"name":"Violet","steam_id":76561198079388610,"connected_time":23000000000,"state":"active","ping":49},{"user_id":196,"name":"mary","steam_id":76561198014828037,"connected_time":506000000000,"state":"active","ping":57},{"user_id":170,"name":"lobear","steam_id":76561199229714255,"connected_time":1707000000000,"state":"active","ping":60},{"user_id":194,"name":"Aeinzalot","steam_id":76561198195288449,"connected_time":612000000000,"state":"active","ping":47},{"user_id":172,"name":"Benzo Fury","steam_id":76561198025259336,"connected_time":1609000000000,"state":"active","ping":42},{"user_id":174,"name":"WrytXander","steam_id":76561198067856323,"connected_time":1564000000000,"state":"active","ping":91},{"user_id":202,"name":"TearsForYesterday","steam_id":76561199239671421,"connected_time":155000000000,"state":"active","ping":58},{"user_id":197,"name":"Surrealistic_Ganerson","steam_id":76561198029591931,"connected_time":477000000000,"state":"active","ping":87},{"user_id":198,"name":"Chris","steam_id":76561198179791702,"connected_time":377000000000,"state":"active","ping":180},{"user_id":193,"name":"Bronchius Bonehead","steam_id":76561198133961416,"connected_time":711000000000,"state":"active","ping":60},{"user_id":192,"name":"Real (Real)","steam_id":76561198323425034,"connected_time":722000000000,"state":"active","ping":63},{"user_id":195,"name":"\u0026","steam_id":76561198094268619,"connected_time":590000000000,"state":"active","ping":74}]},{"server_id":321,"name":"Uncletopia | London | 4 | All Maps","name_short":"lon-4","host":"lon-1.uk.uncletopia.com","port":27045,"enabled":true,"region":"eu","cc":"gb","latitude":51.509865,"longitude":-0.118092,"reserved":0,"last_update":"0001-01-01T00:00:00Z","name_a2s":"Uncletopia | London | 4 | All Maps","protocol":17,"map":"pl_swiftwater_final1","folder":"tf","game":"Team Fortress","app_id":440,"player_count":0,"max_players":24,"Bots":0,"server_type":"Dedicated","server_os":"Linux","password":true,"vac":true,"version":"7961495","steam_id":85568392924510193,"keywords":["nocrits","nodmgspread","payload","uncletopia"],"game_id":440,"stv_port":27046,"stv_name":"Uncletopia | London | 4 | All Maps | STV","players":null},{"server_id":21,"name":"Uncletopia | London | 5 | All Maps","name_short":"lon-5","host":"lon-1.uk.uncletopia.com","port":27055,"enabled":true,"region":"eu","cc":"gb","latitude":51.509865,"longitude":-0.118092,"reserved":0,"last_update":"0001-01-01T00:00:00Z","name_a2s":"Uncletopia | London | 5 | All Maps","protocol":17,"map":"koth_lakeside_final","folder":"tf","game":"Team Fortress","app_id":440,"player_count":0,"max_players":24,"Bots":0,"server_type":"Dedicated","server_os":"Linux","password":true,"vac":true,"version":"7961495","steam_id":85568392924742829,"keywords":["cp","nocrits","nodmgspread","uncletopia"],"game_id":440,"stv_port":27056,"stv_name":"Uncletopia | London | 5 | All Maps | STV","players":null},{"server_id":22,"name":"Uncletopia | London | 6 | All Maps","name_short":"lon-6","host":"lon-1.uk.uncletopia.com","port":27065,"enabled":true,"region":"eu","cc":"gb","latitude":51.509865,"longitude":-0.118092,"reserved":0,"last_update":"0001-01-01T00:00:00Z","name_a2s":"Uncletopia | London | 6 | All Maps","protocol":17,"map":"cp_snakewater_final1","folder":"tf","game":"Team Fortress","app_id":440,"player_count":4,"max_players":24,"Bots":0,"server_type":"Dedicated","server_os":"Linux","password":true,"vac":true,"version":"7961495","steam_id":85568392924742830,"keywords":["cp","nocrits","nodmgspread","uncletopia"],"game_id":440,"stv_port":27066,"stv_name":"Uncletopia | London | 6 | All Maps | STV","players":[{"user_id":9,"name":"CheezusOfNazareth","steam_id":76561199093893813,"connected_time":1525000000000,"state":"active","ping":55},{"user_id":6,"name":"sraded","steam_id":76561199129675615,"connected_time":1596000000000,"state":"active","ping":53},{"user_id":7,"name":"Dragonknight","steam_id":76561198080527208,"connected_time":1581000000000,"state":"active","ping":53},{"user_id":8,"name":"ProSlayer77","steam_id":76561199435273618,"connected_time":1577000000000,"state":"active","ping":45}]},{"server_id":40,"name":"Uncletopia | London | 7 | Stopwatch","name_short":"lon-7","host":"lon-1.uk.uncletopia.com","port":27075,"enabled":true,"region":"eu","cc":"gb","latitude":51.509865,"longitude":-0.118092,"reserved":0,"last_update":"0001-01-01T00:00:00Z","name_a2s":"Uncletopia | London | 7 | Stopwatch","protocol":17,"map":"workshop/pl_badwater_pro_v12.ugc2142942074","folder":"tf","game":"Team Fortress","app_id":440,"player_count":0,"max_players":24,"Bots":0,"server_type":"Dedicated","server_os":"Linux","password":true,"vac":true,"version":"7961495","steam_id":85568392924964314,"keywords":["nocrits","nodmgspread","payload","uncletopia"],"game_id":440,"stv_port":27076,"stv_name":"Uncletopia | London | 7 | Stopwatch | STV","players":null},{"server_id":41,"name":"Uncletopia | London | 8 | Community","name_short":"lon-8","host":"lon-1.uk.uncletopia.com","port":27085,"enabled":true,"region":"eu","cc":"gb","latitude":51.509865,"longitude":-0.118092,"reserved":0,"last_update":"0001-01-01T00:00:00Z","name_a2s":"Uncletopia | London | 8 | Community","protocol":17,"map":"workshop/cp_glassworks_rc7a.ugc454118349","folder":"tf","game":"Team Fortress","app_id":440,"player_count":0,"max_players":24,"Bots":0,"server_type":"Dedicated","server_os":"Linux","password":true,"vac":true,"version":"7961495","steam_id":85568392924964315,"keywords":["cp","nocrits","nodmgspread","uncletopia"],"game_id":440,"stv_port":27086,"stv_name":"Uncletopia | London | 8 | Community | STV","players":null},{"server_id":300,"name":"Uncletopia | Montréal | 1 | One Thousand Uncles","name_short":"mtl-1","host":"mtl-1.ca.uncletopia.com","port":27015,"enabled":true,"region":"us-east","cc":"ca","latitude":45.50889,"longitude":-73.56167,"reserved":0,"last_update":"0001-01-01T00:00:00Z","name_a2s":"Uncletopia | Montréal | 1 | One Thousand Uncles","protocol":17,"map":"pl_hoodoo_final","folder":"tf","game":"Team Fortress","app_id":440,"player_count":23,"max_players":32,"Bots":16,"server_type":"Dedicated","server_os":"Linux","password":true,"vac":true,"version":"7961495","steam_id":85568392924500087,"keywords":["alltalk","bots","danepve","increased_maxplayers","norespawntime","payload","uncletopia"],"game_id":440,"stv_port":0,"stv_name":"","players":[{"user_id":59,"name":"teoisaverycoolguy","steam_id":76561199434109034,"connected_time":4373000000000,"state":"active","ping":158},{"user_id":96,"name":"M.C.Mcmuffins","steam_id":76561198068225535,"connected_time":2950000000000,"state":"active","ping":121},{"user_id":94,"name":"Kazuma Yagami","steam_id":76561199044812516,"connected_time":3810000000000,"state":"active","ping":59},{"user_id":97,"name":"Hoovy Bear","steam_id":76561198168814192,"connected_time":2903000000000,"state":"active","ping":122},{"user_id":99,"name":"robo_xeque","steam_id":76561199467536524,"connected_time":2241000000000,"state":"active","ping":162},{"user_id":100,"name":"colorblindwizardlvl5","steam_id":76561199208988804,"connected_time":2160000000000,"state":"active","ping":63},{"user_id":102,"name":"YOU ARE S L E E P Y","steam_id":76561198133858463,"connected_time":388000000000,"state":"active","ping":60}]},{"server_id":301,"name":"Uncletopia | Montréal | 2 | One Thousand Uncles","name_short":"mtl-2","host":"mtl-1.ca.uncletopia.com","port":27025,"enabled":true,"region":"us-east","cc":"ca","latitude":45.50889,"longitude":-73.56167,"reserved":0,"last_update":"0001-01-01T00:00:00Z","name_a2s":"Uncletopia | Montréal | 2 | One Thousand Uncles","protocol":17,"map":"pl_chilly","folder":"tf","game":"Team Fortress","app_id":440,"player_count":0,"max_players":32,"Bots":0,"server_type":"Dedicated","server_os":"Linux","password":true,"vac":true,"version":"7961495","steam_id":85568392924500088,"keywords":["alltalk","danepve","increased_maxplayers","norespawntime","payload","uncletopia"],"game_id":440,"stv_port":0,"stv_name":"","players":null},{"server_id":302,"name":"Uncletopia | Montréal | 3 | One Thousand Uncles","name_short":"mtl-3","host":"mtl-1.ca.uncletopia.com","port":27035,"enabled":true,"region":"us-east","cc":"ca","latitude":45.50889,"longitude":-73.56167,"reserved":0,"last_update":"0001-01-01T00:00:00Z","name_a2s":"Uncletopia | Montréal | 3 | One Thousand Uncles","protocol":17,"map":"pl_upward","folder":"tf","game":"Team Fortress","app_id":440,"player_count":0,"max_players":32,"Bots":0,"server_type":"Dedicated","server_os":"Linux","password":true,"vac":true,"version":"7961495","steam_id":85568392924500089,"keywords":["alltalk","danepve","increased_maxplayers","norespawntime","payload","uncletopia"],"game_id":440,"stv_port":0,"stv_name":"","players":null},{"server_id":13,"name":"Uncletopia | New York City | 1 | All Maps","name_short":"nyc-1","host":"nyc-1.us.uncletopia.com","port":27015,"enabled":true,"region":"us-east","cc":"us","latitude":40.73061,"longitude":-73.93524,"reserved":0,"last_update":"0001-01-01T00:00:00Z","name_a2s":"Uncletopia | New York City | 1 | All Maps","protocol":17,"map":"koth_cascade","folder":"tf","game":"Team Fortress","app_id":440,"player_count":0,"max_players":24,"Bots":0,"server_type":"Dedicated","server_os":"Linux","password":true,"vac":true,"version":"7961495","steam_id":85568392924469993,"keywords":["cp","nocrits","nodmgspread","uncletopia"],"game_id":440,"stv_port":27016,"stv_name":"Uncletopia | New York City | 1 | All Maps | STV","players":null},{"server_id":14,"name":"Uncletopia | New York City | 2 | All Maps","name_short":"nyc-2","host":"nyc-1.us.uncletopia.com","port":27025,"enabled":true,"region":"us-east","cc":"us","latitude":40.73061,"longitude":-73.93524,"reserved":0,"last_update":"0001-01-01T00:00:00Z","name_a2s":"Uncletopia | New York City | 2 | All Maps","protocol":17,"map":"koth_cascade","folder":"tf","game":"Team Fortress","app_id":440,"player_count":0,"max_players":24,"Bots":0,"server_type":"Dedicated","server_os":"Linux","password":true,"vac":true,"version":"7961495","steam_id":85568392924469994,"keywords":["cp","nocrits","nodmgspread","uncletopia"],"game_id":440,"stv_port":27026,"stv_name":"Uncletopia | New York City | 2 | All Maps | STV","players":null},{"server_id":15,"name":"Uncletopia | New York City | 3 | Stopwatch","name_short":"nyc-3","host":"nyc-1.us.uncletopia.com","port":27035,"enabled":true,"region":"us-east","cc":"us","latitude":40.73061,"longitude":-73.93524,"reserved":0,"last_update":"0001-01-01T00:00:00Z","name_a2s":"Uncletopia | New York City | 3 | Stopwatch","protocol":17,"map":"workshop/cp_reckoner_rc6.ugc674719999","folder":"tf","game":"Team Fortress","app_id":440,"player_count":0,"max_players":24,"Bots":0,"server_type":"Dedicated","server_os":"Linux","password":true,"vac":true,"version":"7961495","steam_id":85568392924742820,"keywords":["cp","nocrits","nodmgspread","uncletopia"],"game_id":440,"stv_port":27036,"stv_name":"Uncletopia | New York City | 3 | Stopwatch | STV","players":null},{"server_id":16,"name":"Uncletopia | New York City | 4 | Community","name_short":"nyc-4","host":"nyc-1.us.uncletopia.com","port":27045,"enabled":true,"region":"us-east","cc":"us","latitude":40.73061,"longitude":-73.93524,"reserved":0,"last_update":"0001-01-01T00:00:00Z","name_a2s":"Uncletopia | New York City | 4 | Community","protocol":17,"map":"workshop/cp_indulge.ugc528106646","folder":"tf","game":"Team Fortress","app_id":440,"player_count":0,"max_players":24,"Bots":0,"server_type":"Dedicated","server_os":"Linux","password":true,"vac":true,"version":"7961495","steam_id":85568392924742821,"keywords":["cp","nocrits","nodmgspread","uncletopia"],"game_id":440,"stv_port":27046,"stv_name":"Uncletopia | New York City | 4 | Community | STV","players":null},{"server_id":142,"name":"Uncletopia | São Paulo | 1 | All Maps","name_short":"sao-1","host":"sao-1.br.uncletopia.com","port":27015,"enabled":true,"region":"sa","cc":"br","latitude":-23.533773,"longitude":-46.62529,"reserved":0,"last_update":"0001-01-01T00:00:00Z","name_a2s":"Uncletopia | São Paulo | 1 | All Maps","protocol":17,"map":"pl_upward","folder":"tf","game":"Team Fortress","app_id":440,"player_count":0,"max_players":24,"Bots":0,"server_type":"Dedicated","server_os":"Linux","password":true,"vac":true,"version":"7961495","steam_id":85568392924469996,"keywords":["nocrits","nodmgspread","payload","uncletopia"],"game_id":440,"stv_port":27016,"stv_name":"Uncletopia | São Paulo | 1 | All Maps | STV","players":null},{"server_id":143,"name":"Uncletopia | São Paulo | 2 | Community","name_short":"sao-2","host":"sao-2.br.uncletopia.com","port":27015,"enabled":true,"region":"sa","cc":"br","latitude":-23.533773,"longitude":-46.62529,"reserved":0,"last_update":"0001-01-01T00:00:00Z","name_a2s":"Uncletopia | São Paulo | 2 | Community","protocol":17,"map":"workshop/cp_croissant_final.ugc458840209","folder":"tf","game":"Team Fortress","app_id":440,"player_count":0,"max_players":24,"Bots":0,"server_type":"Dedicated","server_os":"Linux","password":true,"vac":true,"version":"7961495","steam_id":85568392924485349,"keywords":["cp","nocrits","nodmgspread","uncletopia"],"game_id":440,"stv_port":27016,"stv_name":"Uncletopia | São Paulo | 2 | Community | STV","players":null},{"server_id":7,"name":"Uncletopia | Seattle | 1 | All Maps","name_short":"sea-1","host":"sea-1.us.uncletopia.com","port":27015,"enabled":true,"region":"us-west","cc":"us","latitude":47.608013,"longitude":-122.33517,"reserved":0,"last_update":"0001-01-01T00:00:00Z","name_a2s":"Uncletopia | Seattle | 1 | All Maps","protocol":17,"map":"pl_upward","folder":"tf","game":"Team Fortress","app_id":440,"player_count":24,"max_players":24,"Bots":0,"server_type":"Dedicated","server_os":"Linux","password":true,"vac":true,"version":"7961495","steam_id":85568392924469997,"keywords":["nocrits","nodmgspread","payload","uncletopia"],"game_id":440,"stv_port":27016,"stv_name":"Uncletopia | Seattle | 1 | All Maps | STV","players":[{"user_id":28,"name":"SibilantSerpent","steam_id":76561198154488754,"connected_time":1274000000000,"state":"active","ping":44},{"user_id":19,"name":"Muscle Man","steam_id":76561198248325252,"connected_time":1991000000000,"state":"active","ping":75},{"user_id":29,"name":"Furry Femboy Hooters CEO","steam_id":76561198097745857,"connected_time":1182000000000,"state":"active","ping":58},{"user_id":42,"name":"Agent Cody Banks","steam_id":76561198071531611,"connected_time":624000000000,"state":"active","ping":65},{"user_id":38,"name":"Lucas","steam_id":76561198399704604,"connected_time":807000000000,"state":"active","ping":67},{"user_id":30,"name":"meszaros1293","steam_id":76561198168201600,"connected_time":1074000000000,"state":"active","ping":85},{"user_id":31,"name":"kn0n","steam_id":76561198249172818,"connected_time":1063000000000,"state":"active","ping":97},{"user_id":39,"name":"Napkin","steam_id":76561198148083449,"connected_time":722000000000,"state":"active","ping":80},{"user_id":32,"name":"The Gremlin","steam_id":76561198419066993,"connected_time":967000000000,"state":"active","ping":55},{"user_id":20,"name":"Confirmed Bachelor","steam_id":76561198441041496,"connected_time":1921000000000,"state":"active","ping":45},{"user_id":52,"name":"[TrC] Dackstrus","steam_id":76561197973518509,"connected_time":209000000000,"state":"active","ping":40},{"user_id":17,"name":"Windows Vista Home Premium","steam_id":76561198043764863,"connected_time":2155000000000,"state":"active","ping":63},{"user_id":45,"name":"Tardigrada","steam_id":76561198038936691,"connected_time":432000000000,"state":"active","ping":45},{"user_id":22,"name":"John Arbuckle gaming","steam_id":76561199061503351,"connected_time":1651000000000,"state":"active","ping":86},{"user_id":34,"name":"🅜🅔🅔🅚🅢🅣🅔\ufffd\ufffd\ufffd","steam_id":76561197999748343,"connected_time":904000000000,"state":"active","ping":102},{"user_id":35,"name":"alexander the just ok","steam_id":76561199256886895,"connected_time":895000000000,"state":"active","ping":98},{"user_id":25,"name":"Trips","steam_id":76561198054581597,"connected_time":1338000000000,"state":"active","ping":64},{"user_id":40,"name":"BLITZ","steam_id":76561198980779200,"connected_time":713000000000,"state":"active","ping":70},{"user_id":36,"name":"Weegee","steam_id":76561198140095755,"connected_time":858000000000,"state":"active","ping":82},{"user_id":41,"name":"kfc rat","steam_id":76561199055105944,"connected_time":700000000000,"state":"active","ping":106},{"user_id":43,"name":"Acro","steam_id":76561198092451804,"connected_time":616000000000,"state":"active","ping":127},{"user_id":50,"name":"Hovg9000","steam_id":76561199191556710,"connected_time":278000000000,"state":"active","ping":92},{"user_id":51,"name":"Googas","steam_id":76561198928471317,"connected_time":259000000000,"state":"active","ping":69},{"user_id":53,"name":"Functional Progaming","steam_id":76561198032310210,"connected_time":209000000000,"state":"active","ping":109}]},{"server_id":119,"name":"Uncletopia | Seattle | 2 | All Maps","name_short":"sea-2","host":"sea-1.us.uncletopia.com","port":27025,"enabled":true,"region":"us-west","cc":"us","latitude":47.608013,"longitude":-122.33517,"reserved":0,"last_update":"0001-01-01T00:00:00Z","name_a2s":"Uncletopia | Seattle | 2 | All Maps","protocol":17,"map":"koth_lakeside_final","folder":"tf","game":"Team Fortress","app_id":440,"player_count":0,"max_players":24,"Bots":0,"server_type":"Dedicated","server_os":"Linux","password":true,"vac":true,"version":"7961495","steam_id":85568392924469998,"keywords":["cp","nocrits","nodmgspread","uncletopia"],"game_id":440,"stv_port":27026,"stv_name":"Uncletopia | Seattle | 2 | All Maps | STV","players":null},{"server_id":406,"name":"Uncletopia | Seattle | 3 | Stopwatch","name_short":"sea-3","host":"sea-1.us.uncletopia.com","port":27035,"enabled":true,"region":"us-west","cc":"us","latitude":47.608013,"longitude":-122.33517,"reserved":0,"last_update":"0001-01-01T00:00:00Z","name_a2s":"Uncletopia | Seattle | 3 | Stopwatch","protocol":17,"map":"cp_gullywash_final1","folder":"tf","game":"Team Fortress","app_id":440,"player_count":0,"max_players":24,"Bots":0,"server_type":"Dedicated","server_os":"Linux","password":true,"vac":true,"version":"7961495","steam_id":85568392924515217,"keywords":["cp","nocrits","nodmgspread","uncletopia"],"game_id":440,"stv_port":27036,"stv_name":"Uncletopia | Seattle | 3 | Stopwatch | STV","players":null},{"server_id":17,"name":"Uncletopia | San Francisco | 1 | All Maps","name_short":"sfo-1","host":"sfo-1.us.uncletopia.com","port":27015,"enabled":true,"region":"us-west","cc":"us","latitude":37.77397,"longitude":-122.4313,"reserved":0,"last_update":"0001-01-01T00:00:00Z","name_a2s":"Uncletopia | San Francisco | 1 | All Maps","protocol":17,"map":"cp_altitude","folder":"tf","game":"Team Fortress","app_id":440,"player_count":0,"max_players":24,"Bots":0,"server_type":"Dedicated","server_os":"Linux","password":true,"vac":true,"version":"7961495","steam_id":85568392924469999,"keywords":["cp","nocrits","nodmgspread","uncletopia"],"game_id":440,"stv_port":27016,"stv_name":"Uncletopia | San Francisco | 1 | All Maps | STV","players":null},{"server_id":18,"name":"Uncletopia | San Francisco | 2 | All Maps","name_short":"sfo-2","host":"sfo-1.us.uncletopia.com","port":27025,"enabled":true,"region":"us-west","cc":"us","latitude":37.77397,"longitude":-122.4313,"reserved":0,"last_update":"0001-01-01T00:00:00Z","name_a2s":"Uncletopia | San Francisco | 2 | All Maps","protocol":17,"map":"cp_freight_final1","folder":"tf","game":"Team Fortress","app_id":440,"player_count":0,"max_players":24,"Bots":0,"server_type":"Dedicated","server_os":"Linux","password":true,"vac":true,"version":"7961495","steam_id":85568392924470000,"keywords":["cp","nocrits","nodmgspread","uncletopia"],"game_id":440,"stv_port":27026,"stv_name":"Uncletopia | San Francisco | 2 | All Maps | STV","players":null},{"server_id":19,"name":"Uncletopia | San Francisco | 3 | Stopwatch","name_short":"sfo-3","host":"sfo-1.us.uncletopia.com","port":27035,"enabled":true,"region":"us-west","cc":"us","latitude":37.77397,"longitude":-122.4313,"reserved":0,"last_update":"0001-01-01T00:00:00Z","name_a2s":"Uncletopia | San Francisco | 3 | Stopwatch","protocol":17,"map":"workshop/koth_product_final.ugc454272353","folder":"tf","game":"Team Fortress","app_id":440,"player_count":0,"max_players":24,"Bots":0,"server_type":"Dedicated","server_os":"Linux","password":true,"vac":true,"version":"7961495","steam_id":85568392924742824,"keywords":["cp","nocrits","nodmgspread","uncletopia"],"game_id":440,"stv_port":27036,"stv_name":"Uncletopia | San Francisco | 3 | Stopwatch | STV","players":null},{"server_id":20,"name":"Uncletopia | San Francisco | 4 | Community","name_short":"sfo-4","host":"sfo-1.us.uncletopia.com","port":27045,"enabled":true,"region":"us-west","cc":"us","latitude":37.77397,"longitude":-122.4313,"reserved":0,"last_update":"0001-01-01T00:00:00Z","name_a2s":"Uncletopia | San Francisco | 4 | Community","protocol":17,"map":"workshop/koth_slaughter_rc1.ugc1712845210","folder":"tf","game":"Team Fortress","app_id":440,"player_count":0,"max_players":24,"Bots":0,"server_type":"Dedicated","server_os":"Linux","password":true,"vac":true,"version":"7961495","steam_id":85568392924742826,"keywords":["cp","nocrits","nodmgspread","uncletopia"],"game_id":440,"stv_port":27046,"stv_name":"Uncletopia | San Francisco | 4 | Community | STV","players":null},{"server_id":141,"name":"Uncletopia | Sydney | 1 | All Maps","name_short":"syd-1","host":"syd-1.au.uncletopia.com","port":27015,"enabled":true,"region":"au","cc":"au","latitude":-33.865143,"longitude":151.2099,"reserved":0,"last_update":"0001-01-01T00:00:00Z","name_a2s":"Uncletopia | Sydney | 1 | All Maps","protocol":17,"map":"koth_lakeside_final","folder":"tf","game":"Team Fortress","app_id":440,"player_count":0,"max_players":24,"Bots":0,"server_type":"Dedicated","server_os":"Linux","password":true,"vac":true,"version":"7961495","steam_id":85568392924470001,"keywords":["cp","nocrits","nodmgspread","uncletopia"],"game_id":440,"stv_port":27016,"stv_name":"Uncletopia | Sydney | 1 | All Maps | STV","players":null},{"server_id":123,"name":"Uncletopia | Sydney | 2 | All Maps","name_short":"syd-2","host":"syd-1.au.uncletopia.com","port":27025,"enabled":true,"region":"au","cc":"au","latitude":-33.865143,"longitude":151.2099,"reserved":0,"last_update":"0001-01-01T00:00:00Z","name_a2s":"Uncletopia | Sydney | 2 | All Maps","protocol":17,"map":"pl_pier","folder":"tf","game":"Team Fortress","app_id":440,"player_count":0,"max_players":24,"Bots":0,"server_type":"Dedicated","server_os":"Linux","password":true,"vac":true,"version":"7961495","steam_id":85568392924470002,"keywords":["nocrits","nodmgspread","payload","uncletopia"],"game_id":440,"stv_port":27026,"stv_name":"Uncletopia | Sydney | 2 | All Maps | STV","players":null},{"server_id":395,"name":"Uncletopia | Sydney | 3 | All Maps","name_short":"syd-3","host":"syd-1.au.uncletopia.com","port":27035,"enabled":true,"region":"au","cc":"au","latitude":-33.865143,"longitude":151.2099,"reserved":0,"last_update":"0001-01-01T00:00:00Z","name_a2s":"Uncletopia | Sydney | 3 | All Maps","protocol":17,"map":"pl_frontier_final","folder":"tf","game":"Team Fortress","app_id":440,"player_count":0,"max_players":24,"Bots":0,"server_type":"Dedicated","server_os":"Linux","password":true,"vac":true,"version":"7961495","steam_id":85568392925194467,"keywords":["nocrits","nodmgspread","payload","uncletopia"],"game_id":440,"stv_port":27036,"stv_name":"Uncletopia | Sydney | 3 | All Maps | STV","players":null},{"server_id":396,"name":"Uncletopia | Sydney | 4 | All Maps","name_short":"syd-4","host":"syd-1.au.uncletopia.com","port":27045,"enabled":true,"region":"au","cc":"au","latitude":-33.865143,"longitude":151.2099,"reserved":0,"last_update":"0001-01-01T00:00:00Z","name_a2s":"Uncletopia | Sydney | 4 | All Maps","protocol":17,"map":"cp_dustbowl","folder":"tf","game":"Team Fortress","app_id":440,"player_count":0,"max_players":24,"Bots":0,"server_type":"Dedicated","server_os":"Linux","password":true,"vac":true,"version":"7961495","steam_id":85568392925397958,"keywords":["cp","nocrits","nodmgspread","uncletopia"],"game_id":440,"stv_port":27046,"stv_name":"Uncletopia | Sydney | 4 | All Maps | STV","players":null},{"server_id":58,"name":"Uncletopia | Sydney | 5 | Stopwatch","name_short":"syd-5","host":"syd-1.au.uncletopia.com","port":27055,"enabled":true,"region":"au","cc":"au","latitude":-33.865143,"longitude":151.2099,"reserved":0,"last_update":"0001-01-01T00:00:00Z","name_a2s":"Uncletopia | Sydney | 5 | Stopwatch","protocol":17,"map":"workshop/pl_badwater_pro_v12.ugc2142942074","folder":"tf","game":"Team Fortress","app_id":440,"player_count":0,"max_players":24,"Bots":0,"server_type":"Dedicated","server_os":"Linux","password":true,"vac":true,"version":"7961495","steam_id":85568392925397959,"keywords":["nocrits","nodmgspread","payload","uncletopia"],"game_id":440,"stv_port":27056,"stv_name":"Uncletopia | Sydney | 5 | Stopwatch | STV","players":null},{"server_id":59,"name":"Uncletopia | Sydney | 6 | Community","name_short":"syd-6","host":"syd-1.au.uncletopia.com","port":27065,"enabled":true,"region":"au","cc":"au","latitude":-33.865143,"longitude":151.2099,"reserved":0,"last_update":"0001-01-01T00:00:00Z","name_a2s":"Uncletopia | Sydney | 6 | Community","protocol":17,"map":"workshop/pl_shoreleave_rc2.ugc1238849347","folder":"tf","game":"Team Fortress","app_id":440,"player_count":0,"max_players":24,"Bots":0,"server_type":"Dedicated","server_os":"Linux","password":true,"vac":true,"version":"7961495","steam_id":85568392925397960,"keywords":["nocrits","nodmgspread","payload","uncletopia"],"game_id":440,"stv_port":27066,"stv_name":"Uncletopia | Sydney | 6 | Community | STV","players":null},{"server_id":49,"name":"Uncletopia | Warsaw | 1 | One Thousand Uncles","name_short":"waw-1","host":"waw-1.pl.uncletopia.com","port":27015,"enabled":true,"region":"eu","cc":"pl","latitude":52.2297,"longitude":21.017532,"reserved":0,"last_update":"0001-01-01T00:00:00Z","name_a2s":"Uncletopia | Warsaw | 1 | One Thousand Uncles","protocol":17,"map":"pl_badwater","folder":"tf","game":"Team Fortress","app_id":440,"player_count":28,"max_players":32,"Bots":16,"server_type":"Dedicated","server_os":"Linux","password":true,"vac":true,"version":"7961495","steam_id":85568392925397850,"keywords":["alltalk","bots","danepve","increased_maxplayers","norespawntime","payload","uncletopia"],"game_id":440,"stv_port":0,"stv_name":"","players":[{"user_id":490,"name":"foxi","steam_id":76561199153348044,"connected_time":696000000000,"state":"active","ping":122},{"user_id":491,"name":"illone121","steam_id":76561199438915375,"connected_time":657000000000,"state":"active","ping":36},{"user_id":487,"name":"Tispy","steam_id":76561199207410049,"connected_time":966000000000,"state":"active","ping":108},{"user_id":401,"name":"✪✪Maryky✪✪","steam_id":76561198184672426,"connected_time":6861000000000,"state":"active","ping":72},{"user_id":469,"name":"B3N0Ne_","steam_id":76561198918059650,"connected_time":1311000000000,"state":"active","ping":118},{"user_id":467,"name":"D4RKERX","steam_id":76561198060537403,"connected_time":2121000000000,"state":"active","ping":240},{"user_id":465,"name":"StAcH from PoLaNd","steam_id":76561199010894745,"connected_time":2383000000000,"state":"active","ping":78},{"user_id":468,"name":"MZ","steam_id":76561199161046583,"connected_time":2029000000000,"state":"active","ping":193},{"user_id":493,"name":"HueJazz","steam_id":76561198168125993,"connected_time":418000000000,"state":"active","ping":47},{"user_id":497,"name":"Flying skyhigh","steam_id":76561198372971096,"connected_time":92000000000,"state":"active","ping":101},{"user_id":494,"name":"[1VS23] BAKELITE","steam_id":76561198190816499,"connected_time":414000000000,"state":"active","ping":57},{"user_id":444,"name":"MrHenry","steam_id":76561199249662743,"connected_time":3629000000000,"state":"active","ping":150}]},{"server_id":50,"name":"Uncletopia | Warsaw | 2 | One Thousand Uncles","name_short":"waw-2","host":"waw-1.pl.uncletopia.com","port":27025,"enabled":true,"region":"eu","cc":"pl","latitude":52.2297,"longitude":21.017532,"reserved":0,"last_update":"0001-01-01T00:00:00Z","name_a2s":"Uncletopia | Warsaw | 2 | One Thousand Uncles","protocol":17,"map":"cp_egypt_final","folder":"tf","game":"Team Fortress","app_id":440,"player_count":17,"max_players":32,"Bots":16,"server_type":"Dedicated","server_os":"Linux","password":true,"vac":true,"version":"7961495","steam_id":85568392925397851,"keywords":["alltalk","bots","cp","danepve","increased_maxplayers","norespawntime","uncletopia"],"game_id":440,"stv_port":0,"stv_name":"","players":[{"user_id":78,"name":"mihaiandreiaura","steam_id":76561198930688023,"connected_time":1291000000000,"state":"active","ping":89}]},{"server_id":51,"name":"Uncletopia | Warsaw | 3 | All Maps","name_short":"waw-3","host":"waw-1.pl.uncletopia.com","port":27035,"enabled":true,"region":"eu","cc":"pl","latitude":52.2297,"longitude":21.017532,"reserved":0,"last_update":"0001-01-01T00:00:00Z","name_a2s":"Uncletopia | Warsaw | 3 | All Maps","protocol":17,"map":"koth_viaduct","folder":"tf","game":"Team Fortress","app_id":440,"player_count":0,"max_players":24,"Bots":0,"server_type":"Dedicated","server_os":"Linux","password":true,"vac":true,"version":"7961495","steam_id":85568392925397852,"keywords":["cp","nocrits","nodmgspread","uncletopia"],"game_id":440,"stv_port":27036,"stv_name":"Uncletopia | Warsaw | 3 | All Maps | STV","players":null},{"server_id":52,"name":"Uncletopia | Warsaw | 4 | All Maps","name_short":"waw-4","host":"waw-1.pl.uncletopia.com","port":27045,"enabled":true,"region":"eu","cc":"pl","latitude":52.2297,"longitude":21.017532,"reserved":0,"last_update":"0001-01-01T00:00:00Z","name_a2s":"Uncletopia | Warsaw | 4 | All Maps","protocol":17,"map":"cp_altitude","folder":"tf","game":"Team Fortress","app_id":440,"player_count":0,"max_players":24,"Bots":0,"server_type":"Dedicated","server_os":"Linux","password":true,"vac":true,"version":"7961495","steam_id":85568392925397853,"keywords":["cp","nocrits","nodmgspread","uncletopia"],"game_id":440,"stv_port":27046,"stv_name":"Uncletopia | Warsaw | 4 | All Maps | STV","players":null},{"server_id":53,"name":"Uncletopia | Warsaw | 5 | Stopwatch","name_short":"waw-5","host":"waw-1.pl.uncletopia.com","port":27055,"enabled":true,"region":"eu","cc":"pl","latitude":52.2297,"longitude":21.017532,"reserved":0,"last_update":"0001-01-01T00:00:00Z","name_a2s":"Uncletopia | Warsaw | 5 | Stopwatch","protocol":17,"map":"workshop/pl_vigil_rc10.ugc1266210012","folder":"tf","game":"Team Fortress","app_id":440,"player_count":0,"max_players":24,"Bots":0,"server_type":"Dedicated","server_os":"Linux","password":true,"vac":true,"version":"7961495","steam_id":85568392925397854,"keywords":["nocrits","nodmgspread","payload","uncletopia"],"game_id":440,"stv_port":27056,"stv_name":"Uncletopia | Warsaw | 5 | Stopwatch | STV","players":null},{"server_id":54,"name":"Uncletopia | Warsaw | 6 | Community","name_short":"waw-6","host":"waw-1.pl.uncletopia.com","port":27065,"enabled":true,"region":"eu","cc":"pl","latitude":52.2297,"longitude":21.017532,"reserved":0,"last_update":"0001-01-01T00:00:00Z","name_a2s":"Uncletopia | Warsaw | 6 | Community","protocol":17,"map":"workshop/cp_fulgur_rc2a.ugc2068252300","folder":"tf","game":"Team Fortress","app_id":440,"player_count":0,"max_players":24,"Bots":0,"server_type":"Dedicated","server_os":"Linux","password":true,"vac":true,"version":"7961495","steam_id":85568392925397856,"keywords":["cp","nocrits","nodmgspread","uncletopia"],"game_id":440,"stv_port":27066,"stv_name":"Uncletopia | Warsaw | 6 | Community | STV","players":null}]}