{"status":true,"message":"","result":[{"server_id":9,"name":"Uncletopia | Atlanta | 1 | All Maps","name_short":"atl-1","host":"atl-1.us.uncletopia.com","port":27015,"enabled":true,"region":"us-east","cc":"us","latitude":33.753746,"longitude":-84.38633,"reserved":0,"last_update":"0001-01-01T00:00:00Z","name_a2s":"Uncletopia | Atlanta | 1 | All Maps","protocol":17,"map":"pl_swiftwater_final1","folder":"tf","game":"Team Fortress","app_id":440,"player_count":0,"max_players":24,"Bots":0,"server_type":"Dedicated","server_os":"Linux","password":true,"vac":true,"version":"7757534","steam_id":85568392924469982,"keywords":["nocrits","nodmgspread","payload","uncletopia"],"game_id":440,"stv_port":27016,"stv_name":"Uncletopia | Atlanta | 1 | All Maps | STV","players":null},{"server_id":104,"name":"Uncletopia | Atlanta | 2 | All Maps","name_short":"atl-2","host":"atl-1.us.uncletopia.com","port":27025,"enabled":true,"region":"us-east","cc":"us","latitude":33.753746,"longitude":-84.38633,"reserved":0,"last_update":"0001-01-01T00:00:00Z","name_a2s":"Uncletopia | Atlanta | 2 | All Maps","protocol":17,"map":"pl_barnblitz","folder":"tf","game":"Team Fortress","app_id":440,"player_count":21,"max_players":24,"Bots":0,"server_type":"Dedicated","server_os":"Linux","password":true,"vac":true,"version":"7757534","steam_id":85568392924469983,"keywords":["nocrits","nodmgspread","payload","uncletopia"],"game_id":440,"stv_port":27026,"stv_name":"Uncletopia | Atlanta | 2 | All Maps | STV","players":[{"user_id":846,"name":"raya","steam_id":76561198051504581,"connected_time":6109000000000,"state":"active","ping":76},{"user_id":889,"name":"Intestinal Straw","steam_id":76561198082095303,"connected_time":1792000000000,"state":"active","ping":69},{"user_id":879,"name":"Onyx","steam_id":76561198275349640,"connected_time":2882000000000,"state":"active","ping":73},{"user_id":903,"name":"rando","steam_id":76561198093506296,"connected_time":1057000000000,"state":"active","ping":70},{"user_id":917,"name":"Glim Glam","steam_id":76561198043111286,"connected_time":106000000000,"state":"active","ping":58},{"user_id":918,"name":"Luca!","steam_id":76561198137880777,"connected_time":87000000000,"state":"active","ping":88},{"user_id":858,"name":"cook","steam_id":76561198090531755,"connected_time":4925000000000,"state":"active","ping":75},{"user_id":906,"name":"*****setget","steam_id":76561198118824188,"connected_time":639000000000,"state":"active","ping":100},{"user_id":838,"name":"SIGMA [BS]","steam_id":76561197962604879,"connected_time":6921000000000,"state":"active","ping":69},{"user_id":910,"name":"CreativeUsername","steam_id":76561198186045503,"connected_time":385000000000,"state":"active","ping":67},{"user_id":912,"name":"Rat_king","steam_id":76561199465689129,"connected_time":314000000000,"state":"active","ping":68},{"user_id":909,"name":"robsan","steam_id":76561198137375391,"connected_time":555000000000,"state":"active","ping":165},{"user_id":819,"name":"Faraday","steam_id":76561198089928357,"connected_time":8588000000000,"state":"active","ping":73},{"user_id":873,"name":"Victor Crespo","steam_id":76561197996389261,"connected_time":3745000000000,"state":"active","ping":174},{"user_id":900,"name":"GamingAmongus","steam_id":76561198365133371,"connected_time":1358000000000,"state":"active","ping":88},{"user_id":913,"name":"badboy6996","steam_id":76561197969386201,"connected_time":251000000000,"state":"active","ping":75},{"user_id":914,"name":"yomommasabitch","steam_id":76561198323217150,"connected_time":244000000000,"state":"active","ping":58},{"user_id":890,"name":"Sober Accident Statistics","steam_id":76561198307516731,"connected_time":1792000000000,"state":"active","ping":131},{"user_id":901,"name":"[DEEP]able","steam_id":76561198292552182,"connected_time":1299000000000,"state":"active","ping":67},{"user_id":868,"name":"Wumps","steam_id":76561198207226825,"connected_time":4129000000000,"state":"active","ping":60},{"user_id":916,"name":"GOT DA STRAP ON ME #NOLESBO","steam_id":76561198144766439,"connected_time":234000000000,"state":"active","ping":60}]},{"server_id":400,"name":"Uncletopia | Atlanta | 3 | Community","name_short":"atl-3","host":"atl-1.us.uncletopia.com","port":27035,"enabled":true,"region":"us-east","cc":"us","latitude":33.753746,"longitude":-84.38633,"reserved":0,"last_update":"0001-01-01T00:00:00Z","name_a2s":"Uncletopia | Atlanta | 3 | Community","protocol":17,"map":"workshop/pl_highwood_b13.ugc1769496557","folder":"tf","game":"Team Fortress","app_id":440,"player_count":0,"max_players":24,"Bots":0,"server_type":"Dedicated","server_os":"Linux","password":true,"vac":true,"version":"7757534","steam_id":85568392924515187,"keywords":["nocrits","nodmgspread","payload","uncletopia"],"game_id":440,"stv_port":27036,"stv_name":"Uncletopia | Atlanta | 3 | Community | STV","players":null},{"server_id":401,"name":"Uncletopia | Atlanta | 4 | No Payload","name_short":"atl-4","host":"atl-1.us.uncletopia.com","port":27045,"enabled":true,"region":"us-east","cc":"us","latitude":33.753746,"longitude":-84.38633,"reserved":0,"last_update":"0001-01-01T00:00:00Z","name_a2s":"","protocol":0,"map":"","folder":"","game":"","app_id":0,"player_count":0,"max_players":0,"Bots":0,"server_type":"","server_os":"","password":false,"vac":false,"version":"","steam_id":0,"keywords":null,"game_id":0,"stv_port":0,"stv_name":"","players":null},{"server_id":2,"name":"Uncletopia | Chicago | 1 | All Maps","name_short":"chi-1","host":"chi-1.us.uncletopia.com","port":27015,"enabled":true,"region":"us-central","cc":"us","latitude":41.881832,"longitude":-87.62318,"reserved":0,"last_update":"0001-01-01T00:00:00Z","name_a2s":"Uncletopia | Chicago | 1 | All Maps","protocol":17,"map":"pl_snowycoast","folder":"tf","game":"Team Fortress","app_id":440,"player_count":24,"max_players":24,"Bots":0,"server_type":"Dedicated","server_os":"Linux","password":true,"vac":true,"version":"7757534","steam_id":85568392924469984,"keywords":["nocrits","nodmgspread","payload","uncletopia"],"game_id":440,"stv_port":27016,"stv_name":"Uncletopia | Chicago | 1 | All Maps | STV","players":[{"user_id":1045,"name":"hookerslammer","steam_id":76561198050136796,"connected_time":756000000000,"state":"active","ping":82},{"user_id":1044,"name":"THE MACHO MAN","steam_id":76561198108281423,"connected_time":774000000000,"state":"active","ping":60},{"user_id":1037,"name":"Achy_Blitz","steam_id":76561198090433209,"connected_time":1319000000000,"state":"active","ping":101},{"user_id":1010,"name":"Howard Hamlin","steam_id":76561198881039861,"connected_time":3288000000000,"state":"active","ping":48},{"user_id":1035,"name":"Rust","steam_id":76561198063959574,"connected_time":1349000000000,"state":"active","ping":76},{"user_id":1052,"name":"NewerCoke","steam_id":76561198042911847,"connected_time":552000000000,"state":"active","ping":81},{"user_id":990,"name":"EJ 2 u","steam_id":76561198242738174,"connected_time":4979000000000,"state":"active","ping":52},{"user_id":1053,"name":"Moofins","steam_id":76561198050291949,"connected_time":428000000000,"state":"active","ping":70},{"user_id":1039,"name":"Granlet","steam_id":76561199244312225,"connected_time":1194000000000,"state":"active","ping":99},{"user_id":1046,"name":"lich gaming","steam_id":76561198299094088,"connected_time":743000000000,"state":"active","ping":85},{"user_id":1016,"name":"aaron","steam_id":76561198308883028,"connected_time":3062000000000,"state":"active","ping":110},{"user_id":991,"name":"The Goose","steam_id":76561199006093549,"connected_time":4910000000000,"state":"active","ping":70},{"user_id":1043,"name":"uwuziel","steam_id":76561198143355561,"connected_time":780000000000,"state":"active","ping":61},{"user_id":1047,"name":"Veir≈´ Viseris","steam_id":76561197989857176,"connected_time":723000000000,"state":"active","ping":167},{"user_id":1054,"name":"Ayylmao","steam_id":76561198104780147,"connected_time":364000000000,"state":"active","ping":45},{"user_id":1049,"name":"TF3 Medic gaming","steam_id":76561199053687718,"connected_time":671000000000,"state":"active","ping":110},{"user_id":1050,"name":"BOB_FNF","steam_id":76561199225708555,"connected_time":629000000000,"state":"active","ping":163},{"user_id":1055,"name":"Menlymen","steam_id":76561198046508051,"connected_time":361000000000,"state":"active","ping":74},{"user_id":1056,"name":"abrizzham lincoln","steam_id":76561198319063082,"connected_time":348000000000,"state":"active","ping":59},{"user_id":1011,"name":"Spy Gaming","steam_id":76561198453295613,"connected_time":3287000000000,"state":"active","ping":111},{"user_id":1059,"name":"RoninHL.ttv","steam_id":76561198800028107,"connected_time":243000000000,"state":"active","ping":54},{"user_id":1058,"name":"Bobato Chaps","steam_id":76561198065103552,"connected_time":316000000000,"state":"active","ping":53},{"user_id":1020,"name":"Tobo","steam_id":76561198085846393,"connected_time":2632000000000,"state":"active","ping":99},{"user_id":1060,"name":"mechiimi ‚òÖ","steam_id":76561198321627268,"connected_time":4000000000,"state":"spawning","ping":108}]},{"server_id":106,"name":"Uncletopia | Chicago | 2 | All Maps","name_short":"chi-2","host":"chi-1.us.uncletopia.com","port":27025,"enabled":true,"region":"us-central","cc":"us","latitude":41.881832,"longitude":-87.62318,"reserved":0,"last_update":"0001-01-01T00:00:00Z","name_a2s":"Uncletopia | Chicago | 2 | All Maps","protocol":17,"map":"cp_mountainlab","folder":"tf","game":"Team Fortress","app_id":440,"player_count":0,"max_players":24,"Bots":0,"server_type":"Dedicated","server_os":"Linux","password":true,"vac":true,"version":"7757534","steam_id":85568392924469985,"keywords":["cp","nocrits","nodmgspread","uncletopia"],"game_id":440,"stv_port":27026,"stv_name":"Uncletopia | Chicago | 2 | All Maps | STV","players":null},{"server_id":402,"name":"Uncletopia | Chicago | 3 | All Maps","name_short":"chi-3","host":"chi-1.us.uncletopia.com","port":27035,"enabled":true,"region":"us-central","cc":"us","latitude":41.881832,"longitude":-87.62318,"reserved":0,"last_update":"0001-01-01T00:00:00Z","name_a2s":"Uncletopia | Chicago | 3 | All Maps","protocol":17,"map":"ctf_turbine","folder":"tf","game":"Team Fortress","app_id":440,"player_count":0,"max_players":24,"Bots":0,"server_type":"Dedicated","server_os":"Linux","password":true,"vac":true,"version":"7757534","steam_id":85568392924515191,"keywords":["ctf","nocrits","nodmgspread","uncletopia"],"game_id":440,"stv_port":27036,"stv_name":"Uncletopia | Chicago | 3 | All Maps | STV","players":null},{"server_id":403,"name":"Uncletopia | Chicago | 4 | All Maps","name_short":"chi-4","host":"chi-1.us.uncletopia.com","port":27045,"enabled":true,"region":"us-central","cc":"us","latitude":41.881832,"longitude":-87.62318,"reserved":0,"last_update":"0001-01-01T00:00:00Z","name_a2s":"Uncletopia | Chicago | 4 | All Maps","protocol":17,"map":"pl_barnblitz","folder":"tf","game":"Team Fortress","app_id":440,"player_count":24,"max_players":24,"Bots":0,"server_type":"Dedicated","server_os":"Linux","password":true,"vac":true,"version":"7757534","steam_id":85568392924515193,"keywords":["nocrits","nodmgspread","payload","uncletopia"],"game_id":440,"stv_port":27046,"stv_name":"Uncletopia | Chicago | 4 | All Maps | STV","players":[{"user_id":585,"name":"Vorce","steam_id":76561198998082956,"connected_time":7539000000000,"state":"active","ping":45},{"user_id":596,"name":"Dot.","steam_id":76561198149463984,"connected_time":6945000000000,"state":"active","ping":46},{"user_id":682,"name":"be","steam_id":76561198000824533,"connected_time":7000000000,"state":"active","ping":71},{"user_id":662,"name":"sqwyrm","steam_id":76561198171032997,"connected_time":2544000000000,"state":"active","ping":104},{"user_id":681,"name":"ruin","steam_id":76561199439050550,"connected_time":1018000000000,"state":"active","ping":87},{"user_id":670,"name":"hud_saytext_time 0","steam_id":76561198010327228,"connected_time":2246000000000,"state":"active","ping":164},{"user_id":679,"name":"perkaperkins","steam_id":76561198870734551,"connected_time":1184000000000,"state":"active","ping":112},{"user_id":675,"name":"LloydMann","steam_id":76561198025392778,"connected_time":1768000000000,"state":"active","ping":51},{"user_id":648,"name":"cold","steam_id":76561198841186531,"connected_time":3271000000000,"state":"active","ping":128},{"user_id":607,"name":"Matches_                       ","steam_id":76561198048925904,"connected_time":5579000000000,"state":"active","ping":115},{"user_id":649,"name":"random person","steam_id":76561199185654282,"connected_time":3257000000000,"state":"active","ping":50},{"user_id":672,"name":"kingeibon","steam_id":76561198056238702,"connected_time":2123000000000,"state":"active","ping":75},{"user_id":653,"name":"Ket","steam_id":76561198241951244,"connected_time":3193000000000,"state":"active","ping":64},{"user_id":588,"name":"HOODEDLAWYER285","steam_id":76561198156496197,"connected_time":7508000000000,"state":"active","ping":53},{"user_id":658,"name":"Spinomite","steam_id":76561198247491242,"connected_time":3001000000000,"state":"active","ping":93},{"user_id":667,"name":"luigi","steam_id":76561198108673753,"connected_time":2395000000000,"state":"active","ping":56},{"user_id":673,"name":"Drunkard Bocchi","steam_id":76561198025668771,"connected_time":2083000000000,"state":"active","ping":136},{"user_id":609,"name":"honked off the bobo","steam_id":76561198123287268,"connected_time":5540000000000,"state":"active","ping":46},{"user_id":677,"name":"Atlas","steam_id":76561198127975050,"connected_time":1487000000000,"state":"active","ping":68},{"user_id":655,"name":"Warm Embraces","steam_id":76561198798931344,"connected_time":3189000000000,"state":"active","ping":86},{"user_id":680,"name":"HeisenBurger","steam_id":76561198040632080,"connected_time":1074000000000,"state":"active","ping":46},{"user_id":666,"name":"FT","steam_id":76561198010452388,"connected_time":2496000000000,"state":"active","ping":78},{"user_id":661,"name":"An Axe Man With An Axe Plan","steam_id":76561199031265293,"connected_time":2961000000000,"state":"active","ping":71},{"user_id":642,"name":"RURU","steam_id":76561198039758987,"connected_time":3465000000000,"state":"active","ping":98}]},{"server_id":36,"name":"Uncletopia | Chicago | 5 | All Maps","name_short":"chi-5","host":"chi-2.us.uncletopia.com","port":27015,"enabled":true,"region":"us-central","cc":"us","latitude":41.881832,"longitude":-87.62318,"reserved":0,"last_update":"0001-01-01T00:00:00Z","name_a2s":"Uncletopia | Chicago | 5 | All Maps","protocol":17,"map":"koth_viaduct","folder":"tf","game":"Team Fortress","app_id":440,"player_count":0,"max_players":24,"Bots":0,"server_type":"Dedicated","server_os":"Linux","password":true,"vac":true,"version":"7757534","steam_id":85568392924866362,"keywords":["cp","nocrits","nodmgspread","uncletopia"],"game_id":440,"stv_port":27016,"stv_name":"Uncletopia | Chicago | 5 | All Maps | STV","players":null},{"server_id":37,"name":"Uncletopia | Chicago | 6 | All Maps","name_short":"chi-6","host":"chi-2.us.uncletopia.com","port":27025,"enabled":true,"region":"us-central","cc":"us","latitude":41.881832,"longitude":-87.62318,"reserved":0,"last_update":"0001-01-01T00:00:00Z","name_a2s":"Uncletopia | Chicago | 6 | All Maps","protocol":17,"map":"koth_king","folder":"tf","game":"Team Fortress","app_id":440,"player_count":0,"max_players":24,"Bots":0,"server_type":"Dedicated","server_os":"Linux","password":true,"vac":true,"version":"7757534","steam_id":85568392924866363,"keywords":["cp","nocrits","nodmgspread","uncletopia"],"game_id":440,"stv_port":27026,"stv_name":"Uncletopia | Chicago | 6 | All Maps | STV","players":null},{"server_id":38,"name":"Uncletopia | Chicago | 7 | Stopwatch Beta","name_short":"chi-7","host":"chi-2.us.uncletopia.com","port":27035,"enabled":true,"region":"us-central","cc":"us","latitude":41.881832,"longitude":-87.62318,"reserved":0,"last_update":"0001-01-01T00:00:00Z","name_a2s":"Uncletopia | Chicago | 7 | Stopwatch Beta","protocol":17,"map":"workshop/pl_summercoast_rc8e.ugc1761528829","folder":"tf","game":"Team Fortress","app_id":440,"player_count":0,"max_players":24,"Bots":0,"server_type":"Dedicated","server_os":"Linux","password":true,"vac":true,"version":"7757534","steam_id":85568392924866364,"keywords":["nocrits","nodmgspread","payload","uncletopia"],"game_id":440,"stv_port":27036,"stv_name":"Uncletopia | Chicago | 7 | Stopwatch Beta | STV","players":null},{"server_id":39,"name":"Uncletopia | Chicago | 8 | Community","name_short":"chi-8","host":"chi-2.us.uncletopia.com","port":27045,"enabled":true,"region":"us-central","cc":"us","latitude":41.881832,"longitude":-87.62318,"reserved":0,"last_update":"0001-01-01T00:00:00Z","name_a2s":"Uncletopia | Chicago | 8 | Community","protocol":17,"map":"workshop/pl_barnblitz_pro7.ugc582280235","folder":"tf","game":"Team Fortress","app_id":440,"player_count":0,"max_players":24,"Bots":0,"server_type":"Dedicated","server_os":"Linux","password":true,"vac":true,"version":"7757534","steam_id":85568392924866365,"keywords":["nocrits","nodmgspread","payload","uncletopia"],"game_id":440,"stv_port":27046,"stv_name":"Uncletopia | Chicago | 8 | Community | STV","players":null},{"server_id":8,"name":"Uncletopia | Dallas | 1 | All Maps","name_short":"dal-1","host":"dal-1.us.uncletopia.com","port":27015,"enabled":true,"region":"us-central","cc":"us","latitude":32.779167,"longitude":-96.80889,"reserved":0,"last_update":"0001-01-01T00:00:00Z","name_a2s":"Uncletopia | Dallas | 1 | All Maps","protocol":17,"map":"pl_frontier_final","folder":"tf","game":"Team Fortress","app_id":440,"player_count":0,"max_players":24,"Bots":0,"server_type":"Dedicated","server_os":"Linux","password":true,"vac":true,"version":"7757534","steam_id":85568392924469986,"keywords":["nocrits","nodmgspread","payload","uncletopia"],"game_id":440,"stv_port":27016,"stv_name":"Uncletopia | Dallas | 1 | All Maps | STV","players":null},{"server_id":108,"name":"Uncletopia | Dallas | 2 | All Maps","name_short":"dal-2","host":"dal-1.us.uncletopia.com","port":27025,"enabled":true,"region":"us-central","cc":"us","latitude":32.779167,"longitude":-96.80889,"reserved":0,"last_update":"0001-01-01T00:00:00Z","name_a2s":"Uncletopia | Dallas | 2 | All Maps","protocol":17,"map":"cp_altitude","folder":"tf","game":"Team Fortress","app_id":440,"player_count":6,"max_players":24,"Bots":0,"server_type":"Dedicated","server_os":"Linux","password":true,"vac":true,"version":"7757534","steam_id":85568392924469988,"keywords":["cp","nocrits","nodmgspread","uncletopia"],"game_id":440,"stv_port":27026,"stv_name":"Uncletopia | Dallas | 2 | All Maps | STV","players":[{"user_id":656,"name":"goblino","steam_id":76561198068260422,"connected_time":1717000000000,"state":"active","ping":64},{"user_id":661,"name":"Shylo","steam_id":76561199276858045,"connected_time":1212000000000,"state":"active","ping":56},{"user_id":665,"name":"cas","steam_id":76561198054260782,"connected_time":443000000000,"state":"active","ping":65},{"user_id":635,"name":"xZackAttack27x","steam_id":76561198035446639,"connected_time":5491000000000,"state":"active","ping":31},{"user_id":619,"name":"Queen Ishtar","steam_id":76561198035614233,"connected_time":6993000000000,"state":"active","ping":69},{"user_id":544,"name":"bolainassr0","steam_id":76561199079078845,"connected_time":16759000000000,"state":"active","ping":87}]},{"server_id":5,"name":"Uncletopia | Frankfurt | 1 | All Maps","name_short":"frk-1","host":"frk-1.de.uncletopia.com","port":27015,"enabled":true,"region":"eu","cc":"de","latitude":50.110924,"longitude":8.682127,"reserved":0,"last_update":"0001-01-01T00:00:00Z","name_a2s":"Uncletopia | Frankfurt | 1 | All Maps","protocol":17,"map":"pl_badwater","folder":"tf","game":"Team Fortress","app_id":440,"player_count":24,"max_players":24,"Bots":0,"server_type":"Dedicated","server_os":"Linux","password":true,"vac":true,"version":"7757534","steam_id":85568392924469989,"keywords":["nocrits","nodmgspread","payload","uncletopia"],"game_id":440,"stv_port":27016,"stv_name":"Uncletopia | Frankfurt | 1 | All Maps | STV","players":[{"user_id":4,"name":"Panzerschoki","steam_id":76561198211621756,"connected_time":3430000000000,"state":"active","ping":55},{"user_id":5,"name":"PumpkinMan","steam_id":76561198929162354,"connected_time":3426000000000,"state":"active","ping":77},{"user_id":6,"name":"RawGorilla","steam_id":76561198063654194,"connected_time":3168000000000,"state":"active","ping":74},{"user_id":46,"name":"–°–ê–ù–Ø –í–û–î–Ü–õ–ê","steam_id":76561198343380238,"connected_time":424000000000,"state":"active","ping":76},{"user_id":45,"name":"DarkFady","steam_id":76561198179099523,"connected_time":450000000000,"state":"active","ping":125},{"user_id":47,"name":"sinkuchan","steam_id":76561198054012474,"connected_time":410000000000,"state":"active","ping":56},{"user_id":41,"name":"cult","steam_id":76561198188647690,"connected_time":637000000000,"state":"active","ping":74},{"user_id":42,"name":"fmdi","steam_id":76561199433879329,"connected_time":621000000000,"state":"active","ping":70},{"user_id":12,"name":"DunkleG","steam_id":76561198053816186,"connected_time":2732000000000,"state":"active","ping":60},{"user_id":38,"name":"—Ñ—É—Ç–∞ 30—Å–º","steam_id":76561198866778234,"connected_time":1206000000000,"state":"active","ping":113},{"user_id":31,"name":"Ardello","steam_id":76561198864484125,"connected_time":1761000000000,"state":"active","ping":81},{"user_id":36,"name":"mushroom","steam_id":76561198817034571,"connected_time":1603000000000,"state":"active","ping":120},{"user_id":40,"name":":\u003e","steam_id":76561198149978882,"connected_time":921000000000,"state":"active","ping":67},{"user_id":18,"name":"snooper main","steam_id":76561199073802389,"connected_time":2446000000000,"state":"active","ping":97},{"user_id":19,"name":"Egor Pomidor","steam_id":76561199175688390,"connected_time":2425000000000,"state":"active","ping":76},{"user_id":48,"name":"on1on (julienned)","steam_id":76561197995304137,"connected_time":366000000000,"state":"active","ping":64},{"user_id":39,"name":"axl#pizdaaim","steam_id":76561198991661832,"connected_time":1030000000000,"state":"active","ping":68},{"user_id":22,"name":"‚úà","steam_id":76561198296214683,"connected_time":2045000000000,"state":"active","ping":76},{"user_id":23,"name":"SantiTzePug","steam_id":76561199049615996,"connected_time":2036000000000,"state":"active","ping":76},{"user_id":24,"name":"CEO of SNEKS üêç","steam_id":76561198244148206,"connected_time":1995000000000,"state":"active","ping":99},{"user_id":30,"name":"Ôº≠ÔΩÅÔΩÉÔΩâÔΩéÔΩîÔΩèÔΩìÔΩà","steam_id":76561198074294565,"connected_time":1771000000000,"state":"active","ping":79},{"user_id":43,"name":"LoLo","steam_id":76561199403387863,"connected_time":618000000000,"state":"active","ping":67},{"user_id":27,"name":"≈ò√¥≈õ≈õ","steam_id":76561198123398130,"connected_time":1952000000000,"state":"active","ping":96},{"user_id":49,"name":"Sylbar","steam_id":76561198065379590,"connected_time":25000000000,"state":"active","ping":64}]},{"server_id":110,"name":"Uncletopia | Frankfurt | 2 | All Maps","name_short":"frk-2","host":"frk-1.de.uncletopia.com","port":27025,"enabled":true,"region":"eu","cc":"de","latitude":50.110924,"longitude":8.682127,"reserved":0,"last_update":"0001-01-01T00:00:00Z","name_a2s":"Uncletopia | Frankfurt | 2 | All Maps","protocol":17,"map":"cp_mountainlab","folder":"tf","game":"Team Fortress","app_id":440,"player_count":0,"max_players":24,"Bots":0,"server_type":"Dedicated","server_os":"Linux","password":true,"vac":true,"version":"7757534","steam_id":85568392924469990,"keywords":["cp","nocrits","nodmgspread","uncletopia"],"game_id":440,"stv_port":27026,"stv_name":"Uncletopia | Frankfurt | 2 | All Maps | STV","players":null},{"server_id":308,"name":"Uncletopia | Frankfurt | 3 | All Maps","name_short":"frk-3","host":"frk-1.de.uncletopia.com","port":27035,"enabled":true,"region":"eu","cc":"de","latitude":50.110924,"longitude":8.682127,"reserved":0,"last_update":"0001-01-01T00:00:00Z","name_a2s":"Uncletopia | Frankfurt | 3 | All Maps","protocol":17,"map":"pl_swiftwater_final1","folder":"tf","game":"Team Fortress","app_id":440,"player_count":0,"max_players":24,"Bots":0,"server_type":"Dedicated","server_os":"Linux","password":true,"vac":true,"version":"7757534","steam_id":85568392924504274,"keywords":["nocrits","nodmgspread","payload","uncletopia"],"game_id":440,"stv_port":27036,"stv_name":"Uncletopia | Frankfurt | 3 | All Maps | STV","players":null},{"server_id":309,"name":"Uncletopia | Frankfurt | 4 | All Maps","name_short":"frk-4","host":"frk-1.de.uncletopia.com","port":27045,"enabled":true,"region":"eu","cc":"de","latitude":50.110924,"longitude":8.682127,"reserved":0,"last_update":"0001-01-01T00:00:00Z","name_a2s":"Uncletopia | Frankfurt | 4 | All Maps","protocol":17,"map":"koth_viaduct","folder":"tf","game":"Team Fortress","app_id":440,"player_count":0,"max_players":24,"Bots":0,"server_type":"Dedicated","server_os":"Linux","password":true,"vac":true,"version":"7757534","steam_id":85568392924504275,"keywords":["cp","nocrits","nodmgspread","uncletopia"],"game_id":440,"stv_port":27046,"stv_name":"Uncletopia | Frankfurt | 4 | All Maps | STV","players":null},{"server_id":310,"name":"Uncletopia | Frankfurt | 5 | All Maps","name_short":"frk-5","host":"frk-1.de.uncletopia.com","port":27055,"enabled":true,"region":"eu","cc":"de","latitude":50.110924,"longitude":8.682127,"reserved":0,"last_update":"0001-01-01T00:00:00Z","name_a2s":"Uncletopia | Frankfurt | 5 | All Maps","protocol":17,"map":"koth_lakeside_final","folder":"tf","game":"Team Fortress","app_id":440,"player_count":0,"max_players":24,"Bots":0,"server_type":"Dedicated","server_os":"Linux","password":true,"vac":true,"version":"7757534","steam_id":85568392924504277,"keywords":["cp","nocrits","nodmgspread","uncletopia"],"game_id":440,"stv_port":27056,"stv_name":"Uncletopia | Frankfurt | 5 | All Maps | STV","players":null},{"server_id":311,"name":"Uncletopia | Frankfurt | 6 | All Maps","name_short":"frk-6","host":"frk-1.de.uncletopia.com","port":27065,"enabled":true,"region":"eu","cc":"de","latitude":50.110924,"longitude":8.682127,"reserved":0,"last_update":"0001-01-01T00:00:00Z","name_a2s":"Uncletopia | Frankfurt | 6 | All Maps","protocol":17,"map":"pl_frontier_final","folder":"tf","game":"Team Fortress","app_id":440,"player_count":0,"max_players":24,"Bots":0,"server_type":"Dedicated","server_os":"Linux","password":true,"vac":true,"version":"7757534","steam_id":85568392924504278,"keywords":["nocrits","nodmgspread","payload","uncletopia"],"game_id":440,"stv_port":27066,"stv_name":"Uncletopia | Frankfurt | 6 | All Maps | STV","players":null},{"server_id":23,"name":"Uncletopia | Frankfurt | 7 | Stopwatch Beta","name_short":"frk-7","host":"frk-1.de.uncletopia.com","port":27075,"enabled":true,"region":"eu","cc":"de","latitude":50.110924,"longitude":8.682127,"reserved":0,"last_update":"0001-01-01T00:00:00Z","name_a2s":"Uncletopia | Frankfurt | 7 | Stopwatch Beta","protocol":17,"map":"workshop/koth_clearcut_b15.ugc2107050255","folder":"tf","game":"Team Fortress","app_id":440,"player_count":0,"max_players":24,"Bots":0,"server_type":"Dedicated","server_os":"Linux","password":true,"vac":true,"version":"7757534","steam_id":85568392924742827,"keywords":["cp","nocrits","nodmgspread","uncletopia"],"game_id":440,"stv_port":27076,"stv_name":"Uncletopia | Frankfurt | 7 | Stopwatch Beta | STV","players":null},{"server_id":24,"name":"Uncletopia | Frankfurt | 8 | Community","name_short":"frk-8","host":"frk-1.de.uncletopia.com","port":27085,"enabled":true,"region":"eu","cc":"de","latitude":50.110924,"longitude":8.682127,"reserved":0,"last_update":"0001-01-01T00:00:00Z","name_a2s":"Uncletopia | Frankfurt | 8 | Community","protocol":17,"map":"koth_lakeside_final","folder":"tf","game":"Team Fortress","app_id":440,"player_count":1,"max_players":24,"Bots":0,"server_type":"Dedicated","server_os":"Linux","password":true,"vac":true,"version":"7757534","steam_id":85568392924742828,"keywords":["cp","nocrits","nodmgspread","uncletopia"],"game_id":440,"stv_port":27086,"stv_name":"Uncletopia | Frankfurt | 8 | Community | STV","players":[{"user_id":8,"name":"Denialman (Muted)","steam_id":76561198309182092,"connected_time":21000000000,"state":"active","ping":357}]},{"server_id":202,"name":"Uncletopia | Hong Kong | 1 | All Maps","name_short":"hgk-1","host":"hgk-1.hk.uncletopia.com","port":27015,"enabled":true,"region":"asia","cc":"hk","latitude":22.302711,"longitude":114.177216,"reserved":0,"last_update":"0001-01-01T00:00:00Z","name_a2s":"Uncletopia | Hong Kong | 1 | All Maps","protocol":17,"map":"pl_upward","folder":"tf","game":"Team Fortress","app_id":440,"player_count":24,"max_players":24,"Bots":0,"server_type":"Dedicated","server_os":"Linux","password":true,"vac":true,"version":"7757534","steam_id":85568392924494504,"keywords":["nocrits","nodmgspread","payload","uncletopia"],"game_id":440,"stv_port":27016,"stv_name":"Uncletopia | Hong Kong | 1 | All Maps | STV","players":[{"user_id":212,"name":"Lu","steam_id":76561198320532821,"connected_time":1116000000000,"state":"active","ping":51},{"user_id":220,"name":"Pizza_Jammies1345","steam_id":76561199228950246,"connected_time":305000000000,"state":"active","ping":164},{"user_id":119,"name":"Light Rainbow","steam_id":76561198118966673,"connected_time":5609000000000,"state":"active","ping":41},{"user_id":176,"name":"17","steam_id":76561198241530712,"connected_time":3074000000000,"state":"active","ping":60},{"user_id":214,"name":"screaming sniper","steam_id":76561199085568674,"connected_time":761000000000,"state":"active","ping":100},{"user_id":213,"name":"jbn","steam_id":76561199172224549,"connected_time":1083000000000,"state":"active","ping":81},{"user_id":225,"name":"Ïø†ÌÇ§","steam_id":76561197997220367,"connected_time":161000000000,"state":"active","ping":53},{"user_id":182,"name":"vintage","steam_id":76561198230213828,"connected_time":2929000000000,"state":"active","ping":60},{"user_id":120,"name":"Wx","steam_id":76561199217780897,"connected_time":5607000000000,"state":"active","ping":111},{"user_id":216,"name":"qb","steam_id":76561198412329672,"connected_time":741000000000,"state":"active","ping":95},{"user_id":206,"name":"anemoia","steam_id":76561198074339034,"connected_time":1324000000000,"state":"active","ping":77},{"user_id":99,"name":"Aiko Kanata Zhenco","steam_id":76561199262955185,"connected_time":7819000000000,"state":"active","ping":109},{"user_id":219,"name":"... Coffee?","steam_id":76561199025320247,"connected_time":558000000000,"state":"active","ping":77},{"user_id":115,"name":"‡πã","steam_id":76561198413116920,"connected_time":6123000000000,"state":"active","ping":75},{"user_id":178,"name":"ObscuroLucem","steam_id":76561198875037943,"connected_time":3060000000000,"state":"active","ping":89},{"user_id":204,"name":"‚úßBaKa BAzooKA‚úß(‚óï‚ñø‚óï )","steam_id":76561198061628689,"connected_time":1484000000000,"state":"active","ping":50},{"user_id":98,"name":"P","steam_id":76561198304514505,"connected_time":7864000000000,"state":"active","ping":76},{"user_id":89,"name":"killman47","steam_id":76561198348487408,"connected_time":8828000000000,"state":"active","ping":43},{"user_id":111,"name":"Â∏ï","steam_id":76561198439343999,"connected_time":6562000000000,"state":"active","ping":86},{"user_id":179,"name":"ZeniaPY (Playing on Wacom)","steam_id":76561198404352831,"connected_time":3036000000000,"state":"active","ping":72},{"user_id":183,"name":"TomProPlayer","steam_id":76561199223292521,"connected_time":2929000000000,"state":"active","ping":72},{"user_id":92,"name":"ÈôΩÂ≠ê","steam_id":76561198008307645,"connected_time":8796000000000,"state":"active","ping":123},{"user_id":188,"name":"silverhouse7","steam_id":76561198349634906,"connected_time":2474000000000,"state":"active","ping":67},{"user_id":224,"name":"Mega 00F","steam_id":76561198962485791,"connected_time":281000000000,"state":"active","ping":129}]},{"server_id":1,"name":"Uncletopia | Los Angeles | 1 | All Maps","name_short":"lax-1","host":"lax-1.us.uncletopia.com","port":27015,"enabled":true,"region":"us-west","cc":"us","latitude":33.94279,"longitude":-118.41004,"reserved":0,"last_update":"0001-01-01T00:00:00Z","name_a2s":"Uncletopia | Los Angeles | 1 | All Maps","protocol":17,"map":"pl_borneo","folder":"tf","game":"Team Fortress","app_id":440,"player_count":0,"max_players":24,"Bots":0,"server_type":"Dedicated","server_os":"Linux","password":true,"vac":true,"version":"7757534","steam_id":85568392924469991,"keywords":["nocrits","nodmgspread","payload","uncletopia"],"game_id":440,"stv_port":27016,"stv_name":"Uncletopia | Los Angeles | 1 | All Maps | STV","players":null},{"server_id":112,"name":"Uncletopia | Los Angeles | 2 | All Maps","name_short":"lax-2","host":"lax-1.us.uncletopia.com","port":27025,"enabled":true,"region":"us-west","cc":"us","latitude":33.94279,"longitude":-118.41004,"reserved":0,"last_update":"0001-01-01T00:00:00Z","name_a2s":"Uncletopia | Los Angeles | 2 | All Maps","protocol":17,"map":"pl_badwater","folder":"tf","game":"Team Fortress","app_id":440,"player_count":18,"max_players":24,"Bots":0,"server_type":"Dedicated","server_os":"Linux","password":true,"vac":true,"version":"7757534","steam_id":85568392924469992,"keywords":["nocrits","nodmgspread","payload","uncletopia"],"game_id":440,"stv_port":27026,"stv_name":"Uncletopia | Los Angeles | 2 | All Maps | STV","players":[{"user_id":658,"name":"fonz!E","steam_id":76561197987165510,"connected_time":907000000000,"state":"active","ping":44},{"user_id":665,"name":"Fuzzy_Snugs","steam_id":76561197999423108,"connected_time":102000000000,"state":"active","ping":77},{"user_id":548,"name":"+EsC|Kevinator","steam_id":76561198008475674,"connected_time":11627000000000,"state":"active","ping":69},{"user_id":662,"name":"6' 4\" 270 lbs ALL MUSCLE","steam_id":76561198021308963,"connected_time":147000000000,"state":"active","ping":78},{"user_id":546,"name":"Espurr","steam_id":76561198008207777,"connected_time":11685000000000,"state":"active","ping":60},{"user_id":620,"name":"AMU","steam_id":76561198092346231,"connected_time":4474000000000,"state":"active","ping":117},{"user_id":663,"name":"Ben Ben","steam_id":76561198307247913,"connected_time":130000000000,"state":"active","ping":45},{"user_id":633,"name":"Smittywerbenjager-manjenson","steam_id":76561198067060742,"connected_time":3305000000000,"state":"active","ping":65},{"user_id":666,"name":"snoogy woogy buggy","steam_id":76561198894676484,"connected_time":10000000000,"state":"spawning","ping":45},{"user_id":664,"name":"diegoBrando2411","steam_id":76561199389759816,"connected_time":122000000000,"state":"active","ping":241},{"user_id":667,"name":"Margaret Thatcher, but moreso","steam_id":76561198121955432,"connected_time":3000000000,"state":"spawning","ping":104},{"user_id":602,"name":"Girox","steam_id":76561198009921751,"connected_time":5845000000000,"state":"active","ping":106},{"user_id":604,"name":"Patty Cakes","steam_id":76561197977358526,"connected_time":5788000000000,"state":"active","ping":98},{"user_id":660,"name":"ChieF BEEF QueeF","steam_id":76561198078294539,"connected_time":617000000000,"state":"active","ping":60},{"user_id":609,"name":"Altruisticailuridae","steam_id":76561198335295596,"connected_time":5228000000000,"state":"active","ping":50},{"user_id":642,"name":"GARTH","steam_id":76561198174186555,"connected_time":2321000000000,"state":"active","ping":86},{"user_id":661,"name":"Xylemon","steam_id":76561197965297420,"connected_time":334000000000,"state":"active","ping":80},{"user_id":644,"name":"Bridge","steam_id":76561198050930560,"connected_time":2204000000000,"state":"active","ping":84}]},{"server_id":324,"name":"Uncletopia | Los Angeles | 3 | All Maps","name_short":"lax-3","host":"lax-1.us.uncletopia.com","port":27035,"enabled":true,"region":"us-west","cc":"us","latitude":33.94279,"longitude":-118.41004,"reserved":0,"last_update":"0001-01-01T00:00:00Z","name_a2s":"Uncletopia | Los Angeles | 3 | All Maps","protocol":17,"map":"pl_frontier_final","folder":"tf","game":"Team Fortress","app_id":440,"player_count":22,"max_players":24,"Bots":0,"server_type":"Dedicated","server_os":"Linux","password":true,"vac":true,"version":"7757534","steam_id":85568392924510198,"keywords":["nocrits","nodmgspread","payload","uncletopia"],"game_id":440,"stv_port":27036,"stv_name":"Uncletopia | Los Angeles | 3 | All Maps | STV","players":[{"user_id":320,"name":"KingToaster","steam_id":76561198007903802,"connected_time":4580000000000,"state":"active","ping":62},{"user_id":297,"name":"‚ù§ Ashley ‚ù§","steam_id":76561198056428303,"connected_time":6779000000000,"state":"active","ping":44},{"user_id":350,"name":"Doritodog78","steam_id":76561198257696265,"connected_time":1510000000000,"state":"active","ping":97},{"user_id":339,"name":"Colonel Chikara","steam_id":76561198010021087,"connected_time":2235000000000,"state":"active","ping":62},{"user_id":375,"name":"Sunny","steam_id":76561198261667312,"connected_time":191000000000,"state":"active","ping":80},{"user_id":353,"name":"BackToSchoolAds","steam_id":76561198870281128,"connected_time":1264000000000,"state":"active","ping":82},{"user_id":298,"name":"self sufficient kitten","steam_id":76561197960592612,"connected_time":6508000000000,"state":"active","ping":75},{"user_id":366,"name":"takeshi_","steam_id":76561198148797456,"connected_time":682000000000,"state":"active","ping":54},{"user_id":351,"name":"Soozy420","steam_id":76561198809074422,"connected_time":1473000000000,"state":"active","ping":56},{"user_id":310,"name":"0r161n4lj0k3","steam_id":76561198127328235,"connected_time":5361000000000,"state":"active","ping":68},{"user_id":352,"name":"Noodles","steam_id":76561197968762578,"connected_time":1451000000000,"state":"active","ping":114},{"user_id":367,"name":"floofy","steam_id":76561198389769098,"connected_time":661000000000,"state":"active","ping":109},{"user_id":335,"name":"ËàπÂ∞æ","steam_id":76561198128764422,"connected_time":2808000000000,"state":"active","ping":65},{"user_id":369,"name":"üíñ‚ú® bimbo skeleton ‚ú®üíñ","steam_id":76561198248665352,"connected_time":593000000000,"state":"active","ping":63},{"user_id":374,"name":"pt","steam_id":76561198143023330,"connected_time":314000000000,"state":"active","ping":49},{"user_id":371,"name":"Bheem","steam_id":76561198170453459,"connected_time":423000000000,"state":"active","ping":74},{"user_id":358,"name":"Quon Grene for Vice Prez","steam_id":76561198127545817,"connected_time":813000000000,"state":"active","ping":73},{"user_id":359,"name":"Merci?","steam_id":76561198096823118,"connected_time":782000000000,"state":"active","ping":91},{"user_id":332,"name":"Friggy","steam_id":76561198131467867,"connected_time":2877000000000,"state":"active","ping":45},{"user_id":360,"name":"Goobigan","steam_id":76561198072790366,"connected_time":735000000000,"state":"active","ping":84},{"user_id":373,"name":"Aztek","steam_id":76561197980496357,"connected_time":336000000000,"state":"active","ping":184},{"user_id":344,"name":"Minerkid2004","steam_id":76561198044262827,"connected_time":2074000000000,"state":"active","ping":53}]},{"server_id":25,"name":"Uncletopia | Los Angeles | 4 | Stopwatch Beta","name_short":"lax-4","host":"lax-1.us.uncletopia.com","port":27045,"enabled":true,"region":"us-west","cc":"us","latitude":33.94279,"longitude":-118.41004,"reserved":0,"last_update":"0001-01-01T00:00:00Z","name_a2s":"Uncletopia | Los Angeles | 4 | Stopwatch Beta","protocol":17,"map":"pl_swiftwater_final1","folder":"tf","game":"Team Fortress","app_id":440,"player_count":0,"max_players":24,"Bots":0,"server_type":"Dedicated","server_os":"Linux","password":true,"vac":true,"version":"7757534","steam_id":85568392924510199,"keywords":["nocrits","nodmgspread","payload","uncletopia"],"game_id":440,"stv_port":27046,"stv_name":"Uncletopia | Los Angeles | 4 | Stopwatch Beta | STV","players":null},{"server_id":11,"name":"Uncletopia | London | 1 | All Maps","name_short":"lon-1","host":"lon-1.uk.uncletopia.com","port":27015,"enabled":true,"region":"eu","cc":"gb","latitude":51.509865,"longitude":-0.118092,"reserved":0,"last_update":"0001-01-01T00:00:00Z","name_a2s":"Uncletopia | London | 1 | All Maps","protocol":17,"map":"pl_pier","folder":"tf","game":"Team Fortress","app_id":440,"player_count":24,"max_players":24,"Bots":0,"server_type":"Dedicated","server_os":"Linux","password":true,"vac":true,"version":"7757534","steam_id":85568392924367362,"keywords":["nocrits","nodmgspread","payload","uncletopia"],"game_id":440,"stv_port":27016,"stv_name":"Uncletopia | London | 1 | All Maps | STV","players":[{"user_id":93,"name":"bobby_basketball_1999","steam_id":76561198031573426,"connected_time":3755000000000,"state":"active","ping":71},{"user_id":130,"name":"FroschyDABossy","steam_id":76561199060527723,"connected_time":75000000000,"state":"active","ping":67},{"user_id":105,"name":"Kris","steam_id":76561198240638652,"connected_time":1878000000000,"state":"active","ping":43},{"user_id":117,"name":"tummaluppo taivaltaja","steam_id":76561198093458326,"connected_time":951000000000,"state":"active","ping":64},{"user_id":86,"name":"Dr.090","steam_id":76561198201215334,"connected_time":4548000000000,"state":"active","ping":110},{"user_id":112,"name":"RussianPingLord","steam_id":76561199055517485,"connected_time":1324000000000,"state":"active","ping":141},{"user_id":9,"name":"CumbustiblePunda","steam_id":76561197974274677,"connected_time":11613000000000,"state":"active","ping":60},{"user_id":74,"name":"Asfreild","steam_id":76561198055901120,"connected_time":5188000000000,"state":"active","ping":83},{"user_id":113,"name":"BƒÉsescu","steam_id":76561198017693962,"connected_time":1310000000000,"state":"active","ping":75},{"user_id":106,"name":"ÎãπÏã†Ïùò ÏóÑÎßàÎ•ºÌñàÎã§","steam_id":76561198017114970,"connected_time":1871000000000,"state":"active","ping":42},{"user_id":125,"name":"J√∏rn","steam_id":76561199073257952,"connected_time":498000000000,"state":"active","ping":71},{"user_id":118,"name":"jD_x2r2","steam_id":76561198061001376,"connected_time":812000000000,"state":"active","ping":74},{"user_id":55,"name":"Rin-Nakaret","steam_id":76561197971051188,"connected_time":6921000000000,"state":"active","ping":52},{"user_id":35,"name":"Edison Trent","steam_id":76561198067133145,"connected_time":9253000000000,"state":"active","ping":60},{"user_id":129,"name":"MORGENSHTERN","steam_id":76561199277727142,"connected_time":117000000000,"state":"active","ping":117},{"user_id":84,"name":"rock dog","steam_id":76561198110545854,"connected_time":4596000000000,"state":"active","ping":153},{"user_id":107,"name":"NhouBrane","steam_id":76561198293577735,"connected_time":1853000000000,"state":"active","ping":70},{"user_id":114,"name":"Pyexorp","steam_id":76561199109194825,"connected_time":1299000000000,"state":"active","ping":95},{"user_id":127,"name":"Bruh","steam_id":76561199094106464,"connected_time":194000000000,"state":"active","ping":82},{"user_id":128,"name":"Rahu 'Siebren' Godless","steam_id":76561198276259175,"connected_time":184000000000,"state":"active","ping":108},{"user_id":119,"name":"ANEY‚òÜ The Music Man","steam_id":76561198074404564,"connected_time":772000000000,"state":"active","ping":75},{"user_id":110,"name":"autistic luigi","steam_id":76561199218285040,"connected_time":1671000000000,"state":"active","ping":80},{"user_id":126,"name":"scope","steam_id":76561198281647082,"connected_time":361000000000,"state":"active","ping":103},{"user_id":123,"name":"Meth","steam_id":76561199300394949,"connected_time":719000000000,"state":"active","ping":62}]},{"server_id":114,"name":"Uncletopia | London | 2 | All Maps","name_short":"lon-2","host":"lon-1.uk.uncletopia.com","port":27025,"enabled":true,"region":"eu","cc":"gb","latitude":51.509865,"longitude":-0.118092,"reserved":0,"last_update":"0001-01-01T00:00:00Z","name_a2s":"Uncletopia | London | 2 | All Maps","protocol":17,"map":"koth_viaduct","folder":"tf","game":"Team Fortress","app_id":440,"player_count":0,"max_players":24,"Bots":0,"server_type":"Dedicated","server_os":"Linux","password":true,"vac":true,"version":"7757534","steam_id":85568392924470941,"keywords":["cp","nocrits","nodmgspread","uncletopia"],"game_id":440,"stv_port":27026,"stv_name":"Uncletopia | London | 2 | All Maps | STV","players":null},{"server_id":320,"name":"Uncletopia | London | 3 | All Maps","name_short":"lon-3","host":"lon-1.uk.uncletopia.com","port":27035,"enabled":true,"region":"eu","cc":"gb","latitude":51.509865,"longitude":-0.118092,"reserved":0,"last_update":"0001-01-01T00:00:00Z","name_a2s":"Uncletopia | London | 3 | All Maps","protocol":17,"map":"plr_hightower","folder":"tf","game":"Team Fortress","app_id":440,"player_count":18,"max_players":24,"Bots":0,"server_type":"Dedicated","server_os":"Linux","password":true,"vac":true,"version":"7757534","steam_id":85568392924510192,"keywords":["nocrits","nodmgspread","payload","uncletopia"],"game_id":440,"stv_port":27036,"stv_name":"Uncletopia | London | 3 | All Maps | STV","players":[{"user_id":5,"name":"FUKTARD2005","steam_id":76561198839121591,"connected_time":3458000000000,"state":"active","ping":59},{"user_id":17,"name":"St√ºmpy","steam_id":76561198255904077,"connected_time":624000000000,"state":"active","ping":69},{"user_id":13,"name":"FUKKIT","steam_id":76561198274912916,"connected_time":1140000000000,"state":"active","ping":59},{"user_id":14,"name":"Salad's Warband","steam_id":76561198214089583,"connected_time":1085000000000,"state":"active","ping":57},{"user_id":18,"name":"Poleeyan","steam_id":76561198885522435,"connected_time":615000000000,"state":"active","ping":108},{"user_id":19,"name":"The Punch","steam_id":76561198212488780,"connected_time":588000000000,"state":"active","ping":69},{"user_id":20,"name":"some sort of guy","steam_id":76561198422779449,"connected_time":462000000000,"state":"active","ping":74},{"user_id":21,"name":"Shark Petter","steam_id":76561198358801819,"connected_time":450000000000,"state":"active","ping":74},{"user_id":22,"name":"spxcy","steam_id":76561198080296853,"connected_time":426000000000,"state":"active","ping":99},{"user_id":23,"name":"Cheeseman","steam_id":76561199125502884,"connected_time":367000000000,"state":"active","ping":45},{"user_id":24,"name":"Plastic Baggins","steam_id":76561198039836567,"connected_time":354000000000,"state":"active","ping":45},{"user_id":25,"name":"teris","steam_id":76561198835691780,"connected_time":348000000000,"state":"active","ping":69},{"user_id":26,"name":"zek","steam_id":76561198862763731,"connected_time":275000000000,"state":"active","ping":62},{"user_id":27,"name":"—Å—ã–Ω –¥–∂–µ—Ñ—Ñ–∞ —É–±–∏–π—Ü\ufffd","steam_id":76561199149307190,"connected_time":240000000000,"state":"active","ping":89},{"user_id":28,"name":"1ggy","steam_id":76561199051285912,"connected_time":184000000000,"state":"active","ping":84},{"user_id":29,"name":"Andy","steam_id":76561198046918834,"connected_time":135000000000,"state":"active","ping":57},{"user_id":30,"name":"lofimonkeyjazz","steam_id":76561198117059662,"connected_time":132000000000,"state":"active","ping":73},{"user_id":31,"name":"zenius","steam_id":76561198128007024,"connected_time":54000000000,"state":"active","ping":485}]},{"server_id":321,"name":"Uncletopia | London | 4 | All Maps","name_short":"lon-4","host":"lon-1.uk.uncletopia.com","port":27045,"enabled":true,"region":"eu","cc":"gb","latitude":51.509865,"longitude":-0.118092,"reserved":0,"last_update":"0001-01-01T00:00:00Z","name_a2s":"Uncletopia | London | 4 | All Maps","protocol":17,"map":"cp_dustbowl","folder":"tf","game":"Team Fortress","app_id":440,"player_count":0,"max_players":24,"Bots":0,"server_type":"Dedicated","server_os":"Linux","password":true,"vac":true,"version":"7757534","steam_id":85568392924510193,"keywords":["cp","nocrits","nodmgspread","uncletopia"],"game_id":440,"stv_port":27046,"stv_name":"Uncletopia | London | 4 | All Maps | STV","players":null},{"server_id":21,"name":"Uncletopia | London | 5 | All Maps","name_short":"lon-5","host":"lon-1.uk.uncletopia.com","port":27055,"enabled":true,"region":"eu","cc":"gb","latitude":51.509865,"longitude":-0.118092,"reserved":0,"last_update":"0001-01-01T00:00:00Z","name_a2s":"Uncletopia | London | 5 | All Maps","protocol":17,"map":"cp_altitude","folder":"tf","game":"Team Fortress","app_id":440,"player_count":0,"max_players":24,"Bots":0,"server_type":"Dedicated","server_os":"Linux","password":true,"vac":true,"version":"7757534","steam_id":85568392924742829,"keywords":["cp","nocrits","nodmgspread","uncletopia"],"game_id":440,"stv_port":27056,"stv_name":"Uncletopia | London | 5 | All Maps | STV","players":null},{"server_id":22,"name":"Uncletopia | London | 6 | All Maps","name_short":"lon-6","host":"lon-1.uk.uncletopia.com","port":27065,"enabled":true,"region":"eu","cc":"gb","latitude":51.509865,"longitude":-0.118092,"reserved":0,"last_update":"0001-01-01T00:00:00Z","name_a2s":"Uncletopia | London | 6 | All Maps","protocol":17,"map":"cp_mountainlab","folder":"tf","game":"Team Fortress","app_id":440,"player_count":0,"max_players":24,"Bots":0,"server_type":"Dedicated","server_os":"Linux","password":true,"vac":true,"version":"7757534","steam_id":85568392924742830,"keywords":["cp","nocrits","nodmgspread","uncletopia"],"game_id":440,"stv_port":27066,"stv_name":"Uncletopia | London | 6 | All Maps | STV","players":null},{"server_id":40,"name":"Uncletopia | London | 7 | No Payload","name_short":"lon-7","host":"lon-1.uk.uncletopia.com","port":27075,"enabled":true,"region":"eu","cc":"gb","latitude":51.509865,"longitude":-0.118092,"reserved":0,"last_update":"0001-01-01T00:00:00Z","name_a2s":"Uncletopia | London | 7 | No Payload","protocol":17,"map":"cp_egypt_final","folder":"tf","game":"Team Fortress","app_id":440,"player_count":0,"max_players":24,"Bots":0,"server_type":"Dedicated","server_os":"Linux","password":true,"vac":true,"version":"7757534","steam_id":85568392924964314,"keywords":["cp","nocrits","nodmgspread","uncletopia"],"game_id":440,"stv_port":27076,"stv_name":"Uncletopia | London | 7 | No Payload | STV","players":null},{"server_id":41,"name":"Uncletopia | London | 8 | Community","name_short":"lon-8","host":"lon-1.uk.uncletopia.com","port":27085,"enabled":true,"region":"eu","cc":"gb","latitude":51.509865,"longitude":-0.118092,"reserved":0,"last_update":"0001-01-01T00:00:00Z","name_a2s":"Uncletopia | London | 8 | Community","protocol":17,"map":"workshop/koth_bagel_rc6.ugc2514036946","folder":"tf","game":"Team Fortress","app_id":440,"player_count":0,"max_players":24,"Bots":0,"server_type":"Dedicated","server_os":"Linux","password":true,"vac":true,"version":"7757534","steam_id":85568392924964315,"keywords":["cp","nocrits","nodmgspread","uncletopia"],"game_id":440,"stv_port":27086,"stv_name":"Uncletopia | London | 8 | Community | STV","players":null},{"server_id":300,"name":"Uncletopia | Montr√©al | 1 | All Maps","name_short":"mtl-1","host":"mtl-1.ca.uncletopia.com","port":27015,"enabled":true,"region":"us-east","cc":"ca","latitude":45.50889,"longitude":-73.56167,"reserved":0,"last_update":"0001-01-01T00:00:00Z","name_a2s":"Uncletopia | Montr√©al | 1 | All Maps","protocol":17,"map":"koth_lakeside_final","folder":"tf","game":"Team Fortress","app_id":440,"player_count":0,"max_players":24,"Bots":0,"server_type":"Dedicated","server_os":"Linux","password":true,"vac":true,"version":"7757534","steam_id":85568392924500087,"keywords":["cp","nocrits","nodmgspread","uncletopia"],"game_id":440,"stv_port":27016,"stv_name":"Uncletopia | Montr√©al | 1 | All Maps | STV","players":null},{"server_id":301,"name":"Uncletopia | Montr√©al | 2 | All Maps","name_short":"mtl-2","host":"mtl-1.ca.uncletopia.com","port":27025,"enabled":true,"region":"us-east","cc":"ca","latitude":45.50889,"longitude":-73.56167,"reserved":0,"last_update":"0001-01-01T00:00:00Z","name_a2s":"Uncletopia | Montr√©al | 2 | All Maps","protocol":17,"map":"cp_sunshine","folder":"tf","game":"Team Fortress","app_id":440,"player_count":0,"max_players":24,"Bots":0,"server_type":"Dedicated","server_os":"Linux","password":true,"vac":true,"version":"7757534","steam_id":85568392924500088,"keywords":["cp","nocrits","nodmgspread","uncletopia"],"game_id":440,"stv_port":27026,"stv_name":"Uncletopia | Montr√©al | 2 | All Maps | STV","players":null},{"server_id":302,"name":"Uncletopia | Montr√©al | 3 | All Maps","name_short":"mtl-3","host":"mtl-1.ca.uncletopia.com","port":27035,"enabled":true,"region":"us-east","cc":"ca","latitude":45.50889,"longitude":-73.56167,"reserved":0,"last_update":"0001-01-01T00:00:00Z","name_a2s":"Uncletopia | Montr√©al | 3 | All Maps","protocol":17,"map":"pl_upward","folder":"tf","game":"Team Fortress","app_id":440,"player_count":0,"max_players":24,"Bots":0,"server_type":"Dedicated","server_os":"Linux","password":true,"vac":true,"version":"7757534","steam_id":85568392924500089,"keywords":["nocrits","nodmgspread","payload","uncletopia"],"game_id":440,"stv_port":27036,"stv_name":"Uncletopia | Montr√©al | 3 | All Maps | STV","players":null},{"server_id":303,"name":"Uncletopia | Montr√©al | 4 | No Payload","name_short":"mtl-4","host":"mtl-1.ca.uncletopia.com","port":27045,"enabled":true,"region":"us-east","cc":"ca","latitude":45.50889,"longitude":-73.56167,"reserved":0,"last_update":"0001-01-01T00:00:00Z","name_a2s":"Uncletopia | Montr√©al | 4 | No Payload","protocol":17,"map":"cp_process_final","folder":"tf","game":"Team Fortress","app_id":440,"player_count":0,"max_players":24,"Bots":0,"server_type":"Dedicated","server_os":"Linux","password":true,"vac":true,"version":"7757534","steam_id":85568392924500090,"keywords":["cp","nocrits","nodmgspread","uncletopia"],"game_id":440,"stv_port":27046,"stv_name":"Uncletopia | Montr√©al | 4 | No Payload | STV","players":null},{"server_id":13,"name":"Uncletopia | New York City | 1 | All Maps","name_short":"nyc-1","host":"nyc-1.us.uncletopia.com","port":27015,"enabled":true,"region":"us-east","cc":"us","latitude":40.73061,"longitude":-73.93524,"reserved":0,"last_update":"0001-01-01T00:00:00Z","name_a2s":"Uncletopia | New York City | 1 | All Maps","protocol":17,"map":"cp_snakewater_final1","folder":"tf","game":"Team Fortress","app_id":440,"player_count":0,"max_players":24,"Bots":0,"server_type":"Dedicated","server_os":"Linux","password":true,"vac":true,"version":"7757534","steam_id":85568392924469993,"keywords":["cp","nocrits","nodmgspread","uncletopia"],"game_id":440,"stv_port":27016,"stv_name":"Uncletopia | New York City | 1 | All Maps | STV","players":null},{"server_id":14,"name":"Uncletopia | New York City | 2 | All Maps","name_short":"nyc-2","host":"nyc-1.us.uncletopia.com","port":27025,"enabled":true,"region":"us-east","cc":"us","latitude":40.73061,"longitude":-73.93524,"reserved":0,"last_update":"0001-01-01T00:00:00Z","name_a2s":"Uncletopia | New York City | 2 | All Maps","protocol":17,"map":"pl_upward","folder":"tf","game":"Team Fortress","app_id":440,"player_count":22,"max_players":24,"Bots":0,"server_type":"Dedicated","server_os":"Linux","password":true,"vac":true,"version":"7757534","steam_id":85568392924469994,"keywords":["nocrits","nodmgspread","payload","uncletopia"],"game_id":440,"stv_port":27026,"stv_name":"Uncletopia | New York City | 2 | All Maps | STV","players":[{"user_id":1119,"name":"Kiwiboy31","steam_id":76561198302758473,"connected_time":572000000000,"state":"active","ping":59},{"user_id":1097,"name":"morphtext","steam_id":76561199021314980,"connected_time":2695000000000,"state":"active","ping":87},{"user_id":1123,"name":"Sybil","steam_id":76561198042533062,"connected_time":251000000000,"state":"active","ping":116},{"user_id":1080,"name":"Wique","steam_id":76561198071217597,"connected_time":3762000000000,"state":"active","ping":66},{"user_id":1070,"name":"Argo","steam_id":76561198353725622,"connected_time":4528000000000,"state":"active","ping":70},{"user_id":1121,"name":"smk","steam_id":76561198068027379,"connected_time":428000000000,"state":"active","ping":141},{"user_id":1087,"name":"Dabbin Blackbeard","steam_id":76561198046130846,"connected_time":3131000000000,"state":"active","ping":109},{"user_id":1107,"name":"CRAZY engineer","steam_id":76561198887937902,"connected_time":1428000000000,"state":"active","ping":43},{"user_id":1120,"name":"shanghai","steam_id":76561197997961542,"connected_time":571000000000,"state":"active","ping":64},{"user_id":1124,"name":"Mother Cybele","steam_id":76561198138577355,"connected_time":205000000000,"state":"active","ping":76},{"user_id":1125,"name":"SpikedBounty66","steam_id":76561199143711476,"connected_time":198000000000,"state":"active","ping":86},{"user_id":1040,"name":"frappe444","steam_id":76561199032973937,"connected_time":6730000000000,"state":"active","ping":125},{"user_id":1126,"name":"Alice in Rubberland","steam_id":76561198087328346,"connected_time":191000000000,"state":"active","ping":60},{"user_id":1041,"name":"Makali","steam_id":76561198839601234,"connected_time":6724000000000,"state":"active","ping":118},{"user_id":1042,"name":"Fi \u003c3","steam_id":76561198315348942,"connected_time":6718000000000,"state":"active","ping":130},{"user_id":1122,"name":"TOYSIPO2","steam_id":76561198042183304,"connected_time":378000000000,"state":"active","ping":47},{"user_id":1127,"name":"Jesus Hooves She/Her Trans Righ","steam_id":76561198884198807,"connected_time":189000000000,"state":"active","ping":110},{"user_id":1129,"name":"old man scout","steam_id":76561198262873015,"connected_time":151000000000,"state":"active","ping":272},{"user_id":1130,"name":"TheTomohawkguy","steam_id":76561198814338464,"connected_time":71000000000,"state":"active","ping":68},{"user_id":1131,"name":"Dambo","steam_id":76561198227320008,"connected_time":13000000000,"state":"active","ping":377},{"user_id":1117,"name":"kursed","steam_id":76561198992371495,"connected_time":770000000000,"state":"active","ping":39},{"user_id":1118,"name":"‚ù§Cookie‚ù§","steam_id":76561198167488304,"connected_time":768000000000,"state":"active","ping":85}]},{"server_id":15,"name":"Uncletopia | New York City | 3 | Stopwatch Beta","name_short":"nyc-3","host":"nyc-1.us.uncletopia.com","port":27035,"enabled":true,"region":"us-east","cc":"us","latitude":40.73061,"longitude":-73.93524,"reserved":0,"last_update":"0001-01-01T00:00:00Z","name_a2s":"Uncletopia | New York City | 3 | Stopwatch Beta","protocol":17,"map":"workshop/koth_product_final.ugc454272353","folder":"tf","game":"Team Fortress","app_id":440,"player_count":0,"max_players":24,"Bots":0,"server_type":"Dedicated","server_os":"Linux","password":true,"vac":true,"version":"7757534","steam_id":85568392924742820,"keywords":["cp","nocrits","nodmgspread","uncletopia"],"game_id":440,"stv_port":27036,"stv_name":"Uncletopia | New York City | 3 | Stopwatch Beta | STV","players":null},{"server_id":16,"name":"Uncletopia | New York City | 4 | Community","name_short":"nyc-4","host":"nyc-1.us.uncletopia.com","port":27045,"enabled":true,"region":"us-east","cc":"us","latitude":40.73061,"longitude":-73.93524,"reserved":0,"last_update":"0001-01-01T00:00:00Z","name_a2s":"Uncletopia | New York City | 4 | Community","protocol":17,"map":"workshop/pl_boundary_final1.ugc456799153","folder":"tf","game":"Team Fortress","app_id":440,"player_count":0,"max_players":24,"Bots":0,"server_type":"Dedicated","server_os":"Linux","password":true,"vac":true,"version":"7757534","steam_id":85568392924742821,"keywords":["nocrits","nodmgspread","payload","uncletopia"],"game_id":440,"stv_port":27046,"stv_name":"Uncletopia | New York City | 4 | Community | STV","players":null},{"server_id":142,"name":"Uncletopia | S√£o Paulo | 1 | All Maps","name_short":"sao-1","host":"sao-1.br.uncletopia.com","port":27015,"enabled":true,"region":"sa","cc":"br","latitude":-23.533773,"longitude":-46.62529,"reserved":0,"last_update":"0001-01-01T00:00:00Z","name_a2s":"Uncletopia | S√£o Paulo | 1 | All Maps","protocol":17,"map":"koth_lakeside_final","folder":"tf","game":"Team Fortress","app_id":440,"player_count":0,"max_players":24,"Bots":0,"server_type":"Dedicated","server_os":"Linux","password":true,"vac":true,"version":"7757534","steam_id":85568392924469996,"keywords":["cp","nocrits","nodmgspread","uncletopia"],"game_id":440,"stv_port":27016,"stv_name":"Uncletopia | S√£o Paulo | 1 | All Maps | STV","players":null},{"server_id":143,"name":"Uncletopia | S√£o Paulo | 2 | All Maps","name_short":"sao-2","host":"sao-2.br.uncletopia.com","port":27015,"enabled":true,"region":"sa","cc":"br","latitude":-23.533773,"longitude":-46.62529,"reserved":0,"last_update":"0001-01-01T00:00:00Z","name_a2s":"Uncletopia | S√£o Paulo | 2 | All Maps","protocol":17,"map":"pl_borneo","folder":"tf","game":"Team Fortress","app_id":440,"player_count":0,"max_players":24,"Bots":0,"server_type":"Dedicated","server_os":"Linux","password":true,"vac":true,"version":"7757534","steam_id":85568392924485349,"keywords":["nocrits","nodmgspread","payload","uncletopia"],"game_id":440,"stv_port":27016,"stv_name":"Uncletopia | S√£o Paulo | 2 | All Maps | STV","players":null},{"server_id":7,"name":"Uncletopia | Seattle | 1 | All Maps","name_short":"sea-1","host":"sea-1.us.uncletopia.com","port":27015,"enabled":true,"region":"us-west","cc":"us","latitude":47.608013,"longitude":-122.33517,"reserved":0,"last_update":"0001-01-01T00:00:00Z","name_a2s":"Uncletopia | Seattle | 1 | All Maps","protocol":17,"map":"pl_upward","folder":"tf","game":"Team Fortress","app_id":440,"player_count":22,"max_players":24,"Bots":0,"server_type":"Dedicated","server_os":"Linux","password":true,"vac":true,"version":"7757534","steam_id":85568392924469997,"keywords":["nocrits","nodmgspread","payload","uncletopia"],"game_id":440,"stv_port":27016,"stv_name":"Uncletopia | Seattle | 1 | All Maps | STV","players":[{"user_id":888,"name":"John Calibur","steam_id":76561197999986606,"connected_time":1771000000000,"state":"active","ping":74},{"user_id":849,"name":"profile name","steam_id":76561198032625036,"connected_time":6091000000000,"state":"active","ping":58},{"user_id":905,"name":"Fargo","steam_id":76561198044703931,"connected_time":592000000000,"state":"active","ping":70},{"user_id":911,"name":"Rain","steam_id":76561198022607401,"connected_time":291000000000,"state":"active","ping":129},{"user_id":885,"name":"rorywashere /·ê† - Àï -„Éû ‚≥ä","steam_id":76561198065825165,"connected_time":2206000000000,"state":"active","ping":109},{"user_id":908,"name":"BoomieMcBoomPants","steam_id":76561198144516828,"connected_time":442000000000,"state":"active","ping":76},{"user_id":918,"name":"summerlis","steam_id":76561198165324438,"connected_time":15000000000,"state":"active","ping":241},{"user_id":891,"name":"Gatackku","steam_id":76561198089902965,"connected_time":1733000000000,"state":"active","ping":51},{"user_id":894,"name":"Number_forty1","steam_id":76561198103653795,"connected_time":1688000000000,"state":"active","ping":93},{"user_id":892,"name":"squeako mode","steam_id":76561198302580297,"connected_time":1696000000000,"state":"active","ping":94},{"user_id":903,"name":"social distance warrior","steam_id":76561198128992994,"connected_time":629000000000,"state":"active","ping":46},{"user_id":868,"name":"gorlab","steam_id":76561198025089694,"connected_time":3758000000000,"state":"active","ping":63},{"user_id":881,"name":"Skoad","steam_id":76561198104650528,"connected_time":2723000000000,"state":"active","ping":65},{"user_id":897,"name":"gerg","steam_id":76561197997127387,"connected_time":1561000000000,"state":"active","ping":69},{"user_id":825,"name":"Level 99 Mudcrab","steam_id":76561198077452771,"connected_time":7779000000000,"state":"active","ping":56},{"user_id":915,"name":"why do i play video games","steam_id":76561199476816590,"connected_time":187000000000,"state":"active","ping":62},{"user_id":917,"name":"doctor john minecraft","steam_id":76561198004847013,"connected_time":143000000000,"state":"active","ping":126},{"user_id":899,"name":":face_holding_back_tears:","steam_id":76561198164782653,"connected_time":1539000000000,"state":"active","ping":121},{"user_id":914,"name":"Calypso","steam_id":76561198082939544,"connected_time":251000000000,"state":"active","ping":81},{"user_id":880,"name":"Psychic Tandem War Elephant","steam_id":76561198040742185,"connected_time":3224000000000,"state":"active","ping":137},{"user_id":916,"name":"Cam(era)","steam_id":76561198285054047,"connected_time":175000000000,"state":"active","ping":85},{"user_id":902,"name":"Virgin Gaming","steam_id":76561198093888772,"connected_time":1202000000000,"state":"active","ping":59}]},{"server_id":119,"name":"Uncletopia | Seattle | 2 | All Maps","name_short":"sea-2","host":"sea-1.us.uncletopia.com","port":27025,"enabled":true,"region":"us-west","cc":"us","latitude":47.608013,"longitude":-122.33517,"reserved":0,"last_update":"0001-01-01T00:00:00Z","name_a2s":"Uncletopia | Seattle | 2 | All Maps","protocol":17,"map":"pl_swiftwater_final1","folder":"tf","game":"Team Fortress","app_id":440,"player_count":15,"max_players":24,"Bots":0,"server_type":"Dedicated","server_os":"Linux","password":true,"vac":true,"version":"7757534","steam_id":85568392924469998,"keywords":["nocrits","nodmgspread","payload","uncletopia"],"game_id":440,"stv_port":27026,"stv_name":"Uncletopia | Seattle | 2 | All Maps | STV","players":[{"user_id":800,"name":"VongolaKingdom","steam_id":76561198420459886,"connected_time":993000000000,"state":"active","ping":96},{"user_id":801,"name":"Brrger","steam_id":76561198066278946,"connected_time":703000000000,"state":"active","ping":91},{"user_id":802,"name":"NightKnight","steam_id":76561198377233477,"connected_time":652000000000,"state":"active","ping":117},{"user_id":803,"name":"ﬂ∑Stonkoﬂ∑","steam_id":76561198091904142,"connected_time":652000000000,"state":"active","ping":79},{"user_id":805,"name":"Larynx","steam_id":76561199425162651,"connected_time":522000000000,"state":"active","ping":247},{"user_id":806,"name":"SOULDOG","steam_id":76561199212057006,"connected_time":497000000000,"state":"active","ping":276},{"user_id":789,"name":"Thunder","steam_id":76561198795676044,"connected_time":1601000000000,"state":"active","ping":67},{"user_id":808,"name":"hart","steam_id":76561198046073848,"connected_time":408000000000,"state":"active","ping":47},{"user_id":810,"name":"cringy","steam_id":76561198323000455,"connected_time":210000000000,"state":"active","ping":102},{"user_id":807,"name":"waymin","steam_id":76561198150914868,"connected_time":463000000000,"state":"active","ping":143},{"user_id":811,"name":"mrnermal7","steam_id":76561199139504199,"connected_time":179000000000,"state":"active","ping":88},{"user_id":809,"name":"shoe","steam_id":76561198451476220,"connected_time":369000000000,"state":"active","ping":51},{"user_id":812,"name":"rezing09","steam_id":76561199406928283,"connected_time":132000000000,"state":"active","ping":99},{"user_id":794,"name":"bee","steam_id":76561198133853375,"connected_time":1491000000000,"state":"active","ping":67},{"user_id":799,"name":"Zipp {Comms open}","steam_id":76561198146409744,"connected_time":1377000000000,"state":"active","ping":95}]},{"server_id":406,"name":"Uncletopia | Seattle | 3 | Stopwatch Beta","name_short":"sea-3","host":"sea-1.us.uncletopia.com","port":27035,"enabled":true,"region":"us-west","cc":"us","latitude":47.608013,"longitude":-122.33517,"reserved":0,"last_update":"0001-01-01T00:00:00Z","name_a2s":"Uncletopia | Seattle | 3 | Stopwatch Beta","protocol":17,"map":"workshop/koth_ashville_final.ugc2130459942","folder":"tf","game":"Team Fortress","app_id":440,"player_count":0,"max_players":24,"Bots":0,"server_type":"Dedicated","server_os":"Linux","password":true,"vac":true,"version":"7757534","steam_id":85568392924515217,"keywords":["cp","nocrits","nodmgspread","uncletopia"],"game_id":440,"stv_port":27036,"stv_name":"Uncletopia | Seattle | 3 | Stopwatch Beta | STV","players":null},{"server_id":17,"name":"Uncletopia | San Francisco | 1 | All Maps","name_short":"sfo-1","host":"sfo-1.us.uncletopia.com","port":27015,"enabled":true,"region":"us-west","cc":"us","latitude":37.77397,"longitude":-122.4313,"reserved":0,"last_update":"0001-01-01T00:00:00Z","name_a2s":"Uncletopia | San Francisco | 1 | All Maps","protocol":17,"map":"pl_borneo","folder":"tf","game":"Team Fortress","app_id":440,"player_count":24,"max_players":24,"Bots":0,"server_type":"Dedicated","server_os":"Linux","password":true,"vac":true,"version":"7757534","steam_id":85568392924469999,"keywords":["nocrits","nodmgspread","payload","uncletopia"],"game_id":440,"stv_port":27016,"stv_name":"Uncletopia | San Francisco | 1 | All Maps | STV","players":[{"user_id":954,"name":"Flipari","steam_id":76561198399012971,"connected_time":268000000000,"state":"active","ping":59},{"user_id":953,"name":"Mad Italian","steam_id":76561198083529973,"connected_time":650000000000,"state":"active","ping":61},{"user_id":934,"name":"asphalt eater","steam_id":76561198844273999,"connected_time":2764000000000,"state":"active","ping":63},{"user_id":948,"name":"TheAlphaDoor","steam_id":76561198336551859,"connected_time":1047000000000,"state":"active","ping":42},{"user_id":867,"name":"MegaBron James","steam_id":76561198066091050,"connected_time":8484000000000,"state":"active","ping":69},{"user_id":952,"name":"SuaveFrenchman","steam_id":76561198043762683,"connected_time":855000000000,"state":"active","ping":45},{"user_id":895,"name":"Thunder","steam_id":76561198097721532,"connected_time":7114000000000,"state":"active","ping":55},{"user_id":950,"name":"you've been deuced on!","steam_id":76561198236028020,"connected_time":907000000000,"state":"active","ping":156},{"user_id":896,"name":"Courier711","steam_id":76561198053232343,"connected_time":7085000000000,"state":"active","ping":70},{"user_id":933,"name":"smiley","steam_id":76561198240116276,"connected_time":2841000000000,"state":"active","ping":99},{"user_id":908,"name":"Pie","steam_id":76561198054721133,"connected_time":6594000000000,"state":"active","ping":70},{"user_id":943,"name":"kevin shields #1 fan","steam_id":76561197995200743,"connected_time":1871000000000,"state":"active","ping":45},{"user_id":840,"name":"lol","steam_id":76561198026491738,"connected_time":10943000000000,"state":"active","ping":62},{"user_id":936,"name":"served","steam_id":76561199438267625,"connected_time":2650000000000,"state":"active","ping":63},{"user_id":762,"name":"Dr. B Busta","steam_id":76561198206387303,"connected_time":14322000000000,"state":"active","ping":48},{"user_id":914,"name":"PunishedCrab","steam_id":76561198079650017,"connected_time":5591000000000,"state":"active","ping":75},{"user_id":955,"name":"charley","steam_id":76561198828238339,"connected_time":246000000000,"state":"active","ping":86},{"user_id":946,"name":"intel or amd?","steam_id":76561198319442494,"connected_time":1310000000000,"state":"active","ping":64},{"user_id":929,"name":"SnaggzHaki","steam_id":76561198065282605,"connected_time":3775000000000,"state":"active","ping":102},{"user_id":930,"name":"SWANG","steam_id":76561198269180990,"connected_time":3765000000000,"state":"active","ping":98},{"user_id":951,"name":"SCOTLAND FOREVER","steam_id":76561198046472986,"connected_time":901000000000,"state":"active","ping":122},{"user_id":941,"name":"Jack from Jack in The Box","steam_id":76561199083594971,"connected_time":2398000000000,"state":"active","ping":64},{"user_id":918,"name":"Cinna Mon","steam_id":76561198005840633,"connected_time":5508000000000,"state":"active","ping":68},{"user_id":931,"name":"Beno","steam_id":76561198164251467,"connected_time":3756000000000,"state":"active","ping":108}]},{"server_id":18,"name":"Uncletopia | San Francisco | 2 | All Maps","name_short":"sfo-2","host":"sfo-1.us.uncletopia.com","port":27025,"enabled":true,"region":"us-west","cc":"us","latitude":37.77397,"longitude":-122.4313,"reserved":0,"last_update":"0001-01-01T00:00:00Z","name_a2s":"Uncletopia | San Francisco | 2 | All Maps","protocol":17,"map":"pl_swiftwater_final1","folder":"tf","game":"Team Fortress","app_id":440,"player_count":24,"max_players":24,"Bots":0,"server_type":"Dedicated","server_os":"Linux","password":true,"vac":true,"version":"7757534","steam_id":85568392924470000,"keywords":["nocrits","nodmgspread","payload","uncletopia"],"game_id":440,"stv_port":27026,"stv_name":"Uncletopia | San Francisco | 2 | All Maps | STV","players":[{"user_id":90,"name":"Satori Komeiji","steam_id":76561198158211423,"connected_time":5740000000000,"state":"active","ping":55},{"user_id":164,"name":"Hifumi Togo","steam_id":76561198074930636,"connected_time":375000000000,"state":"active","ping":86},{"user_id":163,"name":"nescoceo","steam_id":76561198040801160,"connected_time":471000000000,"state":"active","ping":56},{"user_id":147,"name":"Gm_Trash","steam_id":76561199445091548,"connected_time":1791000000000,"state":"active","ping":81},{"user_id":114,"name":"Cactus","steam_id":76561198149762619,"connected_time":4955000000000,"state":"active","ping":70},{"user_id":152,"name":"ark","steam_id":76561198041066271,"connected_time":1332000000000,"state":"active","ping":80},{"user_id":153,"name":"Space Man","steam_id":76561198112499531,"connected_time":1284000000000,"state":"active","ping":160},{"user_id":115,"name":"IHUNTZ","steam_id":76561198390109907,"connected_time":4955000000000,"state":"active","ping":70},{"user_id":94,"name":"Qrowniniee","steam_id":76561198273028245,"connected_time":5519000000000,"state":"active","ping":73},{"user_id":158,"name":"Durazorn","steam_id":76561198096327396,"connected_time":1021000000000,"state":"active","ping":112},{"user_id":142,"name":"Tankun","steam_id":76561198020365510,"connected_time":2053000000000,"state":"active","ping":96},{"user_id":150,"name":"ScoutBox","steam_id":76561198111539895,"connected_time":1635000000000,"state":"active","ping":54},{"user_id":154,"name":"One Horned Bitch Destroyer","steam_id":76561198045810191,"connected_time":1276000000000,"state":"active","ping":64},{"user_id":140,"name":"bingus","steam_id":76561199198633203,"connected_time":3453000000000,"state":"active","ping":96},{"user_id":160,"name":"FessionalProSpyGun","steam_id":76561198295280927,"connected_time":787000000000,"state":"active","ping":82},{"user_id":155,"name":"John F. Kennedy","steam_id":76561198930949405,"connected_time":1265000000000,"state":"active","ping":153},{"user_id":144,"name":"Dagoth Ur","steam_id":76561198117028805,"connected_time":2038000000000,"state":"active","ping":90},{"user_id":156,"name":"mike, louie is a munch","steam_id":76561198225411004,"connected_time":1162000000000,"state":"active","ping":80},{"user_id":109,"name":"Rusty","steam_id":76561198178868626,"connected_time":5031000000000,"state":"active","ping":89},{"user_id":105,"name":"Darth Humis","steam_id":76561198879506239,"connected_time":5098000000000,"state":"active","ping":66},{"user_id":133,"name":"bonk man","steam_id":76561198386542309,"connected_time":3765000000000,"state":"active","ping":98},{"user_id":157,"name":"Franky","steam_id":76561198149544039,"connected_time":1047000000000,"state":"active","ping":153},{"user_id":165,"name":"Mr. Gainsalot","steam_id":76561198083851689,"connected_time":368000000000,"state":"active","ping":72},{"user_id":148,"name":"rey","steam_id":76561198021883683,"connected_time":1775000000000,"state":"active","ping":65}]},{"server_id":19,"name":"Uncletopia | San Francisco | 3 | Stopwatch Beta","name_short":"sfo-3","host":"sfo-1.us.uncletopia.com","port":27035,"enabled":true,"region":"us-west","cc":"us","latitude":37.77397,"longitude":-122.4313,"reserved":0,"last_update":"0001-01-01T00:00:00Z","name_a2s":"Uncletopia | San Francisco | 3 | Stopwatch Beta","protocol":17,"map":"pl_swiftwater_final1","folder":"tf","game":"Team Fortress","app_id":440,"player_count":0,"max_players":24,"Bots":0,"server_type":"Dedicated","server_os":"Linux","password":true,"vac":true,"version":"7757534","steam_id":85568392924742824,"keywords":["nocrits","nodmgspread","payload","uncletopia"],"game_id":440,"stv_port":27036,"stv_name":"Uncletopia | San Francisco | 3 | Stopwatch Beta | STV","players":null},{"server_id":20,"name":"Uncletopia | San Francisco | 4 | Community","name_short":"sfo-4","host":"sfo-1.us.uncletopia.com","port":27045,"enabled":true,"region":"us-west","cc":"us","latitude":37.77397,"longitude":-122.4313,"reserved":0,"last_update":"0001-01-01T00:00:00Z","name_a2s":"Uncletopia | San Francisco | 4 | Community","protocol":17,"map":"workshop/koth_synthetic_rc6a.ugc1549817316","folder":"tf","game":"Team Fortress","app_id":440,"player_count":8,"max_players":24,"Bots":0,"server_type":"Dedicated","server_os":"Linux","password":true,"vac":true,"version":"7757534","steam_id":85568392924742826,"keywords":["cp","nocrits","nodmgspread","uncletopia"],"game_id":440,"stv_port":27046,"stv_name":"Uncletopia | San Francisco | 4 | Community | STV","players":[{"user_id":320,"name":"Honey Boo Boo","steam_id":76561198119340886,"connected_time":6340000000000,"state":"active","ping":89},{"user_id":361,"name":"nazlite","steam_id":76561198111952315,"connected_time":760000000000,"state":"active","ping":121},{"user_id":362,"name":"DMJanitor","steam_id":76561198058929753,"connected_time":433000000000,"state":"active","ping":56},{"user_id":363,"name":"origamiira (RUS)","steam_id":76561199218739074,"connected_time":164000000000,"state":"active","ping":262},{"user_id":348,"name":"BaklanbI","steam_id":76561198081663522,"connected_time":3797000000000,"state":"active","ping":239},{"user_id":355,"name":"tracy","steam_id":76561198319677284,"connected_time":2707000000000,"state":"active","ping":45},{"user_id":364,"name":"Gumba21","steam_id":76561199167640179,"connected_time":78000000000,"state":"active","ping":89},{"user_id":353,"name":"awning","steam_id":76561198202285760,"connected_time":2973000000000,"state":"active","ping":70}]},{"server_id":141,"name":"Uncletopia | Sydney | 1 | All Maps","name_short":"syd-1","host":"syd-1.au.uncletopia.com","port":27015,"enabled":true,"region":"au","cc":"au","latitude":-33.865143,"longitude":151.2099,"reserved":0,"last_update":"0001-01-01T00:00:00Z","name_a2s":"Uncletopia | Sydney | 1 | All Maps","protocol":17,"map":"koth_sawmill","folder":"tf","game":"Team Fortress","app_id":440,"player_count":24,"max_players":24,"Bots":0,"server_type":"Dedicated","server_os":"Linux","password":true,"vac":true,"version":"7757534","steam_id":85568392924470001,"keywords":["cp","nocrits","nodmgspread","uncletopia"],"game_id":440,"stv_port":27016,"stv_name":"Uncletopia | Sydney | 1 | All Maps | STV","players":[{"user_id":434,"name":"Zieria","steam_id":76561199261811388,"connected_time":204000000000,"state":"active","ping":46},{"user_id":427,"name":"Sparky","steam_id":76561198117687688,"connected_time":833000000000,"state":"active","ping":66},{"user_id":407,"name":"Mr Mahal","steam_id":76561198123234137,"connected_time":2415000000000,"state":"active","ping":55},{"user_id":363,"name":"weezer","steam_id":76561199439508788,"connected_time":5298000000000,"state":"active","ping":62},{"user_id":418,"name":"Mr Doctor","steam_id":76561198081415999,"connected_time":1611000000000,"state":"active","ping":72},{"user_id":356,"name":"smite","steam_id":76561198845304189,"connected_time":6202000000000,"state":"active","ping":73},{"user_id":430,"name":"Chicago Ted","steam_id":76561198010140369,"connected_time":732000000000,"state":"active","ping":93},{"user_id":423,"name":"Pigmop","steam_id":76561199096494193,"connected_time":969000000000,"state":"active","ping":67},{"user_id":433,"name":"Rat Pope","steam_id":76561199059450243,"connected_time":307000000000,"state":"active","ping":54},{"user_id":421,"name":"Abraham Lincoln","steam_id":76561198095292515,"connected_time":1175000000000,"state":"active","ping":63},{"user_id":410,"name":"beth.cubitt","steam_id":76561198454733447,"connected_time":2401000000000,"state":"active","ping":91},{"user_id":431,"name":"Charm","steam_id":76561198028891054,"connected_time":630000000000,"state":"active","ping":54},{"user_id":426,"name":"Gnat","steam_id":76561198109747863,"connected_time":885000000000,"state":"active","ping":106},{"user_id":419,"name":"O'rangutan","steam_id":76561198095916681,"connected_time":1521000000000,"state":"active","ping":35},{"user_id":367,"name":"bison","steam_id":76561198183851230,"connected_time":5080000000000,"state":"active","ping":58},{"user_id":323,"name":"Mail Bomb Victim","steam_id":76561198284533039,"connected_time":8724000000000,"state":"active","ping":51},{"user_id":436,"name":"Knowone","steam_id":76561198233429440,"connected_time":64000000000,"state":"active","ping":320},{"user_id":402,"name":"Blazey ‰ºäÈÅî ÊîøÂÆó","steam_id":76561197971082275,"connected_time":2721000000000,"state":"active","ping":123},{"user_id":389,"name":"LightningBlock","steam_id":76561198289997742,"connected_time":3487000000000,"state":"active","ping":39},{"user_id":435,"name":"Pr1nce","steam_id":76561198116791394,"connected_time":169000000000,"state":"active","ping":86},{"user_id":429,"name":"Critz Eastwood","steam_id":76561198050094688,"connected_time":778000000000,"state":"active","ping":59},{"user_id":411,"name":"KindredGarlic","steam_id":76561198862857120,"connected_time":2295000000000,"state":"active","ping":40},{"user_id":405,"name":"BaconUndies","steam_id":76561198281809824,"connected_time":2584000000000,"state":"active","ping":101},{"user_id":386,"name":"mushroom","steam_id":76561197992336470,"connected_time":3639000000000,"state":"active","ping":88}]},{"server_id":123,"name":"Uncletopia | Sydney | 2 | All Maps","name_short":"syd-2","host":"syd-1.au.uncletopia.com","port":27025,"enabled":true,"region":"au","cc":"au","latitude":-33.865143,"longitude":151.2099,"reserved":0,"last_update":"0001-01-01T00:00:00Z","name_a2s":"Uncletopia | Sydney | 2 | All Maps","protocol":17,"map":"pl_pier","folder":"tf","game":"Team Fortress","app_id":440,"player_count":22,"max_players":24,"Bots":0,"server_type":"Dedicated","server_os":"Linux","password":true,"vac":true,"version":"7757534","steam_id":85568392924470002,"keywords":["nocrits","nodmgspread","payload","uncletopia"],"game_id":440,"stv_port":27026,"stv_name":"Uncletopia | Sydney | 2 | All Maps | STV","players":[{"user_id":262,"name":"Gregory doesn't play Engineer","steam_id":76561199028542666,"connected_time":1208000000000,"state":"active","ping":44},{"user_id":282,"name":"Distilledrain41","steam_id":76561198272717119,"connected_time":94000000000,"state":"active","ping":51},{"user_id":248,"name":"Sherpa","steam_id":76561198018913829,"connected_time":1667000000000,"state":"active","ping":53},{"user_id":260,"name":"Jamie2Cool","steam_id":76561198155695809,"connected_time":1297000000000,"state":"active","ping":87},{"user_id":250,"name":"JustGaming","steam_id":76561198086431902,"connected_time":1578000000000,"state":"active","ping":33},{"user_id":283,"name":"jrg","steam_id":76561197997362731,"connected_time":15000000000,"state":"active","ping":331},{"user_id":252,"name":"TV Girl enjoyer","steam_id":76561198398154377,"connected_time":1528000000000,"state":"active","ping":68},{"user_id":275,"name":"Sinister80s","steam_id":76561198343540472,"connected_time":855000000000,"state":"active","ping":62},{"user_id":281,"name":"Pile of Sneed","steam_id":76561198143537391,"connected_time":163000000000,"state":"active","ping":59},{"user_id":261,"name":"piratespy22","steam_id":76561198042198744,"connected_time":1225000000000,"state":"active","ping":49},{"user_id":279,"name":"Willsy","steam_id":76561198027119367,"connected_time":383000000000,"state":"active","ping":55},{"user_id":270,"name":"Gen","steam_id":76561198799842401,"connected_time":1013000000000,"state":"active","ping":97},{"user_id":235,"name":"The_Green_Jelly","steam_id":76561198381061704,"connected_time":2962000000000,"state":"active","ping":83},{"user_id":277,"name":"Teags","steam_id":76561198310870519,"connected_time":446000000000,"state":"active","ping":47},{"user_id":264,"name":"Stab Calloway","steam_id":76561198027827983,"connected_time":1144000000000,"state":"active","ping":44},{"user_id":265,"name":"SUSHIMAN","steam_id":76561199089989428,"connected_time":1143000000000,"state":"active","ping":155},{"user_id":269,"name":"danno!","steam_id":76561198091848946,"connected_time":1042000000000,"state":"active","ping":183},{"user_id":276,"name":"Black Clad Gang Man","steam_id":76561198281156018,"connected_time":550000000000,"state":"active","ping":71},{"user_id":278,"name":"itsame","steam_id":76561198059284918,"connected_time":407000000000,"state":"active","ping":47},{"user_id":183,"name":"Matchfighter","steam_id":76561198043200309,"connected_time":5559000000000,"state":"spawning","ping":47},{"user_id":195,"name":"Paula","steam_id":76561198010688399,"connected_time":4563000000000,"state":"active","ping":88},{"user_id":273,"name":"Pug","steam_id":76561198136794372,"connected_time":974000000000,"state":"active","ping":54}]},{"server_id":395,"name":"Uncletopia | Sydney | 3 | All Maps","name_short":"syd-3","host":"syd-1.au.uncletopia.com","port":27035,"enabled":true,"region":"au","cc":"au","latitude":-33.865143,"longitude":151.2099,"reserved":0,"last_update":"0001-01-01T00:00:00Z","name_a2s":"Uncletopia | Sydney | 3 | All Maps","protocol":17,"map":"cp_mountainlab","folder":"tf","game":"Team Fortress","app_id":440,"player_count":1,"max_players":24,"Bots":0,"server_type":"Dedicated","server_os":"Linux","password":true,"vac":true,"version":"7757534","steam_id":85568392925194467,"keywords":["cp","nocrits","nodmgspread","uncletopia"],"game_id":440,"stv_port":27036,"stv_name":"Uncletopia | Sydney | 3 | All Maps | STV","players":[{"user_id":337,"name":"juusha","steam_id":76561198911542330,"connected_time":521000000000,"state":"active","ping":74}]},{"server_id":396,"name":"Uncletopia | Sydney | 4 | All Maps","name_short":"syd-4","host":"syd-1.au.uncletopia.com","port":27045,"enabled":true,"region":"au","cc":"au","latitude":-33.865143,"longitude":151.2099,"reserved":0,"last_update":"0001-01-01T00:00:00Z","name_a2s":"Uncletopia | Sydney | 4 | All Maps","protocol":17,"map":"koth_lakeside_final","folder":"tf","game":"Team Fortress","app_id":440,"player_count":0,"max_players":24,"Bots":0,"server_type":"Dedicated","server_os":"Linux","password":true,"vac":true,"version":"7757534","steam_id":85568392925397958,"keywords":["cp","nocrits","nodmgspread","uncletopia"],"game_id":440,"stv_port":27046,"stv_name":"Uncletopia | Sydney | 4 | All Maps | STV","players":null},{"server_id":58,"name":"Uncletopia | Sydney | 5 | Stopwatch Beta","name_short":"syd-5","host":"syd-1.au.uncletopia.com","port":27055,"enabled":true,"region":"au","cc":"au","latitude":-33.865143,"longitude":151.2099,"reserved":0,"last_update":"0001-01-01T00:00:00Z","name_a2s":"Uncletopia | Sydney | 5 | Stopwatch Beta","protocol":17,"map":"pl_upward","folder":"tf","game":"Team Fortress","app_id":440,"player_count":0,"max_players":24,"Bots":0,"server_type":"Dedicated","server_os":"Linux","password":true,"vac":true,"version":"7757534","steam_id":85568392925397959,"keywords":["nocrits","nodmgspread","payload","uncletopia"],"game_id":440,"stv_port":27056,"stv_name":"Uncletopia | Sydney | 5 | Stopwatch Beta | STV","players":null},{"server_id":59,"name":"Uncletopia | Sydney | 6 | Community","name_short":"syd-6","host":"syd-1.au.uncletopia.com","port":27065,"enabled":true,"region":"au","cc":"au","latitude":-33.865143,"longitude":151.2099,"reserved":0,"last_update":"0001-01-01T00:00:00Z","name_a2s":"Uncletopia | Sydney | 6 | Community","protocol":17,"map":"workshop/pl_divulgence_b4b.ugc2884808746","folder":"tf","game":"Team Fortress","app_id":440,"player_count":2,"max_players":24,"Bots":0,"server_type":"Dedicated","server_os":"Linux","password":true,"vac":true,"version":"7757534","steam_id":85568392925397960,"keywords":["nocrits","nodmgspread","payload","uncletopia"],"game_id":440,"stv_port":27066,"stv_name":"Uncletopia | Sydney | 6 | Community | STV","players":[{"user_id":8,"name":"Zilvera","steam_id":76561198065801850,"connected_time":5467000000000,"state":"active","ping":55},{"user_id":13,"name":"FreeBeers","steam_id":76561198095448607,"connected_time":705000000000,"state":"active","ping":65}]},{"server_id":49,"name":"Uncletopia | Warsaw | 1 | All Maps","name_short":"waw-1","host":"waw-1.pl.uncletopia.com","port":27015,"enabled":true,"region":"eu","cc":"pl","latitude":52.2297,"longitude":21.017532,"reserved":0,"last_update":"0001-01-01T00:00:00Z","name_a2s":"","protocol":0,"map":"","folder":"","game":"","app_id":0,"player_count":0,"max_players":0,"Bots":0,"server_type":"","server_os":"","password":false,"vac":false,"version":"","steam_id":0,"keywords":null,"game_id":0,"stv_port":0,"stv_name":"","players":null},{"server_id":50,"name":"Uncletopia | Warsaw | 2 | All Maps","name_short":"waw-2","host":"waw-1.pl.uncletopia.com","port":27025,"enabled":true,"region":"eu","cc":"pl","latitude":52.2297,"longitude":21.017532,"reserved":0,"last_update":"0001-01-01T00:00:00Z","name_a2s":"Uncletopia | Warsaw | 2 | All Maps","protocol":17,"map":"koth_viaduct","folder":"tf","game":"Team Fortress","app_id":440,"player_count":0,"max_players":24,"Bots":0,"server_type":"Dedicated","server_os":"Linux","password":true,"vac":true,"version":"7757534","steam_id":85568392925397851,"keywords":["cp","nocrits","nodmgspread","uncletopia"],"game_id":440,"stv_port":27026,"stv_name":"Uncletopia | Warsaw | 2 | All Maps | STV","players":null},{"server_id":51,"name":"Uncletopia | Warsaw | 3 | All Maps","name_short":"waw-3","host":"waw-1.pl.uncletopia.com","port":27035,"enabled":true,"region":"eu","cc":"pl","latitude":52.2297,"longitude":21.017532,"reserved":0,"last_update":"0001-01-01T00:00:00Z","name_a2s":"Uncletopia | Warsaw | 3 | All Maps","protocol":17,"map":"pl_badwater","folder":"tf","game":"Team Fortress","app_id":440,"player_count":0,"max_players":24,"Bots":0,"server_type":"Dedicated","server_os":"Linux","password":true,"vac":true,"version":"7757534","steam_id":85568392925397852,"keywords":["nocrits","nodmgspread","payload","uncletopia"],"game_id":440,"stv_port":27036,"stv_name":"Uncletopia | Warsaw | 3 | All Maps | STV","players":null},{"server_id":52,"name":"Uncletopia | Warsaw | 4 | All Maps","name_short":"waw-4","host":"waw-1.pl.uncletopia.com","port":27045,"enabled":true,"region":"eu","cc":"pl","latitude":52.2297,"longitude":21.017532,"reserved":0,"last_update":"0001-01-01T00:00:00Z","name_a2s":"Uncletopia | Warsaw | 4 | All Maps","protocol":17,"map":"koth_lakeside_final","folder":"tf","game":"Team Fortress","app_id":440,"player_count":0,"max_players":24,"Bots":0,"server_type":"Dedicated","server_os":"Linux","password":true,"vac":true,"version":"7757534","steam_id":85568392925397853,"keywords":["cp","nocrits","nodmgspread","uncletopia"],"game_id":440,"stv_port":27046,"stv_name":"Uncletopia | Warsaw | 4 | All Maps | STV","players":null},{"server_id":53,"name":"Uncletopia | Warsaw | 5 | Stopwatch Beta","name_short":"waw-5","host":"waw-1.pl.uncletopia.com","port":27055,"enabled":true,"region":"eu","cc":"pl","latitude":52.2297,"longitude":21.017532,"reserved":0,"last_update":"0001-01-01T00:00:00Z","name_a2s":"Uncletopia | Warsaw | 5 | Stopwatch Beta","protocol":17,"map":"pl_borneo","folder":"tf","game":"Team Fortress","app_id":440,"player_count":0,"max_players":24,"Bots":0,"server_type":"Dedicated","server_os":"Linux","password":true,"vac":true,"version":"7757534","steam_id":85568392925397854,"keywords":["nocrits","nodmgspread","payload","uncletopia"],"game_id":440,"stv_port":27056,"stv_name":"Uncletopia | Warsaw | 5 | Stopwatch Beta | STV","players":null},{"server_id":54,"name":"Uncletopia | Warsaw | 6 | Community","name_short":"waw-6","host":"waw-1.pl.uncletopia.com","port":27065,"enabled":true,"region":"eu","cc":"pl","latitude":52.2297,"longitude":21.017532,"reserved":0,"last_update":"0001-01-01T00:00:00Z","name_a2s":"Uncletopia | Warsaw | 6 | Community","protocol":17,"map":"koth_lakeside_final","folder":"tf","game":"Team Fortress","app_id":440,"player_count":0,"max_players":24,"Bots":0,"server_type":"Dedicated","server_os":"Linux","password":true,"vac":true,"version":"7757534","steam_id":85568392925397856,"keywords":["cp","nocrits","nodmgspread","uncletopia"],"game_id":440,"stv_port":27066,"stv_name":"Uncletopia | Warsaw | 6 | Community | STV","players":null}]}