{"status":true,"message":"","result":[{"server_id":9,"name":"Uncletopia | Atlanta | 1 | All Maps","name_short":"atl-1","host":"atl-1.us.uncletopia.com","port":27015,"enabled":true,"region":"us-east","cc":"us","latitude":33.753746,"longitude":-84.38633,"reserved":0,"last_update":"0001-01-01T00:00:00Z","name_a2s":"Uncletopia | Atlanta | 1 | All Maps","protocol":17,"map":"pl_swiftwater_final1","folder":"tf","game":"Team Fortress","app_id":440,"player_count":0,"max_players":24,"Bots":0,"server_type":"Dedicated","server_os":"Linux","password":true,"vac":true,"version":"7757534","steam_id":85568392924469982,"keywords":["nocrits","nodmgspread","payload","uncletopia"],"game_id":440,"stv_port":27016,"stv_name":"Uncletopia | Atlanta | 1 | All Maps | STV","players":null},{"server_id":104,"name":"Uncletopia | Atlanta | 2 | All Maps","name_short":"atl-2","host":"atl-1.us.uncletopia.com","port":27025,"enabled":true,"region":"us-east","cc":"us","latitude":33.753746,"longitude":-84.38633,"reserved":0,"last_update":"0001-01-01T00:00:00Z","name_a2s":"Uncletopia | Atlanta | 2 | All Maps","protocol":17,"map":"koth_lakeside_final","folder":"tf","game":"Team Fortress","app_id":440,"player_count":22,"max_players":24,"Bots":0,"server_type":"Dedicated","server_os":"Linux","password":true,"vac":true,"version":"7757534","steam_id":85568392924469983,"keywords":["cp","nocrits","nodmgspread","uncletopia"],"game_id":440,"stv_port":27026,"stv_name":"Uncletopia | Atlanta | 2 | All Maps | STV","players":[{"user_id":846,"name":"raya","steam_id":76561198051504581,"connected_time":4934000000000,"state":"active","ping":75},{"user_id":889,"name":"Intestinal Straw","steam_id":76561198082095303,"connected_time":617000000000,"state":"active","ping":67},{"user_id":879,"name":"Onyx","steam_id":76561198275349640,"connected_time":1707000000000,"state":"active","ping":71},{"user_id":814,"name":"you've been deuced on!","steam_id":76561198236028020,"connected_time":7683000000000,"state":"active","ping":92},{"user_id":876,"name":"puppy boy","steam_id":76561198255639473,"connected_time":2352000000000,"state":"active","ping":70},{"user_id":893,"name":"ya!!!","steam_id":76561198243965308,"connected_time":565000000000,"state":"active","ping":54},{"user_id":857,"name":"Joker's Skull","steam_id":76561199185320627,"connected_time":3826000000000,"state":"active","ping":161},{"user_id":858,"name":"cook","steam_id":76561198090531755,"connected_time":3750000000000,"state":"active","ping":71},{"user_id":838,"name":"SIGMA [BS]","steam_id":76561197962604879,"connected_time":5745000000000,"state":"active","ping":69},{"user_id":892,"name":"gromit","steam_id":76561198037746805,"connected_time":589000000000,"state":"active","ping":65},{"user_id":894,"name":"SCOTLAND FOREVER","steam_id":76561198046472986,"connected_time":564000000000,"state":"active","ping":69},{"user_id":902,"name":"State of the Union","steam_id":76561198083700067,"connected_time":35000000000,"state":"active","ping":61},{"user_id":884,"name":"mechiimi ‚òÖ","steam_id":76561198321627268,"connected_time":1522000000000,"state":"active","ping":108},{"user_id":871,"name":"I'll be okay","steam_id":76561198258126130,"connected_time":2732000000000,"state":"active","ping":75},{"user_id":819,"name":"Faraday","steam_id":76561198089928357,"connected_time":7413000000000,"state":"active","ping":70},{"user_id":873,"name":"Victor Crespo","steam_id":76561197996389261,"connected_time":2569000000000,"state":"active","ping":179},{"user_id":900,"name":"GamingAmongus","steam_id":76561198365133371,"connected_time":183000000000,"state":"active","ping":85},{"user_id":897,"name":"Spiderfight1","steam_id":76561199189991528,"connected_time":434000000000,"state":"active","ping":73},{"user_id":899,"name":"FessionalProSpyGun","steam_id":76561198295280927,"connected_time":214000000000,"state":"active","ping":84},{"user_id":890,"name":"Sober Accident Statistics","steam_id":76561198307516731,"connected_time":616000000000,"state":"active","ping":128},{"user_id":901,"name":"[DEEP]able","steam_id":76561198292552182,"connected_time":124000000000,"state":"active","ping":61},{"user_id":868,"name":"Wumps","steam_id":76561198207226825,"connected_time":2954000000000,"state":"active","ping":60}]},{"server_id":400,"name":"Uncletopia | Atlanta | 3 | Community","name_short":"atl-3","host":"atl-1.us.uncletopia.com","port":27035,"enabled":true,"region":"us-east","cc":"us","latitude":33.753746,"longitude":-84.38633,"reserved":0,"last_update":"0001-01-01T00:00:00Z","name_a2s":"Uncletopia | Atlanta | 3 | Community","protocol":17,"map":"workshop/pl_highwood_b13.ugc1769496557","folder":"tf","game":"Team Fortress","app_id":440,"player_count":0,"max_players":24,"Bots":0,"server_type":"Dedicated","server_os":"Linux","password":true,"vac":true,"version":"7757534","steam_id":85568392924515187,"keywords":["nocrits","nodmgspread","payload","uncletopia"],"game_id":440,"stv_port":27036,"stv_name":"Uncletopia | Atlanta | 3 | Community | STV","players":null},{"server_id":401,"name":"Uncletopia | Atlanta | 4 | No Payload","name_short":"atl-4","host":"atl-1.us.uncletopia.com","port":27045,"enabled":true,"region":"us-east","cc":"us","latitude":33.753746,"longitude":-84.38633,"reserved":0,"last_update":"0001-01-01T00:00:00Z","name_a2s":"","protocol":0,"map":"","folder":"","game":"","app_id":0,"player_count":0,"max_players":0,"Bots":0,"server_type":"","server_os":"","password":false,"vac":false,"version":"","steam_id":0,"keywords":null,"game_id":0,"stv_port":0,"stv_name":"","players":null},{"server_id":2,"name":"Uncletopia | Chicago | 1 | All Maps","name_short":"chi-1","host":"chi-1.us.uncletopia.com","port":27015,"enabled":true,"region":"us-central","cc":"us","latitude":41.881832,"longitude":-87.62318,"reserved":0,"last_update":"0001-01-01T00:00:00Z","name_a2s":"Uncletopia | Chicago | 1 | All Maps","protocol":17,"map":"pl_snowycoast","folder":"tf","game":"Team Fortress","app_id":440,"player_count":16,"max_players":24,"Bots":0,"server_type":"Dedicated","server_os":"Linux","password":true,"vac":true,"version":"7757534","steam_id":85568392924469984,"keywords":["nocrits","nodmgspread","payload","uncletopia"],"game_id":440,"stv_port":27016,"stv_name":"Uncletopia | Chicago | 1 | All Maps | STV","players":[{"user_id":1033,"name":"Kaluka","steam_id":76561198036861445,"connected_time":323000000000,"state":"active","ping":61},{"user_id":1038,"name":"Kiwiboy31","steam_id":76561198302758473,"connected_time":68000000000,"state":"active","ping":50},{"user_id":1037,"name":"Achy_Blitz","steam_id":76561198090433209,"connected_time":134000000000,"state":"active","ping":104},{"user_id":1010,"name":"Howard Hamlin","steam_id":76561198881039861,"connected_time":2103000000000,"state":"active","ping":52},{"user_id":1035,"name":"Rust","steam_id":76561198063959574,"connected_time":164000000000,"state":"active","ping":75},{"user_id":1004,"name":"Flaming O'Gaming","steam_id":76561198044185725,"connected_time":2709000000000,"state":"active","ping":70},{"user_id":990,"name":"EJ 2 u","steam_id":76561198242738174,"connected_time":3794000000000,"state":"active","ping":50},{"user_id":1026,"name":"sasdidssasadic","steam_id":76561199405276095,"connected_time":609000000000,"state":"active","ping":168},{"user_id":1039,"name":"Granlet","steam_id":76561199244312225,"connected_time":9000000000,"state":"spawning","ping":123},{"user_id":1016,"name":"aaron","steam_id":76561198308883028,"connected_time":1877000000000,"state":"active","ping":106},{"user_id":991,"name":"The Goose","steam_id":76561199006093549,"connected_time":3725000000000,"state":"active","ping":66},{"user_id":1011,"name":"Spy Gaming","steam_id":76561198453295613,"connected_time":2102000000000,"state":"active","ping":106},{"user_id":1023,"name":"J.R Prime","steam_id":76561198967753173,"connected_time":719000000000,"state":"active","ping":90},{"user_id":1020,"name":"Tobo","steam_id":76561198085846393,"connected_time":1447000000000,"state":"active","ping":86},{"user_id":1014,"name":"be","steam_id":76561198000824533,"connected_time":2052000000000,"state":"active","ping":86},{"user_id":1024,"name":"godtierJack.jpeg","steam_id":76561198089827454,"connected_time":716000000000,"state":"active","ping":60}]},{"server_id":106,"name":"Uncletopia | Chicago | 2 | All Maps","name_short":"chi-2","host":"chi-1.us.uncletopia.com","port":27025,"enabled":true,"region":"us-central","cc":"us","latitude":41.881832,"longitude":-87.62318,"reserved":0,"last_update":"0001-01-01T00:00:00Z","name_a2s":"Uncletopia | Chicago | 2 | All Maps","protocol":17,"map":"cp_mountainlab","folder":"tf","game":"Team Fortress","app_id":440,"player_count":0,"max_players":24,"Bots":0,"server_type":"Dedicated","server_os":"Linux","password":true,"vac":true,"version":"7757534","steam_id":85568392924469985,"keywords":["cp","nocrits","nodmgspread","uncletopia"],"game_id":440,"stv_port":27026,"stv_name":"Uncletopia | Chicago | 2 | All Maps | STV","players":null},{"server_id":402,"name":"Uncletopia | Chicago | 3 | All Maps","name_short":"chi-3","host":"chi-1.us.uncletopia.com","port":27035,"enabled":true,"region":"us-central","cc":"us","latitude":41.881832,"longitude":-87.62318,"reserved":0,"last_update":"0001-01-01T00:00:00Z","name_a2s":"Uncletopia | Chicago | 3 | All Maps","protocol":17,"map":"ctf_turbine","folder":"tf","game":"Team Fortress","app_id":440,"player_count":0,"max_players":24,"Bots":0,"server_type":"Dedicated","server_os":"Linux","password":true,"vac":true,"version":"7757534","steam_id":85568392924515191,"keywords":["ctf","nocrits","nodmgspread","uncletopia"],"game_id":440,"stv_port":27036,"stv_name":"Uncletopia | Chicago | 3 | All Maps | STV","players":null},{"server_id":403,"name":"Uncletopia | Chicago | 4 | All Maps","name_short":"chi-4","host":"chi-1.us.uncletopia.com","port":27045,"enabled":true,"region":"us-central","cc":"us","latitude":41.881832,"longitude":-87.62318,"reserved":0,"last_update":"0001-01-01T00:00:00Z","name_a2s":"Uncletopia | Chicago | 4 | All Maps","protocol":17,"map":"pl_barnblitz","folder":"tf","game":"Team Fortress","app_id":440,"player_count":22,"max_players":24,"Bots":0,"server_type":"Dedicated","server_os":"Linux","password":true,"vac":true,"version":"7757534","steam_id":85568392924515193,"keywords":["nocrits","nodmgspread","payload","uncletopia"],"game_id":440,"stv_port":27046,"stv_name":"Uncletopia | Chicago | 4 | All Maps | STV","players":[{"user_id":585,"name":"Vorce","steam_id":76561198998082956,"connected_time":6354000000000,"state":"active","ping":45},{"user_id":596,"name":"Dot.","steam_id":76561198149463984,"connected_time":5760000000000,"state":"active","ping":45},{"user_id":676,"name":"The 64th Gamer","steam_id":76561198191188271,"connected_time":513000000000,"state":"active","ping":68},{"user_id":662,"name":"sqwyrm","steam_id":76561198171032997,"connected_time":1359000000000,"state":"active","ping":105},{"user_id":678,"name":"ruin","steam_id":76561199439050550,"connected_time":138000000000,"state":"active","ping":89},{"user_id":670,"name":"hud_saytext_time 0","steam_id":76561198010327228,"connected_time":1061000000000,"state":"active","ping":170},{"user_id":675,"name":"LloydMann","steam_id":76561198025392778,"connected_time":583000000000,"state":"active","ping":56},{"user_id":648,"name":"cold","steam_id":76561198841186531,"connected_time":2086000000000,"state":"active","ping":133},{"user_id":607,"name":"Matches_                       ","steam_id":76561198048925904,"connected_time":4394000000000,"state":"active","ping":120},{"user_id":649,"name":"random person","steam_id":76561199185654282,"connected_time":2072000000000,"state":"active","ping":58},{"user_id":672,"name":"kingeibon","steam_id":76561198056238702,"connected_time":938000000000,"state":"active","ping":68},{"user_id":653,"name":"Ket","steam_id":76561198241951244,"connected_time":2008000000000,"state":"active","ping":66},{"user_id":588,"name":"HOODEDLAWYER285","steam_id":76561198156496197,"connected_time":6323000000000,"state":"active","ping":52},{"user_id":658,"name":"Spinomite","steam_id":76561198247491242,"connected_time":1816000000000,"state":"active","ping":93},{"user_id":667,"name":"luigi","steam_id":76561198108673753,"connected_time":1210000000000,"state":"active","ping":61},{"user_id":673,"name":"Drunkard Bocchi","steam_id":76561198025668771,"connected_time":898000000000,"state":"active","ping":129},{"user_id":609,"name":"honked off the bobo","steam_id":76561198123287268,"connected_time":4355000000000,"state":"active","ping":45},{"user_id":677,"name":"Atlas","steam_id":76561198127975050,"connected_time":302000000000,"state":"active","ping":67},{"user_id":655,"name":"Warm Embraces","steam_id":76561198798931344,"connected_time":2004000000000,"state":"active","ping":89},{"user_id":666,"name":"FT","steam_id":76561198010452388,"connected_time":1311000000000,"state":"active","ping":75},{"user_id":661,"name":"An Axe Man With An Axe Plan","steam_id":76561199031265293,"connected_time":1776000000000,"state":"active","ping":68},{"user_id":642,"name":"RURU","steam_id":76561198039758987,"connected_time":2280000000000,"state":"active","ping":102}]},{"server_id":36,"name":"Uncletopia | Chicago | 5 | All Maps","name_short":"chi-5","host":"chi-2.us.uncletopia.com","port":27015,"enabled":true,"region":"us-central","cc":"us","latitude":41.881832,"longitude":-87.62318,"reserved":0,"last_update":"0001-01-01T00:00:00Z","name_a2s":"Uncletopia | Chicago | 5 | All Maps","protocol":17,"map":"cp_mountainlab","folder":"tf","game":"Team Fortress","app_id":440,"player_count":0,"max_players":24,"Bots":0,"server_type":"Dedicated","server_os":"Linux","password":true,"vac":true,"version":"7757534","steam_id":85568392924866362,"keywords":["cp","nocrits","nodmgspread","uncletopia"],"game_id":440,"stv_port":27016,"stv_name":"Uncletopia | Chicago | 5 | All Maps | STV","players":null},{"server_id":37,"name":"Uncletopia | Chicago | 6 | All Maps","name_short":"chi-6","host":"chi-2.us.uncletopia.com","port":27025,"enabled":true,"region":"us-central","cc":"us","latitude":41.881832,"longitude":-87.62318,"reserved":0,"last_update":"0001-01-01T00:00:00Z","name_a2s":"Uncletopia | Chicago | 6 | All Maps","protocol":17,"map":"koth_king","folder":"tf","game":"Team Fortress","app_id":440,"player_count":0,"max_players":24,"Bots":0,"server_type":"Dedicated","server_os":"Linux","password":true,"vac":true,"version":"7757534","steam_id":85568392924866363,"keywords":["cp","nocrits","nodmgspread","uncletopia"],"game_id":440,"stv_port":27026,"stv_name":"Uncletopia | Chicago | 6 | All Maps | STV","players":null},{"server_id":38,"name":"Uncletopia | Chicago | 7 | Stopwatch Beta","name_short":"chi-7","host":"chi-2.us.uncletopia.com","port":27035,"enabled":true,"region":"us-central","cc":"us","latitude":41.881832,"longitude":-87.62318,"reserved":0,"last_update":"0001-01-01T00:00:00Z","name_a2s":"Uncletopia | Chicago | 7 | Stopwatch Beta","protocol":17,"map":"workshop/pl_summercoast_rc8e.ugc1761528829","folder":"tf","game":"Team Fortress","app_id":440,"player_count":0,"max_players":24,"Bots":0,"server_type":"Dedicated","server_os":"Linux","password":true,"vac":true,"version":"7757534","steam_id":85568392924866364,"keywords":["nocrits","nodmgspread","payload","uncletopia"],"game_id":440,"stv_port":27036,"stv_name":"Uncletopia | Chicago | 7 | Stopwatch Beta | STV","players":null},{"server_id":39,"name":"Uncletopia | Chicago | 8 | Community","name_short":"chi-8","host":"chi-2.us.uncletopia.com","port":27045,"enabled":true,"region":"us-central","cc":"us","latitude":41.881832,"longitude":-87.62318,"reserved":0,"last_update":"0001-01-01T00:00:00Z","name_a2s":"Uncletopia | Chicago | 8 | Community","protocol":17,"map":"workshop/pl_barnblitz_pro7.ugc582280235","folder":"tf","game":"Team Fortress","app_id":440,"player_count":0,"max_players":24,"Bots":0,"server_type":"Dedicated","server_os":"Linux","password":true,"vac":true,"version":"7757534","steam_id":85568392924866365,"keywords":["nocrits","nodmgspread","payload","uncletopia"],"game_id":440,"stv_port":27046,"stv_name":"Uncletopia | Chicago | 8 | Community | STV","players":null},{"server_id":8,"name":"Uncletopia | Dallas | 1 | All Maps","name_short":"dal-1","host":"dal-1.us.uncletopia.com","port":27015,"enabled":true,"region":"us-central","cc":"us","latitude":32.779167,"longitude":-96.80889,"reserved":0,"last_update":"0001-01-01T00:00:00Z","name_a2s":"Uncletopia | Dallas | 1 | All Maps","protocol":17,"map":"pl_pier","folder":"tf","game":"Team Fortress","app_id":440,"player_count":6,"max_players":24,"Bots":0,"server_type":"Dedicated","server_os":"Linux","password":true,"vac":true,"version":"7757534","steam_id":85568392924469986,"keywords":["nocrits","nodmgspread","payload","uncletopia"],"game_id":440,"stv_port":27016,"stv_name":"Uncletopia | Dallas | 1 | All Maps | STV","players":[{"user_id":675,"name":"Shifty Louie","steam_id":76561197990872608,"connected_time":6443000000000,"state":"active","ping":116},{"user_id":747,"name":"*****setget","steam_id":76561198118824188,"connected_time":293000000000,"state":"active","ping":108},{"user_id":731,"name":"TF3 Medic gaming","steam_id":76561199053687718,"connected_time":1673000000000,"state":"active","ping":104},{"user_id":717,"name":"TheArachnidGamer","steam_id":76561198304986752,"connected_time":2584000000000,"state":"active","ping":59},{"user_id":740,"name":"Fresh","steam_id":76561199006338675,"connected_time":976000000000,"state":"active","ping":59},{"user_id":736,"name":"Michiru","steam_id":76561198878701671,"connected_time":1259000000000,"state":"active","ping":102}]},{"server_id":108,"name":"Uncletopia | Dallas | 2 | All Maps","name_short":"dal-2","host":"dal-1.us.uncletopia.com","port":27025,"enabled":true,"region":"us-central","cc":"us","latitude":32.779167,"longitude":-96.80889,"reserved":0,"last_update":"0001-01-01T00:00:00Z","name_a2s":"Uncletopia | Dallas | 2 | All Maps","protocol":17,"map":"pl_borneo","folder":"tf","game":"Team Fortress","app_id":440,"player_count":18,"max_players":24,"Bots":0,"server_type":"Dedicated","server_os":"Linux","password":true,"vac":true,"version":"7757534","steam_id":85568392924469988,"keywords":["nocrits","nodmgspread","payload","uncletopia"],"game_id":440,"stv_port":27026,"stv_name":"Uncletopia | Dallas | 2 | All Maps | STV","players":[{"user_id":656,"name":"goblino","steam_id":76561198068260422,"connected_time":542000000000,"state":"active","ping":64},{"user_id":657,"name":"Gumba21","steam_id":76561199167640179,"connected_time":328000000000,"state":"active","ping":58},{"user_id":661,"name":"Shylo","steam_id":76561199276858045,"connected_time":38000000000,"state":"active","ping":55},{"user_id":658,"name":"Ayylmao","steam_id":76561198104780147,"connected_time":231000000000,"state":"active","ping":61},{"user_id":380,"name":"moe5x","steam_id":76561198316877833,"connected_time":28742000000000,"state":"active","ping":75},{"user_id":654,"name":"MoMo","steam_id":76561198158397706,"connected_time":1460000000000,"state":"active","ping":98},{"user_id":626,"name":"Room full of Bananas","steam_id":76561198045451169,"connected_time":4600000000000,"state":"active","ping":69},{"user_id":645,"name":"Rain","steam_id":76561198022607401,"connected_time":2678000000000,"state":"active","ping":89},{"user_id":659,"name":"DannyM","steam_id":76561198351165570,"connected_time":209000000000,"state":"active","ping":40},{"user_id":641,"name":"Macro","steam_id":76561199442846226,"connected_time":3075000000000,"state":"active","ping":92},{"user_id":660,"name":"CreativeUsername","steam_id":76561198186045503,"connected_time":197000000000,"state":"active","ping":69},{"user_id":662,"name":"squid game","steam_id":76561199248960166,"connected_time":10000000000,"state":"spawning","ping":89},{"user_id":650,"name":"[TOG] Dre","steam_id":76561198355975688,"connected_time":1831000000000,"state":"active","ping":113},{"user_id":646,"name":"StrangerHYP","steam_id":76561198395336752,"connected_time":2064000000000,"state":"active","ping":88},{"user_id":627,"name":"Roland_Actual","steam_id":76561198103212376,"connected_time":4579000000000,"state":"active","ping":80},{"user_id":635,"name":"xZackAttack27x","steam_id":76561198035446639,"connected_time":4316000000000,"state":"active","ping":35},{"user_id":619,"name":"Queen Ishtar","steam_id":76561198035614233,"connected_time":5819000000000,"state":"active","ping":77},{"user_id":544,"name":"bolainassr0","steam_id":76561199079078845,"connected_time":15584000000000,"state":"active","ping":98}]},{"server_id":5,"name":"Uncletopia | Frankfurt | 1 | All Maps","name_short":"frk-1","host":"frk-1.de.uncletopia.com","port":27015,"enabled":true,"region":"eu","cc":"de","latitude":50.110924,"longitude":8.682127,"reserved":0,"last_update":"0001-01-01T00:00:00Z","name_a2s":"Uncletopia | Frankfurt | 1 | All Maps","protocol":17,"map":"koth_cascade","folder":"tf","game":"Team Fortress","app_id":440,"player_count":24,"max_players":24,"Bots":0,"server_type":"Dedicated","server_os":"Linux","password":true,"vac":true,"version":"7757534","steam_id":85568392924469989,"keywords":["cp","nocrits","nodmgspread","uncletopia"],"game_id":440,"stv_port":27016,"stv_name":"Uncletopia | Frankfurt | 1 | All Maps | STV","players":[{"user_id":4,"name":"Panzerschoki","steam_id":76561198211621756,"connected_time":2248000000000,"state":"active","ping":53},{"user_id":5,"name":"PumpkinMan","steam_id":76561198929162354,"connected_time":2244000000000,"state":"active","ping":75},{"user_id":6,"name":"RawGorilla","steam_id":76561198063654194,"connected_time":1986000000000,"state":"active","ping":61},{"user_id":37,"name":"IWantSomeMore","steam_id":76561198318673581,"connected_time":191000000000,"state":"active","ping":62},{"user_id":8,"name":"Shark Petter","steam_id":76561198358801819,"connected_time":1677000000000,"state":"active","ping":64},{"user_id":13,"name":"FoxyTheFish","steam_id":76561199074190919,"connected_time":1545000000000,"state":"active","ping":54},{"user_id":10,"name":"Borlor","steam_id":76561198206059604,"connected_time":1594000000000,"state":"active","ping":82},{"user_id":33,"name":"St√ºmpy","steam_id":76561198255904077,"connected_time":539000000000,"state":"active","ping":65},{"user_id":12,"name":"DunkleG","steam_id":76561198053816186,"connected_time":1550000000000,"state":"active","ping":60},{"user_id":38,"name":"—Ñ—É—Ç–∞ 30—Å–º","steam_id":76561198866778234,"connected_time":24000000000,"state":"active","ping":107},{"user_id":31,"name":"Ardello","steam_id":76561198864484125,"connected_time":579000000000,"state":"active","ping":79},{"user_id":36,"name":"mushroom","steam_id":76561198817034571,"connected_time":421000000000,"state":"active","ping":81},{"user_id":17,"name":"when the vlandan","steam_id":76561198849104908,"connected_time":1308000000000,"state":"active","ping":118},{"user_id":18,"name":"snooper main","steam_id":76561199073802389,"connected_time":1264000000000,"state":"active","ping":98},{"user_id":19,"name":"Egor Pomidor","steam_id":76561199175688390,"connected_time":1243000000000,"state":"active","ping":74},{"user_id":20,"name":"adamŒî","steam_id":76561199007826093,"connected_time":1202000000000,"state":"active","ping":79},{"user_id":21,"name":"Ander Escobar","steam_id":76561198335366902,"connected_time":1050000000000,"state":"active","ping":101},{"user_id":22,"name":"‚úà","steam_id":76561198296214683,"connected_time":863000000000,"state":"active","ping":68},{"user_id":23,"name":"SantiTzePug","steam_id":76561199049615996,"connected_time":854000000000,"state":"active","ping":74},{"user_id":24,"name":"CEO of SNEKS üêç","steam_id":76561198244148206,"connected_time":813000000000,"state":"active","ping":90},{"user_id":30,"name":"Ôº≠ÔΩÅÔΩÉÔΩâÔΩéÔΩîÔΩèÔΩìÔΩà","steam_id":76561198074294565,"connected_time":589000000000,"state":"active","ping":86},{"user_id":26,"name":"844box","steam_id":76561198368131280,"connected_time":790000000000,"state":"active","ping":108},{"user_id":27,"name":"≈ò√¥≈õ≈õ","steam_id":76561198123398130,"connected_time":770000000000,"state":"active","ping":102},{"user_id":28,"name":"Definitely not Ray","steam_id":76561197991390018,"connected_time":758000000000,"state":"active","ping":54}]},{"server_id":110,"name":"Uncletopia | Frankfurt | 2 | All Maps","name_short":"frk-2","host":"frk-1.de.uncletopia.com","port":27025,"enabled":true,"region":"eu","cc":"de","latitude":50.110924,"longitude":8.682127,"reserved":0,"last_update":"0001-01-01T00:00:00Z","name_a2s":"Uncletopia | Frankfurt | 2 | All Maps","protocol":17,"map":"cp_mountainlab","folder":"tf","game":"Team Fortress","app_id":440,"player_count":0,"max_players":24,"Bots":0,"server_type":"Dedicated","server_os":"Linux","password":true,"vac":true,"version":"7757534","steam_id":85568392924469990,"keywords":["cp","nocrits","nodmgspread","uncletopia"],"game_id":440,"stv_port":27026,"stv_name":"Uncletopia | Frankfurt | 2 | All Maps | STV","players":null},{"server_id":308,"name":"Uncletopia | Frankfurt | 3 | All Maps","name_short":"frk-3","host":"frk-1.de.uncletopia.com","port":27035,"enabled":true,"region":"eu","cc":"de","latitude":50.110924,"longitude":8.682127,"reserved":0,"last_update":"0001-01-01T00:00:00Z","name_a2s":"Uncletopia | Frankfurt | 3 | All Maps","protocol":17,"map":"pl_swiftwater_final1","folder":"tf","game":"Team Fortress","app_id":440,"player_count":0,"max_players":24,"Bots":0,"server_type":"Dedicated","server_os":"Linux","password":true,"vac":true,"version":"7757534","steam_id":85568392924504274,"keywords":["nocrits","nodmgspread","payload","uncletopia"],"game_id":440,"stv_port":27036,"stv_name":"Uncletopia | Frankfurt | 3 | All Maps | STV","players":null},{"server_id":309,"name":"Uncletopia | Frankfurt | 4 | All Maps","name_short":"frk-4","host":"frk-1.de.uncletopia.com","port":27045,"enabled":true,"region":"eu","cc":"de","latitude":50.110924,"longitude":8.682127,"reserved":0,"last_update":"0001-01-01T00:00:00Z","name_a2s":"Uncletopia | Frankfurt | 4 | All Maps","protocol":17,"map":"koth_viaduct","folder":"tf","game":"Team Fortress","app_id":440,"player_count":0,"max_players":24,"Bots":0,"server_type":"Dedicated","server_os":"Linux","password":true,"vac":true,"version":"7757534","steam_id":85568392924504275,"keywords":["cp","nocrits","nodmgspread","uncletopia"],"game_id":440,"stv_port":27046,"stv_name":"Uncletopia | Frankfurt | 4 | All Maps | STV","players":null},{"server_id":310,"name":"Uncletopia | Frankfurt | 5 | All Maps","name_short":"frk-5","host":"frk-1.de.uncletopia.com","port":27055,"enabled":true,"region":"eu","cc":"de","latitude":50.110924,"longitude":8.682127,"reserved":0,"last_update":"0001-01-01T00:00:00Z","name_a2s":"Uncletopia | Frankfurt | 5 | All Maps","protocol":17,"map":"koth_lakeside_final","folder":"tf","game":"Team Fortress","app_id":440,"player_count":0,"max_players":24,"Bots":0,"server_type":"Dedicated","server_os":"Linux","password":true,"vac":true,"version":"7757534","steam_id":85568392924504277,"keywords":["cp","nocrits","nodmgspread","uncletopia"],"game_id":440,"stv_port":27056,"stv_name":"Uncletopia | Frankfurt | 5 | All Maps | STV","players":null},{"server_id":311,"name":"Uncletopia | Frankfurt | 6 | All Maps","name_short":"frk-6","host":"frk-1.de.uncletopia.com","port":27065,"enabled":true,"region":"eu","cc":"de","latitude":50.110924,"longitude":8.682127,"reserved":0,"last_update":"0001-01-01T00:00:00Z","name_a2s":"Uncletopia | Frankfurt | 6 | All Maps","protocol":17,"map":"pl_frontier_final","folder":"tf","game":"Team Fortress","app_id":440,"player_count":0,"max_players":24,"Bots":0,"server_type":"Dedicated","server_os":"Linux","password":true,"vac":true,"version":"7757534","steam_id":85568392924504278,"keywords":["nocrits","nodmgspread","payload","uncletopia"],"game_id":440,"stv_port":27066,"stv_name":"Uncletopia | Frankfurt | 6 | All Maps | STV","players":null},{"server_id":23,"name":"Uncletopia | Frankfurt | 7 | Stopwatch Beta","name_short":"frk-7","host":"frk-1.de.uncletopia.com","port":27075,"enabled":true,"region":"eu","cc":"de","latitude":50.110924,"longitude":8.682127,"reserved":0,"last_update":"0001-01-01T00:00:00Z","name_a2s":"Uncletopia | Frankfurt | 7 | Stopwatch Beta","protocol":17,"map":"workshop/koth_clearcut_b15.ugc2107050255","folder":"tf","game":"Team Fortress","app_id":440,"player_count":1,"max_players":24,"Bots":0,"server_type":"Dedicated","server_os":"Linux","password":true,"vac":true,"version":"7757534","steam_id":85568392924742827,"keywords":["cp","nocrits","nodmgspread","uncletopia"],"game_id":440,"stv_port":27076,"stv_name":"Uncletopia | Frankfurt | 7 | Stopwatch Beta | STV","players":[{"user_id":3,"name":"Denialman (Muted)","steam_id":76561198309182092,"connected_time":538000000000,"state":"active","ping":57}]},{"server_id":24,"name":"Uncletopia | Frankfurt | 8 | Community","name_short":"frk-8","host":"frk-1.de.uncletopia.com","port":27085,"enabled":true,"region":"eu","cc":"de","latitude":50.110924,"longitude":8.682127,"reserved":0,"last_update":"0001-01-01T00:00:00Z","name_a2s":"Uncletopia | Frankfurt | 8 | Community","protocol":17,"map":"koth_lakeside_final","folder":"tf","game":"Team Fortress","app_id":440,"player_count":0,"max_players":24,"Bots":0,"server_type":"Dedicated","server_os":"Linux","password":true,"vac":true,"version":"7757534","steam_id":85568392924742828,"keywords":["cp","nocrits","nodmgspread","uncletopia"],"game_id":440,"stv_port":27086,"stv_name":"Uncletopia | Frankfurt | 8 | Community | STV","players":null},{"server_id":202,"name":"Uncletopia | Hong Kong | 1 | All Maps","name_short":"hgk-1","host":"hgk-1.hk.uncletopia.com","port":27015,"enabled":true,"region":"asia","cc":"hk","latitude":22.302711,"longitude":114.177216,"reserved":0,"last_update":"0001-01-01T00:00:00Z","name_a2s":"Uncletopia | Hong Kong | 1 | All Maps","protocol":17,"map":"ctf_2fort","folder":"tf","game":"Team Fortress","app_id":440,"player_count":24,"max_players":24,"Bots":0,"server_type":"Dedicated","server_os":"Linux","password":true,"vac":true,"version":"7757534","steam_id":85568392924494504,"keywords":["cp","nocrits","nodmgspread","uncletopia"],"game_id":440,"stv_port":27016,"stv_name":"Uncletopia | Hong Kong | 1 | All Maps | STV","players":[{"user_id":200,"name":"Talkk More","steam_id":76561198305424433,"connected_time":367000000000,"state":"spawning","ping":96},{"user_id":67,"name":"water tastes good","steam_id":76561199375947670,"connected_time":9820000000000,"state":"spawning","ping":82},{"user_id":119,"name":"Light Rainbow","steam_id":76561198118966673,"connected_time":4441000000000,"state":"connecting","ping":59},{"user_id":176,"name":"17","steam_id":76561198241530712,"connected_time":1906000000000,"state":"connecting","ping":77},{"user_id":209,"name":"siyu","steam_id":76561198952342211,"connected_time":145000000000,"state":"spawning","ping":93},{"user_id":72,"name":"JE","steam_id":76561198264819554,"connected_time":9608000000000,"state":"spawning","ping":61},{"user_id":182,"name":"vintage","steam_id":76561198230213828,"connected_time":1761000000000,"state":"spawning","ping":83},{"user_id":120,"name":"Wx","steam_id":76561199217780897,"connected_time":4438000000000,"state":"spawning","ping":135},{"user_id":122,"name":"Ïø†ÌÇ§","steam_id":76561197997220367,"connected_time":4427000000000,"state":"spawning","ping":50},{"user_id":113,"name":"Leroy","steam_id":76561199137927625,"connected_time":5242000000000,"state":"connecting","ping":112},{"user_id":206,"name":"anemoia","steam_id":76561198074339034,"connected_time":156000000000,"state":"connecting","ping":97},{"user_id":99,"name":"Aiko Kanata Zhenco","steam_id":76561199262955185,"connected_time":6651000000000,"state":"spawning","ping":137},{"user_id":185,"name":"kids.see.ghosts","steam_id":76561199107596818,"connected_time":1734000000000,"state":"spawning","ping":132},{"user_id":115,"name":"‡πã","steam_id":76561198413116920,"connected_time":4955000000000,"state":"spawning","ping":102},{"user_id":178,"name":"ObscuroLucem","steam_id":76561198875037943,"connected_time":1892000000000,"state":"spawning","ping":119},{"user_id":204,"name":"‚úßBaKa BAzooKA‚úß(‚óï‚ñø‚óï )","steam_id":76561198061628689,"connected_time":316000000000,"state":"spawning","ping":73},{"user_id":98,"name":"P","steam_id":76561198304514505,"connected_time":6696000000000,"state":"connecting","ping":102},{"user_id":89,"name":"killman47","steam_id":76561198348487408,"connected_time":7660000000000,"state":"connecting","ping":55},{"user_id":207,"name":"shenko","steam_id":76561198082921407,"connected_time":156000000000,"state":"spawning","ping":166},{"user_id":111,"name":"Â∏ï","steam_id":76561198439343999,"connected_time":5394000000000,"state":"spawning","ping":88},{"user_id":179,"name":"ZeniaPY (Playing on Wacom)","steam_id":76561198404352831,"connected_time":1868000000000,"state":"spawning","ping":100},{"user_id":183,"name":"TomProPlayer","steam_id":76561199223292521,"connected_time":1761000000000,"state":"spawning","ping":82},{"user_id":92,"name":"ÈôΩÂ≠ê","steam_id":76561198008307645,"connected_time":7628000000000,"state":"connecting","ping":157},{"user_id":188,"name":"silverhouse7","steam_id":76561198349634906,"connected_time":1306000000000,"state":"spawning","ping":81}]},{"server_id":1,"name":"Uncletopia | Los Angeles | 1 | All Maps","name_short":"lax-1","host":"lax-1.us.uncletopia.com","port":27015,"enabled":true,"region":"us-west","cc":"us","latitude":33.94279,"longitude":-118.41004,"reserved":0,"last_update":"0001-01-01T00:00:00Z","name_a2s":"Uncletopia | Los Angeles | 1 | All Maps","protocol":17,"map":"pl_borneo","folder":"tf","game":"Team Fortress","app_id":440,"player_count":0,"max_players":24,"Bots":0,"server_type":"Dedicated","server_os":"Linux","password":true,"vac":true,"version":"7757534","steam_id":85568392924469991,"keywords":["nocrits","nodmgspread","payload","uncletopia"],"game_id":440,"stv_port":27016,"stv_name":"Uncletopia | Los Angeles | 1 | All Maps | STV","players":null},{"server_id":112,"name":"Uncletopia | Los Angeles | 2 | All Maps","name_short":"lax-2","host":"lax-1.us.uncletopia.com","port":27025,"enabled":true,"region":"us-west","cc":"us","latitude":33.94279,"longitude":-118.41004,"reserved":0,"last_update":"0001-01-01T00:00:00Z","name_a2s":"Uncletopia | Los Angeles | 2 | All Maps","protocol":17,"map":"pl_borneo","folder":"tf","game":"Team Fortress","app_id":440,"player_count":22,"max_players":24,"Bots":0,"server_type":"Dedicated","server_os":"Linux","password":true,"vac":true,"version":"7757534","steam_id":85568392924469992,"keywords":["nocrits","nodmgspread","payload","uncletopia"],"game_id":440,"stv_port":27026,"stv_name":"Uncletopia | Los Angeles | 2 | All Maps | STV","players":[{"user_id":655,"name":"Kohioo.","steam_id":76561198253797901,"connected_time":10000000000,"state":"spawning","ping":227},{"user_id":654,"name":"Mightythor","steam_id":76561199162355715,"connected_time":58000000000,"state":"active","ping":103},{"user_id":548,"name":"+EsC|Kevinator","steam_id":76561198008475674,"connected_time":10448000000000,"state":"active","ping":70},{"user_id":618,"name":"Dogman15","steam_id":76561198071246716,"connected_time":3425000000000,"state":"active","ping":67},{"user_id":546,"name":"Espurr","steam_id":76561198008207777,"connected_time":10506000000000,"state":"active","ping":62},{"user_id":620,"name":"AMU","steam_id":76561198092346231,"connected_time":3296000000000,"state":"active","ping":117},{"user_id":649,"name":"Alice in Rubberland","steam_id":76561198087328346,"connected_time":594000000000,"state":"active","ping":90},{"user_id":633,"name":"Smittywerbenjager-manjenson","steam_id":76561198067060742,"connected_time":2126000000000,"state":"active","ping":70},{"user_id":615,"name":"The Horselords and Animal Gods","steam_id":76561197975094050,"connected_time":3608000000000,"state":"active","ping":53},{"user_id":636,"name":"Jolly","steam_id":76561198116357972,"connected_time":1942000000000,"state":"active","ping":45},{"user_id":629,"name":"Smooktob√´r Dinner Party Demun","steam_id":76561198067176829,"connected_time":2238000000000,"state":"active","ping":56},{"user_id":650,"name":"pt","steam_id":76561198143023330,"connected_time":235000000000,"state":"active","ping":45},{"user_id":602,"name":"Girox","steam_id":76561198009921751,"connected_time":4666000000000,"state":"active","ping":106},{"user_id":638,"name":"O_x","steam_id":76561198289696924,"connected_time":1742000000000,"state":"active","ping":45},{"user_id":631,"name":"Not Slavoj ≈Ωi≈æek","steam_id":76561198004619616,"connected_time":2189000000000,"state":"active","ping":58},{"user_id":604,"name":"Patty Cakes","steam_id":76561197977358526,"connected_time":4609000000000,"state":"active","ping":105},{"user_id":609,"name":"Altruisticailuridae","steam_id":76561198335295596,"connected_time":4049000000000,"state":"active","ping":55},{"user_id":642,"name":"GARTH","steam_id":76561198174186555,"connected_time":1142000000000,"state":"active","ping":91},{"user_id":627,"name":"mik","steam_id":76561198268948176,"connected_time":2468000000000,"state":"active","ping":61},{"user_id":532,"name":"Bomb Squirtle‚Ñ¢","steam_id":76561197998931145,"connected_time":11293000000000,"state":"active","ping":130},{"user_id":644,"name":"Bridge","steam_id":76561198050930560,"connected_time":1025000000000,"state":"active","ping":100},{"user_id":639,"name":"unintelligible screaming","steam_id":76561198079626416,"connected_time":1680000000000,"state":"active","ping":116}]},{"server_id":324,"name":"Uncletopia | Los Angeles | 3 | All Maps","name_short":"lax-3","host":"lax-1.us.uncletopia.com","port":27035,"enabled":true,"region":"us-west","cc":"us","latitude":33.94279,"longitude":-118.41004,"reserved":0,"last_update":"0001-01-01T00:00:00Z","name_a2s":"Uncletopia | Los Angeles | 3 | All Maps","protocol":17,"map":"pl_frontier_final","folder":"tf","game":"Team Fortress","app_id":440,"player_count":17,"max_players":24,"Bots":0,"server_type":"Dedicated","server_os":"Linux","password":true,"vac":true,"version":"7757534","steam_id":85568392924510198,"keywords":["nocrits","nodmgspread","payload","uncletopia"],"game_id":440,"stv_port":27036,"stv_name":"Uncletopia | Los Angeles | 3 | All Maps | STV","players":[{"user_id":320,"name":"KingToaster","steam_id":76561198007903802,"connected_time":3395000000000,"state":"active","ping":60},{"user_id":297,"name":"‚ù§ Ashley ‚ù§","steam_id":76561198056428303,"connected_time":5594000000000,"state":"active","ping":42},{"user_id":350,"name":"Doritodog78","steam_id":76561198257696265,"connected_time":325000000000,"state":"active","ping":93},{"user_id":339,"name":"Colonel Chikara","steam_id":76561198010021087,"connected_time":1050000000000,"state":"active","ping":62},{"user_id":347,"name":"Tweeterhead","steam_id":76561198399117913,"connected_time":610000000000,"state":"active","ping":110},{"user_id":353,"name":"BackToSchoolAds","steam_id":76561198870281128,"connected_time":79000000000,"state":"active","ping":87},{"user_id":298,"name":"self sufficient kitten","steam_id":76561197960592612,"connected_time":5323000000000,"state":"active","ping":73},{"user_id":322,"name":":3","steam_id":76561198008599033,"connected_time":3325000000000,"state":"active","ping":106},{"user_id":351,"name":"Soozy420","steam_id":76561198809074422,"connected_time":288000000000,"state":"active","ping":56},{"user_id":310,"name":"0r161n4lj0k3","steam_id":76561198127328235,"connected_time":4176000000000,"state":"active","ping":69},{"user_id":352,"name":"Noodles","steam_id":76561197968762578,"connected_time":266000000000,"state":"active","ping":116},{"user_id":348,"name":"pigswill","steam_id":76561197999081865,"connected_time":606000000000,"state":"active","ping":119},{"user_id":335,"name":"ËàπÂ∞æ","steam_id":76561198128764422,"connected_time":1623000000000,"state":"active","ping":62},{"user_id":354,"name":"dzcreeper","steam_id":76561198072250723,"connected_time":51000000000,"state":"active","ping":89},{"user_id":346,"name":"rxqueen","steam_id":76561198049258493,"connected_time":717000000000,"state":"active","ping":77},{"user_id":332,"name":"Friggy","steam_id":76561198131467867,"connected_time":1692000000000,"state":"active","ping":45},{"user_id":344,"name":"Minerkid2004","steam_id":76561198044262827,"connected_time":889000000000,"state":"active","ping":53}]},{"server_id":25,"name":"Uncletopia | Los Angeles | 4 | Stopwatch Beta","name_short":"lax-4","host":"lax-1.us.uncletopia.com","port":27045,"enabled":true,"region":"us-west","cc":"us","latitude":33.94279,"longitude":-118.41004,"reserved":0,"last_update":"0001-01-01T00:00:00Z","name_a2s":"Uncletopia | Los Angeles | 4 | Stopwatch Beta","protocol":17,"map":"pl_swiftwater_final1","folder":"tf","game":"Team Fortress","app_id":440,"player_count":0,"max_players":24,"Bots":0,"server_type":"Dedicated","server_os":"Linux","password":true,"vac":true,"version":"7757534","steam_id":85568392924510199,"keywords":["nocrits","nodmgspread","payload","uncletopia"],"game_id":440,"stv_port":27046,"stv_name":"Uncletopia | Los Angeles | 4 | Stopwatch Beta | STV","players":null},{"server_id":11,"name":"Uncletopia | London | 1 | All Maps","name_short":"lon-1","host":"lon-1.uk.uncletopia.com","port":27015,"enabled":true,"region":"eu","cc":"gb","latitude":51.509865,"longitude":-0.118092,"reserved":0,"last_update":"0001-01-01T00:00:00Z","name_a2s":"Uncletopia | London | 1 | All Maps","protocol":17,"map":"pl_snowycoast","folder":"tf","game":"Team Fortress","app_id":440,"player_count":24,"max_players":24,"Bots":0,"server_type":"Dedicated","server_os":"Linux","password":true,"vac":true,"version":"7757534","steam_id":85568392924367362,"keywords":["nocrits","nodmgspread","payload","uncletopia"],"game_id":440,"stv_port":27016,"stv_name":"Uncletopia | London | 1 | All Maps | STV","players":[{"user_id":93,"name":"bobby_basketball_1999","steam_id":76561198031573426,"connected_time":2577000000000,"state":"active","ping":74},{"user_id":90,"name":"Kolmannen","steam_id":76561198288826376,"connected_time":2779000000000,"state":"active","ping":70},{"user_id":105,"name":"Kris","steam_id":76561198240638652,"connected_time":700000000000,"state":"active","ping":43},{"user_id":109,"name":"tummaluppo taivaltaja","steam_id":76561198093458326,"connected_time":546000000000,"state":"active","ping":67},{"user_id":86,"name":"Dr.090","steam_id":76561198201215334,"connected_time":3370000000000,"state":"active","ping":100},{"user_id":112,"name":"RussianPingLord","steam_id":76561199055517485,"connected_time":146000000000,"state":"active","ping":110},{"user_id":9,"name":"CumbustiblePunda","steam_id":76561197974274677,"connected_time":10435000000000,"state":"active","ping":59},{"user_id":74,"name":"Asfreild","steam_id":76561198055901120,"connected_time":4009000000000,"state":"active","ping":72},{"user_id":113,"name":"BƒÉsescu","steam_id":76561198017693962,"connected_time":132000000000,"state":"active","ping":75},{"user_id":106,"name":"ÎãπÏã†Ïùò ÏóÑÎßàÎ•ºÌñàÎã§","steam_id":76561198017114970,"connected_time":693000000000,"state":"active","ping":38},{"user_id":115,"name":"Purplenoogie","steam_id":76561198081872160,"connected_time":56000000000,"state":"active","ping":47},{"user_id":88,"name":"murderwow","steam_id":76561198024566944,"connected_time":3216000000000,"state":"active","ping":108},{"user_id":55,"name":"Rin-Nakaret","steam_id":76561197971051188,"connected_time":5743000000000,"state":"active","ping":57},{"user_id":35,"name":"Edison Trent","steam_id":76561198067133145,"connected_time":8075000000000,"state":"active","ping":62},{"user_id":111,"name":"Bobo","steam_id":76561198052308399,"connected_time":211000000000,"state":"active","ping":64},{"user_id":84,"name":"rock dog","steam_id":76561198110545854,"connected_time":3418000000000,"state":"active","ping":148},{"user_id":107,"name":"NhouBrane","steam_id":76561198293577735,"connected_time":675000000000,"state":"active","ping":77},{"user_id":114,"name":"Pyexorp","steam_id":76561199109194825,"connected_time":121000000000,"state":"active","ping":92},{"user_id":101,"name":"chidory41","steam_id":76561199404844130,"connected_time":1611000000000,"state":"active","ping":107},{"user_id":79,"name":"Ziemniaczki z koperkiem","steam_id":76561198829123464,"connected_time":3718000000000,"state":"active","ping":85},{"user_id":80,"name":"GuSkand","steam_id":76561198043775605,"connected_time":3682000000000,"state":"active","ping":92},{"user_id":110,"name":"autistic luigi","steam_id":76561199218285040,"connected_time":493000000000,"state":"active","ping":80},{"user_id":83,"name":"Riel","steam_id":76561198066017633,"connected_time":3611000000000,"state":"active","ping":67},{"user_id":99,"name":"ANEY‚òÜ The Music Man","steam_id":76561198074404564,"connected_time":1852000000000,"state":"active","ping":77}]},{"server_id":114,"name":"Uncletopia | London | 2 | All Maps","name_short":"lon-2","host":"lon-1.uk.uncletopia.com","port":27025,"enabled":true,"region":"eu","cc":"gb","latitude":51.509865,"longitude":-0.118092,"reserved":0,"last_update":"0001-01-01T00:00:00Z","name_a2s":"Uncletopia | London | 2 | All Maps","protocol":17,"map":"koth_viaduct","folder":"tf","game":"Team Fortress","app_id":440,"player_count":0,"max_players":24,"Bots":0,"server_type":"Dedicated","server_os":"Linux","password":true,"vac":true,"version":"7757534","steam_id":85568392924470941,"keywords":["cp","nocrits","nodmgspread","uncletopia"],"game_id":440,"stv_port":27026,"stv_name":"Uncletopia | London | 2 | All Maps | STV","players":null},{"server_id":320,"name":"Uncletopia | London | 3 | All Maps","name_short":"lon-3","host":"lon-1.uk.uncletopia.com","port":27035,"enabled":true,"region":"eu","cc":"gb","latitude":51.509865,"longitude":-0.118092,"reserved":0,"last_update":"0001-01-01T00:00:00Z","name_a2s":"Uncletopia | London | 3 | All Maps","protocol":17,"map":"plr_hightower","folder":"tf","game":"Team Fortress","app_id":440,"player_count":2,"max_players":24,"Bots":0,"server_type":"Dedicated","server_os":"Linux","password":true,"vac":true,"version":"7757534","steam_id":85568392924510192,"keywords":["nocrits","nodmgspread","payload","uncletopia"],"game_id":440,"stv_port":27036,"stv_name":"Uncletopia | London | 3 | All Maps | STV","players":[{"user_id":5,"name":"FUKTARD2005","steam_id":76561198839121591,"connected_time":2273000000000,"state":"active","ping":58},{"user_id":12,"name":"seductive_spiederman","steam_id":76561199138558228,"connected_time":332000000000,"state":"active","ping":84}]},{"server_id":321,"name":"Uncletopia | London | 4 | All Maps","name_short":"lon-4","host":"lon-1.uk.uncletopia.com","port":27045,"enabled":true,"region":"eu","cc":"gb","latitude":51.509865,"longitude":-0.118092,"reserved":0,"last_update":"0001-01-01T00:00:00Z","name_a2s":"Uncletopia | London | 4 | All Maps","protocol":17,"map":"cp_dustbowl","folder":"tf","game":"Team Fortress","app_id":440,"player_count":0,"max_players":24,"Bots":0,"server_type":"Dedicated","server_os":"Linux","password":true,"vac":true,"version":"7757534","steam_id":85568392924510193,"keywords":["cp","nocrits","nodmgspread","uncletopia"],"game_id":440,"stv_port":27046,"stv_name":"Uncletopia | London | 4 | All Maps | STV","players":null},{"server_id":21,"name":"Uncletopia | London | 5 | All Maps","name_short":"lon-5","host":"lon-1.uk.uncletopia.com","port":27055,"enabled":true,"region":"eu","cc":"gb","latitude":51.509865,"longitude":-0.118092,"reserved":0,"last_update":"0001-01-01T00:00:00Z","name_a2s":"Uncletopia | London | 5 | All Maps","protocol":17,"map":"cp_altitude","folder":"tf","game":"Team Fortress","app_id":440,"player_count":0,"max_players":24,"Bots":0,"server_type":"Dedicated","server_os":"Linux","password":true,"vac":true,"version":"7757534","steam_id":85568392924742829,"keywords":["cp","nocrits","nodmgspread","uncletopia"],"game_id":440,"stv_port":27056,"stv_name":"Uncletopia | London | 5 | All Maps | STV","players":null},{"server_id":22,"name":"Uncletopia | London | 6 | All Maps","name_short":"lon-6","host":"lon-1.uk.uncletopia.com","port":27065,"enabled":true,"region":"eu","cc":"gb","latitude":51.509865,"longitude":-0.118092,"reserved":0,"last_update":"0001-01-01T00:00:00Z","name_a2s":"Uncletopia | London | 6 | All Maps","protocol":17,"map":"cp_mountainlab","folder":"tf","game":"Team Fortress","app_id":440,"player_count":0,"max_players":24,"Bots":0,"server_type":"Dedicated","server_os":"Linux","password":true,"vac":true,"version":"7757534","steam_id":85568392924742830,"keywords":["cp","nocrits","nodmgspread","uncletopia"],"game_id":440,"stv_port":27066,"stv_name":"Uncletopia | London | 6 | All Maps | STV","players":null},{"server_id":40,"name":"Uncletopia | London | 7 | No Payload","name_short":"lon-7","host":"lon-1.uk.uncletopia.com","port":27075,"enabled":true,"region":"eu","cc":"gb","latitude":51.509865,"longitude":-0.118092,"reserved":0,"last_update":"0001-01-01T00:00:00Z","name_a2s":"Uncletopia | London | 7 | No Payload","protocol":17,"map":"cp_egypt_final","folder":"tf","game":"Team Fortress","app_id":440,"player_count":0,"max_players":24,"Bots":0,"server_type":"Dedicated","server_os":"Linux","password":true,"vac":true,"version":"7757534","steam_id":85568392924964314,"keywords":["cp","nocrits","nodmgspread","uncletopia"],"game_id":440,"stv_port":27076,"stv_name":"Uncletopia | London | 7 | No Payload | STV","players":null},{"server_id":41,"name":"Uncletopia | London | 8 | Community","name_short":"lon-8","host":"lon-1.uk.uncletopia.com","port":27085,"enabled":true,"region":"eu","cc":"gb","latitude":51.509865,"longitude":-0.118092,"reserved":0,"last_update":"0001-01-01T00:00:00Z","name_a2s":"Uncletopia | London | 8 | Community","protocol":17,"map":"workshop/koth_bagel_rc6.ugc2514036946","folder":"tf","game":"Team Fortress","app_id":440,"player_count":0,"max_players":24,"Bots":0,"server_type":"Dedicated","server_os":"Linux","password":true,"vac":true,"version":"7757534","steam_id":85568392924964315,"keywords":["cp","nocrits","nodmgspread","uncletopia"],"game_id":440,"stv_port":27086,"stv_name":"Uncletopia | London | 8 | Community | STV","players":null},{"server_id":300,"name":"Uncletopia | Montr√©al | 1 | All Maps","name_short":"mtl-1","host":"mtl-1.ca.uncletopia.com","port":27015,"enabled":true,"region":"us-east","cc":"ca","latitude":45.50889,"longitude":-73.56167,"reserved":0,"last_update":"0001-01-01T00:00:00Z","name_a2s":"Uncletopia | Montr√©al | 1 | All Maps","protocol":17,"map":"koth_lakeside_final","folder":"tf","game":"Team Fortress","app_id":440,"player_count":0,"max_players":24,"Bots":0,"server_type":"Dedicated","server_os":"Linux","password":true,"vac":true,"version":"7757534","steam_id":85568392924500087,"keywords":["cp","nocrits","nodmgspread","uncletopia"],"game_id":440,"stv_port":27016,"stv_name":"Uncletopia | Montr√©al | 1 | All Maps | STV","players":null},{"server_id":301,"name":"Uncletopia | Montr√©al | 2 | All Maps","name_short":"mtl-2","host":"mtl-1.ca.uncletopia.com","port":27025,"enabled":true,"region":"us-east","cc":"ca","latitude":45.50889,"longitude":-73.56167,"reserved":0,"last_update":"0001-01-01T00:00:00Z","name_a2s":"Uncletopia | Montr√©al | 2 | All Maps","protocol":17,"map":"cp_sunshine","folder":"tf","game":"Team Fortress","app_id":440,"player_count":0,"max_players":24,"Bots":0,"server_type":"Dedicated","server_os":"Linux","password":true,"vac":true,"version":"7757534","steam_id":85568392924500088,"keywords":["cp","nocrits","nodmgspread","uncletopia"],"game_id":440,"stv_port":27026,"stv_name":"Uncletopia | Montr√©al | 2 | All Maps | STV","players":null},{"server_id":302,"name":"Uncletopia | Montr√©al | 3 | All Maps","name_short":"mtl-3","host":"mtl-1.ca.uncletopia.com","port":27035,"enabled":true,"region":"us-east","cc":"ca","latitude":45.50889,"longitude":-73.56167,"reserved":0,"last_update":"0001-01-01T00:00:00Z","name_a2s":"Uncletopia | Montr√©al | 3 | All Maps","protocol":17,"map":"pl_upward","folder":"tf","game":"Team Fortress","app_id":440,"player_count":0,"max_players":24,"Bots":0,"server_type":"Dedicated","server_os":"Linux","password":true,"vac":true,"version":"7757534","steam_id":85568392924500089,"keywords":["nocrits","nodmgspread","payload","uncletopia"],"game_id":440,"stv_port":27036,"stv_name":"Uncletopia | Montr√©al | 3 | All Maps | STV","players":null},{"server_id":303,"name":"Uncletopia | Montr√©al | 4 | No Payload","name_short":"mtl-4","host":"mtl-1.ca.uncletopia.com","port":27045,"enabled":true,"region":"us-east","cc":"ca","latitude":45.50889,"longitude":-73.56167,"reserved":0,"last_update":"0001-01-01T00:00:00Z","name_a2s":"Uncletopia | Montr√©al | 4 | No Payload","protocol":17,"map":"cp_process_final","folder":"tf","game":"Team Fortress","app_id":440,"player_count":0,"max_players":24,"Bots":0,"server_type":"Dedicated","server_os":"Linux","password":true,"vac":true,"version":"7757534","steam_id":85568392924500090,"keywords":["cp","nocrits","nodmgspread","uncletopia"],"game_id":440,"stv_port":27046,"stv_name":"Uncletopia | Montr√©al | 4 | No Payload | STV","players":null},{"server_id":13,"name":"Uncletopia | New York City | 1 | All Maps","name_short":"nyc-1","host":"nyc-1.us.uncletopia.com","port":27015,"enabled":true,"region":"us-east","cc":"us","latitude":40.73061,"longitude":-73.93524,"reserved":0,"last_update":"0001-01-01T00:00:00Z","name_a2s":"Uncletopia | New York City | 1 | All Maps","protocol":17,"map":"cp_snakewater_final1","folder":"tf","game":"Team Fortress","app_id":440,"player_count":0,"max_players":24,"Bots":0,"server_type":"Dedicated","server_os":"Linux","password":true,"vac":true,"version":"7757534","steam_id":85568392924469993,"keywords":["cp","nocrits","nodmgspread","uncletopia"],"game_id":440,"stv_port":27016,"stv_name":"Uncletopia | New York City | 1 | All Maps | STV","players":null},{"server_id":14,"name":"Uncletopia | New York City | 2 | All Maps","name_short":"nyc-2","host":"nyc-1.us.uncletopia.com","port":27025,"enabled":true,"region":"us-east","cc":"us","latitude":40.73061,"longitude":-73.93524,"reserved":0,"last_update":"0001-01-01T00:00:00Z","name_a2s":"Uncletopia | New York City | 2 | All Maps","protocol":17,"map":"cp_sunshine","folder":"tf","game":"Team Fortress","app_id":440,"player_count":20,"max_players":24,"Bots":0,"server_type":"Dedicated","server_os":"Linux","password":true,"vac":true,"version":"7757534","steam_id":85568392924469994,"keywords":["cp","nocrits","nodmgspread","uncletopia"],"game_id":440,"stv_port":27026,"stv_name":"Uncletopia | New York City | 2 | All Maps | STV","players":[{"user_id":1105,"name":"SchmitySchmit","steam_id":76561198127024448,"connected_time":467000000000,"state":"active","ping":66},{"user_id":1097,"name":"morphtext","steam_id":76561199021314980,"connected_time":1516000000000,"state":"active","ping":86},{"user_id":1106,"name":"Sybil","steam_id":76561198042533062,"connected_time":445000000000,"state":"active","ping":112},{"user_id":1080,"name":"Wique","steam_id":76561198071217597,"connected_time":2583000000000,"state":"active","ping":65},{"user_id":1070,"name":"Argo","steam_id":76561198353725622,"connected_time":3350000000000,"state":"active","ping":73},{"user_id":1087,"name":"Dabbin Blackbeard","steam_id":76561198046130846,"connected_time":1952000000000,"state":"active","ping":111},{"user_id":1107,"name":"CRAZY engineer","steam_id":76561198887937902,"connected_time":250000000000,"state":"active","ping":46},{"user_id":1095,"name":"Horizon","steam_id":76561198088957930,"connected_time":1717000000000,"state":"active","ping":77},{"user_id":1112,"name":"snoogy woogy buggy","steam_id":76561198894676484,"connected_time":114000000000,"state":"active","ping":110},{"user_id":1109,"name":"Cats","steam_id":76561197965022076,"connected_time":214000000000,"state":"active","ping":56},{"user_id":1040,"name":"frappe444","steam_id":76561199032973937,"connected_time":5551000000000,"state":"active","ping":125},{"user_id":1108,"name":"Hifumi Togo","steam_id":76561198074930636,"connected_time":227000000000,"state":"active","ping":62},{"user_id":1041,"name":"Makali","steam_id":76561198839601234,"connected_time":5545000000000,"state":"active","ping":124},{"user_id":1042,"name":"Fi \u003c3","steam_id":76561198315348942,"connected_time":5539000000000,"state":"active","ping":133},{"user_id":1085,"name":"Creamy","steam_id":76561198063907478,"connected_time":2041000000000,"state":"active","ping":133},{"user_id":1110,"name":"Mr. Gainsalot","steam_id":76561198083851689,"connected_time":213000000000,"state":"active","ping":74},{"user_id":1111,"name":"the rizzard of oz","steam_id":76561198108196753,"connected_time":205000000000,"state":"active","ping":105},{"user_id":1113,"name":"Pete The \"Plummer\"","steam_id":76561199097450685,"connected_time":110000000000,"state":"active","ping":139},{"user_id":1098,"name":"A√º","steam_id":76561199031241776,"connected_time":1361000000000,"state":"active","ping":79},{"user_id":1096,"name":"Mother Cybele","steam_id":76561198138577355,"connected_time":1681000000000,"state":"active","ping":81}]},{"server_id":15,"name":"Uncletopia | New York City | 3 | Stopwatch Beta","name_short":"nyc-3","host":"nyc-1.us.uncletopia.com","port":27035,"enabled":true,"region":"us-east","cc":"us","latitude":40.73061,"longitude":-73.93524,"reserved":0,"last_update":"0001-01-01T00:00:00Z","name_a2s":"Uncletopia | New York City | 3 | Stopwatch Beta","protocol":17,"map":"workshop/koth_product_final.ugc454272353","folder":"tf","game":"Team Fortress","app_id":440,"player_count":0,"max_players":24,"Bots":0,"server_type":"Dedicated","server_os":"Linux","password":true,"vac":true,"version":"7757534","steam_id":85568392924742820,"keywords":["cp","nocrits","nodmgspread","uncletopia"],"game_id":440,"stv_port":27036,"stv_name":"Uncletopia | New York City | 3 | Stopwatch Beta | STV","players":null},{"server_id":16,"name":"Uncletopia | New York City | 4 | Community","name_short":"nyc-4","host":"nyc-1.us.uncletopia.com","port":27045,"enabled":true,"region":"us-east","cc":"us","latitude":40.73061,"longitude":-73.93524,"reserved":0,"last_update":"0001-01-01T00:00:00Z","name_a2s":"Uncletopia | New York City | 4 | Community","protocol":17,"map":"workshop/pl_boundary_final1.ugc456799153","folder":"tf","game":"Team Fortress","app_id":440,"player_count":0,"max_players":24,"Bots":0,"server_type":"Dedicated","server_os":"Linux","password":true,"vac":true,"version":"7757534","steam_id":85568392924742821,"keywords":["nocrits","nodmgspread","payload","uncletopia"],"game_id":440,"stv_port":27046,"stv_name":"Uncletopia | New York City | 4 | Community | STV","players":null},{"server_id":142,"name":"Uncletopia | S√£o Paulo | 1 | All Maps","name_short":"sao-1","host":"sao-1.br.uncletopia.com","port":27015,"enabled":true,"region":"sa","cc":"br","latitude":-23.533773,"longitude":-46.62529,"reserved":0,"last_update":"0001-01-01T00:00:00Z","name_a2s":"Uncletopia | S√£o Paulo | 1 | All Maps","protocol":17,"map":"koth_viaduct","folder":"tf","game":"Team Fortress","app_id":440,"player_count":0,"max_players":24,"Bots":0,"server_type":"Dedicated","server_os":"Linux","password":true,"vac":true,"version":"7757534","steam_id":85568392924469996,"keywords":["cp","nocrits","nodmgspread","uncletopia"],"game_id":440,"stv_port":27016,"stv_name":"Uncletopia | S√£o Paulo | 1 | All Maps | STV","players":null},{"server_id":143,"name":"Uncletopia | S√£o Paulo | 2 | All Maps","name_short":"sao-2","host":"sao-2.br.uncletopia.com","port":27015,"enabled":true,"region":"sa","cc":"br","latitude":-23.533773,"longitude":-46.62529,"reserved":0,"last_update":"0001-01-01T00:00:00Z","name_a2s":"Uncletopia | S√£o Paulo | 2 | All Maps","protocol":17,"map":"koth_harvest_final","folder":"tf","game":"Team Fortress","app_id":440,"player_count":0,"max_players":24,"Bots":0,"server_type":"Dedicated","server_os":"Linux","password":true,"vac":true,"version":"7757534","steam_id":85568392924485349,"keywords":["cp","nocrits","nodmgspread","uncletopia"],"game_id":440,"stv_port":27016,"stv_name":"Uncletopia | S√£o Paulo | 2 | All Maps | STV","players":null},{"server_id":7,"name":"Uncletopia | Seattle | 1 | All Maps","name_short":"sea-1","host":"sea-1.us.uncletopia.com","port":27015,"enabled":true,"region":"us-west","cc":"us","latitude":47.608013,"longitude":-122.33517,"reserved":0,"last_update":"0001-01-01T00:00:00Z","name_a2s":"Uncletopia | Seattle | 1 | All Maps","protocol":17,"map":"pl_rumford_event","folder":"tf","game":"Team Fortress","app_id":440,"player_count":24,"max_players":24,"Bots":0,"server_type":"Dedicated","server_os":"Linux","password":true,"vac":true,"version":"7757534","steam_id":85568392924469997,"keywords":["nocrits","nodmgspread","payload","uncletopia"],"game_id":440,"stv_port":27016,"stv_name":"Uncletopia | Seattle | 1 | All Maps | STV","players":[{"user_id":888,"name":"John Calibur","steam_id":76561197999986606,"connected_time":595000000000,"state":"active","ping":73},{"user_id":849,"name":"profile name","steam_id":76561198032625036,"connected_time":4916000000000,"state":"active","ping":60},{"user_id":901,"name":"Fargo","steam_id":76561198044703931,"connected_time":193000000000,"state":"active","ping":75},{"user_id":896,"name":"Szaint","steam_id":76561198165050614,"connected_time":419000000000,"state":"active","ping":67},{"user_id":885,"name":"rorywashere /·ê† - Àï -„Éû ‚≥ä","steam_id":76561198065825165,"connected_time":1031000000000,"state":"active","ping":102},{"user_id":890,"name":"robertJMP","steam_id":76561199066260919,"connected_time":589000000000,"state":"active","ping":85},{"user_id":882,"name":"exephur","steam_id":76561198135763234,"connected_time":1521000000000,"state":"active","ping":67},{"user_id":891,"name":"Gatackku","steam_id":76561198089902965,"connected_time":558000000000,"state":"active","ping":49},{"user_id":894,"name":"Number_forty1","steam_id":76561198103653795,"connected_time":512000000000,"state":"active","ping":90},{"user_id":892,"name":"squeako mode","steam_id":76561198302580297,"connected_time":521000000000,"state":"active","ping":97},{"user_id":736,"name":"Gary, 40, soul sucking 9-5","steam_id":76561198073812888,"connected_time":11461000000000,"state":"active","ping":49},{"user_id":868,"name":"gorlab","steam_id":76561198025089694,"connected_time":2583000000000,"state":"active","ping":71},{"user_id":881,"name":"Skoad","steam_id":76561198104650528,"connected_time":1548000000000,"state":"active","ping":58},{"user_id":897,"name":"gerg","steam_id":76561197997127387,"connected_time":386000000000,"state":"active","ping":72},{"user_id":825,"name":"Level 99 Mudcrab","steam_id":76561198077452771,"connected_time":6603000000000,"state":"active","ping":51},{"user_id":898,"name":"Lehuie","steam_id":76561198097305288,"connected_time":370000000000,"state":"active","ping":73},{"user_id":819,"name":"delight","steam_id":76561197980280272,"connected_time":7647000000000,"state":"active","ping":46},{"user_id":899,"name":":face_holding_back_tears:","steam_id":76561198164782653,"connected_time":364000000000,"state":"active","ping":120},{"user_id":815,"name":"Attrition","steam_id":76561197969881916,"connected_time":8076000000000,"state":"active","ping":48},{"user_id":887,"name":"Cam(era)","steam_id":76561198285054047,"connected_time":737000000000,"state":"active","ping":79},{"user_id":880,"name":"Psychic Tandem War Elephant","steam_id":76561198040742185,"connected_time":2049000000000,"state":"active","ping":128},{"user_id":900,"name":"Ayayahuasca","steam_id":76561199002906056,"connected_time":362000000000,"state":"active","ping":47},{"user_id":804,"name":"p9 jorts","steam_id":76561199041179985,"connected_time":8729000000000,"state":"active","ping":65},{"user_id":902,"name":"Virgin Gaming","steam_id":76561198093888772,"connected_time":27000000000,"state":"active","ping":62}]},{"server_id":119,"name":"Uncletopia | Seattle | 2 | All Maps","name_short":"sea-2","host":"sea-1.us.uncletopia.com","port":27025,"enabled":true,"region":"us-west","cc":"us","latitude":47.608013,"longitude":-122.33517,"reserved":0,"last_update":"0001-01-01T00:00:00Z","name_a2s":"Uncletopia | Seattle | 2 | All Maps","protocol":17,"map":"cp_junction_final","folder":"tf","game":"Team Fortress","app_id":440,"player_count":11,"max_players":24,"Bots":0,"server_type":"Dedicated","server_os":"Linux","password":true,"vac":true,"version":"7757534","steam_id":85568392924469998,"keywords":["cp","nocrits","nodmgspread","uncletopia"],"game_id":440,"stv_port":27026,"stv_name":"Uncletopia | Seattle | 2 | All Maps | STV","players":[{"user_id":779,"name":"jadeite","steam_id":76561198022298676,"connected_time":1390000000000,"state":"active","ping":30},{"user_id":756,"name":"Username","steam_id":76561198855586261,"connected_time":4145000000000,"state":"active","ping":72},{"user_id":789,"name":"Thunder","steam_id":76561198795676044,"connected_time":426000000000,"state":"active","ping":62},{"user_id":782,"name":"ChuChu","steam_id":76561199443647976,"connected_time":818000000000,"state":"active","ping":87},{"user_id":783,"name":"Sunny","steam_id":76561198261667312,"connected_time":816000000000,"state":"active","ping":100},{"user_id":762,"name":"im so fucking repressed","steam_id":76561198029396836,"connected_time":3535000000000,"state":"active","ping":41},{"user_id":778,"name":"Thexx ‚ù§","steam_id":76561198113823050,"connected_time":1559000000000,"state":"active","ping":48},{"user_id":794,"name":"bee","steam_id":76561198133853375,"connected_time":316000000000,"state":"active","ping":57},{"user_id":791,"name":"ComputerFritz","steam_id":76561198368730970,"connected_time":388000000000,"state":"active","ping":45},{"user_id":795,"name":"Viper_Ray","steam_id":76561199068788737,"connected_time":311000000000,"state":"active","ping":53},{"user_id":799,"name":"Zipp {Comms open}","steam_id":76561198146409744,"connected_time":202000000000,"state":"active","ping":90}]},{"server_id":406,"name":"Uncletopia | Seattle | 3 | Stopwatch Beta","name_short":"sea-3","host":"sea-1.us.uncletopia.com","port":27035,"enabled":true,"region":"us-west","cc":"us","latitude":47.608013,"longitude":-122.33517,"reserved":0,"last_update":"0001-01-01T00:00:00Z","name_a2s":"Uncletopia | Seattle | 3 | Stopwatch Beta","protocol":17,"map":"workshop/koth_ashville_final.ugc2130459942","folder":"tf","game":"Team Fortress","app_id":440,"player_count":0,"max_players":24,"Bots":0,"server_type":"Dedicated","server_os":"Linux","password":true,"vac":true,"version":"7757534","steam_id":85568392924515217,"keywords":["cp","nocrits","nodmgspread","uncletopia"],"game_id":440,"stv_port":27036,"stv_name":"Uncletopia | Seattle | 3 | Stopwatch Beta | STV","players":null},{"server_id":17,"name":"Uncletopia | San Francisco | 1 | All Maps","name_short":"sfo-1","host":"sfo-1.us.uncletopia.com","port":27015,"enabled":true,"region":"us-west","cc":"us","latitude":37.77397,"longitude":-122.4313,"reserved":0,"last_update":"0001-01-01T00:00:00Z","name_a2s":"Uncletopia | San Francisco | 1 | All Maps","protocol":17,"map":"pl_borneo","folder":"tf","game":"Team Fortress","app_id":440,"player_count":22,"max_players":24,"Bots":0,"server_type":"Dedicated","server_os":"Linux","password":true,"vac":true,"version":"7757534","steam_id":85568392924469999,"keywords":["nocrits","nodmgspread","payload","uncletopia"],"game_id":440,"stv_port":27016,"stv_name":"Uncletopia | San Francisco | 1 | All Maps | STV","players":[{"user_id":944,"name":"Flipari","steam_id":76561198399012971,"connected_time":374000000000,"state":"active","ping":48},{"user_id":947,"name":"SaltyService","steam_id":76561198120366751,"connected_time":109000000000,"state":"active","ping":69},{"user_id":934,"name":"asphalt eater","steam_id":76561198844273999,"connected_time":1579000000000,"state":"active","ping":63},{"user_id":867,"name":"MegaBron James","steam_id":76561198066091050,"connected_time":7299000000000,"state":"active","ping":69},{"user_id":927,"name":"Mad Italian","steam_id":76561198083529973,"connected_time":2671000000000,"state":"active","ping":58},{"user_id":895,"name":"Thunder","steam_id":76561198097721532,"connected_time":5929000000000,"state":"active","ping":52},{"user_id":896,"name":"Courier711","steam_id":76561198053232343,"connected_time":5900000000000,"state":"active","ping":69},{"user_id":933,"name":"smiley","steam_id":76561198240116276,"connected_time":1656000000000,"state":"active","ping":103},{"user_id":908,"name":"Pie","steam_id":76561198054721133,"connected_time":5409000000000,"state":"active","ping":66},{"user_id":943,"name":"kevin shields #1 fan","steam_id":76561197995200743,"connected_time":686000000000,"state":"active","ping":45},{"user_id":840,"name":"lol","steam_id":76561198026491738,"connected_time":9758000000000,"state":"active","ping":65},{"user_id":936,"name":"served","steam_id":76561199438267625,"connected_time":1465000000000,"state":"active","ping":59},{"user_id":762,"name":"Dr. B Busta","steam_id":76561198206387303,"connected_time":13137000000000,"state":"active","ping":48},{"user_id":914,"name":"PunishedCrab","steam_id":76561198079650017,"connected_time":4406000000000,"state":"active","ping":75},{"user_id":932,"name":"goldhed","steam_id":76561198051751133,"connected_time":1798000000000,"state":"active","ping":76},{"user_id":946,"name":"intel or amd?","steam_id":76561198319442494,"connected_time":125000000000,"state":"active","ping":62},{"user_id":929,"name":"SnaggzHaki","steam_id":76561198065282605,"connected_time":2590000000000,"state":"active","ping":99},{"user_id":930,"name":"SWANG","steam_id":76561198269180990,"connected_time":2580000000000,"state":"active","ping":94},{"user_id":921,"name":"Danmnation","steam_id":76561199029201184,"connected_time":4202000000000,"state":"active","ping":72},{"user_id":941,"name":"Jack from Jack in The Box","steam_id":76561199083594971,"connected_time":1213000000000,"state":"active","ping":63},{"user_id":918,"name":"Cinna Mon","steam_id":76561198005840633,"connected_time":4323000000000,"state":"active","ping":63},{"user_id":931,"name":"Beno","steam_id":76561198164251467,"connected_time":2571000000000,"state":"active","ping":92}]},{"server_id":18,"name":"Uncletopia | San Francisco | 2 | All Maps","name_short":"sfo-2","host":"sfo-1.us.uncletopia.com","port":27025,"enabled":true,"region":"us-west","cc":"us","latitude":37.77397,"longitude":-122.4313,"reserved":0,"last_update":"0001-01-01T00:00:00Z","name_a2s":"Uncletopia | San Francisco | 2 | All Maps","protocol":17,"map":"pl_snowycoast","folder":"tf","game":"Team Fortress","app_id":440,"player_count":23,"max_players":24,"Bots":0,"server_type":"Dedicated","server_os":"Linux","password":true,"vac":true,"version":"7757534","steam_id":85568392924470000,"keywords":["nocrits","nodmgspread","payload","uncletopia"],"game_id":440,"stv_port":27026,"stv_name":"Uncletopia | San Francisco | 2 | All Maps | STV","players":[{"user_id":90,"name":"Satori Komeiji","steam_id":76561198158211423,"connected_time":4563000000000,"state":"active","ping":55},{"user_id":54,"name":"perc 10","steam_id":76561198116471653,"connected_time":6335000000000,"state":"active","ping":52},{"user_id":110,"name":"Eremital","steam_id":76561198069557669,"connected_time":3841000000000,"state":"active","ping":61},{"user_id":147,"name":"Gm_Trash","steam_id":76561199445091548,"connected_time":613000000000,"state":"active","ping":84},{"user_id":114,"name":"Cactus","steam_id":76561198149762619,"connected_time":3778000000000,"state":"active","ping":66},{"user_id":152,"name":"ark","steam_id":76561198041066271,"connected_time":155000000000,"state":"active","ping":76},{"user_id":153,"name":"Space Man","steam_id":76561198112499531,"connected_time":106000000000,"state":"active","ping":157},{"user_id":115,"name":"IHUNTZ","steam_id":76561198390109907,"connected_time":3777000000000,"state":"active","ping":66},{"user_id":94,"name":"Qrowniniee","steam_id":76561198273028245,"connected_time":4342000000000,"state":"active","ping":72},{"user_id":116,"name":"JayLatne","steam_id":76561198258221077,"connected_time":3774000000000,"state":"active","ping":61},{"user_id":142,"name":"Tankun","steam_id":76561198020365510,"connected_time":875000000000,"state":"active","ping":97},{"user_id":150,"name":"ScoutBox","steam_id":76561198111539895,"connected_time":457000000000,"state":"active","ping":53},{"user_id":154,"name":"One Horned Bitch Destroyer","steam_id":76561198045810191,"connected_time":99000000000,"state":"active","ping":61},{"user_id":140,"name":"bingus","steam_id":76561199198633203,"connected_time":2275000000000,"state":"active","ping":87},{"user_id":53,"name":"eau:","steam_id":76561198110020262,"connected_time":6523000000000,"state":"active","ping":46},{"user_id":155,"name":"John F. Kennedy","steam_id":76561198930949405,"connected_time":88000000000,"state":"active","ping":154},{"user_id":144,"name":"Dagoth Ur","steam_id":76561198117028805,"connected_time":861000000000,"state":"active","ping":85},{"user_id":109,"name":"Rusty","steam_id":76561198178868626,"connected_time":3853000000000,"state":"active","ping":88},{"user_id":105,"name":"Darth Humis","steam_id":76561198879506239,"connected_time":3920000000000,"state":"active","ping":68},{"user_id":133,"name":"bonk man","steam_id":76561198386542309,"connected_time":2588000000000,"state":"active","ping":102},{"user_id":145,"name":"Scoliosis King","steam_id":76561199143329892,"connected_time":831000000000,"state":"active","ping":77},{"user_id":137,"name":"Sir Galahad","steam_id":76561198195999859,"connected_time":2519000000000,"state":"active","ping":76},{"user_id":148,"name":"rey","steam_id":76561198021883683,"connected_time":597000000000,"state":"active","ping":58}]},{"server_id":19,"name":"Uncletopia | San Francisco | 3 | Stopwatch Beta","name_short":"sfo-3","host":"sfo-1.us.uncletopia.com","port":27035,"enabled":true,"region":"us-west","cc":"us","latitude":37.77397,"longitude":-122.4313,"reserved":0,"last_update":"0001-01-01T00:00:00Z","name_a2s":"Uncletopia | San Francisco | 3 | Stopwatch Beta","protocol":17,"map":"pl_swiftwater_final1","folder":"tf","game":"Team Fortress","app_id":440,"player_count":0,"max_players":24,"Bots":0,"server_type":"Dedicated","server_os":"Linux","password":true,"vac":true,"version":"7757534","steam_id":85568392924742824,"keywords":["nocrits","nodmgspread","payload","uncletopia"],"game_id":440,"stv_port":27036,"stv_name":"Uncletopia | San Francisco | 3 | Stopwatch Beta | STV","players":null},{"server_id":20,"name":"Uncletopia | San Francisco | 4 | Community","name_short":"sfo-4","host":"sfo-1.us.uncletopia.com","port":27045,"enabled":true,"region":"us-west","cc":"us","latitude":37.77397,"longitude":-122.4313,"reserved":0,"last_update":"0001-01-01T00:00:00Z","name_a2s":"Uncletopia | San Francisco | 4 | Community","protocol":17,"map":"workshop/koth_slaughter_rc1.ugc1712845210","folder":"tf","game":"Team Fortress","app_id":440,"player_count":7,"max_players":24,"Bots":0,"server_type":"Dedicated","server_os":"Linux","password":true,"vac":true,"version":"7757534","steam_id":85568392924742826,"keywords":["cp","nocrits","nodmgspread","uncletopia"],"game_id":440,"stv_port":27046,"stv_name":"Uncletopia | San Francisco | 4 | Community | STV","players":[{"user_id":320,"name":"Honey Boo Boo","steam_id":76561198119340886,"connected_time":5162000000000,"state":"active","ping":90},{"user_id":179,"name":"SOLDIER TF2","steam_id":76561198203170652,"connected_time":16578000000000,"state":"active","ping":85},{"user_id":348,"name":"BaklanbI","steam_id":76561198081663522,"connected_time":2620000000000,"state":"active","ping":230},{"user_id":355,"name":"tracy","steam_id":76561198319677284,"connected_time":1530000000000,"state":"active","ping":50},{"user_id":352,"name":"JU67","steam_id":76561199054875735,"connected_time":1815000000000,"state":"active","ping":244},{"user_id":353,"name":"awning","steam_id":76561198202285760,"connected_time":1796000000000,"state":"active","ping":68},{"user_id":252,"name":"Auynonymous","steam_id":76561198027509458,"connected_time":12197000000000,"state":"active","ping":90}]},{"server_id":141,"name":"Uncletopia | Sydney | 1 | All Maps","name_short":"syd-1","host":"syd-1.au.uncletopia.com","port":27015,"enabled":true,"region":"au","cc":"au","latitude":-33.865143,"longitude":151.2099,"reserved":0,"last_update":"0001-01-01T00:00:00Z","name_a2s":"Uncletopia | Sydney | 1 | All Maps","protocol":17,"map":"cp_steel","folder":"tf","game":"Team Fortress","app_id":440,"player_count":23,"max_players":24,"Bots":0,"server_type":"Dedicated","server_os":"Linux","password":true,"vac":true,"version":"7757534","steam_id":85568392924470001,"keywords":["cp","nocrits","nodmgspread","uncletopia"],"game_id":440,"stv_port":27016,"stv_name":"Uncletopia | Sydney | 1 | All Maps | STV","players":[{"user_id":313,"name":"GoodoDarco","steam_id":76561198322623838,"connected_time":7917000000000,"state":"active","ping":64},{"user_id":342,"name":"primal","steam_id":76561198257852006,"connected_time":5694000000000,"state":"active","ping":71},{"user_id":407,"name":"Mr Mahal","steam_id":76561198123234137,"connected_time":1232000000000,"state":"active","ping":70},{"user_id":363,"name":"weezer","steam_id":76561199439508788,"connected_time":4115000000000,"state":"active","ping":64},{"user_id":418,"name":"Mr Doctor","steam_id":76561198081415999,"connected_time":429000000000,"state":"active","ping":76},{"user_id":356,"name":"smite","steam_id":76561198845304189,"connected_time":5020000000000,"state":"active","ping":69},{"user_id":399,"name":"Bin","steam_id":76561199117653318,"connected_time":1797000000000,"state":"active","ping":71},{"user_id":346,"name":"numbers on the boards","steam_id":76561198034306834,"connected_time":5453000000000,"state":"active","ping":40},{"user_id":413,"name":"Cris.p bacon","steam_id":76561199230423491,"connected_time":805000000000,"state":"active","ping":97},{"user_id":410,"name":"beth.cubitt","steam_id":76561198454733447,"connected_time":1219000000000,"state":"active","ping":87},{"user_id":417,"name":"krandlez` (Any/All)","steam_id":76561198044839726,"connected_time":517000000000,"state":"active","ping":40},{"user_id":412,"name":"SupersawLead","steam_id":76561197998934553,"connected_time":1046000000000,"state":"active","ping":67},{"user_id":419,"name":"O'rangutan","steam_id":76561198095916681,"connected_time":339000000000,"state":"active","ping":45},{"user_id":367,"name":"bison","steam_id":76561198183851230,"connected_time":3898000000000,"state":"active","ping":83},{"user_id":323,"name":"Mail Bomb Victim","steam_id":76561198284533039,"connected_time":7542000000000,"state":"active","ping":47},{"user_id":414,"name":"Lukey","steam_id":76561197999887960,"connected_time":676000000000,"state":"active","ping":65},{"user_id":402,"name":"Blazey ‰ºäÈÅî ÊîøÂÆó","steam_id":76561197971082275,"connected_time":1538000000000,"state":"active","ping":123},{"user_id":389,"name":"LightningBlock","steam_id":76561198289997742,"connected_time":2304000000000,"state":"active","ping":34},{"user_id":416,"name":"MrMuffin16","steam_id":76561198257303774,"connected_time":568000000000,"state":"active","ping":59},{"user_id":403,"name":"Sinister80s","steam_id":76561198343540472,"connected_time":1521000000000,"state":"active","ping":67},{"user_id":411,"name":"KindredGarlic","steam_id":76561198862857120,"connected_time":1113000000000,"state":"active","ping":43},{"user_id":405,"name":"BaconUndies","steam_id":76561198281809824,"connected_time":1401000000000,"state":"active","ping":100},{"user_id":386,"name":"mushroom","steam_id":76561197992336470,"connected_time":2456000000000,"state":"active","ping":89}]},{"server_id":123,"name":"Uncletopia | Sydney | 2 | All Maps","name_short":"syd-2","host":"syd-1.au.uncletopia.com","port":27025,"enabled":true,"region":"au","cc":"au","latitude":-33.865143,"longitude":151.2099,"reserved":0,"last_update":"0001-01-01T00:00:00Z","name_a2s":"Uncletopia | Sydney | 2 | All Maps","protocol":17,"map":"pl_badwater","folder":"tf","game":"Team Fortress","app_id":440,"player_count":18,"max_players":24,"Bots":0,"server_type":"Dedicated","server_os":"Linux","password":true,"vac":true,"version":"7757534","steam_id":85568392924470002,"keywords":["nocrits","nodmgspread","payload","uncletopia"],"game_id":440,"stv_port":27026,"stv_name":"Uncletopia | Sydney | 2 | All Maps | STV","players":[{"user_id":262,"name":"Gregory doesn't play Engineer","steam_id":76561199028542666,"connected_time":30000000000,"state":"active","ping":36},{"user_id":249,"name":"BigFatGiant","steam_id":76561198057983482,"connected_time":418000000000,"state":"active","ping":48},{"user_id":248,"name":"Sherpa","steam_id":76561198018913829,"connected_time":489000000000,"state":"active","ping":51},{"user_id":260,"name":"Jamie2Cool","steam_id":76561198155695809,"connected_time":119000000000,"state":"active","ping":84},{"user_id":250,"name":"JustGaming","steam_id":76561198086431902,"connected_time":400000000000,"state":"active","ping":73},{"user_id":251,"name":"Toucan 2","steam_id":76561198184873390,"connected_time":351000000000,"state":"active","ping":54},{"user_id":252,"name":"TV Girl enjoyer","steam_id":76561198398154377,"connected_time":350000000000,"state":"active","ping":59},{"user_id":253,"name":"Toucan 1","steam_id":76561199108254276,"connected_time":338000000000,"state":"active","ping":60},{"user_id":254,"name":"Toucan 3","steam_id":76561198413052417,"connected_time":330000000000,"state":"active","ping":89},{"user_id":258,"name":"Jy","steam_id":76561198104427524,"connected_time":196000000000,"state":"active","ping":54},{"user_id":256,"name":"zore","steam_id":76561198016233021,"connected_time":272000000000,"state":"active","ping":58},{"user_id":261,"name":"piratespy22","steam_id":76561198042198744,"connected_time":47000000000,"state":"active","ping":48},{"user_id":176,"name":"SaltierThanYou","steam_id":76561198444395188,"connected_time":4616000000000,"state":"active","ping":80},{"user_id":235,"name":"The_Green_Jelly","steam_id":76561198381061704,"connected_time":1784000000000,"state":"active","ping":95},{"user_id":236,"name":"Dustin Poirier","steam_id":76561198060677406,"connected_time":1403000000000,"state":"active","ping":98},{"user_id":241,"name":"Spicy Baguette","steam_id":76561198238030210,"connected_time":1216000000000,"state":"active","ping":48},{"user_id":183,"name":"Matchfighter","steam_id":76561198043200309,"connected_time":4381000000000,"state":"active","ping":51},{"user_id":195,"name":"Paula","steam_id":76561198010688399,"connected_time":3385000000000,"state":"active","ping":77}]},{"server_id":395,"name":"Uncletopia | Sydney | 3 | All Maps","name_short":"syd-3","host":"syd-1.au.uncletopia.com","port":27035,"enabled":true,"region":"au","cc":"au","latitude":-33.865143,"longitude":151.2099,"reserved":0,"last_update":"0001-01-01T00:00:00Z","name_a2s":"Uncletopia | Sydney | 3 | All Maps","protocol":17,"map":"cp_sunshine","folder":"tf","game":"Team Fortress","app_id":440,"player_count":0,"max_players":24,"Bots":0,"server_type":"Dedicated","server_os":"Linux","password":true,"vac":true,"version":"7757534","steam_id":85568392925194467,"keywords":["cp","nocrits","nodmgspread","uncletopia"],"game_id":440,"stv_port":27036,"stv_name":"Uncletopia | Sydney | 3 | All Maps | STV","players":null},{"server_id":396,"name":"Uncletopia | Sydney | 4 | All Maps","name_short":"syd-4","host":"syd-1.au.uncletopia.com","port":27045,"enabled":true,"region":"au","cc":"au","latitude":-33.865143,"longitude":151.2099,"reserved":0,"last_update":"0001-01-01T00:00:00Z","name_a2s":"Uncletopia | Sydney | 4 | All Maps","protocol":17,"map":"koth_lakeside_final","folder":"tf","game":"Team Fortress","app_id":440,"player_count":0,"max_players":24,"Bots":0,"server_type":"Dedicated","server_os":"Linux","password":true,"vac":true,"version":"7757534","steam_id":85568392925397958,"keywords":["cp","nocrits","nodmgspread","uncletopia"],"game_id":440,"stv_port":27046,"stv_name":"Uncletopia | Sydney | 4 | All Maps | STV","players":null},{"server_id":58,"name":"Uncletopia | Sydney | 5 | Stopwatch Beta","name_short":"syd-5","host":"syd-1.au.uncletopia.com","port":27055,"enabled":true,"region":"au","cc":"au","latitude":-33.865143,"longitude":151.2099,"reserved":0,"last_update":"0001-01-01T00:00:00Z","name_a2s":"Uncletopia | Sydney | 5 | Stopwatch Beta","protocol":17,"map":"pl_upward","folder":"tf","game":"Team Fortress","app_id":440,"player_count":0,"max_players":24,"Bots":0,"server_type":"Dedicated","server_os":"Linux","password":true,"vac":true,"version":"7757534","steam_id":85568392925397959,"keywords":["nocrits","nodmgspread","payload","uncletopia"],"game_id":440,"stv_port":27056,"stv_name":"Uncletopia | Sydney | 5 | Stopwatch Beta | STV","players":null},{"server_id":59,"name":"Uncletopia | Sydney | 6 | Community","name_short":"syd-6","host":"syd-1.au.uncletopia.com","port":27065,"enabled":true,"region":"au","cc":"au","latitude":-33.865143,"longitude":151.2099,"reserved":0,"last_update":"0001-01-01T00:00:00Z","name_a2s":"Uncletopia | Sydney | 6 | Community","protocol":17,"map":"workshop/cp_indulge.ugc528106646","folder":"tf","game":"Team Fortress","app_id":440,"player_count":2,"max_players":24,"Bots":0,"server_type":"Dedicated","server_os":"Linux","password":true,"vac":true,"version":"7757534","steam_id":85568392925397960,"keywords":["cp","nocrits","nodmgspread","uncletopia"],"game_id":440,"stv_port":27066,"stv_name":"Uncletopia | Sydney | 6 | Community | STV","players":[{"user_id":8,"name":"Zilvera","steam_id":76561198065801850,"connected_time":4300000000000,"state":"active","ping":52},{"user_id":12,"name":"FreeBeers","steam_id":76561198095448607,"connected_time":592000000000,"state":"active","ping":65}]},{"server_id":49,"name":"Uncletopia | Warsaw | 1 | All Maps","name_short":"waw-1","host":"waw-1.pl.uncletopia.com","port":27015,"enabled":true,"region":"eu","cc":"pl","latitude":52.2297,"longitude":21.017532,"reserved":0,"last_update":"0001-01-01T00:00:00Z","name_a2s":"","protocol":0,"map":"","folder":"","game":"","app_id":0,"player_count":0,"max_players":0,"Bots":0,"server_type":"","server_os":"","password":false,"vac":false,"version":"","steam_id":0,"keywords":null,"game_id":0,"stv_port":0,"stv_name":"","players":null},{"server_id":50,"name":"Uncletopia | Warsaw | 2 | All Maps","name_short":"waw-2","host":"waw-1.pl.uncletopia.com","port":27025,"enabled":true,"region":"eu","cc":"pl","latitude":52.2297,"longitude":21.017532,"reserved":0,"last_update":"0001-01-01T00:00:00Z","name_a2s":"Uncletopia | Warsaw | 2 | All Maps","protocol":17,"map":"koth_viaduct","folder":"tf","game":"Team Fortress","app_id":440,"player_count":0,"max_players":24,"Bots":0,"server_type":"Dedicated","server_os":"Linux","password":true,"vac":true,"version":"7757534","steam_id":85568392925397851,"keywords":["cp","nocrits","nodmgspread","uncletopia"],"game_id":440,"stv_port":27026,"stv_name":"Uncletopia | Warsaw | 2 | All Maps | STV","players":null},{"server_id":51,"name":"Uncletopia | Warsaw | 3 | All Maps","name_short":"waw-3","host":"waw-1.pl.uncletopia.com","port":27035,"enabled":true,"region":"eu","cc":"pl","latitude":52.2297,"longitude":21.017532,"reserved":0,"last_update":"0001-01-01T00:00:00Z","name_a2s":"Uncletopia | Warsaw | 3 | All Maps","protocol":17,"map":"pl_badwater","folder":"tf","game":"Team Fortress","app_id":440,"player_count":0,"max_players":24,"Bots":0,"server_type":"Dedicated","server_os":"Linux","password":true,"vac":true,"version":"7757534","steam_id":85568392925397852,"keywords":["nocrits","nodmgspread","payload","uncletopia"],"game_id":440,"stv_port":27036,"stv_name":"Uncletopia | Warsaw | 3 | All Maps | STV","players":null},{"server_id":52,"name":"Uncletopia | Warsaw | 4 | All Maps","name_short":"waw-4","host":"waw-1.pl.uncletopia.com","port":27045,"enabled":true,"region":"eu","cc":"pl","latitude":52.2297,"longitude":21.017532,"reserved":0,"last_update":"0001-01-01T00:00:00Z","name_a2s":"Uncletopia | Warsaw | 4 | All Maps","protocol":17,"map":"koth_lakeside_final","folder":"tf","game":"Team Fortress","app_id":440,"player_count":0,"max_players":24,"Bots":0,"server_type":"Dedicated","server_os":"Linux","password":true,"vac":true,"version":"7757534","steam_id":85568392925397853,"keywords":["cp","nocrits","nodmgspread","uncletopia"],"game_id":440,"stv_port":27046,"stv_name":"Uncletopia | Warsaw | 4 | All Maps | STV","players":null},{"server_id":53,"name":"Uncletopia | Warsaw | 5 | Stopwatch Beta","name_short":"waw-5","host":"waw-1.pl.uncletopia.com","port":27055,"enabled":true,"region":"eu","cc":"pl","latitude":52.2297,"longitude":21.017532,"reserved":0,"last_update":"0001-01-01T00:00:00Z","name_a2s":"Uncletopia | Warsaw | 5 | Stopwatch Beta","protocol":17,"map":"pl_borneo","folder":"tf","game":"Team Fortress","app_id":440,"player_count":0,"max_players":24,"Bots":0,"server_type":"Dedicated","server_os":"Linux","password":true,"vac":true,"version":"7757534","steam_id":85568392925397854,"keywords":["nocrits","nodmgspread","payload","uncletopia"],"game_id":440,"stv_port":27056,"stv_name":"Uncletopia | Warsaw | 5 | Stopwatch Beta | STV","players":null},{"server_id":54,"name":"Uncletopia | Warsaw | 6 | Community","name_short":"waw-6","host":"waw-1.pl.uncletopia.com","port":27065,"enabled":true,"region":"eu","cc":"pl","latitude":52.2297,"longitude":21.017532,"reserved":0,"last_update":"0001-01-01T00:00:00Z","name_a2s":"Uncletopia | Warsaw | 6 | Community","protocol":17,"map":"koth_lakeside_final","folder":"tf","game":"Team Fortress","app_id":440,"player_count":0,"max_players":24,"Bots":0,"server_type":"Dedicated","server_os":"Linux","password":true,"vac":true,"version":"7757534","steam_id":85568392925397856,"keywords":["cp","nocrits","nodmgspread","uncletopia"],"game_id":440,"stv_port":27066,"stv_name":"Uncletopia | Warsaw | 6 | Community | STV","players":null}]}