{"status":true,"message":"","result":[{"server_id":9,"name":"Uncletopia | Atlanta | 1 | All Maps","name_short":"atl-1","host":"atl-1.us.uncletopia.com","port":27015,"enabled":true,"region":"us-east","cc":"us","latitude":33.753746,"longitude":-84.38633,"reserved":0,"last_update":"0001-01-01T00:00:00Z","name_a2s":"Uncletopia | Atlanta | 1 | All Maps","protocol":17,"map":"pl_pier","folder":"tf","game":"Team Fortress","app_id":440,"player_count":24,"max_players":24,"Bots":0,"server_type":"Dedicated","server_os":"Linux","password":true,"vac":true,"version":"7757534","steam_id":85568392924469982,"keywords":["nocrits","nodmgspread","payload","uncletopia"],"game_id":440,"stv_port":27016,"stv_name":"Uncletopia | Atlanta | 1 | All Maps | STV","players":[{"user_id":491,"name":"[rat] Entropy","steam_id":76561198324087024,"connected_time":2133000000000,"state":"active","ping":95},{"user_id":446,"name":"The sad vanilla","steam_id":76561198268621447,"connected_time":5823000000000,"state":"active","ping":80},{"user_id":504,"name":"Dispenser (Sukune)","steam_id":76561197990102218,"connected_time":1682000000000,"state":"active","ping":95},{"user_id":494,"name":"ATL1 | Lavie","steam_id":76561198825997674,"connected_time":2097000000000,"state":"active","ping":55},{"user_id":484,"name":"V!CT!M","steam_id":76561198962721502,"connected_time":3150000000000,"state":"active","ping":88},{"user_id":509,"name":"Gary Budussy","steam_id":76561197969793969,"connected_time":960000000000,"state":"active","ping":71},{"user_id":503,"name":"Antifa Alligator","steam_id":76561197988170816,"connected_time":1686000000000,"state":"active","ping":89},{"user_id":489,"name":"atl1icyy","steam_id":76561198968001329,"connected_time":2642000000000,"state":"active","ping":46},{"user_id":511,"name":"Dillon Planter","steam_id":76561198118903188,"connected_time":348000000000,"state":"active","ping":86},{"user_id":460,"name":"Punks","steam_id":76561199140940650,"connected_time":5085000000000,"state":"active","ping":53},{"user_id":445,"name":"lukiepills","steam_id":76561199020587077,"connected_time":5870000000000,"state":"active","ping":62},{"user_id":474,"name":"paint pig","steam_id":76561198024817457,"connected_time":3730000000000,"state":"active","ping":60},{"user_id":492,"name":"Scrumlet","steam_id":76561198339806643,"connected_time":2122000000000,"state":"active","ping":76},{"user_id":508,"name":"shaderoses","steam_id":76561198070800500,"connected_time":986000000000,"state":"active","ping":68},{"user_id":485,"name":"sansa musa","steam_id":76561198163723555,"connected_time":3098000000000,"state":"active","ping":75},{"user_id":444,"name":"marguerite","steam_id":76561198170873495,"connected_time":5966000000000,"state":"active","ping":52},{"user_id":512,"name":"Hertz","steam_id":76561198245322982,"connected_time":276000000000,"state":"active","ping":38},{"user_id":467,"name":"Karma","steam_id":76561198030565234,"connected_time":4175000000000,"state":"active","ping":76},{"user_id":499,"name":"El Texicano","steam_id":76561198053207411,"connected_time":1913000000000,"state":"active","ping":81},{"user_id":510,"name":"Quiggles","steam_id":76561199177247655,"connected_time":354000000000,"state":"active","ping":61},{"user_id":497,"name":"Kyatoru","steam_id":76561198360597965,"connected_time":2035000000000,"state":"active","ping":146},{"user_id":493,"name":"HARRY","steam_id":76561198842067238,"connected_time":2122000000000,"state":"active","ping":61},{"user_id":498,"name":"paloma","steam_id":76561198066076086,"connected_time":2018000000000,"state":"active","ping":118},{"user_id":507,"name":"crusherty7","steam_id":76561199158729541,"connected_time":1282000000000,"state":"active","ping":54}]},{"server_id":104,"name":"Uncletopia | Atlanta | 2 | All Maps","name_short":"atl-2","host":"atl-1.us.uncletopia.com","port":27025,"enabled":true,"region":"us-east","cc":"us","latitude":33.753746,"longitude":-84.38633,"reserved":0,"last_update":"0001-01-01T00:00:00Z","name_a2s":"Uncletopia | Atlanta | 2 | All Maps","protocol":17,"map":"pl_frontier_final","folder":"tf","game":"Team Fortress","app_id":440,"player_count":24,"max_players":24,"Bots":0,"server_type":"Dedicated","server_os":"Linux","password":true,"vac":true,"version":"7757534","steam_id":85568392924469983,"keywords":["nocrits","nodmgspread","payload","uncletopia"],"game_id":440,"stv_port":27026,"stv_name":"Uncletopia | Atlanta | 2 | All Maps | STV","players":[{"user_id":378,"name":"The Pope","steam_id":76561198313560302,"connected_time":1504000000000,"state":"active","ping":37},{"user_id":391,"name":"Spector","steam_id":76561198008137094,"connected_time":1032000000000,"state":"active","ping":74},{"user_id":336,"name":"Pulp Free Fiction","steam_id":76561198095396514,"connected_time":3534000000000,"state":"active","ping":97},{"user_id":394,"name":"FancyBones","steam_id":76561198180198885,"connected_time":606000000000,"state":"active","ping":69},{"user_id":387,"name":"headphones","steam_id":76561198448484894,"connected_time":1156000000000,"state":"active","ping":64},{"user_id":315,"name":"Jammer","steam_id":76561198435691014,"connected_time":4927000000000,"state":"active","ping":72},{"user_id":341,"name":"B.","steam_id":76561198040445907,"connected_time":3301000000000,"state":"active","ping":62},{"user_id":371,"name":"SWISH","steam_id":76561198397009880,"connected_time":1610000000000,"state":"active","ping":60},{"user_id":400,"name":"lockdown543","steam_id":76561198250369406,"connected_time":456000000000,"state":"active","ping":152},{"user_id":353,"name":"mr_minati","steam_id":76561198337682255,"connected_time":2622000000000,"state":"active","ping":104},{"user_id":395,"name":"Westlyroots","steam_id":76561198170431198,"connected_time":577000000000,"state":"active","ping":75},{"user_id":397,"name":"mahc","steam_id":76561198880479135,"connected_time":499000000000,"state":"active","ping":75},{"user_id":390,"name":"Tripping on ibuprofen","steam_id":76561198802147518,"connected_time":1039000000000,"state":"active","ping":67},{"user_id":383,"name":"ZerBase","steam_id":76561198145301375,"connected_time":1351000000000,"state":"active","ping":69},{"user_id":329,"name":"seraph","steam_id":76561198381136912,"connected_time":4023000000000,"state":"active","ping":83},{"user_id":398,"name":"Bad Rollout","steam_id":76561197971948876,"connected_time":499000000000,"state":"active","ping":82},{"user_id":357,"name":"uhooter","steam_id":76561198007829078,"connected_time":2468000000000,"state":"active","ping":71},{"user_id":374,"name":"nup noodle","steam_id":76561198101278181,"connected_time":1577000000000,"state":"active","ping":79},{"user_id":399,"name":"GrimDaReaper","steam_id":76561199038948822,"connected_time":492000000000,"state":"active","ping":104},{"user_id":370,"name":"Rookie Scout","steam_id":76561198379574232,"connected_time":1662000000000,"state":"active","ping":44},{"user_id":385,"name":"Phoebe","steam_id":76561198839143518,"connected_time":1279000000000,"state":"active","ping":69},{"user_id":328,"name":"Chanoler","steam_id":76561198041259130,"connected_time":4035000000000,"state":"active","ping":100},{"user_id":377,"name":"DogSpoon","steam_id":76561198012485990,"connected_time":1554000000000,"state":"active","ping":56},{"user_id":386,"name":"nigerian airport","steam_id":76561198383226866,"connected_time":1212000000000,"state":"active","ping":169}]},{"server_id":400,"name":"Uncletopia | Atlanta | 3 | Community","name_short":"atl-3","host":"atl-1.us.uncletopia.com","port":27035,"enabled":true,"region":"us-east","cc":"us","latitude":33.753746,"longitude":-84.38633,"reserved":0,"last_update":"0001-01-01T00:00:00Z","name_a2s":"Uncletopia | Atlanta | 3 | Community","protocol":17,"map":"workshop/koth_trenchfoot_b1a.ugc731436616","folder":"tf","game":"Team Fortress","app_id":440,"player_count":0,"max_players":24,"Bots":0,"server_type":"Dedicated","server_os":"Linux","password":true,"vac":true,"version":"7757534","steam_id":85568392924515187,"keywords":["cp","nocrits","nodmgspread","uncletopia"],"game_id":440,"stv_port":27036,"stv_name":"Uncletopia | Atlanta | 3 | Community | STV","players":null},{"server_id":401,"name":"Uncletopia | Atlanta | 4 | No Payload","name_short":"atl-4","host":"atl-1.us.uncletopia.com","port":27045,"enabled":true,"region":"us-east","cc":"us","latitude":33.753746,"longitude":-84.38633,"reserved":0,"last_update":"0001-01-01T00:00:00Z","name_a2s":"","protocol":0,"map":"","folder":"","game":"","app_id":0,"player_count":0,"max_players":0,"Bots":0,"server_type":"","server_os":"","password":false,"vac":false,"version":"","steam_id":0,"keywords":null,"game_id":0,"stv_port":0,"stv_name":"","players":null},{"server_id":2,"name":"Uncletopia | Chicago | 1 | All Maps","name_short":"chi-1","host":"chi-1.us.uncletopia.com","port":27015,"enabled":true,"region":"us-central","cc":"us","latitude":41.881832,"longitude":-87.62318,"reserved":0,"last_update":"0001-01-01T00:00:00Z","name_a2s":"Uncletopia | Chicago | 1 | All Maps","protocol":17,"map":"koth_viaduct","folder":"tf","game":"Team Fortress","app_id":440,"player_count":24,"max_players":24,"Bots":0,"server_type":"Dedicated","server_os":"Linux","password":true,"vac":true,"version":"7757534","steam_id":85568392924469984,"keywords":["cp","nocrits","nodmgspread","uncletopia"],"game_id":440,"stv_port":27016,"stv_name":"Uncletopia | Chicago | 1 | All Maps | STV","players":[{"user_id":624,"name":"bereddored1","steam_id":76561198847597725,"connected_time":4458000000000,"state":"active","ping":57},{"user_id":683,"name":"drwwby","steam_id":76561198067741339,"connected_time":622000000000,"state":"active","ping":56},{"user_id":666,"name":"TheGuyWhoPlays","steam_id":76561198277363002,"connected_time":1460000000000,"state":"active","ping":59},{"user_id":678,"name":"silly jester birthday mode","steam_id":76561198079609974,"connected_time":1156000000000,"state":"active","ping":115},{"user_id":691,"name":"DOWNWARD SPIRAL","steam_id":76561198170120946,"connected_time":75000000000,"state":"active","ping":45},{"user_id":685,"name":"JellyParrot","steam_id":76561199190990163,"connected_time":362000000000,"state":"active","ping":68},{"user_id":544,"name":"Smoky","steam_id":76561198041551259,"connected_time":9052000000000,"state":"active","ping":72},{"user_id":654,"name":"swee","steam_id":76561198264702085,"connected_time":2046000000000,"state":"active","ping":69},{"user_id":574,"name":"NovaSc6ut","steam_id":76561198277163301,"connected_time":6658000000000,"state":"active","ping":70},{"user_id":661,"name":"Captain Bug","steam_id":76561198137763878,"connected_time":1492000000000,"state":"active","ping":83},{"user_id":687,"name":"do not perceive me","steam_id":76561198030291655,"connected_time":148000000000,"state":"active","ping":37},{"user_id":653,"name":"vv","steam_id":76561198134813102,"connected_time":2075000000000,"state":"active","ping":58},{"user_id":688,"name":"Hifumi Togo","steam_id":76561198074930636,"connected_time":96000000000,"state":"active","ping":49},{"user_id":681,"name":"XXXXXXXXXXXXXXXXXXXXXXXXXXXXXXX","steam_id":76561198041499030,"connected_time":677000000000,"state":"active","ping":61},{"user_id":682,"name":"Minion Accepter","steam_id":76561197987805095,"connected_time":666000000000,"state":"active","ping":90},{"user_id":679,"name":"TallBit","steam_id":76561199059748976,"connected_time":714000000000,"state":"active","ping":56},{"user_id":690,"name":"bought this cart for 15 dollars","steam_id":76561198253731826,"connected_time":78000000000,"state":"active","ping":53},{"user_id":619,"name":"killername","steam_id":76561199105156791,"connected_time":5017000000000,"state":"active","ping":66},{"user_id":669,"name":"threethree","steam_id":76561198177354155,"connected_time":1444000000000,"state":"active","ping":45},{"user_id":660,"name":"nnobi","steam_id":76561198878729277,"connected_time":1630000000000,"state":"active","ping":78},{"user_id":663,"name":"Genne","steam_id":76561198153434791,"connected_time":1483000000000,"state":"active","ping":60},{"user_id":677,"name":"moistwalnut1967","steam_id":76561198044489449,"connected_time":1206000000000,"state":"active","ping":52},{"user_id":693,"name":"StevieNicholai","steam_id":76561198327310266,"connected_time":33000000000,"state":"spawning","ping":53},{"user_id":686,"name":"gorilla","steam_id":76561199103766971,"connected_time":318000000000,"state":"active","ping":91}]},{"server_id":106,"name":"Uncletopia | Chicago | 2 | All Maps","name_short":"chi-2","host":"chi-1.us.uncletopia.com","port":27025,"enabled":true,"region":"us-central","cc":"us","latitude":41.881832,"longitude":-87.62318,"reserved":0,"last_update":"0001-01-01T00:00:00Z","name_a2s":"Uncletopia | Chicago | 2 | All Maps","protocol":17,"map":"cp_dustbowl","folder":"tf","game":"Team Fortress","app_id":440,"player_count":24,"max_players":24,"Bots":0,"server_type":"Dedicated","server_os":"Linux","password":true,"vac":true,"version":"7757534","steam_id":85568392924469985,"keywords":["cp","nocrits","nodmgspread","uncletopia"],"game_id":440,"stv_port":27026,"stv_name":"Uncletopia | Chicago | 2 | All Maps | STV","players":[{"user_id":481,"name":"TF2 enjoyer","steam_id":76561199067038870,"connected_time":1233000000000,"state":"active","ping":69},{"user_id":477,"name":"Melad","steam_id":76561198018849258,"connected_time":1353000000000,"state":"active","ping":54},{"user_id":500,"name":"he/him whimper","steam_id":76561198097175164,"connected_time":169000000000,"state":"active","ping":87},{"user_id":497,"name":"phroliax","steam_id":76561198207075529,"connected_time":463000000000,"state":"active","ping":96},{"user_id":489,"name":"Joshzu","steam_id":76561198200521137,"connected_time":1028000000000,"state":"active","ping":90},{"user_id":479,"name":"917-258-3609","steam_id":76561198174436329,"connected_time":1305000000000,"state":"active","ping":74},{"user_id":468,"name":"J O S H¬≥¬≤","steam_id":76561198122603779,"connected_time":2146000000000,"state":"active","ping":94},{"user_id":496,"name":"uhhhh","steam_id":76561199211193548,"connected_time":712000000000,"state":"active","ping":48},{"user_id":498,"name":"Crunchy","steam_id":76561199065412274,"connected_time":422000000000,"state":"active","ping":66},{"user_id":480,"name":"Snow‚òÜ","steam_id":76561198031290573,"connected_time":1301000000000,"state":"active","ping":56},{"user_id":482,"name":"WreckTide","steam_id":76561198059633175,"connected_time":1197000000000,"state":"active","ping":65},{"user_id":475,"name":"BONZ","steam_id":76561199445629071,"connected_time":1361000000000,"state":"active","ping":62},{"user_id":483,"name":"RyInc","steam_id":76561198874261643,"connected_time":1165000000000,"state":"active","ping":48},{"user_id":484,"name":"Yam Jazzy Jim","steam_id":76561198000788950,"connected_time":1129000000000,"state":"active","ping":72},{"user_id":439,"name":"Yongle","steam_id":76561198068591156,"connected_time":4151000000000,"state":"active","ping":55},{"user_id":440,"name":"Motorbung87","steam_id":76561198976821898,"connected_time":4127000000000,"state":"active","ping":98},{"user_id":499,"name":"Grape Juice","steam_id":76561198380337568,"connected_time":361000000000,"state":"active","ping":84},{"user_id":501,"name":"Korean Streamer/Leader","steam_id":76561198206997036,"connected_time":161000000000,"state":"active","ping":152},{"user_id":457,"name":"Uso","steam_id":76561198012093238,"connected_time":3231000000000,"state":"active","ping":58},{"user_id":492,"name":"captainskullet","steam_id":76561198314597170,"connected_time":970000000000,"state":"active","ping":66},{"user_id":502,"name":"Kickpuncher","steam_id":76561198121528357,"connected_time":144000000000,"state":"active","ping":82},{"user_id":487,"name":"Moe","steam_id":76561198209497441,"connected_time":1099000000000,"state":"active","ping":75},{"user_id":420,"name":"Loki!","steam_id":76561198089201861,"connected_time":5634000000000,"state":"active","ping":67},{"user_id":462,"name":"...","steam_id":76561198312298321,"connected_time":2724000000000,"state":"active","ping":62}]},{"server_id":402,"name":"Uncletopia | Chicago | 3 | All Maps","name_short":"chi-3","host":"chi-1.us.uncletopia.com","port":27035,"enabled":true,"region":"us-central","cc":"us","latitude":41.881832,"longitude":-87.62318,"reserved":0,"last_update":"0001-01-01T00:00:00Z","name_a2s":"Uncletopia | Chicago | 3 | All Maps","protocol":17,"map":"pl_borneo","folder":"tf","game":"Team Fortress","app_id":440,"player_count":24,"max_players":24,"Bots":0,"server_type":"Dedicated","server_os":"Linux","password":true,"vac":true,"version":"7757534","steam_id":85568392924515191,"keywords":["nocrits","nodmgspread","payload","uncletopia"],"game_id":440,"stv_port":27036,"stv_name":"Uncletopia | Chicago | 3 | All Maps | STV","players":[{"user_id":443,"name":"FUSION","steam_id":76561197972659738,"connected_time":1937000000000,"state":"active","ping":51},{"user_id":449,"name":"Barrion","steam_id":76561198279200900,"connected_time":920000000000,"state":"active","ping":63},{"user_id":447,"name":"PeopleOrderOurPatties","steam_id":76561198323144922,"connected_time":1743000000000,"state":"active","ping":78},{"user_id":436,"name":"enmgxcltayiqoacx","steam_id":76561197974965536,"connected_time":2038000000000,"state":"active","ping":59},{"user_id":458,"name":"Jam Jams","steam_id":76561198128811267,"connected_time":764000000000,"state":"active","ping":89},{"user_id":418,"name":"The indomitable human spirit","steam_id":76561198282395338,"connected_time":3600000000000,"state":"active","ping":62},{"user_id":397,"name":"Miles Teg","steam_id":76561197967383913,"connected_time":5106000000000,"state":"active","ping":66},{"user_id":439,"name":"fumblom","steam_id":76561199389283507,"connected_time":1991000000000,"state":"active","ping":72},{"user_id":446,"name":"lil homie gay ass","steam_id":76561198044804626,"connected_time":1860000000000,"state":"active","ping":87},{"user_id":460,"name":"A Shiny Meat Bicycle","steam_id":76561198358757709,"connected_time":330000000000,"state":"active","ping":98},{"user_id":426,"name":"bananba","steam_id":76561199008960175,"connected_time":3027000000000,"state":"active","ping":47},{"user_id":461,"name":"The local hobo","steam_id":76561198289650060,"connected_time":239000000000,"state":"active","ping":86},{"user_id":450,"name":"Mookie Burns","steam_id":76561199202153909,"connected_time":919000000000,"state":"active","ping":94},{"user_id":462,"name":"Quakedad","steam_id":76561198055811307,"connected_time":212000000000,"state":"active","ping":119},{"user_id":459,"name":"eThaNos","steam_id":76561198035403279,"connected_time":749000000000,"state":"active","ping":67},{"user_id":463,"name":"PurplePond","steam_id":76561199062421006,"connected_time":206000000000,"state":"active","ping":50},{"user_id":456,"name":"TangenT","steam_id":76561198211278067,"connected_time":868000000000,"state":"active","ping":81},{"user_id":395,"name":"A Puppy","steam_id":76561198828184456,"connected_time":5230000000000,"state":"active","ping":59},{"user_id":448,"name":"chacha02","steam_id":76561198067360640,"connected_time":952000000000,"state":"active","ping":78},{"user_id":384,"name":"BrendenMad","steam_id":76561198031250581,"connected_time":5964000000000,"state":"active","ping":51},{"user_id":438,"name":"Bored Barred Owl","steam_id":76561198263895597,"connected_time":2012000000000,"state":"active","ping":83},{"user_id":416,"name":"Goober","steam_id":76561198988863807,"connected_time":3669000000000,"state":"active","ping":78},{"user_id":441,"name":"Sickmind33","steam_id":76561198036248611,"connected_time":1986000000000,"state":"active","ping":46},{"user_id":457,"name":"Cassini","steam_id":76561198318526294,"connected_time":868000000000,"state":"active","ping":76}]},{"server_id":403,"name":"Uncletopia | Chicago | 4 | All Maps","name_short":"chi-4","host":"chi-1.us.uncletopia.com","port":27045,"enabled":true,"region":"us-central","cc":"us","latitude":41.881832,"longitude":-87.62318,"reserved":0,"last_update":"0001-01-01T00:00:00Z","name_a2s":"Uncletopia | Chicago | 4 | All Maps","protocol":17,"map":"koth_viaduct","folder":"tf","game":"Team Fortress","app_id":440,"player_count":21,"max_players":24,"Bots":0,"server_type":"Dedicated","server_os":"Linux","password":true,"vac":true,"version":"7757534","steam_id":85568392924515193,"keywords":["cp","nocrits","nodmgspread","uncletopia"],"game_id":440,"stv_port":27046,"stv_name":"Uncletopia | Chicago | 4 | All Maps | STV","players":[{"user_id":202,"name":"Crasson","steam_id":76561198034967708,"connected_time":1968000000000,"state":"active","ping":72},{"user_id":180,"name":"Miner2495","steam_id":76561198445904523,"connected_time":2930000000000,"state":"active","ping":69},{"user_id":219,"name":"Cruisin'","steam_id":76561199245457119,"connected_time":510000000000,"state":"active","ping":61},{"user_id":216,"name":"Sergeant Joker #savetf2","steam_id":76561198854616604,"connected_time":720000000000,"state":"active","ping":60},{"user_id":203,"name":"Jak(i)","steam_id":76561198076823144,"connected_time":1958000000000,"state":"active","ping":62},{"user_id":162,"name":"Scita","steam_id":76561198066861559,"connected_time":3460000000000,"state":"active","ping":70},{"user_id":184,"name":"DumplingToad","steam_id":76561199100040562,"connected_time":2773000000000,"state":"active","ping":72},{"user_id":224,"name":"Babyface","steam_id":76561199240579044,"connected_time":134000000000,"state":"active","ping":72},{"user_id":225,"name":"estruli","steam_id":76561198295690725,"connected_time":113000000000,"state":"active","ping":71},{"user_id":226,"name":"RedSock","steam_id":76561198161243404,"connected_time":108000000000,"state":"active","ping":45},{"user_id":204,"name":"b√ºddeh","steam_id":76561198070735936,"connected_time":1951000000000,"state":"active","ping":53},{"user_id":227,"name":"Leon08x","steam_id":76561198112373147,"connected_time":55000000000,"state":"spawning","ping":187},{"user_id":217,"name":"eye of cthulhu","steam_id":76561198995733161,"connected_time":715000000000,"state":"active","ping":108},{"user_id":228,"name":"Panic Opossum","steam_id":76561198043838227,"connected_time":52000000000,"state":"active","ping":44},{"user_id":229,"name":"Phanto-","steam_id":76561199110557595,"connected_time":52000000000,"state":"active","ping":90},{"user_id":168,"name":"JACOB","steam_id":76561198211874895,"connected_time":3315000000000,"state":"active","ping":92},{"user_id":230,"name":"Cassius","steam_id":76561198146163328,"connected_time":32000000000,"state":"active","ping":82},{"user_id":206,"name":"Rec","steam_id":76561198022813906,"connected_time":1943000000000,"state":"active","ping":52},{"user_id":214,"name":"Dino","steam_id":76561198085130361,"connected_time":1056000000000,"state":"active","ping":103},{"user_id":231,"name":"DerrickHenryFan2012","steam_id":76561198254452687,"connected_time":2000000000,"state":"spawning","ping":70},{"user_id":210,"name":"Bouqet","steam_id":76561198163362175,"connected_time":1786000000000,"state":"active","ping":72}]},{"server_id":36,"name":"Uncletopia | Chicago | 5 | All Maps","name_short":"chi-5","host":"chi-2.us.uncletopia.com","port":27015,"enabled":true,"region":"us-central","cc":"us","latitude":41.881832,"longitude":-87.62318,"reserved":0,"last_update":"0001-01-01T00:00:00Z","name_a2s":"Uncletopia | Chicago | 5 | All Maps","protocol":17,"map":"pl_upward","folder":"tf","game":"Team Fortress","app_id":440,"player_count":24,"max_players":24,"Bots":0,"server_type":"Dedicated","server_os":"Linux","password":true,"vac":true,"version":"7757534","steam_id":85568392924866362,"keywords":["nocrits","nodmgspread","payload","uncletopia"],"game_id":440,"stv_port":27016,"stv_name":"Uncletopia | Chicago | 5 | All Maps | STV","players":[{"user_id":348,"name":"jema","steam_id":76561198276513608,"connected_time":433000000000,"state":"active","ping":169},{"user_id":354,"name":"-=Oliv=-","steam_id":76561198040007865,"connected_time":94000000000,"state":"active","ping":71},{"user_id":331,"name":"N√©oGothiqueüïØ","steam_id":76561198003467269,"connected_time":2159000000000,"state":"active","ping":75},{"user_id":338,"name":"„ãõ countblanc","steam_id":76561197993171771,"connected_time":1064000000000,"state":"active","ping":52},{"user_id":337,"name":"Tideflat","steam_id":76561198179850851,"connected_time":1160000000000,"state":"active","ping":124},{"user_id":321,"name":"Soju","steam_id":76561198044130442,"connected_time":2989000000000,"state":"active","ping":78},{"user_id":287,"name":"cultmechanicus4","steam_id":76561199472574539,"connected_time":6069000000000,"state":"active","ping":56},{"user_id":296,"name":"seems_fishy","steam_id":76561199028846656,"connected_time":5839000000000,"state":"active","ping":78},{"user_id":327,"name":"Drsausage69","steam_id":76561198309230782,"connected_time":2416000000000,"state":"active","ping":97},{"user_id":346,"name":"conscripted monk","steam_id":76561199029246232,"connected_time":907000000000,"state":"active","ping":65},{"user_id":315,"name":"Doehg","steam_id":76561198137572904,"connected_time":3131000000000,"state":"active","ping":55},{"user_id":341,"name":"Kaprinae","steam_id":76561199260109617,"connected_time":1027000000000,"state":"active","ping":73},{"user_id":318,"name":"Scrombello Portabello","steam_id":76561198193574042,"connected_time":3097000000000,"state":"active","ping":116},{"user_id":342,"name":"EpicGamer48484","steam_id":76561199230935031,"connected_time":1022000000000,"state":"active","ping":69},{"user_id":343,"name":"three cats in a tenchcoat","steam_id":76561199267535506,"connected_time":1014000000000,"state":"active","ping":74},{"user_id":353,"name":"heimdall","steam_id":76561198069380992,"connected_time":132000000000,"state":"active","ping":93},{"user_id":335,"name":"Niykin","steam_id":76561198044779043,"connected_time":1746000000000,"state":"active","ping":85},{"user_id":319,"name":"LerN","steam_id":76561198083463877,"connected_time":3074000000000,"state":"active","ping":56},{"user_id":352,"name":"Hogswaggle Swarthington","steam_id":76561198272972635,"connected_time":241000000000,"state":"active","ping":95},{"user_id":344,"name":"ssstEVe","steam_id":76561198063475894,"connected_time":979000000000,"state":"active","ping":68},{"user_id":328,"name":"_cza","steam_id":76561198079793576,"connected_time":2408000000000,"state":"active","ping":94},{"user_id":351,"name":"MAXIMUM OVERDRIVE","steam_id":76561198113992547,"connected_time":250000000000,"state":"active","ping":102},{"user_id":334,"name":"The Potato Romancer","steam_id":76561198204197648,"connected_time":2004000000000,"state":"active","ping":106},{"user_id":320,"name":"Master Noob","steam_id":76561198335334927,"connected_time":3060000000000,"state":"active","ping":115}]},{"server_id":37,"name":"Uncletopia | Chicago | 6 | All Maps","name_short":"chi-6","host":"chi-2.us.uncletopia.com","port":27025,"enabled":true,"region":"us-central","cc":"us","latitude":41.881832,"longitude":-87.62318,"reserved":0,"last_update":"0001-01-01T00:00:00Z","name_a2s":"Uncletopia | Chicago | 6 | All Maps","protocol":17,"map":"pl_barnblitz","folder":"tf","game":"Team Fortress","app_id":440,"player_count":24,"max_players":24,"Bots":0,"server_type":"Dedicated","server_os":"Linux","password":true,"vac":true,"version":"7757534","steam_id":85568392924866363,"keywords":["nocrits","nodmgspread","payload","uncletopia"],"game_id":440,"stv_port":27026,"stv_name":"Uncletopia | Chicago | 6 | All Maps | STV","players":[{"user_id":256,"name":"AugustusLove","steam_id":76561198004785839,"connected_time":125000000000,"state":"active","ping":106},{"user_id":197,"name":"Token","steam_id":76561198067814426,"connected_time":3994000000000,"state":"active","ping":71},{"user_id":242,"name":"Cosmic Torgue","steam_id":76561198828724945,"connected_time":1152000000000,"state":"active","ping":84},{"user_id":217,"name":"Dal","steam_id":76561198114064135,"connected_time":2078000000000,"state":"active","ping":85},{"user_id":204,"name":"Piyono","steam_id":76561197962188504,"connected_time":3023000000000,"state":"active","ping":83},{"user_id":238,"name":"Kurg","steam_id":76561198143381218,"connected_time":1272000000000,"state":"active","ping":45},{"user_id":241,"name":"sombrero Artgrenadier","steam_id":76561198063305359,"connected_time":1179000000000,"state":"active","ping":71},{"user_id":218,"name":"Novak","steam_id":76561198137041747,"connected_time":2075000000000,"state":"active","ping":62},{"user_id":254,"name":"Decs","steam_id":76561198825197974,"connected_time":172000000000,"state":"active","ping":127},{"user_id":225,"name":"SuperSandwichGoku","steam_id":76561198438882159,"connected_time":1759000000000,"state":"active","ping":47},{"user_id":253,"name":"Blue-Lobster-Gaming","steam_id":76561199220578772,"connected_time":289000000000,"state":"active","ping":73},{"user_id":257,"name":"‚òºBarracuda‚òº","steam_id":76561198013022083,"connected_time":32000000000,"state":"active","ping":61},{"user_id":258,"name":"Nope","steam_id":76561198069066522,"connected_time":26000000000,"state":"active","ping":159},{"user_id":235,"name":"wydawg","steam_id":76561198053910862,"connected_time":1425000000000,"state":"active","ping":95},{"user_id":247,"name":"i are steve","steam_id":76561198867457465,"connected_time":1056000000000,"state":"active","ping":78},{"user_id":236,"name":"NotSoNorth","steam_id":76561198447292053,"connected_time":1316000000000,"state":"active","ping":62},{"user_id":232,"name":"[kot]Pints","steam_id":76561198077017684,"connected_time":1605000000000,"state":"active","ping":73},{"user_id":91,"name":"Ôº≥Ôº¨Ôº∂Ôº¥Ôº£Ôº®Ôº°Ôº≠Ôº∞","steam_id":76561198883157736,"connected_time":10086000000000,"state":"active","ping":114},{"user_id":234,"name":"Volley","steam_id":76561198112053055,"connected_time":1454000000000,"state":"active","ping":58},{"user_id":259,"name":"Cheese_is_Binding","steam_id":76561197996961967,"connected_time":19000000000,"state":"active","ping":87},{"user_id":223,"name":"Viokik","steam_id":76561198408846602,"connected_time":2033000000000,"state":"active","ping":64},{"user_id":249,"name":"leumas","steam_id":76561198240408540,"connected_time":1007000000000,"state":"active","ping":60},{"user_id":250,"name":"Cerabond","steam_id":76561199230915333,"connected_time":978000000000,"state":"active","ping":79},{"user_id":251,"name":"Monster","steam_id":76561198189429665,"connected_time":934000000000,"state":"active","ping":75}]},{"server_id":38,"name":"Uncletopia | Chicago | 7 | Stopwatch Beta","name_short":"chi-7","host":"chi-2.us.uncletopia.com","port":27035,"enabled":true,"region":"us-central","cc":"us","latitude":41.881832,"longitude":-87.62318,"reserved":0,"last_update":"0001-01-01T00:00:00Z","name_a2s":"Uncletopia | Chicago | 7 | Stopwatch Beta","protocol":17,"map":"workshop/koth_clearcut_b15.ugc2107050255","folder":"tf","game":"Team Fortress","app_id":440,"player_count":0,"max_players":24,"Bots":0,"server_type":"Dedicated","server_os":"Linux","password":true,"vac":true,"version":"7757534","steam_id":85568392924866364,"keywords":["cp","nocrits","nodmgspread","uncletopia"],"game_id":440,"stv_port":27036,"stv_name":"Uncletopia | Chicago | 7 | Stopwatch Beta | STV","players":null},{"server_id":39,"name":"Uncletopia | Chicago | 8 | Community","name_short":"chi-8","host":"chi-2.us.uncletopia.com","port":27045,"enabled":true,"region":"us-central","cc":"us","latitude":41.881832,"longitude":-87.62318,"reserved":0,"last_update":"0001-01-01T00:00:00Z","name_a2s":"Uncletopia | Chicago | 8 | Community","protocol":17,"map":"workshop/pl_corrode_rc2.ugc546577989","folder":"tf","game":"Team Fortress","app_id":440,"player_count":0,"max_players":24,"Bots":0,"server_type":"Dedicated","server_os":"Linux","password":true,"vac":true,"version":"7757534","steam_id":85568392924866365,"keywords":["nocrits","nodmgspread","payload","uncletopia"],"game_id":440,"stv_port":27046,"stv_name":"Uncletopia | Chicago | 8 | Community | STV","players":null},{"server_id":8,"name":"Uncletopia | Dallas | 1 | All Maps","name_short":"dal-1","host":"dal-1.us.uncletopia.com","port":27015,"enabled":true,"region":"us-central","cc":"us","latitude":32.779167,"longitude":-96.80889,"reserved":0,"last_update":"0001-01-01T00:00:00Z","name_a2s":"Uncletopia | Dallas | 1 | All Maps","protocol":17,"map":"cp_well","folder":"tf","game":"Team Fortress","app_id":440,"player_count":22,"max_players":24,"Bots":0,"server_type":"Dedicated","server_os":"Linux","password":true,"vac":true,"version":"7757534","steam_id":85568392924469986,"keywords":["cp","nocrits","nodmgspread","uncletopia"],"game_id":440,"stv_port":27016,"stv_name":"Uncletopia | Dallas | 1 | All Maps | STV","players":[{"user_id":494,"name":"Seller of Waffles","steam_id":76561198296018138,"connected_time":819000000000,"state":"active","ping":63},{"user_id":484,"name":"vereer","steam_id":76561198357103879,"connected_time":1286000000000,"state":"active","ping":67},{"user_id":472,"name":"Osrepnay","steam_id":76561199033799657,"connected_time":1676000000000,"state":"active","ping":59},{"user_id":487,"name":"Karma","steam_id":76561199112057184,"connected_time":1047000000000,"state":"active","ping":60},{"user_id":504,"name":"Degenerate","steam_id":76561199189337076,"connected_time":441000000000,"state":"active","ping":77},{"user_id":495,"name":"Fobic P","steam_id":76561198400544409,"connected_time":777000000000,"state":"active","ping":75},{"user_id":508,"name":"BaRs","steam_id":76561198981717009,"connected_time":63000000000,"state":"active","ping":47},{"user_id":510,"name":"RuinHasComeToOurFamily","steam_id":76561199075273861,"connected_time":34000000000,"state":"active","ping":77},{"user_id":511,"name":"H3AVTM3TAL","steam_id":76561199017911640,"connected_time":23000000000,"state":"spawning","ping":42},{"user_id":497,"name":"Doofy","steam_id":76561198417482150,"connected_time":714000000000,"state":"active","ping":82},{"user_id":475,"name":"mayhem","steam_id":76561199246637881,"connected_time":1653000000000,"state":"active","ping":40},{"user_id":505,"name":"Krabs","steam_id":76561198062290295,"connected_time":423000000000,"state":"active","ping":102},{"user_id":491,"name":"Type Three Dabeetus","steam_id":76561198062710038,"connected_time":909000000000,"state":"active","ping":93},{"user_id":455,"name":"tools","steam_id":76561199010542612,"connected_time":2898000000000,"state":"active","ping":81},{"user_id":448,"name":"Gnome Tank","steam_id":76561198984179092,"connected_time":3363000000000,"state":"active","ping":81},{"user_id":509,"name":"Frisk Weatherfield","steam_id":76561198146435800,"connected_time":45000000000,"state":"active","ping":84},{"user_id":512,"name":"Phyrrhic","steam_id":76561198067902503,"connected_time":2000000000,"state":"spawning","ping":52},{"user_id":500,"name":"spherewithahat","steam_id":76561199122192660,"connected_time":691000000000,"state":"active","ping":102},{"user_id":492,"name":"Dillon","steam_id":76561198191469611,"connected_time":906000000000,"state":"active","ping":97},{"user_id":513,"name":"Normalux","steam_id":76561198293891426,"connected_time":0,"state":"spawning","ping":41},{"user_id":501,"name":"Mr.Cool","steam_id":76561198132105194,"connected_time":682000000000,"state":"active","ping":101},{"user_id":506,"name":"4 Itchy Tasty","steam_id":76561198009869383,"connected_time":386000000000,"state":"active","ping":76}]},{"server_id":108,"name":"Uncletopia | Dallas | 2 | All Maps","name_short":"dal-2","host":"dal-1.us.uncletopia.com","port":27025,"enabled":true,"region":"us-central","cc":"us","latitude":32.779167,"longitude":-96.80889,"reserved":0,"last_update":"0001-01-01T00:00:00Z","name_a2s":"Uncletopia | Dallas | 2 | All Maps","protocol":17,"map":"cp_sunshine","folder":"tf","game":"Team Fortress","app_id":440,"player_count":23,"max_players":24,"Bots":0,"server_type":"Dedicated","server_os":"Linux","password":true,"vac":true,"version":"7757534","steam_id":85568392924469988,"keywords":["cp","nocrits","nodmgspread","uncletopia"],"game_id":440,"stv_port":27026,"stv_name":"Uncletopia | Dallas | 2 | All Maps | STV","players":[{"user_id":218,"name":"cute boy lover","steam_id":76561199065645094,"connected_time":581000000000,"state":"active","ping":71},{"user_id":149,"name":"maniacalcoast0","steam_id":76561198982540746,"connected_time":5759000000000,"state":"active","ping":119},{"user_id":180,"name":"ragnarok","steam_id":76561198273579889,"connected_time":2716000000000,"state":"active","ping":99},{"user_id":216,"name":"Frog King","steam_id":76561197965022076,"connected_time":934000000000,"state":"active","ping":82},{"user_id":183,"name":"Cofi","steam_id":76561199026721822,"connected_time":2490000000000,"state":"active","ping":112},{"user_id":195,"name":"Kirbominable Wolfman","steam_id":76561197999987442,"connected_time":2141000000000,"state":"active","ping":91},{"user_id":212,"name":".9 lg","steam_id":76561198092238353,"connected_time":1472000000000,"state":"active","ping":60},{"user_id":214,"name":"The destroyer of foreskin","steam_id":76561198135275966,"connected_time":1302000000000,"state":"active","ping":76},{"user_id":196,"name":"McSpooks","steam_id":76561198007453888,"connected_time":2102000000000,"state":"active","ping":148},{"user_id":186,"name":"Doomagedden","steam_id":76561198272589475,"connected_time":2415000000000,"state":"active","ping":59},{"user_id":187,"name":"Jackie Bnuyy {{Trans Rights}}","steam_id":76561198804886675,"connected_time":2412000000000,"state":"active","ping":104},{"user_id":208,"name":"‚ô´Pilk King‚ô´","steam_id":76561198073660779,"connected_time":1769000000000,"state":"active","ping":32},{"user_id":215,"name":"gamers aren't real","steam_id":76561198113748347,"connected_time":1264000000000,"state":"active","ping":69},{"user_id":200,"name":"Deeply","steam_id":76561199000786530,"connected_time":2048000000000,"state":"active","ping":84},{"user_id":209,"name":"light witch broke division","steam_id":76561198800386026,"connected_time":1642000000000,"state":"active","ping":97},{"user_id":223,"name":"inzang","steam_id":76561198088318074,"connected_time":354000000000,"state":"active","ping":55},{"user_id":178,"name":"iluvtoust","steam_id":76561198869269207,"connected_time":2807000000000,"state":"active","ping":53},{"user_id":194,"name":"microwave gaming","steam_id":76561199137572898,"connected_time":2165000000000,"state":"active","ping":68},{"user_id":203,"name":"Not A Rapper","steam_id":76561198077523537,"connected_time":1956000000000,"state":"active","ping":105},{"user_id":204,"name":"Miatsu","steam_id":76561198039820757,"connected_time":1931000000000,"state":"active","ping":96},{"user_id":220,"name":"Dylan","steam_id":76561198265522923,"connected_time":565000000000,"state":"active","ping":46},{"user_id":221,"name":"Thatcanasian","steam_id":76561198356866540,"connected_time":534000000000,"state":"active","ping":94},{"user_id":151,"name":"LemonPoppyMuffin","steam_id":76561198044813750,"connected_time":5714000000000,"state":"active","ping":71}]},{"server_id":5,"name":"Uncletopia | Frankfurt | 1 | All Maps","name_short":"frk-1","host":"frk-1.de.uncletopia.com","port":27015,"enabled":true,"region":"eu","cc":"de","latitude":50.110924,"longitude":8.682127,"reserved":0,"last_update":"0001-01-01T00:00:00Z","name_a2s":"Uncletopia | Frankfurt | 1 | All Maps","protocol":17,"map":"cp_dustbowl","folder":"tf","game":"Team Fortress","app_id":440,"player_count":24,"max_players":24,"Bots":0,"server_type":"Dedicated","server_os":"Linux","password":true,"vac":true,"version":"7757534","steam_id":85568392924469989,"keywords":["cp","nocrits","nodmgspread","uncletopia"],"game_id":440,"stv_port":27016,"stv_name":"Uncletopia | Frankfurt | 1 | All Maps | STV","players":[{"user_id":864,"name":"BenTate","steam_id":76561199002816947,"connected_time":740000000000,"state":"active","ping":66},{"user_id":806,"name":"Piteras","steam_id":76561198858532207,"connected_time":6028000000000,"state":"active","ping":76},{"user_id":868,"name":"jej","steam_id":76561198255357694,"connected_time":174000000000,"state":"active","ping":75},{"user_id":845,"name":"Bingus is WAM","steam_id":76561199131547722,"connected_time":3517000000000,"state":"active","ping":72},{"user_id":860,"name":"smrk","steam_id":76561198066926098,"connected_time":2097000000000,"state":"active","ping":59},{"user_id":830,"name":"Alienketchup","steam_id":76561197970585162,"connected_time":4684000000000,"state":"active","ping":76},{"user_id":831,"name":"640x480","steam_id":76561198304515309,"connected_time":4654000000000,"state":"active","ping":156},{"user_id":821,"name":"roby","steam_id":76561198044660393,"connected_time":5462000000000,"state":"active","ping":71},{"user_id":846,"name":"PavlosPaok04","steam_id":76561199076069361,"connected_time":3511000000000,"state":"active","ping":55},{"user_id":832,"name":"bco","steam_id":76561198124462767,"connected_time":4639000000000,"state":"active","ping":110},{"user_id":866,"name":"üç≠ùí¶ùëíùìÅùìÅùìéüç≠‚ù§","steam_id":76561198092156531,"connected_time":729000000000,"state":"active","ping":61},{"user_id":847,"name":"TheBanik","steam_id":76561198391656442,"connected_time":3503000000000,"state":"active","ping":65},{"user_id":848,"name":"pardner","steam_id":76561198451471161,"connected_time":3486000000000,"state":"active","ping":65},{"user_id":849,"name":"cat","steam_id":76561198832231975,"connected_time":3471000000000,"state":"active","ping":91},{"user_id":827,"name":"ProfessorCrack","steam_id":76561199035475627,"connected_time":4895000000000,"state":"active","ping":83},{"user_id":850,"name":"Burger King Dante","steam_id":76561198390314734,"connected_time":3461000000000,"state":"active","ping":55},{"user_id":841,"name":"engie?","steam_id":76561198331852832,"connected_time":4268000000000,"state":"active","ping":60},{"user_id":859,"name":"chlo√´‚ùÄ‚ù§","steam_id":76561198147199613,"connected_time":2615000000000,"state":"active","ping":85},{"user_id":853,"name":"8 Ball","steam_id":76561197960988736,"connected_time":3218000000000,"state":"active","ping":62},{"user_id":867,"name":"Penis Contortionist","steam_id":76561198073663784,"connected_time":558000000000,"state":"active","ping":49},{"user_id":839,"name":"CarBombEnthusiast","steam_id":76561199448185434,"connected_time":4490000000000,"state":"active","ping":67},{"user_id":844,"name":"Germanium_Ge","steam_id":76561198130561775,"connected_time":4084000000000,"state":"active","ping":56},{"user_id":865,"name":"marcus","steam_id":76561198127738021,"connected_time":740000000000,"state":"active","ping":60},{"user_id":792,"name":"Joejee","steam_id":76561199122423976,"connected_time":7250000000000,"state":"active","ping":71}]},{"server_id":110,"name":"Uncletopia | Frankfurt | 2 | All Maps","name_short":"frk-2","host":"frk-1.de.uncletopia.com","port":27025,"enabled":true,"region":"eu","cc":"de","latitude":50.110924,"longitude":8.682127,"reserved":0,"last_update":"0001-01-01T00:00:00Z","name_a2s":"Uncletopia | Frankfurt | 2 | All Maps","protocol":17,"map":"pl_badwater","folder":"tf","game":"Team Fortress","app_id":440,"player_count":3,"max_players":24,"Bots":0,"server_type":"Dedicated","server_os":"Linux","password":true,"vac":true,"version":"7757534","steam_id":85568392924469990,"keywords":["nocrits","nodmgspread","payload","uncletopia"],"game_id":440,"stv_port":27026,"stv_name":"Uncletopia | Frankfurt | 2 | All Maps | STV","players":[{"user_id":717,"name":"Œ≤eta","steam_id":76561198978885260,"connected_time":126000000000,"state":"active","ping":134},{"user_id":719,"name":"discord.gg/FB6YuUvQQA","steam_id":76561199478154386,"connected_time":67000000000,"state":"active","ping":84},{"user_id":650,"name":"Jonten","steam_id":76561198012757253,"connected_time":8237000000000,"state":"active","ping":59}]},{"server_id":308,"name":"Uncletopia | Frankfurt | 3 | All Maps","name_short":"frk-3","host":"frk-1.de.uncletopia.com","port":27035,"enabled":true,"region":"eu","cc":"de","latitude":50.110924,"longitude":8.682127,"reserved":0,"last_update":"0001-01-01T00:00:00Z","name_a2s":"Uncletopia | Frankfurt | 3 | All Maps","protocol":17,"map":"pl_pier","folder":"tf","game":"Team Fortress","app_id":440,"player_count":24,"max_players":24,"Bots":0,"server_type":"Dedicated","server_os":"Linux","password":true,"vac":true,"version":"7757534","steam_id":85568392924504274,"keywords":["nocrits","nodmgspread","payload","uncletopia"],"game_id":440,"stv_port":27036,"stv_name":"Uncletopia | Frankfurt | 3 | All Maps | STV","players":[{"user_id":247,"name":"X45Y","steam_id":76561198112534025,"connected_time":659000000000,"state":"active","ping":45},{"user_id":248,"name":"Mammut","steam_id":76561198056773933,"connected_time":441000000000,"state":"active","ping":46},{"user_id":240,"name":"TidB","steam_id":76561198055342304,"connected_time":1431000000000,"state":"active","ping":60},{"user_id":241,"name":"‚Ä† saVage ‚Ä†","steam_id":76561198057824494,"connected_time":1209000000000,"state":"active","ping":79},{"user_id":249,"name":"kbbq","steam_id":76561198346638308,"connected_time":440000000000,"state":"active","ping":60},{"user_id":250,"name":"ducks","steam_id":76561198166148685,"connected_time":420000000000,"state":"active","ping":44},{"user_id":95,"name":"Forklift Certified","steam_id":76561198001816577,"connected_time":10973000000000,"state":"active","ping":100},{"user_id":251,"name":"ARTI","steam_id":76561199446989613,"connected_time":388000000000,"state":"active","ping":85},{"user_id":226,"name":"Disasterday","steam_id":76561198044767090,"connected_time":2199000000000,"state":"active","ping":47},{"user_id":252,"name":"simplistic","steam_id":76561198231690748,"connected_time":387000000000,"state":"active","ping":69},{"user_id":257,"name":"Perpetual Pub Push","steam_id":76561198256714846,"connected_time":360000000000,"state":"active","ping":57},{"user_id":229,"name":"Balls","steam_id":76561198086400484,"connected_time":2131000000000,"state":"active","ping":74},{"user_id":184,"name":"That Phlog mfer","steam_id":76561198050416948,"connected_time":4512000000000,"state":"active","ping":59},{"user_id":231,"name":"Lil Ari","steam_id":76561198218178180,"connected_time":2074000000000,"state":"active","ping":85},{"user_id":254,"name":"Dorich","steam_id":76561198287126217,"connected_time":377000000000,"state":"active","ping":61},{"user_id":259,"name":"Glenn Quagmire","steam_id":76561199348527880,"connected_time":273000000000,"state":"active","ping":81},{"user_id":206,"name":"Can I get a Beep Beep","steam_id":76561198010730967,"connected_time":3576000000000,"state":"active","ping":77},{"user_id":256,"name":"ldshwt","steam_id":76561198090364357,"connected_time":368000000000,"state":"active","ping":45},{"user_id":202,"name":"Creature :3","steam_id":76561198869564327,"connected_time":3770000000000,"state":"active","ping":112},{"user_id":258,"name":"slifty","steam_id":76561198166682199,"connected_time":353000000000,"state":"active","ping":73},{"user_id":203,"name":"Cool fish","steam_id":76561199004896738,"connected_time":3753000000000,"state":"active","ping":45},{"user_id":204,"name":"Dr. Lifchik","steam_id":76561198206613841,"connected_time":3750000000000,"state":"active","ping":60},{"user_id":96,"name":"Shadowengell","steam_id":76561198019284410,"connected_time":10803000000000,"state":"active","ping":109},{"user_id":94,"name":"Unstable Goat","steam_id":76561197985788557,"connected_time":11492000000000,"state":"active","ping":83}]},{"server_id":309,"name":"Uncletopia | Frankfurt | 4 | All Maps","name_short":"frk-4","host":"frk-1.de.uncletopia.com","port":27045,"enabled":true,"region":"eu","cc":"de","latitude":50.110924,"longitude":8.682127,"reserved":0,"last_update":"0001-01-01T00:00:00Z","name_a2s":"Uncletopia | Frankfurt | 4 | All Maps","protocol":17,"map":"cp_dustbowl","folder":"tf","game":"Team Fortress","app_id":440,"player_count":0,"max_players":24,"Bots":0,"server_type":"Dedicated","server_os":"Linux","password":true,"vac":true,"version":"7757534","steam_id":85568392924504275,"keywords":["cp","nocrits","nodmgspread","uncletopia"],"game_id":440,"stv_port":27046,"stv_name":"Uncletopia | Frankfurt | 4 | All Maps | STV","players":null},{"server_id":310,"name":"Uncletopia | Frankfurt | 5 | All Maps","name_short":"frk-5","host":"frk-1.de.uncletopia.com","port":27055,"enabled":true,"region":"eu","cc":"de","latitude":50.110924,"longitude":8.682127,"reserved":0,"last_update":"0001-01-01T00:00:00Z","name_a2s":"Uncletopia | Frankfurt | 5 | All Maps","protocol":17,"map":"ctf_turbine","folder":"tf","game":"Team Fortress","app_id":440,"player_count":11,"max_players":24,"Bots":0,"server_type":"Dedicated","server_os":"Linux","password":true,"vac":true,"version":"7757534","steam_id":85568392924504277,"keywords":["ctf","nocrits","nodmgspread","uncletopia"],"game_id":440,"stv_port":27056,"stv_name":"Uncletopia | Frankfurt | 5 | All Maps | STV","players":[{"user_id":735,"name":"zoinks!","steam_id":76561198068645362,"connected_time":49000000000,"state":"active","ping":51},{"user_id":736,"name":"Professor Page","steam_id":76561198011949134,"connected_time":15000000000,"state":"active","ping":47},{"user_id":687,"name":"bachphong760","steam_id":76561199433780443,"connected_time":3883000000000,"state":"active","ping":152},{"user_id":725,"name":"Olaf","steam_id":76561199003291309,"connected_time":533000000000,"state":"active","ping":98},{"user_id":690,"name":"Ozzy","steam_id":76561198076856559,"connected_time":3870000000000,"state":"active","ping":71},{"user_id":724,"name":"mud","steam_id":76561198141497461,"connected_time":928000000000,"state":"active","ping":61},{"user_id":719,"name":"Lord","steam_id":76561198241305816,"connected_time":1128000000000,"state":"active","ping":114},{"user_id":726,"name":"Husarz Czarek","steam_id":76561198281719873,"connected_time":533000000000,"state":"active","ping":80},{"user_id":698,"name":"Beirut chess piece","steam_id":76561198283416769,"connected_time":3264000000000,"state":"active","ping":60},{"user_id":551,"name":"shadow39344","steam_id":76561198090639618,"connected_time":14777000000000,"state":"active","ping":61},{"user_id":694,"name":"yes, yes, yes","steam_id":76561198881083725,"connected_time":3737000000000,"state":"active","ping":60}]},{"server_id":311,"name":"Uncletopia | Frankfurt | 6 | All Maps","name_short":"frk-6","host":"frk-1.de.uncletopia.com","port":27065,"enabled":true,"region":"eu","cc":"de","latitude":50.110924,"longitude":8.682127,"reserved":0,"last_update":"0001-01-01T00:00:00Z","name_a2s":"Uncletopia | Frankfurt | 6 | All Maps","protocol":17,"map":"pl_badwater","folder":"tf","game":"Team Fortress","app_id":440,"player_count":24,"max_players":24,"Bots":0,"server_type":"Dedicated","server_os":"Linux","password":true,"vac":true,"version":"7757534","steam_id":85568392924504278,"keywords":["nocrits","nodmgspread","payload","uncletopia"],"game_id":440,"stv_port":27066,"stv_name":"Uncletopia | Frankfurt | 6 | All Maps | STV","players":[{"user_id":690,"name":"Valfezant","steam_id":76561199063983797,"connected_time":1170000000000,"state":"active","ping":59},{"user_id":521,"name":"Edmost","steam_id":76561198090748165,"connected_time":16461000000000,"state":"active","ping":60},{"user_id":691,"name":"proph","steam_id":76561197998803950,"connected_time":1153000000000,"state":"active","ping":57},{"user_id":654,"name":"Tesla","steam_id":76561198378649144,"connected_time":4453000000000,"state":"active","ping":72},{"user_id":679,"name":"Koli","steam_id":76561197992428783,"connected_time":2319000000000,"state":"active","ping":46},{"user_id":706,"name":"Ampior","steam_id":76561198808630323,"connected_time":63000000000,"state":"active","ping":94},{"user_id":699,"name":"Nene Seal","steam_id":76561198139372671,"connected_time":694000000000,"state":"active","ping":64},{"user_id":682,"name":"CarrotFlowers","steam_id":76561198154714698,"connected_time":2085000000000,"state":"active","ping":55},{"user_id":687,"name":"Daenny","steam_id":76561198053088822,"connected_time":1641000000000,"state":"active","ping":45},{"user_id":705,"name":"LionKing","steam_id":76561198023399545,"connected_time":109000000000,"state":"active","ping":77},{"user_id":695,"name":"dn4k","steam_id":76561199221755690,"connected_time":932000000000,"state":"active","ping":80},{"user_id":700,"name":"DelaNo","steam_id":76561199125086655,"connected_time":688000000000,"state":"active","ping":54},{"user_id":696,"name":"MIKA","steam_id":76561198312451814,"connected_time":916000000000,"state":"active","ping":68},{"user_id":683,"name":"tm`","steam_id":76561197993580412,"connected_time":2078000000000,"state":"active","ping":56},{"user_id":642,"name":"meriones","steam_id":76561198034234373,"connected_time":6269000000000,"state":"active","ping":52},{"user_id":703,"name":"Ryd3r","steam_id":76561198011418067,"connected_time":516000000000,"state":"active","ping":44},{"user_id":672,"name":"the babadook","steam_id":76561198040168682,"connected_time":2793000000000,"state":"active","ping":55},{"user_id":652,"name":"lacurio","steam_id":76561198059701776,"connected_time":4673000000000,"state":"active","ping":60},{"user_id":686,"name":"addicted","steam_id":76561199129801006,"connected_time":1694000000000,"state":"active","ping":45},{"user_id":665,"name":"St_Thrivin","steam_id":76561198019051778,"connected_time":2861000000000,"state":"active","ping":68},{"user_id":675,"name":"Jaxxed","steam_id":76561198232919072,"connected_time":2711000000000,"state":"active","ping":57},{"user_id":676,"name":"bibib17","steam_id":76561198143319217,"connected_time":2667000000000,"state":"active","ping":78},{"user_id":638,"name":"Uncle Sam","steam_id":76561198001991775,"connected_time":6684000000000,"state":"active","ping":60},{"user_id":704,"name":"Animatic","steam_id":76561198186421601,"connected_time":424000000000,"state":"active","ping":181}]},{"server_id":23,"name":"Uncletopia | Frankfurt | 7 | Stopwatch Beta","name_short":"frk-7","host":"frk-1.de.uncletopia.com","port":27075,"enabled":true,"region":"eu","cc":"de","latitude":50.110924,"longitude":8.682127,"reserved":0,"last_update":"0001-01-01T00:00:00Z","name_a2s":"Uncletopia | Frankfurt | 7 | Stopwatch Beta","protocol":17,"map":"koth_lakeside_final","folder":"tf","game":"Team Fortress","app_id":440,"player_count":0,"max_players":24,"Bots":0,"server_type":"Dedicated","server_os":"Linux","password":true,"vac":true,"version":"7757534","steam_id":85568392924742827,"keywords":["cp","nocrits","nodmgspread","uncletopia"],"game_id":440,"stv_port":27076,"stv_name":"Uncletopia | Frankfurt | 7 | Stopwatch Beta | STV","players":null},{"server_id":24,"name":"Uncletopia | Frankfurt | 8 | Community","name_short":"frk-8","host":"frk-1.de.uncletopia.com","port":27085,"enabled":true,"region":"eu","cc":"de","latitude":50.110924,"longitude":8.682127,"reserved":0,"last_update":"0001-01-01T00:00:00Z","name_a2s":"Uncletopia | Frankfurt | 8 | Community","protocol":17,"map":"workshop/pl_cashworks_final1.ugc2904065412","folder":"tf","game":"Team Fortress","app_id":440,"player_count":3,"max_players":24,"Bots":0,"server_type":"Dedicated","server_os":"Linux","password":true,"vac":true,"version":"7757534","steam_id":85568392924742828,"keywords":["nocrits","nodmgspread","payload","uncletopia"],"game_id":440,"stv_port":27086,"stv_name":"Uncletopia | Frankfurt | 8 | Community | STV","players":[{"user_id":78,"name":"ASAP","steam_id":76561198322078500,"connected_time":2898000000000,"state":"active","ping":82},{"user_id":69,"name":"Matael","steam_id":76561198452200894,"connected_time":4082000000000,"state":"active","ping":50},{"user_id":72,"name":"WatchingTriple/Twitch.tv","steam_id":76561198189375493,"connected_time":3982000000000,"state":"active","ping":75}]},{"server_id":202,"name":"Uncletopia | Hong Kong | 1 | All Maps","name_short":"hgk-1","host":"hgk-1.hk.uncletopia.com","port":27015,"enabled":true,"region":"asia","cc":"hk","latitude":22.302711,"longitude":114.177216,"reserved":0,"last_update":"0001-01-01T00:00:00Z","name_a2s":"Uncletopia | Hong Kong | 1 | All Maps","protocol":17,"map":"pl_borneo","folder":"tf","game":"Team Fortress","app_id":440,"player_count":0,"max_players":24,"Bots":0,"server_type":"Dedicated","server_os":"Linux","password":true,"vac":true,"version":"7757534","steam_id":85568392924494504,"keywords":["nocrits","nodmgspread","payload","uncletopia"],"game_id":440,"stv_port":27016,"stv_name":"Uncletopia | Hong Kong | 1 | All Maps | STV","players":null},{"server_id":1,"name":"Uncletopia | Los Angeles | 1 | All Maps","name_short":"lax-1","host":"lax-1.us.uncletopia.com","port":27015,"enabled":true,"region":"us-west","cc":"us","latitude":33.94279,"longitude":-118.41004,"reserved":0,"last_update":"0001-01-01T00:00:00Z","name_a2s":"Uncletopia | Los Angeles | 1 | All Maps","protocol":17,"map":"koth_lakeside_final","folder":"tf","game":"Team Fortress","app_id":440,"player_count":0,"max_players":24,"Bots":0,"server_type":"Dedicated","server_os":"Linux","password":true,"vac":true,"version":"7757534","steam_id":85568392924469991,"keywords":["cp","nocrits","nodmgspread","uncletopia"],"game_id":440,"stv_port":27016,"stv_name":"Uncletopia | Los Angeles | 1 | All Maps | STV","players":null},{"server_id":112,"name":"Uncletopia | Los Angeles | 2 | All Maps","name_short":"lax-2","host":"lax-1.us.uncletopia.com","port":27025,"enabled":true,"region":"us-west","cc":"us","latitude":33.94279,"longitude":-118.41004,"reserved":0,"last_update":"0001-01-01T00:00:00Z","name_a2s":"Uncletopia | Los Angeles | 2 | All Maps","protocol":17,"map":"koth_highpass","folder":"tf","game":"Team Fortress","app_id":440,"player_count":24,"max_players":24,"Bots":0,"server_type":"Dedicated","server_os":"Linux","password":true,"vac":true,"version":"7757534","steam_id":85568392924469992,"keywords":["cp","nocrits","nodmgspread","uncletopia"],"game_id":440,"stv_port":27026,"stv_name":"Uncletopia | Los Angeles | 2 | All Maps | STV","players":[{"user_id":94,"name":"Mini","steam_id":76561198119708149,"connected_time":69000000000,"state":"active","ping":55},{"user_id":64,"name":"Beansniffer94","steam_id":76561198815600865,"connected_time":1928000000000,"state":"active","ping":92},{"user_id":88,"name":"omnipotent_chicken","steam_id":76561199142911468,"connected_time":425000000000,"state":"active","ping":59},{"user_id":89,"name":"i watched octo's gun spy video","steam_id":76561198308071306,"connected_time":419000000000,"state":"active","ping":45},{"user_id":69,"name":"everytime we touch nightcore","steam_id":76561198049258493,"connected_time":1761000000000,"state":"active","ping":85},{"user_id":77,"name":"Adam Levine (Real)","steam_id":76561199199257149,"connected_time":773000000000,"state":"active","ping":49},{"user_id":42,"name":"pan","steam_id":76561198093968095,"connected_time":3082000000000,"state":"active","ping":48},{"user_id":79,"name":"yung lean chunibyo","steam_id":76561198070253839,"connected_time":730000000000,"state":"active","ping":65},{"user_id":17,"name":"Fish","steam_id":76561199439676949,"connected_time":3750000000000,"state":"active","ping":85},{"user_id":47,"name":"jimmyfortnite2014","steam_id":76561198987713830,"connected_time":2903000000000,"state":"active","ping":154},{"user_id":92,"name":"Dani","steam_id":76561198348012378,"connected_time":260000000000,"state":"active","ping":107},{"user_id":80,"name":"Cat.","steam_id":76561197963206284,"connected_time":724000000000,"state":"active","ping":46},{"user_id":81,"name":"scientific","steam_id":76561198009312737,"connected_time":723000000000,"state":"active","ping":72},{"user_id":82,"name":"selvhat","steam_id":76561198114225509,"connected_time":720000000000,"state":"active","ping":49},{"user_id":91,"name":"Scout Gaming","steam_id":76561198349052266,"connected_time":295000000000,"state":"active","ping":101},{"user_id":70,"name":"Auld","steam_id":76561198013180268,"connected_time":1569000000000,"state":"active","ping":105},{"user_id":72,"name":"Little Linguine","steam_id":76561198816986370,"connected_time":1464000000000,"state":"active","ping":92},{"user_id":93,"name":"ShaiKai","steam_id":76561198333319986,"connected_time":159000000000,"state":"active","ping":126},{"user_id":86,"name":"Mynameisbeep","steam_id":76561198041988517,"connected_time":500000000000,"state":"active","ping":63},{"user_id":83,"name":"james may","steam_id":76561198043857339,"connected_time":676000000000,"state":"active","ping":45},{"user_id":87,"name":"El pandora","steam_id":76561198075490385,"connected_time":494000000000,"state":"active","ping":49},{"user_id":63,"name":"CDI_FrEAk","steam_id":76561198004708244,"connected_time":2002000000000,"state":"active","ping":70},{"user_id":34,"name":"sora","steam_id":76561198094256973,"connected_time":3300000000000,"state":"active","ping":59},{"user_id":71,"name":"flo rida","steam_id":76561198226169704,"connected_time":1477000000000,"state":"active","ping":66}]},{"server_id":324,"name":"Uncletopia | Los Angeles | 3 | All Maps","name_short":"lax-3","host":"lax-1.us.uncletopia.com","port":27035,"enabled":true,"region":"us-west","cc":"us","latitude":33.94279,"longitude":-118.41004,"reserved":0,"last_update":"0001-01-01T00:00:00Z","name_a2s":"Uncletopia | Los Angeles | 3 | All Maps","protocol":17,"map":"cp_snakewater_final1","folder":"tf","game":"Team Fortress","app_id":440,"player_count":24,"max_players":24,"Bots":0,"server_type":"Dedicated","server_os":"Linux","password":true,"vac":true,"version":"7757534","steam_id":85568392924510198,"keywords":["cp","nocrits","nodmgspread","uncletopia"],"game_id":440,"stv_port":27036,"stv_name":"Uncletopia | Los Angeles | 3 | All Maps | STV","players":[{"user_id":240,"name":"BREAD MANN","steam_id":76561198949379945,"connected_time":1680000000000,"state":"active","ping":102},{"user_id":210,"name":"weenie hut jr","steam_id":76561198206922028,"connected_time":4320000000000,"state":"active","ping":48},{"user_id":249,"name":"ark","steam_id":76561198041066271,"connected_time":527000000000,"state":"active","ping":77},{"user_id":181,"name":"Natalie","steam_id":76561198048848289,"connected_time":7222000000000,"state":"active","ping":57},{"user_id":246,"name":"CPTforever","steam_id":76561198237767198,"connected_time":1137000000000,"state":"active","ping":48},{"user_id":218,"name":"Logan likes to pee himself","steam_id":76561198029612812,"connected_time":3426000000000,"state":"active","ping":56},{"user_id":164,"name":"Saturn","steam_id":76561198109064967,"connected_time":7974000000000,"state":"active","ping":101},{"user_id":247,"name":"futanari","steam_id":76561198066268854,"connected_time":1130000000000,"state":"active","ping":84},{"user_id":183,"name":"GLXy","steam_id":76561198207551544,"connected_time":6966000000000,"state":"active","ping":82},{"user_id":219,"name":"The Clown","steam_id":76561199085524751,"connected_time":3414000000000,"state":"active","ping":47},{"user_id":244,"name":"Zip Zoom","steam_id":76561198271959339,"connected_time":1408000000000,"state":"active","ping":102},{"user_id":241,"name":"mel","steam_id":76561198097124190,"connected_time":1633000000000,"state":"active","ping":88},{"user_id":235,"name":"Fear m√©","steam_id":76561198212969373,"connected_time":1896000000000,"state":"active","ping":63},{"user_id":251,"name":"gamer_2099","steam_id":76561199058461779,"connected_time":330000000000,"state":"active","ping":67},{"user_id":238,"name":"Thunder","steam_id":76561198097721532,"connected_time":1852000000000,"state":"active","ping":46},{"user_id":177,"name":"ohton","steam_id":76561199033233448,"connected_time":7447000000000,"state":"active","ping":51},{"user_id":252,"name":"AMMIGGO","steam_id":76561198259987554,"connected_time":175000000000,"state":"active","ping":71},{"user_id":194,"name":"LX-24","steam_id":76561198016168993,"connected_time":5949000000000,"state":"active","ping":85},{"user_id":248,"name":"yo mama","steam_id":76561198384866172,"connected_time":890000000000,"state":"active","ping":49},{"user_id":215,"name":"Korn Dawg","steam_id":76561198026941076,"connected_time":3563000000000,"state":"active","ping":49},{"user_id":82,"name":"Also UbeR","steam_id":76561198166926843,"connected_time":13514000000000,"state":"active","ping":48},{"user_id":227,"name":"CyMeryy/ttv","steam_id":76561197984986540,"connected_time":2835000000000,"state":"active","ping":99},{"user_id":180,"name":"Fun Police","steam_id":76561198267520577,"connected_time":7281000000000,"state":"active","ping":55},{"user_id":176,"name":"strangedeath","steam_id":76561198154159297,"connected_time":7618000000000,"state":"active","ping":116}]},{"server_id":25,"name":"Uncletopia | Los Angeles | 4 | Stopwatch Beta","name_short":"lax-4","host":"lax-1.us.uncletopia.com","port":27045,"enabled":true,"region":"us-west","cc":"us","latitude":33.94279,"longitude":-118.41004,"reserved":0,"last_update":"0001-01-01T00:00:00Z","name_a2s":"Uncletopia | Los Angeles | 4 | Stopwatch Beta","protocol":17,"map":"pl_swiftwater_final1","folder":"tf","game":"Team Fortress","app_id":440,"player_count":0,"max_players":24,"Bots":0,"server_type":"Dedicated","server_os":"Linux","password":true,"vac":true,"version":"7757534","steam_id":85568392924510199,"keywords":["nocrits","nodmgspread","payload","uncletopia"],"game_id":440,"stv_port":27046,"stv_name":"Uncletopia | Los Angeles | 4 | Stopwatch Beta | STV","players":null},{"server_id":11,"name":"Uncletopia | London | 1 | All Maps","name_short":"lon-1","host":"lon-1.uk.uncletopia.com","port":27015,"enabled":true,"region":"eu","cc":"gb","latitude":51.509865,"longitude":-0.118092,"reserved":0,"last_update":"0001-01-01T00:00:00Z","name_a2s":"Uncletopia | London | 1 | All Maps","protocol":17,"map":"pl_borneo","folder":"tf","game":"Team Fortress","app_id":440,"player_count":24,"max_players":24,"Bots":0,"server_type":"Dedicated","server_os":"Linux","password":true,"vac":true,"version":"7757534","steam_id":85568392924367362,"keywords":["nocrits","nodmgspread","payload","uncletopia"],"game_id":440,"stv_port":27016,"stv_name":"Uncletopia | London | 1 | All Maps | STV","players":[{"user_id":622,"name":"Kupusari d.o.o.","steam_id":76561198320880046,"connected_time":1651000000000,"state":"active","ping":73},{"user_id":630,"name":"Doctor Rudy G. Numpad","steam_id":76561198440881106,"connected_time":783000000000,"state":"active","ping":85},{"user_id":602,"name":"Sean?","steam_id":76561198009758303,"connected_time":4352000000000,"state":"active","ping":64},{"user_id":624,"name":"Carol Olston","steam_id":76561198080257273,"connected_time":1423000000000,"state":"active","ping":36},{"user_id":611,"name":"Spookuragee","steam_id":76561198144911139,"connected_time":2973000000000,"state":"active","ping":37},{"user_id":618,"name":"Laam","steam_id":76561198050031998,"connected_time":1933000000000,"state":"active","ping":44},{"user_id":621,"name":"ricky pee pee","steam_id":76561198152620745,"connected_time":1753000000000,"state":"active","ping":57},{"user_id":588,"name":"Son Goku","steam_id":76561199383437138,"connected_time":4771000000000,"state":"active","ping":122},{"user_id":596,"name":"Olvustin","steam_id":76561198272011453,"connected_time":4575000000000,"state":"active","ping":107},{"user_id":612,"name":"whimsy.","steam_id":76561198878171763,"connected_time":2935000000000,"state":"active","ping":47},{"user_id":629,"name":"hmscole09","steam_id":76561198811362788,"connected_time":789000000000,"state":"active","ping":57},{"user_id":607,"name":"teddy","steam_id":76561198007436837,"connected_time":3930000000000,"state":"active","ping":44},{"user_id":613,"name":"Droy","steam_id":76561198065854668,"connected_time":2926000000000,"state":"active","ping":41},{"user_id":631,"name":"ciliorkun18","steam_id":76561198228942500,"connected_time":780000000000,"state":"active","ping":94},{"user_id":590,"name":"Explosive Poptart","steam_id":76561198023918830,"connected_time":4766000000000,"state":"active","ping":38},{"user_id":614,"name":"dec","steam_id":76561198009660168,"connected_time":2896000000000,"state":"active","ping":54},{"user_id":632,"name":"Sandshee","steam_id":76561198088574666,"connected_time":778000000000,"state":"active","ping":36},{"user_id":585,"name":"SuperBob103","steam_id":76561199175360012,"connected_time":4934000000000,"state":"active","ping":50},{"user_id":633,"name":"Anri Okita's Massive Milkers","steam_id":76561199186352720,"connected_time":631000000000,"state":"active","ping":63},{"user_id":634,"name":"etc","steam_id":76561197998394797,"connected_time":150000000000,"state":"active","ping":57},{"user_id":529,"name":"BreadBubbles","steam_id":76561198174332826,"connected_time":10717000000000,"state":"active","ping":63},{"user_id":609,"name":"shooer","steam_id":76561198110531281,"connected_time":3375000000000,"state":"active","ping":76},{"user_id":625,"name":"‚ô• aura ‚ô•","steam_id":76561198066258544,"connected_time":811000000000,"state":"active","ping":66},{"user_id":628,"name":"Hermitcrack","steam_id":76561198149216441,"connected_time":810000000000,"state":"active","ping":75}]},{"server_id":114,"name":"Uncletopia | London | 2 | All Maps","name_short":"lon-2","host":"lon-1.uk.uncletopia.com","port":27025,"enabled":true,"region":"eu","cc":"gb","latitude":51.509865,"longitude":-0.118092,"reserved":0,"last_update":"0001-01-01T00:00:00Z","name_a2s":"Uncletopia | London | 2 | All Maps","protocol":17,"map":"cp_snakewater_final1","folder":"tf","game":"Team Fortress","app_id":440,"player_count":0,"max_players":24,"Bots":0,"server_type":"Dedicated","server_os":"Linux","password":true,"vac":true,"version":"7757534","steam_id":85568392924470941,"keywords":["cp","nocrits","nodmgspread","uncletopia"],"game_id":440,"stv_port":27026,"stv_name":"Uncletopia | London | 2 | All Maps | STV","players":null},{"server_id":320,"name":"Uncletopia | London | 3 | All Maps","name_short":"lon-3","host":"lon-1.uk.uncletopia.com","port":27035,"enabled":true,"region":"eu","cc":"gb","latitude":51.509865,"longitude":-0.118092,"reserved":0,"last_update":"0001-01-01T00:00:00Z","name_a2s":"Uncletopia | London | 3 | All Maps","protocol":17,"map":"pl_borneo","folder":"tf","game":"Team Fortress","app_id":440,"player_count":2,"max_players":24,"Bots":0,"server_type":"Dedicated","server_os":"Linux","password":true,"vac":true,"version":"7757534","steam_id":85568392924510192,"keywords":["nocrits","nodmgspread","payload","uncletopia"],"game_id":440,"stv_port":27036,"stv_name":"Uncletopia | London | 3 | All Maps | STV","players":[{"user_id":476,"name":"YourNeighbourhoodHobo","steam_id":76561198072756392,"connected_time":590000000000,"state":"active","ping":56},{"user_id":471,"name":"ja","steam_id":76561199228540618,"connected_time":1938000000000,"state":"active","ping":84}]},{"server_id":321,"name":"Uncletopia | London | 4 | All Maps","name_short":"lon-4","host":"lon-1.uk.uncletopia.com","port":27045,"enabled":true,"region":"eu","cc":"gb","latitude":51.509865,"longitude":-0.118092,"reserved":0,"last_update":"0001-01-01T00:00:00Z","name_a2s":"Uncletopia | London | 4 | All Maps","protocol":17,"map":"pl_borneo","folder":"tf","game":"Team Fortress","app_id":440,"player_count":21,"max_players":24,"Bots":0,"server_type":"Dedicated","server_os":"Linux","password":true,"vac":true,"version":"7757534","steam_id":85568392924510193,"keywords":["nocrits","nodmgspread","payload","uncletopia"],"game_id":440,"stv_port":27046,"stv_name":"Uncletopia | London | 4 | All Maps | STV","players":[{"user_id":744,"name":"Dim","steam_id":76561198141549249,"connected_time":1093000000000,"state":"spawning","ping":144},{"user_id":752,"name":"Ecton","steam_id":76561198025103720,"connected_time":3000000000,"state":"spawning","ping":50},{"user_id":751,"name":"Zerfesh","steam_id":76561198117534358,"connected_time":23000000000,"state":"connecting","ping":87},{"user_id":731,"name":"Reptikality","steam_id":76561199057211698,"connected_time":1426000000000,"state":"spawning","ping":148},{"user_id":750,"name":"Xtreme‚Ñ¢","steam_id":76561198050144913,"connected_time":31000000000,"state":"connecting","ping":58},{"user_id":646,"name":"It's a me Malario","steam_id":76561198176546013,"connected_time":7842000000000,"state":"spawning","ping":40},{"user_id":732,"name":"boots mitout fur","steam_id":76561198188642265,"connected_time":1401000000000,"state":"spawning","ping":86},{"user_id":705,"name":"Sn1perK1ng","steam_id":76561198128065329,"connected_time":4024000000000,"state":"spawning","ping":45},{"user_id":745,"name":"skill","steam_id":76561198106012909,"connected_time":538000000000,"state":"spawning","ping":73},{"user_id":703,"name":"NinjaTuna","steam_id":76561198034569315,"connected_time":4199000000000,"state":"spawning","ping":37},{"user_id":725,"name":"midlpsyzl47","steam_id":76561199475972637,"connected_time":2275000000000,"state":"spawning","ping":62},{"user_id":734,"name":"My pp is a scooter","steam_id":76561198173218318,"connected_time":1376000000000,"state":"spawning","ping":55},{"user_id":735,"name":"Cornelius Shacklebart","steam_id":76561198000735878,"connected_time":1357000000000,"state":"spawning","ping":64},{"user_id":736,"name":"ambatukam","steam_id":76561199062586342,"connected_time":1303000000000,"state":"spawning","ping":44},{"user_id":746,"name":"jijiklidrop","steam_id":76561198042328253,"connected_time":530000000000,"state":"spawning","ping":49},{"user_id":749,"name":"THVG","steam_id":76561199156685368,"connected_time":33000000000,"state":"spawning","ping":290},{"user_id":719,"name":"[P-roc] Cmm Bert","steam_id":76561198016658674,"connected_time":3042000000000,"state":"spawning","ping":36},{"user_id":739,"name":"Tryrn","steam_id":76561198075487436,"connected_time":1217000000000,"state":"spawning","ping":94},{"user_id":743,"name":"Grogon","steam_id":76561198203300218,"connected_time":1174000000000,"state":"spawning","ping":62},{"user_id":741,"name":"Silverdarlin","steam_id":76561198118540970,"connected_time":1182000000000,"state":"spawning","ping":55},{"user_id":679,"name":"lol","steam_id":76561198322087870,"connected_time":6068000000000,"state":"spawning","ping":109}]},{"server_id":21,"name":"Uncletopia | London | 5 | All Maps","name_short":"lon-5","host":"lon-1.uk.uncletopia.com","port":27055,"enabled":true,"region":"eu","cc":"gb","latitude":51.509865,"longitude":-0.118092,"reserved":0,"last_update":"0001-01-01T00:00:00Z","name_a2s":"Uncletopia | London | 5 | All Maps","protocol":17,"map":"cp_snakewater_final1","folder":"tf","game":"Team Fortress","app_id":440,"player_count":24,"max_players":24,"Bots":0,"server_type":"Dedicated","server_os":"Linux","password":true,"vac":true,"version":"7757534","steam_id":85568392924742829,"keywords":["cp","nocrits","nodmgspread","uncletopia"],"game_id":440,"stv_port":27056,"stv_name":"Uncletopia | London | 5 | All Maps | STV","players":[{"user_id":470,"name":"zvekan","steam_id":76561198381101196,"connected_time":1576000000000,"state":"active","ping":63},{"user_id":477,"name":"MR.CRAB","steam_id":76561198329833659,"connected_time":1261000000000,"state":"active","ping":76},{"user_id":339,"name":"giclure :;","steam_id":76561197986362828,"connected_time":11148000000000,"state":"active","ping":55},{"user_id":479,"name":"PlushtrapDev","steam_id":76561199109026519,"connected_time":1137000000000,"state":"active","ping":97},{"user_id":444,"name":"Step back","steam_id":76561198063855616,"connected_time":3788000000000,"state":"active","ping":76},{"user_id":480,"name":"Painkiller (real)‚òë","steam_id":76561199036837091,"connected_time":1132000000000,"state":"active","ping":89},{"user_id":481,"name":"Rahmed","steam_id":76561198136056704,"connected_time":1104000000000,"state":"active","ping":43},{"user_id":482,"name":"Jonathan","steam_id":76561198087988880,"connected_time":1065000000000,"state":"active","ping":59},{"user_id":472,"name":"Lyell","steam_id":76561198350329389,"connected_time":1557000000000,"state":"active","ping":75},{"user_id":465,"name":"tf2 snake","steam_id":76561198193971167,"connected_time":2366000000000,"state":"active","ping":62},{"user_id":428,"name":"Shortstop Shaun","steam_id":76561197970114051,"connected_time":4725000000000,"state":"active","ping":43},{"user_id":494,"name":"cream gravy","steam_id":76561198973069177,"connected_time":253000000000,"state":"active","ping":60},{"user_id":486,"name":"Asbestos Enjoyer","steam_id":76561198001346236,"connected_time":808000000000,"state":"active","ping":72},{"user_id":485,"name":"Twisted Logic ‚àû","steam_id":76561198002245428,"connected_time":828000000000,"state":"active","ping":39},{"user_id":476,"name":"slnc","steam_id":76561198041151496,"connected_time":1439000000000,"state":"active","ping":67},{"user_id":456,"name":"Mari Christmas","steam_id":76561197997020707,"connected_time":2949000000000,"state":"active","ping":60},{"user_id":439,"name":"rob","steam_id":76561198122211848,"connected_time":4346000000000,"state":"active","ping":87},{"user_id":487,"name":"Rumia","steam_id":76561198103021258,"connected_time":800000000000,"state":"active","ping":104},{"user_id":488,"name":"Low Kick Connoisseur","steam_id":76561198051685232,"connected_time":798000000000,"state":"active","ping":46},{"user_id":457,"name":"nedilya","steam_id":76561198039692077,"connected_time":2945000000000,"state":"active","ping":63},{"user_id":493,"name":"yee","steam_id":76561199232322781,"connected_time":506000000000,"state":"active","ping":67},{"user_id":490,"name":"Enderpanda24","steam_id":76561199461170521,"connected_time":740000000000,"state":"active","ping":71},{"user_id":461,"name":"HOI","steam_id":76561198061182117,"connected_time":2857000000000,"state":"active","ping":46},{"user_id":491,"name":"lullers","steam_id":76561198119470669,"connected_time":724000000000,"state":"active","ping":58}]},{"server_id":22,"name":"Uncletopia | London | 6 | All Maps","name_short":"lon-6","host":"lon-1.uk.uncletopia.com","port":27065,"enabled":true,"region":"eu","cc":"gb","latitude":51.509865,"longitude":-0.118092,"reserved":0,"last_update":"0001-01-01T00:00:00Z","name_a2s":"Uncletopia | London | 6 | All Maps","protocol":17,"map":"pl_barnblitz","folder":"tf","game":"Team Fortress","app_id":440,"player_count":0,"max_players":24,"Bots":0,"server_type":"Dedicated","server_os":"Linux","password":true,"vac":true,"version":"7757534","steam_id":85568392924742830,"keywords":["nocrits","nodmgspread","payload","uncletopia"],"game_id":440,"stv_port":27066,"stv_name":"Uncletopia | London | 6 | All Maps | STV","players":null},{"server_id":40,"name":"Uncletopia | London | 7 | No Payload","name_short":"lon-7","host":"lon-1.uk.uncletopia.com","port":27075,"enabled":true,"region":"eu","cc":"gb","latitude":51.509865,"longitude":-0.118092,"reserved":0,"last_update":"0001-01-01T00:00:00Z","name_a2s":"Uncletopia | London | 7 | No Payload","protocol":17,"map":"cp_sunshine","folder":"tf","game":"Team Fortress","app_id":440,"player_count":0,"max_players":24,"Bots":0,"server_type":"Dedicated","server_os":"Linux","password":true,"vac":true,"version":"7757534","steam_id":85568392924964314,"keywords":["cp","nocrits","nodmgspread","uncletopia"],"game_id":440,"stv_port":27076,"stv_name":"Uncletopia | London | 7 | No Payload | STV","players":null},{"server_id":41,"name":"Uncletopia | London | 8 | Community","name_short":"lon-8","host":"lon-1.uk.uncletopia.com","port":27085,"enabled":true,"region":"eu","cc":"gb","latitude":51.509865,"longitude":-0.118092,"reserved":0,"last_update":"0001-01-01T00:00:00Z","name_a2s":"Uncletopia | London | 8 | Community","protocol":17,"map":"workshop/cp_sulfur_rc2.ugc619869471","folder":"tf","game":"Team Fortress","app_id":440,"player_count":0,"max_players":24,"Bots":0,"server_type":"Dedicated","server_os":"Linux","password":true,"vac":true,"version":"7757534","steam_id":85568392924964315,"keywords":["cp","nocrits","nodmgspread","uncletopia"],"game_id":440,"stv_port":27086,"stv_name":"Uncletopia | London | 8 | Community | STV","players":null},{"server_id":300,"name":"Uncletopia | Montr√©al | 1 | All Maps","name_short":"mtl-1","host":"mtl-1.ca.uncletopia.com","port":27015,"enabled":true,"region":"us-east","cc":"ca","latitude":45.50889,"longitude":-73.56167,"reserved":0,"last_update":"0001-01-01T00:00:00Z","name_a2s":"Uncletopia | Montr√©al | 1 | All Maps","protocol":17,"map":"koth_highpass","folder":"tf","game":"Team Fortress","app_id":440,"player_count":0,"max_players":24,"Bots":0,"server_type":"Dedicated","server_os":"Linux","password":true,"vac":true,"version":"7757534","steam_id":85568392924500087,"keywords":["cp","nocrits","nodmgspread","uncletopia"],"game_id":440,"stv_port":27016,"stv_name":"Uncletopia | Montr√©al | 1 | All Maps | STV","players":null},{"server_id":301,"name":"Uncletopia | Montr√©al | 2 | All Maps","name_short":"mtl-2","host":"mtl-1.ca.uncletopia.com","port":27025,"enabled":true,"region":"us-east","cc":"ca","latitude":45.50889,"longitude":-73.56167,"reserved":0,"last_update":"0001-01-01T00:00:00Z","name_a2s":"Uncletopia | Montr√©al | 2 | All Maps","protocol":17,"map":"pl_borneo","folder":"tf","game":"Team Fortress","app_id":440,"player_count":0,"max_players":24,"Bots":0,"server_type":"Dedicated","server_os":"Linux","password":true,"vac":true,"version":"7757534","steam_id":85568392924500088,"keywords":["nocrits","nodmgspread","payload","uncletopia"],"game_id":440,"stv_port":27026,"stv_name":"Uncletopia | Montr√©al | 2 | All Maps | STV","players":null},{"server_id":302,"name":"Uncletopia | Montr√©al | 3 | All Maps","name_short":"mtl-3","host":"mtl-1.ca.uncletopia.com","port":27035,"enabled":true,"region":"us-east","cc":"ca","latitude":45.50889,"longitude":-73.56167,"reserved":0,"last_update":"0001-01-01T00:00:00Z","name_a2s":"Uncletopia | Montr√©al | 3 | All Maps","protocol":17,"map":"cp_dustbowl","folder":"tf","game":"Team Fortress","app_id":440,"player_count":23,"max_players":24,"Bots":0,"server_type":"Dedicated","server_os":"Linux","password":true,"vac":true,"version":"7757534","steam_id":85568392924500089,"keywords":["cp","nocrits","nodmgspread","uncletopia"],"game_id":440,"stv_port":27036,"stv_name":"Uncletopia | Montr√©al | 3 | All Maps | STV","players":[{"user_id":72,"name":"aspiceeone","steam_id":76561198335426817,"connected_time":217000000000,"state":"active","ping":66},{"user_id":66,"name":"Nappa","steam_id":76561198142406272,"connected_time":591000000000,"state":"active","ping":67},{"user_id":55,"name":"lil torchic","steam_id":76561198026726820,"connected_time":861000000000,"state":"active","ping":66},{"user_id":49,"name":"starryKailani","steam_id":76561198973835320,"connected_time":1137000000000,"state":"active","ping":113},{"user_id":50,"name":"The Colonel","steam_id":76561198004147927,"connected_time":897000000000,"state":"active","ping":66},{"user_id":51,"name":"SadSixersFan #TITOGANG","steam_id":76561198056171001,"connected_time":893000000000,"state":"active","ping":45},{"user_id":52,"name":"60k Email Job","steam_id":76561198070006668,"connected_time":890000000000,"state":"active","ping":70},{"user_id":53,"name":"Jpid","steam_id":76561198081312716,"connected_time":886000000000,"state":"active","ping":69},{"user_id":54,"name":"[DD]Dobby","steam_id":76561198123479796,"connected_time":885000000000,"state":"active","ping":56},{"user_id":78,"name":"i eat dirt","steam_id":76561198396948122,"connected_time":96000000000,"state":"active","ping":73},{"user_id":59,"name":"$LIPPY","steam_id":76561198019536406,"connected_time":692000000000,"state":"active","ping":50},{"user_id":60,"name":"Paul from Marketing","steam_id":76561198156319978,"connected_time":663000000000,"state":"active","ping":66},{"user_id":62,"name":"‡ºò ‚ãÜÀöüéßCaffeine‚òï*Àñ¬∞","steam_id":76561199259309294,"connected_time":656000000000,"state":"active","ping":63},{"user_id":63,"name":"Gamer GF","steam_id":76561198072796595,"connected_time":624000000000,"state":"active","ping":69},{"user_id":64,"name":"sheep gf \u003c3","steam_id":76561198068189558,"connected_time":614000000000,"state":"active","ping":107},{"user_id":65,"name":"ÔºäTerminalÔºä","steam_id":76561198321541054,"connected_time":601000000000,"state":"active","ping":130},{"user_id":67,"name":"Vegeta","steam_id":76561198120976988,"connected_time":586000000000,"state":"active","ping":67},{"user_id":68,"name":"(‚óî) Neville","steam_id":76561198025637970,"connected_time":540000000000,"state":"active","ping":76},{"user_id":74,"name":"relaxerfrog","steam_id":76561199149386444,"connected_time":131000000000,"state":"active","ping":123},{"user_id":75,"name":"bingusfan_360","steam_id":76561199157405121,"connected_time":124000000000,"state":"active","ping":104},{"user_id":76,"name":"Brain Tumor","steam_id":76561198805526881,"connected_time":114000000000,"state":"active","ping":78},{"user_id":80,"name":"Makreth","steam_id":76561198025341497,"connected_time":32000000000,"state":"active","ping":179},{"user_id":81,"name":"jasonsbayleys","steam_id":76561198154468859,"connected_time":28000000000,"state":"active","ping":174}]},{"server_id":303,"name":"Uncletopia | Montr√©al | 4 | No Payload","name_short":"mtl-4","host":"mtl-1.ca.uncletopia.com","port":27045,"enabled":true,"region":"us-east","cc":"ca","latitude":45.50889,"longitude":-73.56167,"reserved":0,"last_update":"0001-01-01T00:00:00Z","name_a2s":"Uncletopia | Montr√©al | 4 | No Payload","protocol":17,"map":"cp_snakewater_final1","folder":"tf","game":"Team Fortress","app_id":440,"player_count":0,"max_players":24,"Bots":0,"server_type":"Dedicated","server_os":"Linux","password":true,"vac":true,"version":"7757534","steam_id":85568392924500090,"keywords":["cp","nocrits","nodmgspread","uncletopia"],"game_id":440,"stv_port":27046,"stv_name":"Uncletopia | Montr√©al | 4 | No Payload | STV","players":null},{"server_id":13,"name":"Uncletopia | New York City | 1 | All Maps","name_short":"nyc-1","host":"nyc-1.us.uncletopia.com","port":27015,"enabled":true,"region":"us-east","cc":"us","latitude":40.73061,"longitude":-73.93524,"reserved":0,"last_update":"0001-01-01T00:00:00Z","name_a2s":"Uncletopia | New York City | 1 | All Maps","protocol":17,"map":"pl_upward","folder":"tf","game":"Team Fortress","app_id":440,"player_count":24,"max_players":24,"Bots":0,"server_type":"Dedicated","server_os":"Linux","password":true,"vac":true,"version":"7757534","steam_id":85568392924469993,"keywords":["nocrits","nodmgspread","payload","uncletopia"],"game_id":440,"stv_port":27016,"stv_name":"Uncletopia | New York City | 1 | All Maps | STV","players":[{"user_id":305,"name":"Mochi","steam_id":76561199151314140,"connected_time":2734000000000,"state":"active","ping":42},{"user_id":343,"name":"Sexual Butt","steam_id":76561198102241399,"connected_time":322000000000,"state":"active","ping":74},{"user_id":345,"name":"sam","steam_id":76561198217362968,"connected_time":97000000000,"state":"active","ping":61},{"user_id":276,"name":"Pozyomka","steam_id":76561198086331015,"connected_time":5625000000000,"state":"active","ping":35},{"user_id":347,"name":"daphnit (she/they)","steam_id":76561198021596004,"connected_time":61000000000,"state":"active","ping":126},{"user_id":344,"name":"ancientfunland","steam_id":76561199220174291,"connected_time":259000000000,"state":"active","ping":77},{"user_id":325,"name":"tookalook","steam_id":76561198108046923,"connected_time":1189000000000,"state":"active","ping":45},{"user_id":326,"name":"Chaotic Rushu","steam_id":76561198170054407,"connected_time":1185000000000,"state":"active","ping":67},{"user_id":338,"name":"Father","steam_id":76561199480181343,"connected_time":650000000000,"state":"active","ping":49},{"user_id":240,"name":"Braamklauw","steam_id":76561198283287697,"connected_time":7716000000000,"state":"active","ping":133},{"user_id":304,"name":"TacticalGlizzy","steam_id":76561198144786171,"connected_time":2783000000000,"state":"active","ping":55},{"user_id":318,"name":"Sir Quacksalot","steam_id":76561198048942777,"connected_time":1789000000000,"state":"active","ping":92},{"user_id":323,"name":"Justcallmedave","steam_id":76561198013700581,"connected_time":1279000000000,"state":"active","ping":57},{"user_id":348,"name":"e0e0","steam_id":76561198293839750,"connected_time":44000000000,"state":"active","ping":51},{"user_id":301,"name":"joe biden","steam_id":76561198107259309,"connected_time":3019000000000,"state":"active","ping":45},{"user_id":341,"name":"Jack Horner","steam_id":76561199435609906,"connected_time":505000000000,"state":"active","ping":75},{"user_id":349,"name":"Person","steam_id":76561198093244204,"connected_time":44000000000,"state":"active","ping":60},{"user_id":339,"name":"svj","steam_id":76561198173047169,"connected_time":580000000000,"state":"active","ping":50},{"user_id":329,"name":"GatoSeiko","steam_id":76561198001001360,"connected_time":1095000000000,"state":"active","ping":166},{"user_id":334,"name":"Mrpeagod","steam_id":76561198138985101,"connected_time":832000000000,"state":"active","ping":81},{"user_id":335,"name":"TheSecretNewbie","steam_id":76561198194671218,"connected_time":828000000000,"state":"active","ping":52},{"user_id":315,"name":"Five","steam_id":76561198026640473,"connected_time":2412000000000,"state":"active","ping":76},{"user_id":317,"name":"BearAteMaHoney","steam_id":76561198020439356,"connected_time":2016000000000,"state":"active","ping":51},{"user_id":342,"name":"SC|Formuoli","steam_id":76561198254354595,"connected_time":482000000000,"state":"active","ping":55}]},{"server_id":14,"name":"Uncletopia | New York City | 2 | All Maps","name_short":"nyc-2","host":"nyc-1.us.uncletopia.com","port":27025,"enabled":true,"region":"us-east","cc":"us","latitude":40.73061,"longitude":-73.93524,"reserved":0,"last_update":"0001-01-01T00:00:00Z","name_a2s":"Uncletopia | New York City | 2 | All Maps","protocol":17,"map":"cp_dustbowl","folder":"tf","game":"Team Fortress","app_id":440,"player_count":24,"max_players":24,"Bots":0,"server_type":"Dedicated","server_os":"Linux","password":true,"vac":true,"version":"7757534","steam_id":85568392924469994,"keywords":["cp","nocrits","nodmgspread","uncletopia"],"game_id":440,"stv_port":27026,"stv_name":"Uncletopia | New York City | 2 | All Maps | STV","players":[{"user_id":295,"name":"TrustyGun","steam_id":76561198022854020,"connected_time":2224000000000,"state":"active","ping":52},{"user_id":292,"name":"Eden Hazard","steam_id":76561198089241053,"connected_time":2275000000000,"state":"active","ping":54},{"user_id":176,"name":"PJL725","steam_id":76561198241220274,"connected_time":9481000000000,"state":"active","ping":71},{"user_id":320,"name":"scoochie raincock","steam_id":76561199186722146,"connected_time":74000000000,"state":"active","ping":81},{"user_id":318,"name":"spicy fried chicken","steam_id":76561198319442494,"connected_time":526000000000,"state":"active","ping":119},{"user_id":251,"name":"kairOs.fk","steam_id":76561197972421260,"connected_time":4937000000000,"state":"active","ping":43},{"user_id":235,"name":"Hbadger","steam_id":76561198010204346,"connected_time":6271000000000,"state":"active","ping":48},{"user_id":311,"name":"JRS","steam_id":76561197992751271,"connected_time":932000000000,"state":"active","ping":62},{"user_id":315,"name":"Chancethefapper69","steam_id":76561198173086317,"connected_time":767000000000,"state":"active","ping":53},{"user_id":283,"name":"tobiscus","steam_id":76561198133004910,"connected_time":2551000000000,"state":"active","ping":68},{"user_id":229,"name":"Fosterpenguin","steam_id":76561198145787469,"connected_time":6915000000000,"state":"active","ping":68},{"user_id":319,"name":"SoiStick","steam_id":76561199198843260,"connected_time":407000000000,"state":"active","ping":139},{"user_id":288,"name":"SentiuntReus","steam_id":76561198208788677,"connected_time":2348000000000,"state":"active","ping":52},{"user_id":293,"name":"Rockcrusher","steam_id":76561199012666353,"connected_time":2264000000000,"state":"active","ping":69},{"user_id":275,"name":"Nyko","steam_id":76561198143197549,"connected_time":2963000000000,"state":"active","ping":57},{"user_id":299,"name":"guyinatophat51","steam_id":76561198180230694,"connected_time":1705000000000,"state":"active","ping":64},{"user_id":253,"name":"Bootes","steam_id":76561197968255551,"connected_time":4734000000000,"state":"active","ping":48},{"user_id":263,"name":"you are loved","steam_id":76561198108524571,"connected_time":3768000000000,"state":"active","ping":60},{"user_id":305,"name":"Nobody","steam_id":76561198160544586,"connected_time":1127000000000,"state":"active","ping":78},{"user_id":285,"name":"65 degrees in February","steam_id":76561198091585491,"connected_time":2521000000000,"state":"active","ping":44},{"user_id":313,"name":"LucDuc","steam_id":76561199084851962,"connected_time":899000000000,"state":"active","ping":56},{"user_id":269,"name":"BeyondTrash","steam_id":76561198293493968,"connected_time":3317000000000,"state":"active","ping":61},{"user_id":314,"name":"Zalthair","steam_id":76561198052698533,"connected_time":870000000000,"state":"active","ping":157},{"user_id":317,"name":"mycoolcucumber","steam_id":76561198177586211,"connected_time":751000000000,"state":"active","ping":63}]},{"server_id":15,"name":"Uncletopia | New York City | 3 | Stopwatch Beta","name_short":"nyc-3","host":"nyc-1.us.uncletopia.com","port":27035,"enabled":true,"region":"us-east","cc":"us","latitude":40.73061,"longitude":-73.93524,"reserved":0,"last_update":"0001-01-01T00:00:00Z","name_a2s":"Uncletopia | New York City | 3 | Stopwatch Beta","protocol":17,"map":"cp_snakewater_final1","folder":"tf","game":"Team Fortress","app_id":440,"player_count":23,"max_players":24,"Bots":0,"server_type":"Dedicated","server_os":"Linux","password":true,"vac":true,"version":"7757534","steam_id":85568392924742820,"keywords":["cp","nocrits","nodmgspread","uncletopia"],"game_id":440,"stv_port":27036,"stv_name":"Uncletopia | New York City | 3 | Stopwatch Beta | STV","players":[{"user_id":375,"name":"sassy loli","steam_id":76561198402316065,"connected_time":4049000000000,"state":"active","ping":120},{"user_id":421,"name":"DJ Absolute Garbage","steam_id":76561198068000747,"connected_time":786000000000,"state":"active","ping":45},{"user_id":431,"name":"BisKit","steam_id":76561198140624153,"connected_time":267000000000,"state":"active","ping":89},{"user_id":428,"name":"Xen","steam_id":76561198025311844,"connected_time":543000000000,"state":"active","ping":80},{"user_id":422,"name":"dog","steam_id":76561198263873491,"connected_time":783000000000,"state":"active","ping":61},{"user_id":427,"name":"Simia Invictus","steam_id":76561198167911001,"connected_time":584000000000,"state":"active","ping":53},{"user_id":376,"name":"AverageGloop","steam_id":76561198243395378,"connected_time":4010000000000,"state":"active","ping":44},{"user_id":386,"name":"Husk","steam_id":76561198271808519,"connected_time":3281000000000,"state":"active","ping":143},{"user_id":424,"name":"Swifgz","steam_id":76561198162875756,"connected_time":646000000000,"state":"active","ping":44},{"user_id":394,"name":"Emilialis","steam_id":76561198074093556,"connected_time":3007000000000,"state":"active","ping":70},{"user_id":406,"name":"Firepolarbear","steam_id":76561199104828284,"connected_time":2121000000000,"state":"active","ping":59},{"user_id":404,"name":"IamTHEpyroniac","steam_id":76561199006347033,"connected_time":2238000000000,"state":"active","ping":145},{"user_id":429,"name":"Jade","steam_id":76561199156753660,"connected_time":531000000000,"state":"active","ping":75},{"user_id":402,"name":"Fetus in a paper bag","steam_id":76561199047286823,"connected_time":2452000000000,"state":"active","ping":61},{"user_id":407,"name":"Red_Hatkins","steam_id":76561198214004105,"connected_time":1977000000000,"state":"active","ping":80},{"user_id":425,"name":"nhbiker","steam_id":76561198081277675,"connected_time":643000000000,"state":"active","ping":54},{"user_id":410,"name":"unsubtract","steam_id":76561198865158742,"connected_time":1865000000000,"state":"active","ping":67},{"user_id":412,"name":"elincyt","steam_id":76561198967771724,"connected_time":1856000000000,"state":"active","ping":62},{"user_id":430,"name":"Cow Goes Moo","steam_id":76561199472443729,"connected_time":409000000000,"state":"active","ping":80},{"user_id":426,"name":"chrischrischris3018@yahoo.com","steam_id":76561198137316053,"connected_time":607000000000,"state":"active","ping":61},{"user_id":391,"name":"IPlayGamez","steam_id":76561198041387508,"connected_time":3204000000000,"state":"active","ping":51},{"user_id":395,"name":"medome","steam_id":76561198399990744,"connected_time":2824000000000,"state":"active","ping":121},{"user_id":433,"name":"Byte9291","steam_id":76561198044313374,"connected_time":266000000000,"state":"active","ping":88}]},{"server_id":16,"name":"Uncletopia | New York City | 4 | Community","name_short":"nyc-4","host":"nyc-1.us.uncletopia.com","port":27045,"enabled":true,"region":"us-east","cc":"us","latitude":40.73061,"longitude":-73.93524,"reserved":0,"last_update":"0001-01-01T00:00:00Z","name_a2s":"Uncletopia | New York City | 4 | Community","protocol":17,"map":"workshop/pl_boundary_final1.ugc456799153","folder":"tf","game":"Team Fortress","app_id":440,"player_count":0,"max_players":24,"Bots":0,"server_type":"Dedicated","server_os":"Linux","password":true,"vac":true,"version":"7757534","steam_id":85568392924742821,"keywords":["nocrits","nodmgspread","payload","uncletopia"],"game_id":440,"stv_port":27046,"stv_name":"Uncletopia | New York City | 4 | Community | STV","players":null},{"server_id":142,"name":"Uncletopia | S√£o Paulo | 1 | All Maps","name_short":"sao-1","host":"sao-1.br.uncletopia.com","port":27015,"enabled":true,"region":"sa","cc":"br","latitude":-23.533773,"longitude":-46.62529,"reserved":0,"last_update":"0001-01-01T00:00:00Z","name_a2s":"Uncletopia | S√£o Paulo | 1 | All Maps","protocol":17,"map":"koth_harvest_final","folder":"tf","game":"Team Fortress","app_id":440,"player_count":0,"max_players":24,"Bots":0,"server_type":"Dedicated","server_os":"Linux","password":true,"vac":true,"version":"7757534","steam_id":85568392924469996,"keywords":["cp","nocrits","nodmgspread","uncletopia"],"game_id":440,"stv_port":27016,"stv_name":"Uncletopia | S√£o Paulo | 1 | All Maps | STV","players":null},{"server_id":143,"name":"Uncletopia | S√£o Paulo | 2 | All Maps","name_short":"sao-2","host":"sao-2.br.uncletopia.com","port":27015,"enabled":true,"region":"sa","cc":"br","latitude":-23.533773,"longitude":-46.62529,"reserved":0,"last_update":"0001-01-01T00:00:00Z","name_a2s":"Uncletopia | S√£o Paulo | 2 | All Maps","protocol":17,"map":"koth_viaduct","folder":"tf","game":"Team Fortress","app_id":440,"player_count":2,"max_players":24,"Bots":0,"server_type":"Dedicated","server_os":"Linux","password":true,"vac":true,"version":"7757534","steam_id":85568392924485349,"keywords":["cp","nocrits","nodmgspread","uncletopia"],"game_id":440,"stv_port":27016,"stv_name":"Uncletopia | S√£o Paulo | 2 | All Maps | STV","players":[{"user_id":42,"name":"DoctorLucyMoth","steam_id":76561198329484423,"connected_time":301000000000,"state":"active","ping":195},{"user_id":43,"name":"beyond the river","steam_id":76561198429851354,"connected_time":79000000000,"state":"active","ping":43}]},{"server_id":7,"name":"Uncletopia | Seattle | 1 | All Maps","name_short":"sea-1","host":"sea-1.us.uncletopia.com","port":27015,"enabled":true,"region":"us-west","cc":"us","latitude":47.608013,"longitude":-122.33517,"reserved":0,"last_update":"0001-01-01T00:00:00Z","name_a2s":"Uncletopia | Seattle | 1 | All Maps","protocol":17,"map":"pl_barnblitz","folder":"tf","game":"Team Fortress","app_id":440,"player_count":24,"max_players":24,"Bots":0,"server_type":"Dedicated","server_os":"Linux","password":true,"vac":true,"version":"7757534","steam_id":85568392924469997,"keywords":["nocrits","nodmgspread","payload","uncletopia"],"game_id":440,"stv_port":27016,"stv_name":"Uncletopia | Seattle | 1 | All Maps | STV","players":[{"user_id":459,"name":"Master Humper","steam_id":76561198142933570,"connected_time":2088000000000,"state":"active","ping":67},{"user_id":476,"name":"Rocketface","steam_id":76561198043679540,"connected_time":17000000000,"state":"active","ping":71},{"user_id":427,"name":"DoctorHa","steam_id":76561198044026008,"connected_time":3872000000000,"state":"active","ping":92},{"user_id":470,"name":"Strikerbolt","steam_id":76561199095622897,"connected_time":906000000000,"state":"active","ping":76},{"user_id":472,"name":"zinnk","steam_id":76561198092081825,"connected_time":416000000000,"state":"active","ping":57},{"user_id":465,"name":"Lazy-assed Prophet","steam_id":76561198214400452,"connected_time":1676000000000,"state":"active","ping":71},{"user_id":469,"name":"MoonDoggy","steam_id":76561197995495949,"connected_time":1067000000000,"state":"active","ping":91},{"user_id":437,"name":"makeshift_burrito","steam_id":76561198042510825,"connected_time":3606000000000,"state":"active","ping":71},{"user_id":440,"name":"Hassium","steam_id":76561198162541373,"connected_time":3200000000000,"state":"active","ping":52},{"user_id":442,"name":"Tungsten","steam_id":76561198312854342,"connected_time":3180000000000,"state":"active","ping":65},{"user_id":452,"name":"nate","steam_id":76561197963935504,"connected_time":2352000000000,"state":"active","ping":124},{"user_id":453,"name":"dust | she/it","steam_id":76561198045218909,"connected_time":2328000000000,"state":"active","ping":45},{"user_id":448,"name":"Dr. drippenstein","steam_id":76561198209380493,"connected_time":2652000000000,"state":"active","ping":108},{"user_id":461,"name":"Lochness_monster","steam_id":76561198417831973,"connected_time":1715000000000,"state":"active","ping":63},{"user_id":387,"name":"lili ezili","steam_id":76561199391478575,"connected_time":7818000000000,"state":"active","ping":72},{"user_id":425,"name":"THE_DARK_TRICKSTER","steam_id":76561198870649125,"connected_time":3888000000000,"state":"active","ping":88},{"user_id":471,"name":"steelmonkey","steam_id":76561198144924704,"connected_time":554000000000,"state":"active","ping":48},{"user_id":468,"name":"BreadQuest","steam_id":76561198082425960,"connected_time":1551000000000,"state":"active","ping":46},{"user_id":475,"name":"Tibetan Pop Star","steam_id":76561198844903984,"connected_time":93000000000,"state":"active","ping":87},{"user_id":456,"name":"EEBIGAA","steam_id":76561198056535988,"connected_time":2300000000000,"state":"active","ping":75},{"user_id":457,"name":"maxwell.cat","steam_id":76561199164582237,"connected_time":2253000000000,"state":"active","ping":55},{"user_id":438,"name":"‚ù§ Ashley ‚ù§","steam_id":76561198056428303,"connected_time":3603000000000,"state":"active","ping":70},{"user_id":441,"name":"SomeGuyWhoLikesPotatoes","steam_id":76561198110276797,"connected_time":3200000000000,"state":"active","ping":57},{"user_id":464,"name":"orthotic horse shoes","steam_id":76561198083242298,"connected_time":1689000000000,"state":"active","ping":121}]},{"server_id":119,"name":"Uncletopia | Seattle | 2 | All Maps","name_short":"sea-2","host":"sea-1.us.uncletopia.com","port":27025,"enabled":true,"region":"us-west","cc":"us","latitude":47.608013,"longitude":-122.33517,"reserved":0,"last_update":"0001-01-01T00:00:00Z","name_a2s":"Uncletopia | Seattle | 2 | All Maps","protocol":17,"map":"pl_barnblitz","folder":"tf","game":"Team Fortress","app_id":440,"player_count":24,"max_players":24,"Bots":0,"server_type":"Dedicated","server_os":"Linux","password":true,"vac":true,"version":"7757534","steam_id":85568392924469998,"keywords":["nocrits","nodmgspread","payload","uncletopia"],"game_id":440,"stv_port":27026,"stv_name":"Uncletopia | Seattle | 2 | All Maps | STV","players":[{"user_id":289,"name":"Harold","steam_id":76561198057317770,"connected_time":828000000000,"state":"active","ping":56},{"user_id":290,"name":"Feldspaten","steam_id":76561199122059102,"connected_time":768000000000,"state":"active","ping":78},{"user_id":284,"name":"logan2611","steam_id":76561198011739480,"connected_time":1063000000000,"state":"active","ping":86},{"user_id":292,"name":"HideOnTate","steam_id":76561198209880837,"connected_time":681000000000,"state":"active","ping":48},{"user_id":263,"name":"jello","steam_id":76561198149683030,"connected_time":2457000000000,"state":"active","ping":61},{"user_id":267,"name":"DAS SCHNITZELSTIEN","steam_id":76561198051137159,"connected_time":2212000000000,"state":"active","ping":53},{"user_id":282,"name":"Ellen Baker","steam_id":76561198065712435,"connected_time":1192000000000,"state":"active","ping":89},{"user_id":271,"name":"-=Bits=-Dinkleberg","steam_id":76561198080367616,"connected_time":1647000000000,"state":"active","ping":95},{"user_id":293,"name":"hamletespacial","steam_id":76561199084414649,"connected_time":676000000000,"state":"active","ping":103},{"user_id":294,"name":"Dilo","steam_id":76561198799078414,"connected_time":636000000000,"state":"active","ping":79},{"user_id":291,"name":"Mina's Ninas","steam_id":76561198046502179,"connected_time":762000000000,"state":"active","ping":88},{"user_id":303,"name":"Dotamerican Sniper The Movie","steam_id":76561197986218502,"connected_time":240000000000,"state":"active","ping":109},{"user_id":295,"name":"O","steam_id":76561198450073779,"connected_time":621000000000,"state":"active","ping":47},{"user_id":296,"name":"tophawkyy","steam_id":76561199075934685,"connected_time":610000000000,"state":"active","ping":84},{"user_id":299,"name":"ROBBYDUDE","steam_id":76561197998290129,"connected_time":429000000000,"state":"active","ping":36},{"user_id":260,"name":"Harold from HR","steam_id":76561198210322871,"connected_time":2724000000000,"state":"active","ping":73},{"user_id":261,"name":"Qas","steam_id":76561198067564482,"connected_time":2695000000000,"state":"active","ping":75},{"user_id":269,"name":"Dali","steam_id":76561198077593486,"connected_time":1725000000000,"state":"active","ping":91},{"user_id":283,"name":"Greskrendtregk","steam_id":76561197969553142,"connected_time":1130000000000,"state":"active","ping":52},{"user_id":300,"name":"grillbyssisoloeso","steam_id":76561199105132740,"connected_time":413000000000,"state":"active","ping":127},{"user_id":286,"name":"Malevo","steam_id":76561198148606522,"connected_time":1056000000000,"state":"active","ping":119},{"user_id":301,"name":"yup (muted)","steam_id":76561199190800520,"connected_time":377000000000,"state":"active","ping":43},{"user_id":259,"name":"Bendidy","steam_id":76561198041964300,"connected_time":2757000000000,"state":"active","ping":72},{"user_id":302,"name":"nervous system","steam_id":76561197997644728,"connected_time":331000000000,"state":"active","ping":106}]},{"server_id":406,"name":"Uncletopia | Seattle | 3 | Stopwatch Beta","name_short":"sea-3","host":"sea-1.us.uncletopia.com","port":27035,"enabled":true,"region":"us-west","cc":"us","latitude":47.608013,"longitude":-122.33517,"reserved":0,"last_update":"0001-01-01T00:00:00Z","name_a2s":"Uncletopia | Seattle | 3 | Stopwatch Beta","protocol":17,"map":"workshop/koth_product_final.ugc454272353","folder":"tf","game":"Team Fortress","app_id":440,"player_count":0,"max_players":24,"Bots":0,"server_type":"Dedicated","server_os":"Linux","password":true,"vac":true,"version":"7757534","steam_id":85568392924515217,"keywords":["cp","nocrits","nodmgspread","uncletopia"],"game_id":440,"stv_port":27036,"stv_name":"Uncletopia | Seattle | 3 | Stopwatch Beta | STV","players":null},{"server_id":17,"name":"Uncletopia | San Francisco | 1 | All Maps","name_short":"sfo-1","host":"sfo-1.us.uncletopia.com","port":27015,"enabled":true,"region":"us-west","cc":"us","latitude":37.77397,"longitude":-122.4313,"reserved":0,"last_update":"0001-01-01T00:00:00Z","name_a2s":"Uncletopia | San Francisco | 1 | All Maps","protocol":17,"map":"pl_frontier_final","folder":"tf","game":"Team Fortress","app_id":440,"player_count":22,"max_players":24,"Bots":0,"server_type":"Dedicated","server_os":"Linux","password":true,"vac":true,"version":"7757534","steam_id":85568392924469999,"keywords":["nocrits","nodmgspread","payload","uncletopia"],"game_id":440,"stv_port":27016,"stv_name":"Uncletopia | San Francisco | 1 | All Maps | STV","players":[{"user_id":24,"name":"Jimmy","steam_id":76561198857959855,"connected_time":5841000000000,"state":"active","ping":48},{"user_id":89,"name":"Kitsune","steam_id":76561198241094670,"connected_time":645000000000,"state":"active","ping":112},{"user_id":40,"name":"Mario","steam_id":76561198321794277,"connected_time":3938000000000,"state":"active","ping":103},{"user_id":31,"name":"morgenne","steam_id":76561199224141679,"connected_time":4606000000000,"state":"active","ping":65},{"user_id":90,"name":"Freeholes","steam_id":76561198044424614,"connected_time":505000000000,"state":"active","ping":54},{"user_id":91,"name":"Bearl","steam_id":76561198341500635,"connected_time":461000000000,"state":"active","ping":104},{"user_id":92,"name":"asm_ghost","steam_id":76561199205363547,"connected_time":410000000000,"state":"active","ping":71},{"user_id":94,"name":"matchmatch                     ","steam_id":76561198048925904,"connected_time":203000000000,"state":"active","ping":70},{"user_id":61,"name":"joey","steam_id":76561198081593895,"connected_time":3428000000000,"state":"active","ping":131},{"user_id":95,"name":"NyanHorses","steam_id":76561198161584966,"connected_time":201000000000,"state":"active","ping":75},{"user_id":96,"name":"theRainyMute","steam_id":76561198127625760,"connected_time":156000000000,"state":"active","ping":124},{"user_id":97,"name":"Dallas","steam_id":76561198066542919,"connected_time":130000000000,"state":"active","ping":79},{"user_id":107,"name":"keerman2233","steam_id":76561199187013488,"connected_time":15000000000,"state":"spawning","ping":158},{"user_id":108,"name":"Sorrow","steam_id":76561198050225563,"connected_time":5000000000,"state":"spawning","ping":64},{"user_id":69,"name":"Archie","steam_id":76561198137112917,"connected_time":2598000000000,"state":"active","ping":47},{"user_id":100,"name":"Dededoo","steam_id":76561198279033471,"connected_time":111000000000,"state":"active","ping":101},{"user_id":66,"name":"Joosh","steam_id":76561198214599739,"connected_time":2863000000000,"state":"active","ping":57},{"user_id":101,"name":"Tweezer Salad","steam_id":76561198011976705,"connected_time":108000000000,"state":"active","ping":99},{"user_id":104,"name":"Foof","steam_id":76561198068996707,"connected_time":33000000000,"state":"active","ping":89},{"user_id":103,"name":"redbrite","steam_id":76561198389370871,"connected_time":48000000000,"state":"active","ping":104},{"user_id":105,"name":"PowerEagle","steam_id":76561198141671444,"connected_time":29000000000,"state":"active","ping":88},{"user_id":106,"name":"WazL","steam_id":76561198065113895,"connected_time":28000000000,"state":"active","ping":65}]},{"server_id":18,"name":"Uncletopia | San Francisco | 2 | All Maps","name_short":"sfo-2","host":"sfo-1.us.uncletopia.com","port":27025,"enabled":true,"region":"us-west","cc":"us","latitude":37.77397,"longitude":-122.4313,"reserved":0,"last_update":"0001-01-01T00:00:00Z","name_a2s":"Uncletopia | San Francisco | 2 | All Maps","protocol":17,"map":"cp_5gorge","folder":"tf","game":"Team Fortress","app_id":440,"player_count":24,"max_players":24,"Bots":0,"server_type":"Dedicated","server_os":"Linux","password":true,"vac":true,"version":"7757534","steam_id":85568392924470000,"keywords":["cp","nocrits","nodmgspread","uncletopia"],"game_id":440,"stv_port":27026,"stv_name":"Uncletopia | San Francisco | 2 | All Maps | STV","players":[{"user_id":289,"name":"Snitzman","steam_id":76561198068303272,"connected_time":3240000000000,"state":"active","ping":114},{"user_id":335,"name":"COKEISBAD","steam_id":76561198443746507,"connected_time":493000000000,"state":"active","ping":84},{"user_id":287,"name":"Deep Fried Pickles","steam_id":76561198048111293,"connected_time":3618000000000,"state":"active","ping":129},{"user_id":302,"name":"Grim","steam_id":76561198016978310,"connected_time":2524000000000,"state":"active","ping":56},{"user_id":319,"name":"Jables","steam_id":76561198308021488,"connected_time":1244000000000,"state":"active","ping":56},{"user_id":337,"name":"Verily","steam_id":76561198200558318,"connected_time":305000000000,"state":"active","ping":113},{"user_id":266,"name":"Lemon Luke","steam_id":76561199141696546,"connected_time":5013000000000,"state":"active","ping":100},{"user_id":329,"name":"Pah-Wraith Gul Dukat","steam_id":76561198033918106,"connected_time":652000000000,"state":"active","ping":55},{"user_id":318,"name":"RiverMoot","steam_id":76561198081530179,"connected_time":1361000000000,"state":"active","ping":117},{"user_id":155,"name":"cool beans","steam_id":76561198045758072,"connected_time":12261000000000,"state":"active","ping":45},{"user_id":321,"name":"Castleson","steam_id":76561198054330537,"connected_time":1176000000000,"state":"active","ping":107},{"user_id":328,"name":"Droidder","steam_id":76561198119484250,"connected_time":677000000000,"state":"active","ping":76},{"user_id":334,"name":"Funkmaster Yee","steam_id":76561198037738918,"connected_time":529000000000,"state":"active","ping":69},{"user_id":338,"name":"Sir Severus","steam_id":76561198061295188,"connected_time":297000000000,"state":"active","ping":74},{"user_id":190,"name":"Altruisticailuridae","steam_id":76561198335295596,"connected_time":9113000000000,"state":"active","ping":64},{"user_id":297,"name":"old birb man","steam_id":76561199410269097,"connected_time":2746000000000,"state":"active","ping":97},{"user_id":276,"name":"Mike Hock","steam_id":76561199470441954,"connected_time":4548000000000,"state":"active","ping":93},{"user_id":312,"name":"mewtek","steam_id":76561198138599995,"connected_time":1761000000000,"state":"active","ping":66},{"user_id":330,"name":"BELUGA WHALE","steam_id":76561198045964573,"connected_time":649000000000,"state":"active","ping":61},{"user_id":331,"name":"no vc no c","steam_id":76561197989503095,"connected_time":641000000000,"state":"active","ping":150},{"user_id":332,"name":"Gues","steam_id":76561198058022955,"connected_time":636000000000,"state":"active","ping":117},{"user_id":324,"name":"Aquadango","steam_id":76561198244891752,"connected_time":1048000000000,"state":"active","ping":72},{"user_id":333,"name":"magunyamu","steam_id":76561198823083676,"connected_time":636000000000,"state":"active","ping":73},{"user_id":300,"name":"Jesus Christ","steam_id":76561199388058358,"connected_time":2732000000000,"state":"active","ping":81}]},{"server_id":19,"name":"Uncletopia | San Francisco | 3 | Stopwatch Beta","name_short":"sfo-3","host":"sfo-1.us.uncletopia.com","port":27035,"enabled":true,"region":"us-west","cc":"us","latitude":37.77397,"longitude":-122.4313,"reserved":0,"last_update":"0001-01-01T00:00:00Z","name_a2s":"Uncletopia | San Francisco | 3 | Stopwatch Beta","protocol":17,"map":"pl_borneo","folder":"tf","game":"Team Fortress","app_id":440,"player_count":0,"max_players":24,"Bots":0,"server_type":"Dedicated","server_os":"Linux","password":true,"vac":true,"version":"7757534","steam_id":85568392924742824,"keywords":["nocrits","nodmgspread","payload","uncletopia"],"game_id":440,"stv_port":27036,"stv_name":"Uncletopia | San Francisco | 3 | Stopwatch Beta | STV","players":null},{"server_id":20,"name":"Uncletopia | San Francisco | 4 | Community","name_short":"sfo-4","host":"sfo-1.us.uncletopia.com","port":27045,"enabled":true,"region":"us-west","cc":"us","latitude":37.77397,"longitude":-122.4313,"reserved":0,"last_update":"0001-01-01T00:00:00Z","name_a2s":"Uncletopia | San Francisco | 4 | Community","protocol":17,"map":"workshop/koth_ramjam_rc1.ugc459778887","folder":"tf","game":"Team Fortress","app_id":440,"player_count":0,"max_players":24,"Bots":0,"server_type":"Dedicated","server_os":"Linux","password":true,"vac":true,"version":"7757534","steam_id":85568392924742826,"keywords":["cp","nocrits","nodmgspread","uncletopia"],"game_id":440,"stv_port":27046,"stv_name":"Uncletopia | San Francisco | 4 | Community | STV","players":null},{"server_id":141,"name":"Uncletopia | Sydney | 1 | All Maps","name_short":"syd-1","host":"syd-1.au.uncletopia.com","port":27015,"enabled":true,"region":"au","cc":"au","latitude":-33.865143,"longitude":151.2099,"reserved":0,"last_update":"0001-01-01T00:00:00Z","name_a2s":"Uncletopia | Sydney | 1 | All Maps","protocol":17,"map":"koth_viaduct","folder":"tf","game":"Team Fortress","app_id":440,"player_count":0,"max_players":24,"Bots":0,"server_type":"Dedicated","server_os":"Linux","password":true,"vac":true,"version":"7757534","steam_id":85568392924470001,"keywords":["cp","nocrits","nodmgspread","uncletopia"],"game_id":440,"stv_port":27016,"stv_name":"Uncletopia | Sydney | 1 | All Maps | STV","players":null},{"server_id":123,"name":"Uncletopia | Sydney | 2 | All Maps","name_short":"syd-2","host":"syd-1.au.uncletopia.com","port":27025,"enabled":true,"region":"au","cc":"au","latitude":-33.865143,"longitude":151.2099,"reserved":0,"last_update":"0001-01-01T00:00:00Z","name_a2s":"Uncletopia | Sydney | 2 | All Maps","protocol":17,"map":"koth_highpass","folder":"tf","game":"Team Fortress","app_id":440,"player_count":0,"max_players":24,"Bots":0,"server_type":"Dedicated","server_os":"Linux","password":true,"vac":true,"version":"7757534","steam_id":85568392924470002,"keywords":["cp","nocrits","nodmgspread","uncletopia"],"game_id":440,"stv_port":27026,"stv_name":"Uncletopia | Sydney | 2 | All Maps | STV","players":null},{"server_id":395,"name":"Uncletopia | Sydney | 3 | All Maps","name_short":"syd-3","host":"syd-1.au.uncletopia.com","port":27035,"enabled":true,"region":"au","cc":"au","latitude":-33.865143,"longitude":151.2099,"reserved":0,"last_update":"0001-01-01T00:00:00Z","name_a2s":"Uncletopia | Sydney | 3 | All Maps","protocol":17,"map":"pl_upward","folder":"tf","game":"Team Fortress","app_id":440,"player_count":16,"max_players":24,"Bots":0,"server_type":"Dedicated","server_os":"Linux","password":true,"vac":true,"version":"7757534","steam_id":85568392925194467,"keywords":["nocrits","nodmgspread","payload","uncletopia"],"game_id":440,"stv_port":27036,"stv_name":"Uncletopia | Sydney | 3 | All Maps | STV","players":[{"user_id":57,"name":"Corn O' Cob","steam_id":76561198066033339,"connected_time":977000000000,"state":"active","ping":45},{"user_id":35,"name":"itsjustmarvin77","steam_id":76561199375656301,"connected_time":5082000000000,"state":"active","ping":74},{"user_id":47,"name":"The Bisoneer Tf2","steam_id":76561199446773766,"connected_time":2638000000000,"state":"active","ping":82},{"user_id":39,"name":"SaltierThanYou","steam_id":76561198444395188,"connected_time":3928000000000,"state":"active","ping":79},{"user_id":40,"name":"speed bomb","steam_id":76561198277363788,"connected_time":3812000000000,"state":"active","ping":70},{"user_id":37,"name":"Kremmen","steam_id":76561198051368641,"connected_time":4962000000000,"state":"active","ping":69},{"user_id":43,"name":"Cavalcade","steam_id":76561198289709527,"connected_time":3340000000000,"state":"active","ping":52},{"user_id":48,"name":"Alphandiscobean","steam_id":76561198025845937,"connected_time":2380000000000,"state":"active","ping":69},{"user_id":72,"name":"Exalted-Hound","steam_id":76561198044200221,"connected_time":83000000000,"state":"active","ping":48},{"user_id":50,"name":"hanzo5457","steam_id":76561199196349601,"connected_time":1524000000000,"state":"active","ping":55},{"user_id":66,"name":"lavanderpumpernickle","steam_id":76561199093611800,"connected_time":328000000000,"state":"active","ping":60},{"user_id":52,"name":"thrax","steam_id":76561197992385270,"connected_time":1392000000000,"state":"active","ping":53},{"user_id":67,"name":"Nades","steam_id":76561198012542005,"connected_time":321000000000,"state":"active","ping":59},{"user_id":56,"name":"‚úø‚ú¶„ÄäThatOneFrisk„Äã‚ú¶‚úø","steam_id":76561199365469503,"connected_time":1132000000000,"state":"active","ping":190},{"user_id":69,"name":"hobo","steam_id":76561199046481213,"connected_time":232000000000,"state":"active","ping":67},{"user_id":59,"name":"Trins","steam_id":76561198040922808,"connected_time":887000000000,"state":"active","ping":59}]},{"server_id":396,"name":"Uncletopia | Sydney | 4 | All Maps","name_short":"syd-4","host":"syd-1.au.uncletopia.com","port":27045,"enabled":true,"region":"au","cc":"au","latitude":-33.865143,"longitude":151.2099,"reserved":0,"last_update":"0001-01-01T00:00:00Z","name_a2s":"Uncletopia | Sydney | 4 | All Maps","protocol":17,"map":"koth_highpass","folder":"tf","game":"Team Fortress","app_id":440,"player_count":0,"max_players":24,"Bots":0,"server_type":"Dedicated","server_os":"Linux","password":true,"vac":true,"version":"7757534","steam_id":85568392925397958,"keywords":["cp","nocrits","nodmgspread","uncletopia"],"game_id":440,"stv_port":27046,"stv_name":"Uncletopia | Sydney | 4 | All Maps | STV","players":null},{"server_id":58,"name":"Uncletopia | Sydney | 5 | Stopwatch Beta","name_short":"syd-5","host":"syd-1.au.uncletopia.com","port":27055,"enabled":true,"region":"au","cc":"au","latitude":-33.865143,"longitude":151.2099,"reserved":0,"last_update":"0001-01-01T00:00:00Z","name_a2s":"Uncletopia | Sydney | 5 | Stopwatch Beta","protocol":17,"map":"workshop/cp_reckoner_rc6.ugc674719999","folder":"tf","game":"Team Fortress","app_id":440,"player_count":0,"max_players":24,"Bots":0,"server_type":"Dedicated","server_os":"Linux","password":true,"vac":true,"version":"7757534","steam_id":85568392925397959,"keywords":["cp","nocrits","nodmgspread","uncletopia"],"game_id":440,"stv_port":27056,"stv_name":"Uncletopia | Sydney | 5 | Stopwatch Beta | STV","players":null},{"server_id":59,"name":"Uncletopia | Sydney | 6 | Community","name_short":"syd-6","host":"syd-1.au.uncletopia.com","port":27065,"enabled":true,"region":"au","cc":"au","latitude":-33.865143,"longitude":151.2099,"reserved":0,"last_update":"0001-01-01T00:00:00Z","name_a2s":"Uncletopia | Sydney | 6 | Community","protocol":17,"map":"cp_snakewater_final1","folder":"tf","game":"Team Fortress","app_id":440,"player_count":0,"max_players":24,"Bots":0,"server_type":"Dedicated","server_os":"Linux","password":true,"vac":true,"version":"7757534","steam_id":85568392925397960,"keywords":["cp","nocrits","nodmgspread","uncletopia"],"game_id":440,"stv_port":27066,"stv_name":"Uncletopia | Sydney | 6 | Community | STV","players":null},{"server_id":49,"name":"Uncletopia | Warsaw | 1 | All Maps","name_short":"waw-1","host":"waw-1.pl.uncletopia.com","port":27015,"enabled":true,"region":"eu","cc":"pl","latitude":52.2297,"longitude":21.017532,"reserved":0,"last_update":"0001-01-01T00:00:00Z","name_a2s":"","protocol":0,"map":"","folder":"","game":"","app_id":0,"player_count":0,"max_players":0,"Bots":0,"server_type":"","server_os":"","password":false,"vac":false,"version":"","steam_id":0,"keywords":null,"game_id":0,"stv_port":0,"stv_name":"","players":null},{"server_id":50,"name":"Uncletopia | Warsaw | 2 | All Maps","name_short":"waw-2","host":"waw-1.pl.uncletopia.com","port":27025,"enabled":true,"region":"eu","cc":"pl","latitude":52.2297,"longitude":21.017532,"reserved":0,"last_update":"0001-01-01T00:00:00Z","name_a2s":"Uncletopia | Warsaw | 2 | All Maps","protocol":17,"map":"cp_sunshine","folder":"tf","game":"Team Fortress","app_id":440,"player_count":0,"max_players":24,"Bots":0,"server_type":"Dedicated","server_os":"Linux","password":true,"vac":true,"version":"7757534","steam_id":85568392925397851,"keywords":["cp","nocrits","nodmgspread","uncletopia"],"game_id":440,"stv_port":27026,"stv_name":"Uncletopia | Warsaw | 2 | All Maps | STV","players":null},{"server_id":51,"name":"Uncletopia | Warsaw | 3 | All Maps","name_short":"waw-3","host":"waw-1.pl.uncletopia.com","port":27035,"enabled":true,"region":"eu","cc":"pl","latitude":52.2297,"longitude":21.017532,"reserved":0,"last_update":"0001-01-01T00:00:00Z","name_a2s":"Uncletopia | Warsaw | 3 | All Maps","protocol":17,"map":"koth_highpass","folder":"tf","game":"Team Fortress","app_id":440,"player_count":0,"max_players":24,"Bots":0,"server_type":"Dedicated","server_os":"Linux","password":true,"vac":true,"version":"7757534","steam_id":85568392925397852,"keywords":["cp","nocrits","nodmgspread","uncletopia"],"game_id":440,"stv_port":27036,"stv_name":"Uncletopia | Warsaw | 3 | All Maps | STV","players":null},{"server_id":52,"name":"Uncletopia | Warsaw | 4 | All Maps","name_short":"waw-4","host":"waw-1.pl.uncletopia.com","port":27045,"enabled":true,"region":"eu","cc":"pl","latitude":52.2297,"longitude":21.017532,"reserved":0,"last_update":"0001-01-01T00:00:00Z","name_a2s":"Uncletopia | Warsaw | 4 | All Maps","protocol":17,"map":"koth_lakeside_final","folder":"tf","game":"Team Fortress","app_id":440,"player_count":0,"max_players":24,"Bots":0,"server_type":"Dedicated","server_os":"Linux","password":true,"vac":true,"version":"7757534","steam_id":85568392925397853,"keywords":["cp","nocrits","nodmgspread","uncletopia"],"game_id":440,"stv_port":27046,"stv_name":"Uncletopia | Warsaw | 4 | All Maps | STV","players":null},{"server_id":53,"name":"Uncletopia | Warsaw | 5 | Stopwatch Beta","name_short":"waw-5","host":"waw-1.pl.uncletopia.com","port":27055,"enabled":true,"region":"eu","cc":"pl","latitude":52.2297,"longitude":21.017532,"reserved":0,"last_update":"0001-01-01T00:00:00Z","name_a2s":"Uncletopia | Warsaw | 5 | Stopwatch Beta","protocol":17,"map":"pl_borneo","folder":"tf","game":"Team Fortress","app_id":440,"player_count":0,"max_players":24,"Bots":0,"server_type":"Dedicated","server_os":"Linux","password":true,"vac":true,"version":"7757534","steam_id":85568392925397854,"keywords":["nocrits","nodmgspread","payload","uncletopia"],"game_id":440,"stv_port":27056,"stv_name":"Uncletopia | Warsaw | 5 | Stopwatch Beta | STV","players":null},{"server_id":54,"name":"Uncletopia | Warsaw | 6 | Community","name_short":"waw-6","host":"waw-1.pl.uncletopia.com","port":27065,"enabled":true,"region":"eu","cc":"pl","latitude":52.2297,"longitude":21.017532,"reserved":0,"last_update":"0001-01-01T00:00:00Z","name_a2s":"Uncletopia | Warsaw | 6 | Community","protocol":17,"map":"workshop/cp_caldera_rc2.ugc2834196889","folder":"tf","game":"Team Fortress","app_id":440,"player_count":0,"max_players":24,"Bots":0,"server_type":"Dedicated","server_os":"Linux","password":true,"vac":true,"version":"7757534","steam_id":85568392925397856,"keywords":["cp","nocrits","nodmgspread","uncletopia"],"game_id":440,"stv_port":27066,"stv_name":"Uncletopia | Warsaw | 6 | Community | STV","players":null}]}