{"status":true,"message":"","result":[{"server_id":9,"name":"Uncletopia | Atlanta | 1 | All Maps","name_short":"atl-1","host":"atl-1.us.uncletopia.com","port":27015,"enabled":true,"region":"us-east","cc":"us","latitude":33.753746,"longitude":-84.38633,"reserved":0,"last_update":"0001-01-01T00:00:00Z","name_a2s":"Uncletopia | Atlanta | 1 | All Maps","protocol":17,"map":"cp_steel","folder":"tf","game":"Team Fortress","app_id":440,"player_count":24,"max_players":24,"Bots":0,"server_type":"Dedicated","server_os":"Linux","password":true,"vac":true,"version":"7961495","steam_id":85568392924469982,"keywords":["cp","nocrits","nodmgspread","uncletopia"],"game_id":440,"stv_port":27016,"stv_name":"Uncletopia | Atlanta | 1 | All Maps | STV","players":[{"user_id":88,"name":"Just PYE","steam_id":76561199439622967,"connected_time":967000000000,"state":"active","ping":79},{"user_id":84,"name":"Intro Bonito","steam_id":76561198119478838,"connected_time":1581000000000,"state":"active","ping":45},{"user_id":32,"name":"Le4n!!!","steam_id":76561198045522596,"connected_time":6320000000000,"state":"active","ping":69},{"user_id":82,"name":"kite","steam_id":76561198346516392,"connected_time":2106000000000,"state":"active","ping":82},{"user_id":69,"name":"why","steam_id":76561199059732212,"connected_time":4178000000000,"state":"active","ping":46},{"user_id":89,"name":"GUTTERBALL","steam_id":76561198927517471,"connected_time":864000000000,"state":"active","ping":61},{"user_id":94,"name":"Sicko Mode (Chris Pratt Cover)","steam_id":76561198315786174,"connected_time":538000000000,"state":"active","ping":81},{"user_id":71,"name":"b4nny sewer spot on process","steam_id":76561198982810452,"connected_time":4145000000000,"state":"active","ping":81},{"user_id":97,"name":"paint pig","steam_id":76561198024817457,"connected_time":77000000000,"state":"active","ping":64},{"user_id":83,"name":"BeastRyder","steam_id":76561198330281584,"connected_time":1968000000000,"state":"active","ping":88},{"user_id":92,"name":"Trapilicious","steam_id":76561198061430457,"connected_time":636000000000,"state":"active","ping":75},{"user_id":50,"name":"gretchling","steam_id":76561198046111695,"connected_time":5514000000000,"state":"active","ping":63},{"user_id":74,"name":"Lolxdloldx","steam_id":76561198136887125,"connected_time":3254000000000,"state":"active","ping":104},{"user_id":72,"name":"CRWND","steam_id":76561198329810027,"connected_time":4096000000000,"state":"active","ping":153},{"user_id":46,"name":"marisa kirisame","steam_id":76561198070327681,"connected_time":5719000000000,"state":"active","ping":76},{"user_id":91,"name":"Rat","steam_id":76561198137925582,"connected_time":810000000000,"state":"active","ping":61},{"user_id":93,"name":"Coup de Grass","steam_id":76561198011643226,"connected_time":595000000000,"state":"active","ping":75},{"user_id":87,"name":"Twa","steam_id":76561198295529541,"connected_time":1372000000000,"state":"active","ping":73},{"user_id":54,"name":"twitch.tv/axities","steam_id":76561198278008225,"connected_time":5360000000000,"state":"active","ping":73},{"user_id":55,"name":"shnowshner","steam_id":76561198066450438,"connected_time":5349000000000,"state":"active","ping":87},{"user_id":80,"name":"hi","steam_id":76561198809577048,"connected_time":2625000000000,"state":"active","ping":103},{"user_id":57,"name":"Overduecat","steam_id":76561198092452824,"connected_time":5334000000000,"state":"active","ping":86},{"user_id":61,"name":"Nescio","steam_id":76561198119526760,"connected_time":5238000000000,"state":"active","ping":76}]},{"server_id":104,"name":"Uncletopia | Atlanta | 2 | All Maps","name_short":"atl-2","host":"atl-1.us.uncletopia.com","port":27025,"enabled":true,"region":"us-east","cc":"us","latitude":33.753746,"longitude":-84.38633,"reserved":0,"last_update":"0001-01-01T00:00:00Z","name_a2s":"Uncletopia | Atlanta | 2 | All Maps","protocol":17,"map":"koth_cascade","folder":"tf","game":"Team Fortress","app_id":440,"player_count":0,"max_players":24,"Bots":0,"server_type":"Dedicated","server_os":"Linux","password":true,"vac":true,"version":"7961495","steam_id":85568392924469983,"keywords":["cp","nocrits","nodmgspread","uncletopia"],"game_id":440,"stv_port":27026,"stv_name":"Uncletopia | Atlanta | 2 | All Maps | STV","players":null},{"server_id":400,"name":"Uncletopia | Atlanta | 3 | Stopwatch","name_short":"atl-3","host":"atl-1.us.uncletopia.com","port":27035,"enabled":true,"region":"us-east","cc":"us","latitude":33.753746,"longitude":-84.38633,"reserved":0,"last_update":"0001-01-01T00:00:00Z","name_a2s":"Uncletopia | Atlanta | 3 | Stopwatch","protocol":17,"map":"pl_upward","folder":"tf","game":"Team Fortress","app_id":440,"player_count":0,"max_players":24,"Bots":0,"server_type":"Dedicated","server_os":"Linux","password":true,"vac":true,"version":"7961495","steam_id":85568392924515187,"keywords":["nocrits","nodmgspread","payload","uncletopia"],"game_id":440,"stv_port":27036,"stv_name":"Uncletopia | Atlanta | 3 | Stopwatch | STV","players":null},{"server_id":401,"name":"Uncletopia | Atlanta | 4 | Community","name_short":"atl-4","host":"atl-1.us.uncletopia.com","port":27045,"enabled":true,"region":"us-east","cc":"us","latitude":33.753746,"longitude":-84.38633,"reserved":0,"last_update":"0001-01-01T00:00:00Z","name_a2s":"Uncletopia | Atlanta | 4 | Community","protocol":17,"map":"workshop/koth_product_final.ugc454272353","folder":"tf","game":"Team Fortress","app_id":440,"player_count":0,"max_players":24,"Bots":0,"server_type":"Dedicated","server_os":"Linux","password":true,"vac":true,"version":"7961495","steam_id":85568392924515188,"keywords":["cp","nocrits","nodmgspread","uncletopia"],"game_id":440,"stv_port":27046,"stv_name":"Uncletopia | Atlanta | 4 | Community | STV","players":null},{"server_id":2,"name":"Uncletopia | Chicago | 1 | All Maps","name_short":"chi-1","host":"chi-1.us.uncletopia.com","port":27015,"enabled":true,"region":"us-central","cc":"us","latitude":41.881832,"longitude":-87.62318,"reserved":0,"last_update":"0001-01-01T00:00:00Z","name_a2s":"Uncletopia | Chicago | 1 | All Maps","protocol":17,"map":"cp_metalworks","folder":"tf","game":"Team Fortress","app_id":440,"player_count":24,"max_players":24,"Bots":0,"server_type":"Dedicated","server_os":"Linux","password":true,"vac":true,"version":"7961495","steam_id":85568392924469984,"keywords":["cp","nocrits","nodmgspread","uncletopia"],"game_id":440,"stv_port":27016,"stv_name":"Uncletopia | Chicago | 1 | All Maps | STV","players":[{"user_id":227,"name":"ุ","steam_id":76561198170624701,"connected_time":1081000000000,"state":"active","ping":70},{"user_id":143,"name":"im from tha mud","steam_id":76561198142756572,"connected_time":8410000000000,"state":"active","ping":69},{"user_id":199,"name":"suicide enjoyer","steam_id":76561198057076267,"connected_time":3701000000000,"state":"active","ping":74},{"user_id":179,"name":"Amari","steam_id":76561198272446730,"connected_time":5217000000000,"state":"active","ping":53},{"user_id":176,"name":"4 life","steam_id":76561198175961598,"connected_time":5442000000000,"state":"active","ping":111},{"user_id":238,"name":"otwtomarsoffdabars(spacecore)","steam_id":76561199085974120,"connected_time":282000000000,"state":"active","ping":74},{"user_id":229,"name":"(She/Her)ChaméniTheá","steam_id":76561198114244051,"connected_time":1058000000000,"state":"active","ping":84},{"user_id":222,"name":"Op banana","steam_id":76561198303231451,"connected_time":1471000000000,"state":"active","ping":68},{"user_id":214,"name":"Snom","steam_id":76561198333827920,"connected_time":2108000000000,"state":"active","ping":100},{"user_id":226,"name":"ED","steam_id":76561198441715445,"connected_time":1120000000000,"state":"active","ping":78},{"user_id":230,"name":"Chirp","steam_id":76561198240780230,"connected_time":1043000000000,"state":"active","ping":93},{"user_id":241,"name":"shalankawanak","steam_id":76561198987719376,"connected_time":38000000000,"state":"active","ping":51},{"user_id":234,"name":"Tri-Dot","steam_id":76561199075186597,"connected_time":831000000000,"state":"active","ping":66},{"user_id":196,"name":"Mr. Luggy","steam_id":76561198072723392,"connected_time":3818000000000,"state":"active","ping":90},{"user_id":231,"name":"H3CTiC_BRUiN","steam_id":76561197989221671,"connected_time":1039000000000,"state":"active","ping":111},{"user_id":168,"name":"mr, mean","steam_id":76561198095048900,"connected_time":6156000000000,"state":"active","ping":50},{"user_id":131,"name":"Coke Himmy","steam_id":76561198397459211,"connected_time":9093000000000,"state":"active","ping":80},{"user_id":177,"name":"gulch","steam_id":76561199227946025,"connected_time":5431000000000,"state":"active","ping":72},{"user_id":225,"name":"TheGreythreat","steam_id":76561198021995538,"connected_time":1315000000000,"state":"active","ping":61},{"user_id":235,"name":"MeatShield 2000","steam_id":76561199375192850,"connected_time":737000000000,"state":"active","ping":86},{"user_id":232,"name":"Invis","steam_id":76561198084260431,"connected_time":1000000000000,"state":"active","ping":80},{"user_id":236,"name":"Rocko","steam_id":76561198088283800,"connected_time":487000000000,"state":"active","ping":49},{"user_id":233,"name":"qory","steam_id":76561198152064890,"connected_time":998000000000,"state":"active","ping":47},{"user_id":237,"name":"poorman #1 sniper","steam_id":76561198447884169,"connected_time":451000000000,"state":"active","ping":50}]},{"server_id":106,"name":"Uncletopia | Chicago | 2 | All Maps","name_short":"chi-2","host":"chi-1.us.uncletopia.com","port":27025,"enabled":true,"region":"us-central","cc":"us","latitude":41.881832,"longitude":-87.62318,"reserved":0,"last_update":"0001-01-01T00:00:00Z","name_a2s":"Uncletopia | Chicago | 2 | All Maps","protocol":17,"map":"cp_dustbowl","folder":"tf","game":"Team Fortress","app_id":440,"player_count":24,"max_players":24,"Bots":0,"server_type":"Dedicated","server_os":"Linux","password":true,"vac":true,"version":"7961495","steam_id":85568392924469985,"keywords":["cp","nocrits","nodmgspread","uncletopia"],"game_id":440,"stv_port":27026,"stv_name":"Uncletopia | Chicago | 2 | All Maps | STV","players":[{"user_id":48,"name":"6 feet deep like skeletons","steam_id":76561198138221795,"connected_time":6356000000000,"state":"active","ping":75},{"user_id":106,"name":"darkelaine227","steam_id":76561198097330521,"connected_time":876000000000,"state":"active","ping":155},{"user_id":119,"name":"Eden","steam_id":76561198081284664,"connected_time":4000000000,"state":"spawning","ping":104},{"user_id":99,"name":"FlamingManiac","steam_id":76561198361996837,"connected_time":1707000000000,"state":"active","ping":80},{"user_id":108,"name":"Ginger Jesus","steam_id":76561198052386458,"connected_time":756000000000,"state":"active","ping":60},{"user_id":9,"name":"DivineBanana","steam_id":76561198026529731,"connected_time":8616000000000,"state":"active","ping":90},{"user_id":109,"name":"adam0o0","steam_id":76561198052250279,"connected_time":638000000000,"state":"active","ping":75},{"user_id":17,"name":"Luxembird","steam_id":76561198079992107,"connected_time":8067000000000,"state":"active","ping":96},{"user_id":118,"name":"metal pipe","steam_id":76561198849461209,"connected_time":57000000000,"state":"spawning","ping":52},{"user_id":116,"name":"Granola","steam_id":76561198312513800,"connected_time":317000000000,"state":"active","ping":44},{"user_id":73,"name":"peachy","steam_id":76561198028721790,"connected_time":3575000000000,"state":"active","ping":90},{"user_id":100,"name":"VerrucktMedic","steam_id":76561198093144226,"connected_time":1616000000000,"state":"active","ping":93},{"user_id":111,"name":"smokecloud","steam_id":76561198136296903,"connected_time":576000000000,"state":"active","ping":82},{"user_id":96,"name":"Bim","steam_id":76561198155979811,"connected_time":1909000000000,"state":"active","ping":76},{"user_id":102,"name":"Comic","steam_id":76561198391882145,"connected_time":1216000000000,"state":"active","ping":40},{"user_id":113,"name":"Daksuki","steam_id":76561198084127751,"connected_time":548000000000,"state":"active","ping":81},{"user_id":114,"name":"1-800-GHOST-DANCE","steam_id":76561198835430429,"connected_time":522000000000,"state":"active","ping":97},{"user_id":115,"name":"Jerry","steam_id":76561198253546017,"connected_time":477000000000,"state":"active","ping":61},{"user_id":80,"name":"brotherinchrist","steam_id":76561198208369443,"connected_time":2886000000000,"state":"active","ping":56},{"user_id":95,"name":"Couldron","steam_id":76561198242842394,"connected_time":1962000000000,"state":"active","ping":75},{"user_id":97,"name":"Draconic Ballad","steam_id":76561198027191515,"connected_time":1854000000000,"state":"active","ping":56},{"user_id":117,"name":"yomommasabitch","steam_id":76561198323217150,"connected_time":78000000000,"state":"active","ping":60},{"user_id":82,"name":"120 lahmacun","steam_id":76561198152818418,"connected_time":2637000000000,"state":"active","ping":87}]},{"server_id":402,"name":"Uncletopia | Chicago | 3 | All Maps","name_short":"chi-3","host":"chi-1.us.uncletopia.com","port":27035,"enabled":true,"region":"us-central","cc":"us","latitude":41.881832,"longitude":-87.62318,"reserved":0,"last_update":"0001-01-01T00:00:00Z","name_a2s":"Uncletopia | Chicago | 3 | All Maps","protocol":17,"map":"ctf_sawmill","folder":"tf","game":"Team Fortress","app_id":440,"player_count":23,"max_players":24,"Bots":0,"server_type":"Dedicated","server_os":"Linux","password":true,"vac":true,"version":"7961495","steam_id":85568392924515191,"keywords":["ctf","nocrits","nodmgspread","uncletopia"],"game_id":440,"stv_port":27036,"stv_name":"Uncletopia | Chicago | 3 | All Maps | STV","players":[{"user_id":24,"name":"Lord Commissar Drac","steam_id":76561198030371218,"connected_time":2582000000000,"state":"active","ping":144},{"user_id":11,"name":"[hoodie]","steam_id":76561198105408624,"connected_time":3974000000000,"state":"active","ping":119},{"user_id":30,"name":"Satori Komeiji","steam_id":76561198158211423,"connected_time":2211000000000,"state":"active","ping":102},{"user_id":62,"name":"motherofdragons96","steam_id":76561198864779097,"connected_time":341000000000,"state":"active","ping":104},{"user_id":31,"name":"Kng","steam_id":76561198993248203,"connected_time":2096000000000,"state":"active","ping":78},{"user_id":15,"name":"your moms car","steam_id":76561199389283507,"connected_time":3588000000000,"state":"active","ping":92},{"user_id":16,"name":"Coach McFish","steam_id":76561198210456405,"connected_time":3413000000000,"state":"active","ping":72},{"user_id":22,"name":"Arhard","steam_id":76561198883304912,"connected_time":2735000000000,"state":"active","ping":150},{"user_id":25,"name":"[NAME-REDACTED]","steam_id":76561198035682975,"connected_time":2557000000000,"state":"active","ping":69},{"user_id":59,"name":"Ganondorf","steam_id":76561198010421059,"connected_time":427000000000,"state":"active","ping":59},{"user_id":27,"name":"Open Mailbox","steam_id":76561198051933580,"connected_time":2398000000000,"state":"active","ping":82},{"user_id":63,"name":"THORNFIELDGAMER","steam_id":76561199087167473,"connected_time":170000000000,"state":"active","ping":88},{"user_id":64,"name":"Derplish","steam_id":76561198831714443,"connected_time":168000000000,"state":"active","ping":67},{"user_id":65,"name":"Violinja","steam_id":76561198324875899,"connected_time":154000000000,"state":"active","ping":51},{"user_id":66,"name":"Dark Karl","steam_id":76561198115714484,"connected_time":152000000000,"state":"active","ping":127},{"user_id":35,"name":"Raizen","steam_id":76561199092445367,"connected_time":1958000000000,"state":"active","ping":47},{"user_id":67,"name":"josh","steam_id":76561198111565081,"connected_time":89000000000,"state":"active","ping":109},{"user_id":68,"name":"Blitzoetic","steam_id":76561198053239412,"connected_time":61000000000,"state":"active","ping":103},{"user_id":69,"name":"LeBron James from Multiversus\ufffd\ufffd","steam_id":76561198316060646,"connected_time":51000000000,"state":"active","ping":121},{"user_id":70,"name":"the big m","steam_id":76561198114001368,"connected_time":14000000000,"state":"spawning","ping":70},{"user_id":57,"name":"Ten Sided Dice","steam_id":76561198401399747,"connected_time":681000000000,"state":"active","ping":64},{"user_id":41,"name":"Joebobio","steam_id":76561198024442760,"connected_time":1758000000000,"state":"active","ping":77},{"user_id":58,"name":"tek4","steam_id":76561198047399339,"connected_time":667000000000,"state":"active","ping":79}]},{"server_id":403,"name":"Uncletopia | Chicago | 4 | All Maps","name_short":"chi-4","host":"chi-1.us.uncletopia.com","port":27045,"enabled":true,"region":"us-central","cc":"us","latitude":41.881832,"longitude":-87.62318,"reserved":0,"last_update":"0001-01-01T00:00:00Z","name_a2s":"Uncletopia | Chicago | 4 | All Maps","protocol":17,"map":"koth_cascade","folder":"tf","game":"Team Fortress","app_id":440,"player_count":0,"max_players":24,"Bots":0,"server_type":"Dedicated","server_os":"Linux","password":true,"vac":true,"version":"7961495","steam_id":85568392924515193,"keywords":["cp","nocrits","nodmgspread","uncletopia"],"game_id":440,"stv_port":27046,"stv_name":"Uncletopia | Chicago | 4 | All Maps | STV","players":null},{"server_id":36,"name":"Uncletopia | Chicago | 5 | All Maps","name_short":"chi-5","host":"chi-2.us.uncletopia.com","port":27015,"enabled":true,"region":"us-central","cc":"us","latitude":41.881832,"longitude":-87.62318,"reserved":0,"last_update":"0001-01-01T00:00:00Z","name_a2s":"Uncletopia | Chicago | 5 | All Maps","protocol":17,"map":"koth_viaduct","folder":"tf","game":"Team Fortress","app_id":440,"player_count":0,"max_players":24,"Bots":0,"server_type":"Dedicated","server_os":"Linux","password":true,"vac":true,"version":"7961495","steam_id":85568392924866362,"keywords":["cp","nocrits","nodmgspread","uncletopia"],"game_id":440,"stv_port":27016,"stv_name":"Uncletopia | Chicago | 5 | All Maps | STV","players":null},{"server_id":37,"name":"Uncletopia | Chicago | 6 | All Maps","name_short":"chi-6","host":"chi-2.us.uncletopia.com","port":27025,"enabled":true,"region":"us-central","cc":"us","latitude":41.881832,"longitude":-87.62318,"reserved":0,"last_update":"0001-01-01T00:00:00Z","name_a2s":"Uncletopia | Chicago | 6 | All Maps","protocol":17,"map":"koth_highpass","folder":"tf","game":"Team Fortress","app_id":440,"player_count":0,"max_players":24,"Bots":0,"server_type":"Dedicated","server_os":"Linux","password":true,"vac":true,"version":"7961495","steam_id":85568392924866363,"keywords":["cp","nocrits","nodmgspread","uncletopia"],"game_id":440,"stv_port":27026,"stv_name":"Uncletopia | Chicago | 6 | All Maps | STV","players":null},{"server_id":38,"name":"Uncletopia | Chicago | 7 | Stopwatch","name_short":"chi-7","host":"chi-2.us.uncletopia.com","port":27035,"enabled":true,"region":"us-central","cc":"us","latitude":41.881832,"longitude":-87.62318,"reserved":0,"last_update":"0001-01-01T00:00:00Z","name_a2s":"Uncletopia | Chicago | 7 | Stopwatch","protocol":17,"map":"workshop/koth_product_final.ugc454272353","folder":"tf","game":"Team Fortress","app_id":440,"player_count":0,"max_players":24,"Bots":0,"server_type":"Dedicated","server_os":"Linux","password":true,"vac":true,"version":"7961495","steam_id":85568392924866364,"keywords":["cp","nocrits","nodmgspread","uncletopia"],"game_id":440,"stv_port":27036,"stv_name":"Uncletopia | Chicago | 7 | Stopwatch | STV","players":null},{"server_id":39,"name":"Uncletopia | Chicago | 8 | Community","name_short":"chi-8","host":"chi-2.us.uncletopia.com","port":27045,"enabled":true,"region":"us-central","cc":"us","latitude":41.881832,"longitude":-87.62318,"reserved":0,"last_update":"0001-01-01T00:00:00Z","name_a2s":"Uncletopia | Chicago | 8 | Community","protocol":17,"map":"pl_pier","folder":"tf","game":"Team Fortress","app_id":440,"player_count":0,"max_players":24,"Bots":0,"server_type":"Dedicated","server_os":"Linux","password":true,"vac":true,"version":"7961495","steam_id":85568392924866365,"keywords":["nocrits","nodmgspread","payload","uncletopia"],"game_id":440,"stv_port":27046,"stv_name":"Uncletopia | Chicago | 8 | Community | STV","players":null},{"server_id":8,"name":"Uncletopia | Dallas | 1 | All Maps","name_short":"dal-1","host":"dal-1.us.uncletopia.com","port":27015,"enabled":true,"region":"us-central","cc":"us","latitude":32.779167,"longitude":-96.80889,"reserved":0,"last_update":"0001-01-01T00:00:00Z","name_a2s":"Uncletopia | Dallas | 1 | All Maps","protocol":17,"map":"koth_highpass","folder":"tf","game":"Team Fortress","app_id":440,"player_count":0,"max_players":24,"Bots":0,"server_type":"Dedicated","server_os":"Linux","password":true,"vac":true,"version":"7961495","steam_id":85568392924469986,"keywords":["cp","nocrits","nodmgspread","uncletopia"],"game_id":440,"stv_port":27016,"stv_name":"Uncletopia | Dallas | 1 | All Maps | STV","players":null},{"server_id":108,"name":"Uncletopia | Dallas | 2 | All Maps","name_short":"dal-2","host":"dal-1.us.uncletopia.com","port":27025,"enabled":true,"region":"us-central","cc":"us","latitude":32.779167,"longitude":-96.80889,"reserved":0,"last_update":"0001-01-01T00:00:00Z","name_a2s":"Uncletopia | Dallas | 2 | All Maps","protocol":17,"map":"pl_badwater","folder":"tf","game":"Team Fortress","app_id":440,"player_count":24,"max_players":24,"Bots":0,"server_type":"Dedicated","server_os":"Linux","password":true,"vac":true,"version":"7961495","steam_id":85568392924469988,"keywords":["nocrits","nodmgspread","payload","uncletopia"],"game_id":440,"stv_port":27026,"stv_name":"Uncletopia | Dallas | 2 | All Maps | STV","players":[{"user_id":389,"name":"Female Gamer","steam_id":76561199366482682,"connected_time":176000000000,"state":"active","ping":114},{"user_id":390,"name":"firefly","steam_id":76561198151308698,"connected_time":173000000000,"state":"active","ping":45},{"user_id":364,"name":"Mixed Up","steam_id":76561198042570322,"connected_time":2089000000000,"state":"active","ping":78},{"user_id":387,"name":"Bankito","steam_id":76561198972260865,"connected_time":452000000000,"state":"active","ping":103},{"user_id":391,"name":"halo","steam_id":76561198311004039,"connected_time":141000000000,"state":"active","ping":90},{"user_id":373,"name":"Sunbather","steam_id":76561197967230865,"connected_time":1398000000000,"state":"active","ping":57},{"user_id":392,"name":"Freyja","steam_id":76561198207412177,"connected_time":135000000000,"state":"active","ping":72},{"user_id":346,"name":"Xbox 360","steam_id":76561198090419068,"connected_time":3147000000000,"state":"active","ping":120},{"user_id":380,"name":"'mungus","steam_id":76561198022358379,"connected_time":1124000000000,"state":"active","ping":75},{"user_id":393,"name":"Frank Horrigan","steam_id":76561198066504831,"connected_time":130000000000,"state":"active","ping":94},{"user_id":372,"name":"bottom pride burger","steam_id":76561198322247602,"connected_time":1545000000000,"state":"active","ping":91},{"user_id":355,"name":"Colossal Falafel","steam_id":76561198108086245,"connected_time":2891000000000,"state":"active","ping":84},{"user_id":371,"name":"Dr. Nerd","steam_id":76561198147068374,"connected_time":1655000000000,"state":"active","ping":61},{"user_id":326,"name":"hforce11","steam_id":76561198087647130,"connected_time":5084000000000,"state":"active","ping":68},{"user_id":279,"name":"Elias","steam_id":76561198106431732,"connected_time":9302000000000,"state":"active","ping":60},{"user_id":370,"name":"Rob","steam_id":76561199187786660,"connected_time":1727000000000,"state":"active","ping":55},{"user_id":360,"name":"Blippy","steam_id":76561198225904600,"connected_time":2497000000000,"state":"active","ping":60},{"user_id":305,"name":"mkl","steam_id":76561197986401685,"connected_time":6694000000000,"state":"active","ping":52},{"user_id":332,"name":"Doctor Emerald(Bison Emperor)","steam_id":76561199123003872,"connected_time":4757000000000,"state":"active","ping":86},{"user_id":377,"name":"Zee✞","steam_id":76561198274550638,"connected_time":1325000000000,"state":"active","ping":51},{"user_id":384,"name":"You Don't Nomi.","steam_id":76561197969137836,"connected_time":777000000000,"state":"active","ping":90},{"user_id":378,"name":"har hahj hhahha","steam_id":76561198050149667,"connected_time":1315000000000,"state":"active","ping":96},{"user_id":383,"name":"KaijuCowBelle","steam_id":76561198191619439,"connected_time":820000000000,"state":"active","ping":78},{"user_id":386,"name":"SmokeyGalaxy","steam_id":76561198118780516,"connected_time":674000000000,"state":"active","ping":61}]},{"server_id":404,"name":"Uncletopia | Dallas | 3 | All Maps","name_short":"dal-3","host":"dal-1.us.uncletopia.com","port":27035,"enabled":true,"region":"us-central","cc":"us","latitude":32.779167,"longitude":-96.80889,"reserved":0,"last_update":"0001-01-01T00:00:00Z","name_a2s":"Uncletopia | Dallas | 3 | All Maps","protocol":17,"map":"pl_upward","folder":"tf","game":"Team Fortress","app_id":440,"player_count":0,"max_players":24,"Bots":0,"server_type":"Dedicated","server_os":"Linux","password":true,"vac":true,"version":"7961495","steam_id":85568392924515219,"keywords":["nocrits","nodmgspread","payload","uncletopia"],"game_id":440,"stv_port":27036,"stv_name":"Uncletopia | Dallas | 3 | All Maps | STV","players":null},{"server_id":405,"name":"Uncletopia | Dallas | 4 | Community","name_short":"dal-4","host":"dal-1.us.uncletopia.com","port":27045,"enabled":true,"region":"us-central","cc":"us","latitude":32.779167,"longitude":-96.80889,"reserved":0,"last_update":"0001-01-01T00:00:00Z","name_a2s":"Uncletopia | Dallas | 4 | Community","protocol":17,"map":"pl_pier","folder":"tf","game":"Team Fortress","app_id":440,"player_count":0,"max_players":24,"Bots":0,"server_type":"Dedicated","server_os":"Linux","password":true,"vac":true,"version":"7961495","steam_id":85568392924515220,"keywords":["nocrits","nodmgspread","payload","uncletopia"],"game_id":440,"stv_port":27046,"stv_name":"Uncletopia | Dallas | 4 | Community | STV","players":null},{"server_id":5,"name":"Uncletopia | Frankfurt | 1 | All Maps","name_short":"frk-1","host":"frk-1.de.uncletopia.com","port":27015,"enabled":true,"region":"eu","cc":"de","latitude":50.110924,"longitude":8.682127,"reserved":0,"last_update":"0001-01-01T00:00:00Z","name_a2s":"Uncletopia | Frankfurt | 1 | All Maps","protocol":17,"map":"cp_process_final","folder":"tf","game":"Team Fortress","app_id":440,"player_count":24,"max_players":24,"Bots":0,"server_type":"Dedicated","server_os":"Linux","password":true,"vac":true,"version":"7961495","steam_id":85568392924469989,"keywords":["cp","nocrits","nodmgspread","uncletopia"],"game_id":440,"stv_port":27016,"stv_name":"Uncletopia | Frankfurt | 1 | All Maps | STV","players":[{"user_id":382,"name":"mr.bertik","steam_id":76561199090893519,"connected_time":1310000000000,"state":"active","ping":63},{"user_id":383,"name":"Bleach","steam_id":76561198310571129,"connected_time":1291000000000,"state":"active","ping":122},{"user_id":260,"name":"Random","steam_id":76561198291681674,"connected_time":11091000000000,"state":"active","ping":49},{"user_id":400,"name":"Udinese Dion","steam_id":76561198067931573,"connected_time":61000000000,"state":"active","ping":57},{"user_id":314,"name":"agent_richi","steam_id":76561199218542987,"connected_time":6371000000000,"state":"active","ping":53},{"user_id":385,"name":"kinimon","steam_id":76561198178453270,"connected_time":1246000000000,"state":"active","ping":58},{"user_id":375,"name":"dfcv rftgvb ghtb","steam_id":76561198397764042,"connected_time":2021000000000,"state":"active","ping":95},{"user_id":376,"name":"Pilaarius","steam_id":76561198120273212,"connected_time":2018000000000,"state":"active","ping":99},{"user_id":386,"name":"Woman (Real)","steam_id":76561199151823932,"connected_time":1209000000000,"state":"active","ping":77},{"user_id":365,"name":"D.T. Katze","steam_id":76561198002280813,"connected_time":3332000000000,"state":"active","ping":143},{"user_id":397,"name":"tenta brella-wielding octopus","steam_id":76561198837919828,"connected_time":788000000000,"state":"active","ping":92},{"user_id":379,"name":"xavier","steam_id":76561198076494034,"connected_time":1587000000000,"state":"active","ping":55},{"user_id":387,"name":"UnaSimpleBatata","steam_id":76561199008490451,"connected_time":1202000000000,"state":"active","ping":92},{"user_id":380,"name":"Bobirulez","steam_id":76561198009125458,"connected_time":1574000000000,"state":"active","ping":85},{"user_id":389,"name":"o_o","steam_id":76561198113045011,"connected_time":1075000000000,"state":"active","ping":90},{"user_id":377,"name":"Vershal Smershal","steam_id":76561198116223995,"connected_time":1984000000000,"state":"active","ping":59},{"user_id":398,"name":"Diggity","steam_id":76561198297157085,"connected_time":765000000000,"state":"active","ping":59},{"user_id":390,"name":"Richard_HUN","steam_id":76561198299050967,"connected_time":1029000000000,"state":"active","ping":91},{"user_id":394,"name":"Koomikko John","steam_id":76561198350647057,"connected_time":948000000000,"state":"active","ping":75},{"user_id":392,"name":"Michael","steam_id":76561198003146906,"connected_time":966000000000,"state":"active","ping":59},{"user_id":335,"name":"endlesshills","steam_id":76561198081908373,"connected_time":5583000000000,"state":"active","ping":56},{"user_id":393,"name":"Solymr ibn Wali Barad","steam_id":76561198044008976,"connected_time":963000000000,"state":"active","ping":76},{"user_id":395,"name":"cister0","steam_id":76561198130195469,"connected_time":896000000000,"state":"active","ping":72},{"user_id":399,"name":"джегеми хэпкингс","steam_id":76561198131531394,"connected_time":328000000000,"state":"active","ping":100}]},{"server_id":110,"name":"Uncletopia | Frankfurt | 2 | All Maps","name_short":"frk-2","host":"frk-1.de.uncletopia.com","port":27025,"enabled":true,"region":"eu","cc":"de","latitude":50.110924,"longitude":8.682127,"reserved":0,"last_update":"0001-01-01T00:00:00Z","name_a2s":"Uncletopia | Frankfurt | 2 | All Maps","protocol":17,"map":"cp_freight_final1","folder":"tf","game":"Team Fortress","app_id":440,"player_count":22,"max_players":24,"Bots":0,"server_type":"Dedicated","server_os":"Linux","password":true,"vac":true,"version":"7961495","steam_id":85568392924469990,"keywords":["cp","nocrits","nodmgspread","uncletopia"],"game_id":440,"stv_port":27026,"stv_name":"Uncletopia | Frankfurt | 2 | All Maps | STV","players":[{"user_id":206,"name":"Rock..","steam_id":76561198004641963,"connected_time":3171000000000,"state":"active","ping":80},{"user_id":259,"name":"XuMuK","steam_id":76561198102102340,"connected_time":295000000000,"state":"active","ping":75},{"user_id":264,"name":"Krabs","steam_id":76561198161679477,"connected_time":27000000000,"state":"active","ping":61},{"user_id":260,"name":"else1","steam_id":76561197996558319,"connected_time":262000000000,"state":"active","ping":75},{"user_id":265,"name":"soup","steam_id":76561198386933065,"connected_time":13000000000,"state":"active","ping":66},{"user_id":254,"name":"manure merchant","steam_id":76561198010109316,"connected_time":606000000000,"state":"active","ping":54},{"user_id":235,"name":"WrytXander","steam_id":76561198067856323,"connected_time":1353000000000,"state":"active","ping":75},{"user_id":266,"name":"o","steam_id":76561198066799770,"connected_time":3000000000,"state":"spawning","ping":59},{"user_id":246,"name":"\u003cCH\u003e λ T T O S Z","steam_id":76561198043438734,"connected_time":771000000000,"state":"active","ping":47},{"user_id":216,"name":"240km/h.PEEK Mizel","steam_id":76561199226604824,"connected_time":2343000000000,"state":"active","ping":93},{"user_id":221,"name":"Crol","steam_id":76561198158463173,"connected_time":2094000000000,"state":"active","ping":70},{"user_id":239,"name":"MUWEQ","steam_id":76561198107615727,"connected_time":1148000000000,"state":"active","ping":72},{"user_id":223,"name":"Dot","steam_id":76561198047299145,"connected_time":1780000000000,"state":"active","ping":75},{"user_id":219,"name":"engineer drip","steam_id":76561198991032570,"connected_time":2186000000000,"state":"active","ping":213},{"user_id":192,"name":"Team Fortress 2","steam_id":76561198190936635,"connected_time":4296000000000,"state":"active","ping":61},{"user_id":261,"name":"BIG SHOT","steam_id":76561198418020183,"connected_time":159000000000,"state":"active","ping":85},{"user_id":255,"name":"Fleak","steam_id":76561197998892190,"connected_time":552000000000,"state":"active","ping":54},{"user_id":256,"name":"Blad","steam_id":76561198866832210,"connected_time":539000000000,"state":"active","ping":72},{"user_id":262,"name":"Sp@ckoF@tzo","steam_id":76561198055438173,"connected_time":61000000000,"state":"active","ping":46},{"user_id":234,"name":"Weezbeck","steam_id":76561198163487467,"connected_time":1466000000000,"state":"active","ping":69},{"user_id":263,"name":"G-Man Follower","steam_id":76561199384234822,"connected_time":55000000000,"state":"active","ping":55},{"user_id":257,"name":"Ondřej ✌","steam_id":76561198115905637,"connected_time":405000000000,"state":"active","ping":57}]},{"server_id":308,"name":"Uncletopia | Frankfurt | 3 | All Maps","name_short":"frk-3","host":"frk-1.de.uncletopia.com","port":27035,"enabled":true,"region":"eu","cc":"de","latitude":50.110924,"longitude":8.682127,"reserved":0,"last_update":"0001-01-01T00:00:00Z","name_a2s":"Uncletopia | Frankfurt | 3 | All Maps","protocol":17,"map":"pl_barnblitz","folder":"tf","game":"Team Fortress","app_id":440,"player_count":24,"max_players":24,"Bots":0,"server_type":"Dedicated","server_os":"Linux","password":true,"vac":true,"version":"7961495","steam_id":85568392924504274,"keywords":["nocrits","nodmgspread","payload","uncletopia"],"game_id":440,"stv_port":27036,"stv_name":"Uncletopia | Frankfurt | 3 | All Maps | STV","players":[{"user_id":289,"name":"Tortgamer","steam_id":76561198423709756,"connected_time":2012000000000,"state":"active","ping":67},{"user_id":302,"name":"stonebum","steam_id":76561198057004606,"connected_time":733000000000,"state":"active","ping":58},{"user_id":285,"name":"Andy","steam_id":76561198136364381,"connected_time":2578000000000,"state":"active","ping":61},{"user_id":233,"name":"def","steam_id":76561198857396812,"connected_time":5389000000000,"state":"active","ping":47},{"user_id":291,"name":"myth_aaaaaaaaa","steam_id":76561199209322073,"connected_time":1761000000000,"state":"active","ping":66},{"user_id":304,"name":"Abyssion","steam_id":76561198040246963,"connected_time":712000000000,"state":"active","ping":48},{"user_id":276,"name":"s3rg_","steam_id":76561198024043213,"connected_time":2890000000000,"state":"active","ping":63},{"user_id":292,"name":"FoOzTV","steam_id":76561197998636728,"connected_time":1742000000000,"state":"active","ping":70},{"user_id":283,"name":"Dolcelatte","steam_id":76561198038501770,"connected_time":2669000000000,"state":"active","ping":51},{"user_id":299,"name":"Groovy","steam_id":76561198008354778,"connected_time":1161000000000,"state":"active","ping":52},{"user_id":307,"name":"Spicy raccon","steam_id":76561198408560636,"connected_time":483000000000,"state":"active","ping":73},{"user_id":293,"name":"Endi","steam_id":76561198914938199,"connected_time":1741000000000,"state":"active","ping":89},{"user_id":255,"name":"GONE, GONE / THANK YOU","steam_id":76561198257383813,"connected_time":4643000000000,"state":"active","ping":48},{"user_id":303,"name":"Birch","steam_id":76561197998712822,"connected_time":723000000000,"state":"active","ping":50},{"user_id":294,"name":"Frostbite","steam_id":76561198400194633,"connected_time":1737000000000,"state":"active","ping":88},{"user_id":308,"name":"please do not the cat","steam_id":76561198089003514,"connected_time":457000000000,"state":"active","ping":45},{"user_id":267,"name":"pepper","steam_id":76561198852650589,"connected_time":3953000000000,"state":"active","ping":85},{"user_id":301,"name":"pizzaboob","steam_id":76561198097507847,"connected_time":853000000000,"state":"active","ping":75},{"user_id":268,"name":"Swaggasouruss","steam_id":76561198285607649,"connected_time":3900000000000,"state":"active","ping":105},{"user_id":295,"name":"rev","steam_id":76561198134512931,"connected_time":1729000000000,"state":"active","ping":58},{"user_id":281,"name":"Apina Nautiskelija","steam_id":76561198391622919,"connected_time":2822000000000,"state":"active","ping":83},{"user_id":297,"name":"cazador","steam_id":76561198123096922,"connected_time":1274000000000,"state":"active","ping":93},{"user_id":238,"name":"Arsonist","steam_id":76561199087953833,"connected_time":5325000000000,"state":"active","ping":111},{"user_id":306,"name":"I jazzed myself","steam_id":76561198203016603,"connected_time":624000000000,"state":"active","ping":82}]},{"server_id":309,"name":"Uncletopia | Frankfurt | 4 | All Maps","name_short":"frk-4","host":"frk-1.de.uncletopia.com","port":27045,"enabled":true,"region":"eu","cc":"de","latitude":50.110924,"longitude":8.682127,"reserved":0,"last_update":"0001-01-01T00:00:00Z","name_a2s":"Uncletopia | Frankfurt | 4 | All Maps","protocol":17,"map":"pl_barnblitz","folder":"tf","game":"Team Fortress","app_id":440,"player_count":24,"max_players":24,"Bots":0,"server_type":"Dedicated","server_os":"Linux","password":true,"vac":true,"version":"7961495","steam_id":85568392924504275,"keywords":["nocrits","nodmgspread","payload","uncletopia"],"game_id":440,"stv_port":27046,"stv_name":"Uncletopia | Frankfurt | 4 | All Maps | STV","players":[{"user_id":486,"name":"Rez","steam_id":76561198410598772,"connected_time":337000000000,"state":"active","ping":45},{"user_id":473,"name":"-RRAZALAS","steam_id":76561198043604364,"connected_time":1134000000000,"state":"active","ping":60},{"user_id":455,"name":"Sakefake","steam_id":76561198029594679,"connected_time":2118000000000,"state":"active","ping":40},{"user_id":483,"name":"lil ramen","steam_id":76561199258887253,"connected_time":578000000000,"state":"active","ping":92},{"user_id":417,"name":"Carry Krypl","steam_id":76561198136938121,"connected_time":4410000000000,"state":"active","ping":53},{"user_id":487,"name":"q47tx","steam_id":76561199181333933,"connected_time":317000000000,"state":"active","ping":81},{"user_id":464,"name":"literallyjasonx","steam_id":76561198835895387,"connected_time":1708000000000,"state":"active","ping":68},{"user_id":475,"name":"dr_zee","steam_id":76561197995245562,"connected_time":987000000000,"state":"active","ping":74},{"user_id":484,"name":"NutSmasherKazimir87","steam_id":76561199116240875,"connected_time":453000000000,"state":"active","ping":83},{"user_id":480,"name":"kaiji_saleh","steam_id":76561199274325425,"connected_time":635000000000,"state":"active","ping":164},{"user_id":467,"name":"s a i","steam_id":76561197970379754,"connected_time":1536000000000,"state":"active","ping":49},{"user_id":432,"name":"Maxin","steam_id":76561197999923364,"connected_time":3030000000000,"state":"active","ping":64},{"user_id":354,"name":"Yelowchy","steam_id":76561198199416121,"connected_time":8505000000000,"state":"active","ping":62},{"user_id":496,"name":"Xenophon","steam_id":76561198158781327,"connected_time":96000000000,"state":"active","ping":63},{"user_id":459,"name":"Acanda","steam_id":76561198123246537,"connected_time":2063000000000,"state":"active","ping":56},{"user_id":466,"name":"Dude™","steam_id":76561198082099161,"connected_time":1646000000000,"state":"active","ping":79},{"user_id":485,"name":"Ott","steam_id":76561198276464481,"connected_time":435000000000,"state":"active","ping":62},{"user_id":413,"name":"Günther","steam_id":76561198333417038,"connected_time":4449000000000,"state":"active","ping":77},{"user_id":422,"name":"The Wolf Leader","steam_id":76561198038007462,"connected_time":4277000000000,"state":"active","ping":74},{"user_id":497,"name":"gpupdate","steam_id":76561198154677956,"connected_time":74000000000,"state":"active","ping":74},{"user_id":465,"name":"dirty rascal","steam_id":76561198000871038,"connected_time":1704000000000,"state":"active","ping":60},{"user_id":490,"name":"=PB=","steam_id":76561197999146612,"connected_time":278000000000,"state":"active","ping":60},{"user_id":472,"name":"I sell exotic parrots","steam_id":76561199192434258,"connected_time":1248000000000,"state":"active","ping":84},{"user_id":491,"name":"Armolitskiy","steam_id":76561198443646513,"connected_time":269000000000,"state":"active","ping":126}]},{"server_id":310,"name":"Uncletopia | Frankfurt | 5 | All Maps","name_short":"frk-5","host":"frk-1.de.uncletopia.com","port":27055,"enabled":true,"region":"eu","cc":"de","latitude":50.110924,"longitude":8.682127,"reserved":0,"last_update":"0001-01-01T00:00:00Z","name_a2s":"Uncletopia | Frankfurt | 5 | All Maps","protocol":17,"map":"cp_coldfront","folder":"tf","game":"Team Fortress","app_id":440,"player_count":24,"max_players":24,"Bots":0,"server_type":"Dedicated","server_os":"Linux","password":true,"vac":true,"version":"7961495","steam_id":85568392924504277,"keywords":["cp","nocrits","nodmgspread","uncletopia"],"game_id":440,"stv_port":27056,"stv_name":"Uncletopia | Frankfurt | 5 | All Maps | STV","players":[{"user_id":615,"name":"Remizer","steam_id":76561198799755616,"connected_time":149000000000,"state":"active","ping":66},{"user_id":613,"name":"Alcobra","steam_id":76561198134154962,"connected_time":189000000000,"state":"active","ping":99},{"user_id":603,"name":"Ala Pietrzak","steam_id":76561198304495111,"connected_time":966000000000,"state":"active","ping":77},{"user_id":616,"name":"EwyPig","steam_id":76561198104051370,"connected_time":110000000000,"state":"active","ping":70},{"user_id":577,"name":"milof","steam_id":76561198809199604,"connected_time":2204000000000,"state":"active","ping":82},{"user_id":605,"name":"SomeBody","steam_id":76561199072771199,"connected_time":869000000000,"state":"active","ping":101},{"user_id":591,"name":"why rum gone","steam_id":76561198158484784,"connected_time":1269000000000,"state":"active","ping":44},{"user_id":610,"name":"JeffsJeff","steam_id":76561198966358094,"connected_time":421000000000,"state":"active","ping":61},{"user_id":612,"name":"Snd","steam_id":76561198010816408,"connected_time":320000000000,"state":"active","ping":119},{"user_id":594,"name":"BigJessen","steam_id":76561198119503211,"connected_time":1227000000000,"state":"active","ping":59},{"user_id":614,"name":"Archive","steam_id":76561198071255385,"connected_time":176000000000,"state":"active","ping":96},{"user_id":602,"name":"Frostlight","steam_id":76561198016360449,"connected_time":1075000000000,"state":"active","ping":71},{"user_id":530,"name":"Asocial","steam_id":76561198328594578,"connected_time":6169000000000,"state":"active","ping":102},{"user_id":561,"name":"overman","steam_id":76561198038348301,"connected_time":3359000000000,"state":"active","ping":67},{"user_id":575,"name":"penis scout","steam_id":76561198371527078,"connected_time":2309000000000,"state":"active","ping":81},{"user_id":417,"name":"fifrok","steam_id":76561198799267621,"connected_time":14001000000000,"state":"active","ping":61},{"user_id":606,"name":"Jasu Juntti","steam_id":76561198133631796,"connected_time":828000000000,"state":"active","ping":62},{"user_id":607,"name":"Citromfa","steam_id":76561198427549600,"connected_time":823000000000,"state":"active","ping":70},{"user_id":609,"name":"☭King☭","steam_id":76561199214677088,"connected_time":464000000000,"state":"active","ping":68},{"user_id":587,"name":"Erection Man","steam_id":76561198021714542,"connected_time":1585000000000,"state":"active","ping":60},{"user_id":576,"name":"wut","steam_id":76561198111134021,"connected_time":2290000000000,"state":"active","ping":85},{"user_id":617,"name":"Carrot","steam_id":76561198119340863,"connected_time":98000000000,"state":"active","ping":46},{"user_id":608,"name":"bigeon","steam_id":76561198078601337,"connected_time":774000000000,"state":"active","ping":83},{"user_id":600,"name":"Donteventrip","steam_id":76561198195333099,"connected_time":1157000000000,"state":"active","ping":56}]},{"server_id":311,"name":"Uncletopia | Frankfurt | 6 | All Maps","name_short":"frk-6","host":"frk-1.de.uncletopia.com","port":27065,"enabled":true,"region":"eu","cc":"de","latitude":50.110924,"longitude":8.682127,"reserved":0,"last_update":"0001-01-01T00:00:00Z","name_a2s":"Uncletopia | Frankfurt | 6 | All Maps","protocol":17,"map":"pl_swiftwater_final1","folder":"tf","game":"Team Fortress","app_id":440,"player_count":24,"max_players":24,"Bots":0,"server_type":"Dedicated","server_os":"Linux","password":true,"vac":true,"version":"7961495","steam_id":85568392924504278,"keywords":["nocrits","nodmgspread","payload","uncletopia"],"game_id":440,"stv_port":27066,"stv_name":"Uncletopia | Frankfurt | 6 | All Maps | STV","players":[{"user_id":233,"name":"Prox","steam_id":76561198351490981,"connected_time":587000000000,"state":"active","ping":54},{"user_id":234,"name":"horizon","steam_id":76561198116559510,"connected_time":582000000000,"state":"active","ping":112},{"user_id":247,"name":"Stonks","steam_id":76561199023838850,"connected_time":151000000000,"state":"active","ping":71},{"user_id":188,"name":"Imperial City Guard","steam_id":76561198083355845,"connected_time":4277000000000,"state":"active","ping":53},{"user_id":229,"name":"SLOTHBAWZ69","steam_id":76561198306012967,"connected_time":750000000000,"state":"active","ping":77},{"user_id":243,"name":"lore","steam_id":76561198120984188,"connected_time":317000000000,"state":"active","ping":59},{"user_id":249,"name":"Sayu","steam_id":76561198395421637,"connected_time":83000000000,"state":"active","ping":55},{"user_id":245,"name":"Naty","steam_id":76561198083488307,"connected_time":231000000000,"state":"active","ping":67},{"user_id":204,"name":"Monkey","steam_id":76561199008411791,"connected_time":3611000000000,"state":"active","ping":57},{"user_id":246,"name":"Doctor Mobius","steam_id":76561197971281806,"connected_time":200000000000,"state":"active","ping":60},{"user_id":216,"name":"Life goes on","steam_id":76561198103978102,"connected_time":1940000000000,"state":"active","ping":82},{"user_id":232,"name":"Erdogames","steam_id":76561198959564055,"connected_time":675000000000,"state":"active","ping":86},{"user_id":206,"name":"lunchback of notre dame","steam_id":76561199136755064,"connected_time":3323000000000,"state":"active","ping":54},{"user_id":218,"name":"The☆Cops","steam_id":76561198146358073,"connected_time":1905000000000,"state":"active","ping":95},{"user_id":237,"name":"Sir Warock","steam_id":76561198180468693,"connected_time":566000000000,"state":"active","ping":86},{"user_id":227,"name":"Bill Clinton","steam_id":76561198060011032,"connected_time":1256000000000,"state":"active","ping":66},{"user_id":238,"name":"mesλ","steam_id":76561198324582918,"connected_time":532000000000,"state":"active","ping":104},{"user_id":248,"name":"Doritoshredder","steam_id":76561198826710752,"connected_time":139000000000,"state":"active","ping":117},{"user_id":239,"name":"Çodar","steam_id":76561198235518444,"connected_time":470000000000,"state":"active","ping":55},{"user_id":222,"name":"CaptiaNNooBS437","steam_id":76561198844010921,"connected_time":1829000000000,"state":"active","ping":69},{"user_id":225,"name":"confusion","steam_id":76561199199499453,"connected_time":1671000000000,"state":"active","ping":79},{"user_id":205,"name":"Donki Wonki","steam_id":76561198327761273,"connected_time":3590000000000,"state":"active","ping":79},{"user_id":184,"name":"mary","steam_id":76561198014828037,"connected_time":4715000000000,"state":"active","ping":63},{"user_id":240,"name":"SynthBox3","steam_id":76561199094075745,"connected_time":462000000000,"state":"active","ping":91}]},{"server_id":23,"name":"Uncletopia | Frankfurt | 7 | Stopwatch","name_short":"frk-7","host":"frk-1.de.uncletopia.com","port":27075,"enabled":true,"region":"eu","cc":"de","latitude":50.110924,"longitude":8.682127,"reserved":0,"last_update":"0001-01-01T00:00:00Z","name_a2s":"Uncletopia | Frankfurt | 7 | Stopwatch","protocol":17,"map":"workshop/pl_badwater_pro_v12.ugc2142942074","folder":"tf","game":"Team Fortress","app_id":440,"player_count":15,"max_players":24,"Bots":0,"server_type":"Dedicated","server_os":"Linux","password":true,"vac":true,"version":"7961495","steam_id":85568392924742827,"keywords":["nocrits","nodmgspread","payload","uncletopia"],"game_id":440,"stv_port":27076,"stv_name":"Uncletopia | Frankfurt | 7 | Stopwatch | STV","players":[{"user_id":127,"name":"Freddy Fazbear","steam_id":76561198299179114,"connected_time":18000000000,"state":"spawning","ping":113},{"user_id":84,"name":"F4.exe","steam_id":76561198278822807,"connected_time":2593000000000,"state":"active","ping":60},{"user_id":116,"name":"hey STUPID! I'm over here...","steam_id":76561198056388702,"connected_time":509000000000,"state":"active","ping":90},{"user_id":118,"name":"Silver_Fox","steam_id":76561198278363715,"connected_time":349000000000,"state":"active","ping":96},{"user_id":120,"name":"meatsoupcube","steam_id":76561198276802249,"connected_time":342000000000,"state":"active","ping":99},{"user_id":123,"name":"GigaСhad Pyro","steam_id":76561198140742485,"connected_time":227000000000,"state":"active","ping":99},{"user_id":122,"name":"Yuzu","steam_id":76561198121694613,"connected_time":228000000000,"state":"active","ping":47},{"user_id":125,"name":"mexykano","steam_id":76561198289506612,"connected_time":215000000000,"state":"active","ping":99},{"user_id":128,"name":"elmstJP ₪ F4.exe","steam_id":76561197997909480,"connected_time":15000000000,"state":"active","ping":65},{"user_id":124,"name":"JVLIVS","steam_id":76561198366167099,"connected_time":217000000000,"state":"active","ping":45},{"user_id":117,"name":"silicon based life form","steam_id":76561199127121346,"connected_time":504000000000,"state":"active","ping":73},{"user_id":106,"name":"Hamen","steam_id":76561198119965663,"connected_time":1032000000000,"state":"active","ping":81},{"user_id":108,"name":"ALCEST","steam_id":76561198066187028,"connected_time":1009000000000,"state":"active","ping":83},{"user_id":78,"name":"Memper","steam_id":76561198066700614,"connected_time":3068000000000,"state":"active","ping":81},{"user_id":90,"name":"Egor Pomidor","steam_id":76561199175688390,"connected_time":2179000000000,"state":"active","ping":74}]},{"server_id":24,"name":"Uncletopia | Frankfurt | 8 | Community","name_short":"frk-8","host":"frk-1.de.uncletopia.com","port":27085,"enabled":true,"region":"eu","cc":"de","latitude":50.110924,"longitude":8.682127,"reserved":0,"last_update":"0001-01-01T00:00:00Z","name_a2s":"Uncletopia | Frankfurt | 8 | Community","protocol":17,"map":"cp_mountainlab","folder":"tf","game":"Team Fortress","app_id":440,"player_count":0,"max_players":24,"Bots":0,"server_type":"Dedicated","server_os":"Linux","password":true,"vac":true,"version":"7961495","steam_id":85568392924742828,"keywords":["cp","nocrits","nodmgspread","uncletopia"],"game_id":440,"stv_port":27086,"stv_name":"Uncletopia | Frankfurt | 8 | Community | STV","players":null},{"server_id":202,"name":"Uncletopia | Hong Kong | 1 | All Maps","name_short":"hgk-1","host":"hgk-1.hk.uncletopia.com","port":27015,"enabled":true,"region":"asia","cc":"hk","latitude":22.302711,"longitude":114.177216,"reserved":0,"last_update":"0001-01-01T00:00:00Z","name_a2s":"Uncletopia | Hong Kong | 1 | All Maps","protocol":17,"map":"koth_lakeside_final","folder":"tf","game":"Team Fortress","app_id":440,"player_count":0,"max_players":24,"Bots":0,"server_type":"Dedicated","server_os":"Linux","password":true,"vac":true,"version":"7961495","steam_id":85568392924494504,"keywords":["cp","nocrits","nodmgspread","uncletopia"],"game_id":440,"stv_port":27016,"stv_name":"Uncletopia | Hong Kong | 1 | All Maps | STV","players":null},{"server_id":1,"name":"Uncletopia | Los Angeles | 1 | All Maps","name_short":"lax-1","host":"lax-1.us.uncletopia.com","port":27015,"enabled":true,"region":"us-west","cc":"us","latitude":33.94279,"longitude":-118.41004,"reserved":0,"last_update":"0001-01-01T00:00:00Z","name_a2s":"Uncletopia | Los Angeles | 1 | All Maps","protocol":17,"map":"pl_snowycoast","folder":"tf","game":"Team Fortress","app_id":440,"player_count":0,"max_players":24,"Bots":0,"server_type":"Dedicated","server_os":"Linux","password":true,"vac":true,"version":"7961495","steam_id":85568392924469991,"keywords":["nocrits","nodmgspread","payload","uncletopia"],"game_id":440,"stv_port":27016,"stv_name":"Uncletopia | Los Angeles | 1 | All Maps | STV","players":null},{"server_id":112,"name":"Uncletopia | Los Angeles | 2 | All Maps","name_short":"lax-2","host":"lax-1.us.uncletopia.com","port":27025,"enabled":true,"region":"us-west","cc":"us","latitude":33.94279,"longitude":-118.41004,"reserved":0,"last_update":"0001-01-01T00:00:00Z","name_a2s":"Uncletopia | Los Angeles | 2 | All Maps","protocol":17,"map":"pl_enclosure_final","folder":"tf","game":"Team Fortress","app_id":440,"player_count":24,"max_players":24,"Bots":0,"server_type":"Dedicated","server_os":"Linux","password":true,"vac":true,"version":"7961495","steam_id":85568392924469992,"keywords":["nocrits","nodmgspread","payload","uncletopia"],"game_id":440,"stv_port":27026,"stv_name":"Uncletopia | Los Angeles | 2 | All Maps | STV","players":[{"user_id":148,"name":"stir-fried human tonsils","steam_id":76561198312126442,"connected_time":2287000000000,"state":"active","ping":88},{"user_id":153,"name":"McSpazatron","steam_id":76561198955942148,"connected_time":1464000000000,"state":"active","ping":103},{"user_id":160,"name":"MithStyck","steam_id":76561198071538489,"connected_time":1141000000000,"state":"active","ping":74},{"user_id":100,"name":"ninja45","steam_id":76561198150619521,"connected_time":5870000000000,"state":"active","ping":81},{"user_id":161,"name":"Fred","steam_id":76561198042274397,"connected_time":1094000000000,"state":"active","ping":76},{"user_id":143,"name":"darren","steam_id":76561199050155136,"connected_time":3004000000000,"state":"active","ping":48},{"user_id":112,"name":"Boxcars","steam_id":76561198120978767,"connected_time":5358000000000,"state":"active","ping":53},{"user_id":147,"name":"Gordon Ramsay","steam_id":76561198123893900,"connected_time":2319000000000,"state":"active","ping":131},{"user_id":141,"name":"roach","steam_id":76561198354811369,"connected_time":3219000000000,"state":"active","ping":51},{"user_id":152,"name":"Gobb","steam_id":76561198028907283,"connected_time":1584000000000,"state":"active","ping":43},{"user_id":111,"name":"Indefiable","steam_id":76561198219238953,"connected_time":5480000000000,"state":"active","ping":64},{"user_id":159,"name":"Temujin","steam_id":76561198030936583,"connected_time":1185000000000,"state":"active","ping":104},{"user_id":128,"name":":)","steam_id":76561198982415497,"connected_time":4078000000000,"state":"active","ping":66},{"user_id":130,"name":"Youngblood5780","steam_id":76561198113934410,"connected_time":4073000000000,"state":"active","ping":62},{"user_id":98,"name":"wolf_71","steam_id":76561198963570945,"connected_time":6011000000000,"state":"active","ping":81},{"user_id":165,"name":"SpiritGaming4Life","steam_id":76561198799411351,"connected_time":200000000000,"state":"active","ping":77},{"user_id":78,"name":"KlassicLoL","steam_id":76561198081815303,"connected_time":6923000000000,"state":"active","ping":48},{"user_id":154,"name":"Thequirka","steam_id":76561198968058652,"connected_time":1442000000000,"state":"active","ping":74},{"user_id":164,"name":"noceof","steam_id":76561198043656816,"connected_time":534000000000,"state":"active","ping":168},{"user_id":103,"name":"Cael","steam_id":76561198136789464,"connected_time":5856000000000,"state":"active","ping":65},{"user_id":166,"name":"FI LO","steam_id":76561198976530881,"connected_time":87000000000,"state":"active","ping":40},{"user_id":108,"name":"Stilgar of Sietch Tabr","steam_id":76561198131567365,"connected_time":5646000000000,"state":"active","ping":71},{"user_id":138,"name":"Seshreb","steam_id":76561198846614634,"connected_time":3469000000000,"state":"active","ping":61}]},{"server_id":324,"name":"Uncletopia | Los Angeles | 3 | All Maps","name_short":"lax-3","host":"lax-1.us.uncletopia.com","port":27035,"enabled":true,"region":"us-west","cc":"us","latitude":33.94279,"longitude":-118.41004,"reserved":0,"last_update":"0001-01-01T00:00:00Z","name_a2s":"Uncletopia | Los Angeles | 3 | All Maps","protocol":17,"map":"pl_frontier_final","folder":"tf","game":"Team Fortress","app_id":440,"player_count":0,"max_players":24,"Bots":0,"server_type":"Dedicated","server_os":"Linux","password":true,"vac":true,"version":"7961495","steam_id":85568392924510198,"keywords":["nocrits","nodmgspread","payload","uncletopia"],"game_id":440,"stv_port":27036,"stv_name":"Uncletopia | Los Angeles | 3 | All Maps | STV","players":null},{"server_id":25,"name":"Uncletopia | Los Angeles | 4 | Stopwatch","name_short":"lax-4","host":"lax-1.us.uncletopia.com","port":27045,"enabled":true,"region":"us-west","cc":"us","latitude":33.94279,"longitude":-118.41004,"reserved":0,"last_update":"0001-01-01T00:00:00Z","name_a2s":"Uncletopia | Los Angeles | 4 | Stopwatch","protocol":17,"map":"pl_barnblitz","folder":"tf","game":"Team Fortress","app_id":440,"player_count":0,"max_players":24,"Bots":0,"server_type":"Dedicated","server_os":"Linux","password":true,"vac":true,"version":"7961495","steam_id":85568392924510199,"keywords":["nocrits","nodmgspread","payload","uncletopia"],"game_id":440,"stv_port":27046,"stv_name":"Uncletopia | Los Angeles | 4 | Stopwatch | STV","players":null},{"server_id":11,"name":"Uncletopia | London | 1 | All Maps","name_short":"lon-1","host":"lon-1.uk.uncletopia.com","port":27015,"enabled":true,"region":"eu","cc":"gb","latitude":51.509865,"longitude":-0.118092,"reserved":0,"last_update":"0001-01-01T00:00:00Z","name_a2s":"Uncletopia | London | 1 | All Maps","protocol":17,"map":"cp_steel","folder":"tf","game":"Team Fortress","app_id":440,"player_count":23,"max_players":24,"Bots":0,"server_type":"Dedicated","server_os":"Linux","password":true,"vac":true,"version":"7961495","steam_id":85568392924367362,"keywords":["cp","nocrits","nodmgspread","uncletopia"],"game_id":440,"stv_port":27016,"stv_name":"Uncletopia | London | 1 | All Maps | STV","players":[{"user_id":584,"name":"jimmy bob","steam_id":76561198319583692,"connected_time":1212000000000,"state":"active","ping":56},{"user_id":578,"name":"✪ Danny","steam_id":76561198104483241,"connected_time":1647000000000,"state":"active","ping":53},{"user_id":580,"name":"lepicah","steam_id":76561198797345502,"connected_time":1630000000000,"state":"active","ping":64},{"user_id":587,"name":"Croy","steam_id":76561197972552579,"connected_time":476000000000,"state":"active","ping":45},{"user_id":591,"name":"Soft And Fluffy Void","steam_id":76561198071355986,"connected_time":324000000000,"state":"active","ping":50},{"user_id":547,"name":"Lyra","steam_id":76561198043601838,"connected_time":3338000000000,"state":"active","ping":60},{"user_id":586,"name":"Shapeshifter","steam_id":76561198052898368,"connected_time":511000000000,"state":"active","ping":85},{"user_id":570,"name":"Margarito_snake","steam_id":76561198132001394,"connected_time":2276000000000,"state":"active","ping":117},{"user_id":588,"name":"i hack smart refrigerators","steam_id":76561199265289808,"connected_time":476000000000,"state":"active","ping":118},{"user_id":567,"name":"Sir Cauterize","steam_id":76561198047079422,"connected_time":2364000000000,"state":"active","ping":43},{"user_id":592,"name":"Nutty Dark^^","steam_id":76561198036241064,"connected_time":58000000000,"state":"active","ping":65},{"user_id":569,"name":"CrazyUranium417","steam_id":76561199500702290,"connected_time":2298000000000,"state":"active","ping":43},{"user_id":583,"name":"getpost","steam_id":76561198260064876,"connected_time":1582000000000,"state":"active","ping":96},{"user_id":571,"name":"VeLaVeN","steam_id":76561198120278081,"connected_time":2250000000000,"state":"active","ping":89},{"user_id":589,"name":"Sylvanas","steam_id":76561198154904165,"connected_time":476000000000,"state":"active","ping":107},{"user_id":568,"name":"Ynss","steam_id":76561198021472798,"connected_time":2335000000000,"state":"active","ping":56},{"user_id":527,"name":"map","steam_id":76561198370196400,"connected_time":5056000000000,"state":"active","ping":88},{"user_id":576,"name":"Birgit","steam_id":76561198257471705,"connected_time":1799000000000,"state":"active","ping":73},{"user_id":590,"name":"jermany (not jerma)","steam_id":76561198126599355,"connected_time":435000000000,"state":"active","ping":61},{"user_id":524,"name":"Clown :o)","steam_id":76561198074657015,"connected_time":5666000000000,"state":"active","ping":56},{"user_id":526,"name":"div1 campion","steam_id":76561198106049954,"connected_time":5176000000000,"state":"active","ping":80},{"user_id":539,"name":"Prime Minister Rishi Sunak","steam_id":76561198846784757,"connected_time":3495000000000,"state":"active","ping":59},{"user_id":554,"name":"hmscole09","steam_id":76561198811362788,"connected_time":3136000000000,"state":"active","ping":51}]},{"server_id":114,"name":"Uncletopia | London | 2 | All Maps","name_short":"lon-2","host":"lon-1.uk.uncletopia.com","port":27025,"enabled":true,"region":"eu","cc":"gb","latitude":51.509865,"longitude":-0.118092,"reserved":0,"last_update":"0001-01-01T00:00:00Z","name_a2s":"Uncletopia | London | 2 | All Maps","protocol":17,"map":"pl_snowycoast","folder":"tf","game":"Team Fortress","app_id":440,"player_count":24,"max_players":24,"Bots":0,"server_type":"Dedicated","server_os":"Linux","password":true,"vac":true,"version":"7961495","steam_id":85568392924470941,"keywords":["nocrits","nodmgspread","payload","uncletopia"],"game_id":440,"stv_port":27026,"stv_name":"Uncletopia | London | 2 | All Maps | STV","players":[{"user_id":566,"name":"Techm32","steam_id":76561198317134994,"connected_time":362000000000,"state":"active","ping":71},{"user_id":571,"name":"Nikola","steam_id":76561198368324940,"connected_time":223000000000,"state":"active","ping":93},{"user_id":560,"name":"Rad","steam_id":76561199001560866,"connected_time":487000000000,"state":"active","ping":76},{"user_id":548,"name":"2-D (secretly undercover)","steam_id":76561198287344223,"connected_time":878000000000,"state":"active","ping":92},{"user_id":503,"name":"ursus ludens","steam_id":76561198337150763,"connected_time":3869000000000,"state":"active","ping":49},{"user_id":572,"name":"Chillyroom","steam_id":76561198861912968,"connected_time":155000000000,"state":"active","ping":136},{"user_id":521,"name":"Mastenbier","steam_id":76561199067658590,"connected_time":2761000000000,"state":"active","ping":125},{"user_id":543,"name":"MrSoy","steam_id":76561198082960634,"connected_time":1361000000000,"state":"active","ping":66},{"user_id":562,"name":"Jeffrey Harpen","steam_id":76561199073314677,"connected_time":445000000000,"state":"active","ping":74},{"user_id":536,"name":"Swiss_Nostalgia","steam_id":76561199159896259,"connected_time":1711000000000,"state":"active","ping":69},{"user_id":563,"name":"Star in a pond","steam_id":76561198205501279,"connected_time":433000000000,"state":"active","ping":101},{"user_id":518,"name":"Gle_Dusse","steam_id":76561198344645844,"connected_time":3138000000000,"state":"active","ping":108},{"user_id":565,"name":"Zerfesh","steam_id":76561198117534358,"connected_time":401000000000,"state":"active","ping":93},{"user_id":558,"name":"bryophyta","steam_id":76561197968945306,"connected_time":536000000000,"state":"active","ping":69},{"user_id":549,"name":"Beanie","steam_id":76561198173882658,"connected_time":802000000000,"state":"active","ping":51},{"user_id":573,"name":"Meh Good Enough","steam_id":76561199012646173,"connected_time":148000000000,"state":"active","ping":75},{"user_id":550,"name":"skittish maiden","steam_id":76561198096856475,"connected_time":799000000000,"state":"active","ping":52},{"user_id":522,"name":"I Eamt Purbgeon","steam_id":76561198073769916,"connected_time":2589000000000,"state":"active","ping":60},{"user_id":568,"name":"IS3BITEL","steam_id":76561199178060325,"connected_time":358000000000,"state":"active","ping":76},{"user_id":569,"name":"Brem","steam_id":76561198202349485,"connected_time":335000000000,"state":"active","ping":68},{"user_id":552,"name":"asa004","steam_id":76561198160323444,"connected_time":779000000000,"state":"active","ping":110},{"user_id":498,"name":"Gir","steam_id":76561198075155374,"connected_time":4491000000000,"state":"active","ping":45},{"user_id":570,"name":"Ullr","steam_id":76561198140547483,"connected_time":333000000000,"state":"active","ping":41},{"user_id":516,"name":"AftiksPL","steam_id":76561198875182686,"connected_time":3587000000000,"state":"active","ping":108}]},{"server_id":320,"name":"Uncletopia | London | 3 | All Maps","name_short":"lon-3","host":"lon-1.uk.uncletopia.com","port":27035,"enabled":true,"region":"eu","cc":"gb","latitude":51.509865,"longitude":-0.118092,"reserved":0,"last_update":"0001-01-01T00:00:00Z","name_a2s":"Uncletopia | London | 3 | All Maps","protocol":17,"map":"pl_upward","folder":"tf","game":"Team Fortress","app_id":440,"player_count":24,"max_players":24,"Bots":0,"server_type":"Dedicated","server_os":"Linux","password":true,"vac":true,"version":"7961495","steam_id":85568392924510192,"keywords":["nocrits","nodmgspread","payload","uncletopia"],"game_id":440,"stv_port":27036,"stv_name":"Uncletopia | London | 3 | All Maps | STV","players":[{"user_id":424,"name":"Weakest Sniper Enjoyer","steam_id":76561198133597860,"connected_time":47000000000,"state":"active","ping":86},{"user_id":392,"name":"moglimbo","steam_id":76561198083937378,"connected_time":1371000000000,"state":"active","ping":49},{"user_id":420,"name":"Jonak","steam_id":76561198080832458,"connected_time":313000000000,"state":"active","ping":62},{"user_id":394,"name":"Bzd","steam_id":76561198204521956,"connected_time":1325000000000,"state":"active","ping":71},{"user_id":332,"name":"Reljadin","steam_id":76561198054997553,"connected_time":4907000000000,"state":"active","ping":84},{"user_id":423,"name":"AsianPersuasion","steam_id":76561198202112536,"connected_time":170000000000,"state":"active","ping":51},{"user_id":419,"name":"owl","steam_id":76561198229230864,"connected_time":396000000000,"state":"active","ping":90},{"user_id":425,"name":"Štěpán","steam_id":76561198275742101,"connected_time":32000000000,"state":"active","ping":60},{"user_id":400,"name":"100 hundred bucks","steam_id":76561198126896711,"connected_time":1087000000000,"state":"active","ping":95},{"user_id":409,"name":"Crew","steam_id":76561198207659821,"connected_time":800000000000,"state":"active","ping":59},{"user_id":385,"name":"123","steam_id":76561198087565575,"connected_time":1513000000000,"state":"active","ping":60},{"user_id":386,"name":"Jahlil D'armequanius Finglenut","steam_id":76561198855897385,"connected_time":1498000000000,"state":"active","ping":56},{"user_id":398,"name":"YARrICk.«+»","steam_id":76561197990126485,"connected_time":1217000000000,"state":"active","ping":58},{"user_id":396,"name":"Pixel-Jay","steam_id":76561198853840115,"connected_time":1301000000000,"state":"active","ping":60},{"user_id":426,"name":"sloppy transgirl toppy","steam_id":76561198057092208,"connected_time":32000000000,"state":"active","ping":66},{"user_id":388,"name":"WEEP","steam_id":76561199499933159,"connected_time":1427000000000,"state":"active","ping":66},{"user_id":422,"name":"Bobo","steam_id":76561198052308399,"connected_time":214000000000,"state":"active","ping":65},{"user_id":281,"name":"gamerkiddo","steam_id":76561198047380360,"connected_time":7347000000000,"state":"active","ping":45},{"user_id":427,"name":"KarlRanzeier","steam_id":76561198066281337,"connected_time":29000000000,"state":"active","ping":62},{"user_id":418,"name":"clunk","steam_id":76561198836460767,"connected_time":492000000000,"state":"active","ping":85},{"user_id":428,"name":"Spotmonkey","steam_id":76561198003994092,"connected_time":22000000000,"state":"spawning","ping":44},{"user_id":391,"name":"bowchika wowa #SlavaUkraine","steam_id":76561198159564550,"connected_time":1375000000000,"state":"active","ping":69},{"user_id":274,"name":"bitkomet","steam_id":76561198058232147,"connected_time":8003000000000,"state":"active","ping":77},{"user_id":429,"name":"marked for death","steam_id":76561198086304421,"connected_time":22000000000,"state":"active","ping":112}]},{"server_id":321,"name":"Uncletopia | London | 4 | All Maps","name_short":"lon-4","host":"lon-1.uk.uncletopia.com","port":27045,"enabled":true,"region":"eu","cc":"gb","latitude":51.509865,"longitude":-0.118092,"reserved":0,"last_update":"0001-01-01T00:00:00Z","name_a2s":"Uncletopia | London | 4 | All Maps","protocol":17,"map":"pl_badwater","folder":"tf","game":"Team Fortress","app_id":440,"player_count":24,"max_players":24,"Bots":0,"server_type":"Dedicated","server_os":"Linux","password":true,"vac":true,"version":"7961495","steam_id":85568392924510193,"keywords":["nocrits","nodmgspread","payload","uncletopia"],"game_id":440,"stv_port":27046,"stv_name":"Uncletopia | London | 4 | All Maps | STV","players":[{"user_id":189,"name":"puffy grapes","steam_id":76561198069649097,"connected_time":963000000000,"state":"active","ping":54},{"user_id":156,"name":"Calsim","steam_id":76561198164877219,"connected_time":3298000000000,"state":"active","ping":37},{"user_id":183,"name":"Delta Flowers ♡","steam_id":76561198434811706,"connected_time":1075000000000,"state":"active","ping":43},{"user_id":190,"name":"Big Squibbly","steam_id":76561198101451654,"connected_time":962000000000,"state":"active","ping":45},{"user_id":175,"name":"mohemmedmokhter2005","steam_id":76561199197650506,"connected_time":2421000000000,"state":"active","ping":104},{"user_id":184,"name":"night.s","steam_id":76561198326287823,"connected_time":1060000000000,"state":"active","ping":73},{"user_id":185,"name":"Fatmagic Mukbang ASMR","steam_id":76561198063492110,"connected_time":1055000000000,"state":"active","ping":83},{"user_id":171,"name":"TSx* Naxer","steam_id":76561198011986779,"connected_time":3012000000000,"state":"active","ping":73},{"user_id":186,"name":"Nurse Hanged","steam_id":76561198207533335,"connected_time":1015000000000,"state":"active","ping":47},{"user_id":159,"name":"azzy","steam_id":76561198061293740,"connected_time":3263000000000,"state":"active","ping":76},{"user_id":202,"name":"Seail_M","steam_id":76561198002405605,"connected_time":309000000000,"state":"active","ping":65},{"user_id":195,"name":"Tamer","steam_id":76561199101501051,"connected_time":847000000000,"state":"active","ping":67},{"user_id":192,"name":"Biggest birrrd","steam_id":76561198069066522,"connected_time":955000000000,"state":"active","ping":69},{"user_id":162,"name":"Wobblyboyz","steam_id":76561198289356209,"connected_time":3244000000000,"state":"active","ping":47},{"user_id":165,"name":"UltimateSlayer","steam_id":76561198384109309,"connected_time":3209000000000,"state":"active","ping":58},{"user_id":172,"name":"Fidacha","steam_id":76561198003060881,"connected_time":2951000000000,"state":"active","ping":66},{"user_id":204,"name":"NESS","steam_id":76561197995225318,"connected_time":261000000000,"state":"active","ping":46},{"user_id":197,"name":"Testy","steam_id":76561198169996602,"connected_time":617000000000,"state":"active","ping":55},{"user_id":173,"name":"snert","steam_id":76561198451550309,"connected_time":2932000000000,"state":"active","ping":45},{"user_id":169,"name":"TSx* Osa__PL","steam_id":76561198027016799,"connected_time":3174000000000,"state":"active","ping":76},{"user_id":180,"name":"just gamer gaming","steam_id":76561198053929269,"connected_time":1696000000000,"state":"active","ping":90},{"user_id":177,"name":"KermSlinger","steam_id":76561198854027069,"connected_time":2403000000000,"state":"active","ping":67},{"user_id":196,"name":"3.5 Mefedron Plug","steam_id":76561198969473168,"connected_time":704000000000,"state":"active","ping":100},{"user_id":201,"name":"cat81","steam_id":76561198399364104,"connected_time":373000000000,"state":"active","ping":80}]},{"server_id":21,"name":"Uncletopia | London | 5 | All Maps","name_short":"lon-5","host":"lon-1.uk.uncletopia.com","port":27055,"enabled":true,"region":"eu","cc":"gb","latitude":51.509865,"longitude":-0.118092,"reserved":0,"last_update":"0001-01-01T00:00:00Z","name_a2s":"Uncletopia | London | 5 | All Maps","protocol":17,"map":"pl_badwater","folder":"tf","game":"Team Fortress","app_id":440,"player_count":7,"max_players":24,"Bots":0,"server_type":"Dedicated","server_os":"Linux","password":true,"vac":true,"version":"7961495","steam_id":85568392924742829,"keywords":["nocrits","nodmgspread","payload","uncletopia"],"game_id":440,"stv_port":27056,"stv_name":"Uncletopia | London | 5 | All Maps | STV","players":[{"user_id":88,"name":"powerviolentjunglist","steam_id":76561198193802523,"connected_time":128000000000,"state":"active","ping":44},{"user_id":33,"name":"burritoeater","steam_id":76561199124197813,"connected_time":2969000000000,"state":"spawning","ping":65},{"user_id":87,"name":"splooncas","steam_id":76561199487485968,"connected_time":268000000000,"state":"active","ping":124},{"user_id":60,"name":"Blat","steam_id":76561199013233409,"connected_time":2112000000000,"state":"active","ping":55},{"user_id":59,"name":"Trans Femtress 2","steam_id":76561198014056212,"connected_time":2138000000000,"state":"spawning","ping":63},{"user_id":65,"name":"RLCrazyCat3","steam_id":76561197983757878,"connected_time":1648000000000,"state":"active","ping":90},{"user_id":81,"name":"dash.","steam_id":76561198084796149,"connected_time":560000000000,"state":"spawning","ping":46}]},{"server_id":22,"name":"Uncletopia | London | 6 | All Maps","name_short":"lon-6","host":"lon-1.uk.uncletopia.com","port":27065,"enabled":true,"region":"eu","cc":"gb","latitude":51.509865,"longitude":-0.118092,"reserved":0,"last_update":"0001-01-01T00:00:00Z","name_a2s":"Uncletopia | London | 6 | All Maps","protocol":17,"map":"cp_process_final","folder":"tf","game":"Team Fortress","app_id":440,"player_count":24,"max_players":24,"Bots":0,"server_type":"Dedicated","server_os":"Linux","password":true,"vac":true,"version":"7961495","steam_id":85568392924742830,"keywords":["cp","nocrits","nodmgspread","uncletopia"],"game_id":440,"stv_port":27066,"stv_name":"Uncletopia | London | 6 | All Maps | STV","players":[{"user_id":235,"name":"jacio","steam_id":76561199491964000,"connected_time":3329000000000,"state":"active","ping":56},{"user_id":227,"name":"Arecibo","steam_id":76561198014359615,"connected_time":3879000000000,"state":"active","ping":64},{"user_id":259,"name":"Bill_nye_epic","steam_id":76561199216249214,"connected_time":1442000000000,"state":"active","ping":148},{"user_id":278,"name":"johnkleiman","steam_id":76561198375607729,"connected_time":467000000000,"state":"active","ping":55},{"user_id":270,"name":"The Jukebox","steam_id":76561199439516375,"connected_time":707000000000,"state":"active","ping":85},{"user_id":282,"name":"Олексій | UA","steam_id":76561198802594676,"connected_time":133000000000,"state":"active","ping":150},{"user_id":267,"name":"The worst TF2 player","steam_id":76561199184873889,"connected_time":808000000000,"state":"active","ping":71},{"user_id":280,"name":"we do a little trolling","steam_id":76561198980165139,"connected_time":406000000000,"state":"active","ping":60},{"user_id":268,"name":"Dumk1dz","steam_id":76561199066954336,"connected_time":782000000000,"state":"active","ping":56},{"user_id":206,"name":"Colonel Dimanche","steam_id":76561197994792632,"connected_time":5590000000000,"state":"active","ping":55},{"user_id":236,"name":"yush","steam_id":76561198121688934,"connected_time":3321000000000,"state":"active","ping":76},{"user_id":237,"name":"Nag","steam_id":76561197970488206,"connected_time":3318000000000,"state":"active","ping":73},{"user_id":257,"name":"Noob_with_source","steam_id":76561198870362103,"connected_time":1815000000000,"state":"active","ping":60},{"user_id":151,"name":"Just Navlis","steam_id":76561198090479609,"connected_time":10605000000000,"state":"active","ping":60},{"user_id":258,"name":"Space Raccoon","steam_id":76561198038399662,"connected_time":1671000000000,"state":"active","ping":89},{"user_id":269,"name":"чачка пипсов","steam_id":76561198370603695,"connected_time":727000000000,"state":"active","ping":90},{"user_id":281,"name":"Cillian","steam_id":76561199471571148,"connected_time":168000000000,"state":"active","ping":73},{"user_id":272,"name":"lili's boy","steam_id":76561198162873354,"connected_time":699000000000,"state":"active","ping":106},{"user_id":265,"name":"Alpaca","steam_id":76561198029839079,"connected_time":928000000000,"state":"active","ping":49},{"user_id":283,"name":"Jack","steam_id":76561198209102833,"connected_time":130000000000,"state":"active","ping":51},{"user_id":279,"name":"keleos82","steam_id":76561198123916013,"connected_time":461000000000,"state":"active","ping":68},{"user_id":276,"name":"Futaro","steam_id":76561198084534929,"connected_time":583000000000,"state":"active","ping":45},{"user_id":234,"name":"Slowest hands in the west","steam_id":76561199286764992,"connected_time":3423000000000,"state":"active","ping":86},{"user_id":277,"name":"frosty","steam_id":76561198094560834,"connected_time":574000000000,"state":"active","ping":52}]},{"server_id":40,"name":"Uncletopia | London | 7 | Stopwatch","name_short":"lon-7","host":"lon-1.uk.uncletopia.com","port":27075,"enabled":true,"region":"eu","cc":"gb","latitude":51.509865,"longitude":-0.118092,"reserved":0,"last_update":"0001-01-01T00:00:00Z","name_a2s":"Uncletopia | London | 7 | Stopwatch","protocol":17,"map":"workshop/koth_product_final.ugc454272353","folder":"tf","game":"Team Fortress","app_id":440,"player_count":0,"max_players":24,"Bots":0,"server_type":"Dedicated","server_os":"Linux","password":true,"vac":true,"version":"7961495","steam_id":85568392924964314,"keywords":["cp","nocrits","nodmgspread","uncletopia"],"game_id":440,"stv_port":27076,"stv_name":"Uncletopia | London | 7 | Stopwatch | STV","players":null},{"server_id":41,"name":"Uncletopia | London | 8 | Community","name_short":"lon-8","host":"lon-1.uk.uncletopia.com","port":27085,"enabled":true,"region":"eu","cc":"gb","latitude":51.509865,"longitude":-0.118092,"reserved":0,"last_update":"0001-01-01T00:00:00Z","name_a2s":"Uncletopia | London | 8 | Community","protocol":17,"map":"workshop/koth_product_final.ugc454272353","folder":"tf","game":"Team Fortress","app_id":440,"player_count":0,"max_players":24,"Bots":0,"server_type":"Dedicated","server_os":"Linux","password":true,"vac":true,"version":"7961495","steam_id":85568392924964315,"keywords":["cp","nocrits","nodmgspread","uncletopia"],"game_id":440,"stv_port":27086,"stv_name":"Uncletopia | London | 8 | Community | STV","players":null},{"server_id":300,"name":"Uncletopia | Montréal | 1 | One Thousand Uncles","name_short":"mtl-1","host":"mtl-1.ca.uncletopia.com","port":27015,"enabled":true,"region":"us-east","cc":"ca","latitude":45.50889,"longitude":-73.56167,"reserved":0,"last_update":"0001-01-01T00:00:00Z","name_a2s":"","protocol":0,"map":"","folder":"","game":"","app_id":0,"player_count":0,"max_players":0,"Bots":0,"server_type":"","server_os":"","password":false,"vac":false,"version":"","steam_id":0,"keywords":null,"game_id":0,"stv_port":0,"stv_name":"","players":null},{"server_id":301,"name":"Uncletopia | Montréal | 2 | One Thousand Uncles","name_short":"mtl-2","host":"mtl-1.ca.uncletopia.com","port":27025,"enabled":true,"region":"us-east","cc":"ca","latitude":45.50889,"longitude":-73.56167,"reserved":0,"last_update":"0001-01-01T00:00:00Z","name_a2s":"","protocol":0,"map":"","folder":"","game":"","app_id":0,"player_count":0,"max_players":0,"Bots":0,"server_type":"","server_os":"","password":false,"vac":false,"version":"","steam_id":0,"keywords":null,"game_id":0,"stv_port":0,"stv_name":"","players":null},{"server_id":302,"name":"Uncletopia | Montréal | 3 | One Thousand Uncles","name_short":"mtl-3","host":"mtl-1.ca.uncletopia.com","port":27035,"enabled":true,"region":"us-east","cc":"ca","latitude":45.50889,"longitude":-73.56167,"reserved":0,"last_update":"0001-01-01T00:00:00Z","name_a2s":"","protocol":0,"map":"","folder":"","game":"","app_id":0,"player_count":2,"max_players":0,"Bots":0,"server_type":"","server_os":"","password":false,"vac":false,"version":"","steam_id":0,"keywords":null,"game_id":0,"stv_port":0,"stv_name":"","players":[{"user_id":22,"name":"✠✠killer174hun✠✠","steam_id":76561198210135897,"connected_time":2498000000000,"state":"active","ping":164},{"user_id":23,"name":"A Terrible Shot","steam_id":76561198045523833,"connected_time":1590000000000,"state":"active","ping":72}]},{"server_id":13,"name":"Uncletopia | New York City | 1 | All Maps","name_short":"nyc-1","host":"nyc-1.us.uncletopia.com","port":27015,"enabled":true,"region":"us-east","cc":"us","latitude":40.73061,"longitude":-73.93524,"reserved":0,"last_update":"0001-01-01T00:00:00Z","name_a2s":"Uncletopia | New York City | 1 | All Maps","protocol":17,"map":"cp_dustbowl","folder":"tf","game":"Team Fortress","app_id":440,"player_count":24,"max_players":24,"Bots":0,"server_type":"Dedicated","server_os":"Linux","password":true,"vac":true,"version":"7961495","steam_id":85568392924469993,"keywords":["cp","nocrits","nodmgspread","uncletopia"],"game_id":440,"stv_port":27016,"stv_name":"Uncletopia | New York City | 1 | All Maps | STV","players":[{"user_id":177,"name":"joachym","steam_id":76561198428579761,"connected_time":178000000000,"state":"active","ping":146},{"user_id":86,"name":"GigaSpin","steam_id":76561198083478846,"connected_time":7959000000000,"state":"active","ping":63},{"user_id":160,"name":"Larry","steam_id":76561198334604124,"connected_time":2782000000000,"state":"active","ping":64},{"user_id":147,"name":"Bald Vegeta","steam_id":76561198844143746,"connected_time":4035000000000,"state":"active","ping":74},{"user_id":174,"name":"🚽KorfJob🚽","steam_id":76561198212932833,"connected_time":460000000000,"state":"active","ping":174},{"user_id":144,"name":"Servaos","steam_id":76561198113244990,"connected_time":4257000000000,"state":"active","ping":69},{"user_id":172,"name":"GoldSpork","steam_id":76561198336784770,"connected_time":779000000000,"state":"active","ping":95},{"user_id":164,"name":"ThiccKingShadow","steam_id":76561198079588625,"connected_time":1659000000000,"state":"active","ping":147},{"user_id":151,"name":"4Lukaska","steam_id":76561198083515060,"connected_time":3764000000000,"state":"active","ping":38},{"user_id":170,"name":"FAKE TAXI PRANKS","steam_id":76561198136746987,"connected_time":1090000000000,"state":"active","ping":83},{"user_id":155,"name":"cl","steam_id":76561199436640904,"connected_time":3383000000000,"state":"active","ping":169},{"user_id":152,"name":"BORKA","steam_id":76561198135880720,"connected_time":3752000000000,"state":"active","ping":77},{"user_id":106,"name":"Congcrab","steam_id":76561198078687685,"connected_time":6871000000000,"state":"active","ping":92},{"user_id":175,"name":"Hertz","steam_id":76561198245322982,"connected_time":427000000000,"state":"active","ping":63},{"user_id":171,"name":"Fatass Hennessy Sargent","steam_id":76561198363267009,"connected_time":962000000000,"state":"active","ping":87},{"user_id":88,"name":"GummybearKillr","steam_id":76561198031235750,"connected_time":7926000000000,"state":"active","ping":59},{"user_id":166,"name":"Herdez Hot Salsa","steam_id":76561197991740906,"connected_time":1623000000000,"state":"active","ping":68},{"user_id":161,"name":"Fordring","steam_id":76561198141998973,"connected_time":2530000000000,"state":"active","ping":96},{"user_id":149,"name":"Aboxofjuice-jb","steam_id":76561198352129145,"connected_time":3888000000000,"state":"active","ping":43},{"user_id":163,"name":"Niλiwiλi, ▼iscount of ▼io","steam_id":76561198009193777,"connected_time":1918000000000,"state":"active","ping":55},{"user_id":68,"name":"Brawns","steam_id":76561198045190199,"connected_time":9992000000000,"state":"active","ping":59},{"user_id":138,"name":"custodian","steam_id":76561198058793778,"connected_time":4614000000000,"state":"active","ping":54},{"user_id":167,"name":"CartierYT","steam_id":76561199119485917,"connected_time":1592000000000,"state":"active","ping":46},{"user_id":169,"name":"GKumo","steam_id":76561198023175868,"connected_time":1270000000000,"state":"active","ping":115}]},{"server_id":14,"name":"Uncletopia | New York City | 2 | All Maps","name_short":"nyc-2","host":"nyc-1.us.uncletopia.com","port":27025,"enabled":true,"region":"us-east","cc":"us","latitude":40.73061,"longitude":-73.93524,"reserved":0,"last_update":"0001-01-01T00:00:00Z","name_a2s":"Uncletopia | New York City | 2 | All Maps","protocol":17,"map":"koth_cascade","folder":"tf","game":"Team Fortress","app_id":440,"player_count":19,"max_players":24,"Bots":0,"server_type":"Dedicated","server_os":"Linux","password":true,"vac":true,"version":"7961495","steam_id":85568392924469994,"keywords":["cp","nocrits","nodmgspread","uncletopia"],"game_id":440,"stv_port":27026,"stv_name":"Uncletopia | New York City | 2 | All Maps | STV","players":[{"user_id":72,"name":"Gibs Degrossi","steam_id":76561198066152609,"connected_time":268000000000,"state":"active","ping":66},{"user_id":74,"name":"thundah!","steam_id":76561199159928133,"connected_time":64000000000,"state":"active","ping":60},{"user_id":73,"name":"MoonlightDragon","steam_id":76561198124808865,"connected_time":236000000000,"state":"active","ping":75},{"user_id":75,"name":"Domswish","steam_id":76561198331444240,"connected_time":47000000000,"state":"active","ping":52},{"user_id":12,"name":"나무 먹는 사람","steam_id":76561198167893972,"connected_time":4727000000000,"state":"active","ping":69},{"user_id":45,"name":"MilkToast","steam_id":76561198167959226,"connected_time":2802000000000,"state":"active","ping":80},{"user_id":69,"name":"Wilfrey","steam_id":76561198050449386,"connected_time":463000000000,"state":"active","ping":86},{"user_id":70,"name":"JYNACCI","steam_id":76561198100942212,"connected_time":461000000000,"state":"active","ping":73},{"user_id":56,"name":"loscemo","steam_id":76561197994884609,"connected_time":1468000000000,"state":"active","ping":84},{"user_id":76,"name":"leumas","steam_id":76561198240408540,"connected_time":35000000000,"state":"active","ping":44},{"user_id":48,"name":"flappyflap2","steam_id":76561198285048973,"connected_time":2603000000000,"state":"active","ping":45},{"user_id":25,"name":"Drake the Pixel","steam_id":76561198131824401,"connected_time":3722000000000,"state":"active","ping":35},{"user_id":61,"name":"wool","steam_id":76561198869689933,"connected_time":1037000000000,"state":"active","ping":50},{"user_id":57,"name":"the pest","steam_id":76561198826298849,"connected_time":1250000000000,"state":"active","ping":85},{"user_id":67,"name":"Jim from Microsoft","steam_id":76561199107883083,"connected_time":598000000000,"state":"active","ping":86},{"user_id":35,"name":"BoxOfStaples","steam_id":76561198834773017,"connected_time":3436000000000,"state":"active","ping":89},{"user_id":36,"name":"big ol' buford","steam_id":76561198290675957,"connected_time":3396000000000,"state":"active","ping":72},{"user_id":40,"name":"GimliLOTR","steam_id":76561198163746000,"connected_time":3343000000000,"state":"active","ping":58},{"user_id":51,"name":"YourFriendJessie","steam_id":76561198176883097,"connected_time":1931000000000,"state":"active","ping":47}]},{"server_id":15,"name":"Uncletopia | New York City | 3 | Stopwatch","name_short":"nyc-3","host":"nyc-1.us.uncletopia.com","port":27035,"enabled":true,"region":"us-east","cc":"us","latitude":40.73061,"longitude":-73.93524,"reserved":0,"last_update":"0001-01-01T00:00:00Z","name_a2s":"Uncletopia | New York City | 3 | Stopwatch","protocol":17,"map":"workshop/pl_barnblitz_pro7.ugc582280235","folder":"tf","game":"Team Fortress","app_id":440,"player_count":0,"max_players":24,"Bots":0,"server_type":"Dedicated","server_os":"Linux","password":true,"vac":true,"version":"7961495","steam_id":85568392924742820,"keywords":["nocrits","nodmgspread","payload","uncletopia"],"game_id":440,"stv_port":27036,"stv_name":"Uncletopia | New York City | 3 | Stopwatch | STV","players":null},{"server_id":16,"name":"Uncletopia | New York City | 4 | Community","name_short":"nyc-4","host":"nyc-1.us.uncletopia.com","port":27045,"enabled":true,"region":"us-east","cc":"us","latitude":40.73061,"longitude":-73.93524,"reserved":0,"last_update":"0001-01-01T00:00:00Z","name_a2s":"Uncletopia | New York City | 4 | Community","protocol":17,"map":"workshop/cp_overgrown_rc8.ugc503939302","folder":"tf","game":"Team Fortress","app_id":440,"player_count":0,"max_players":24,"Bots":0,"server_type":"Dedicated","server_os":"Linux","password":true,"vac":true,"version":"7961495","steam_id":85568392924742821,"keywords":["cp","nocrits","nodmgspread","uncletopia"],"game_id":440,"stv_port":27046,"stv_name":"Uncletopia | New York City | 4 | Community | STV","players":null},{"server_id":142,"name":"Uncletopia | São Paulo | 1 | All Maps","name_short":"sao-1","host":"sao-1.br.uncletopia.com","port":27015,"enabled":true,"region":"sa","cc":"br","latitude":-23.533773,"longitude":-46.62529,"reserved":0,"last_update":"0001-01-01T00:00:00Z","name_a2s":"Uncletopia | São Paulo | 1 | All Maps","protocol":17,"map":"pl_frontier_final","folder":"tf","game":"Team Fortress","app_id":440,"player_count":0,"max_players":24,"Bots":0,"server_type":"Dedicated","server_os":"Linux","password":true,"vac":true,"version":"7961495","steam_id":85568392924469996,"keywords":["nocrits","nodmgspread","payload","uncletopia"],"game_id":440,"stv_port":27016,"stv_name":"Uncletopia | São Paulo | 1 | All Maps | STV","players":null},{"server_id":143,"name":"Uncletopia | São Paulo | 2 | Community","name_short":"sao-2","host":"sao-2.br.uncletopia.com","port":27015,"enabled":true,"region":"sa","cc":"br","latitude":-23.533773,"longitude":-46.62529,"reserved":0,"last_update":"0001-01-01T00:00:00Z","name_a2s":"Uncletopia | São Paulo | 2 | Community","protocol":17,"map":"workshop/pl_divulgence_b4b.ugc2884808746","folder":"tf","game":"Team Fortress","app_id":440,"player_count":0,"max_players":24,"Bots":0,"server_type":"Dedicated","server_os":"Linux","password":true,"vac":true,"version":"7961495","steam_id":85568392924485349,"keywords":["nocrits","nodmgspread","payload","uncletopia"],"game_id":440,"stv_port":27016,"stv_name":"Uncletopia | São Paulo | 2 | Community | STV","players":null},{"server_id":7,"name":"Uncletopia | Seattle | 1 | All Maps","name_short":"sea-1","host":"sea-1.us.uncletopia.com","port":27015,"enabled":true,"region":"us-west","cc":"us","latitude":47.608013,"longitude":-122.33517,"reserved":0,"last_update":"0001-01-01T00:00:00Z","name_a2s":"Uncletopia | Seattle | 1 | All Maps","protocol":17,"map":"koth_suijin","folder":"tf","game":"Team Fortress","app_id":440,"player_count":24,"max_players":24,"Bots":0,"server_type":"Dedicated","server_os":"Linux","password":true,"vac":true,"version":"7961495","steam_id":85568392924469997,"keywords":["cp","nocrits","nodmgspread","uncletopia"],"game_id":440,"stv_port":27016,"stv_name":"Uncletopia | Seattle | 1 | All Maps | STV","players":[{"user_id":17,"name":"Birdman743","steam_id":76561198799636748,"connected_time":3046000000000,"state":"active","ping":51},{"user_id":22,"name":"[Plotholers] 89 years old","steam_id":76561198036733863,"connected_time":1781000000000,"state":"active","ping":91},{"user_id":26,"name":"collector's pest","steam_id":76561198170402666,"connected_time":1395000000000,"state":"active","ping":70},{"user_id":30,"name":"NOM","steam_id":76561198362874591,"connected_time":1125000000000,"state":"active","ping":58},{"user_id":27,"name":"Kanye Asada","steam_id":76561198186678831,"connected_time":1335000000000,"state":"active","ping":89},{"user_id":33,"name":"UnforeseenCabbages","steam_id":76561198079386608,"connected_time":904000000000,"state":"active","ping":73},{"user_id":32,"name":"dox","steam_id":76561198838245430,"connected_time":1067000000000,"state":"active","ping":116},{"user_id":34,"name":"hovietchil","steam_id":76561198880622567,"connected_time":807000000000,"state":"active","ping":128},{"user_id":35,"name":"sleepy⊹","steam_id":76561199200969139,"connected_time":772000000000,"state":"active","ping":136},{"user_id":36,"name":"[Plotholers] odacovA","steam_id":76561199383345208,"connected_time":708000000000,"state":"active","ping":95},{"user_id":39,"name":"zinnk","steam_id":76561198092081825,"connected_time":536000000000,"state":"active","ping":60},{"user_id":38,"name":"Jeramosa","steam_id":76561198811000094,"connected_time":688000000000,"state":"active","ping":77},{"user_id":53,"name":"stealsurphone","steam_id":76561198353460257,"connected_time":158000000000,"state":"active","ping":58},{"user_id":41,"name":"coWolves","steam_id":76561198171921618,"connected_time":438000000000,"state":"active","ping":80},{"user_id":42,"name":"Blue Banana","steam_id":76561198100077411,"connected_time":429000000000,"state":"active","ping":75},{"user_id":49,"name":"EAT SPIT!","steam_id":76561198096836451,"connected_time":266000000000,"state":"active","ping":60},{"user_id":44,"name":"wile","steam_id":76561198125261443,"connected_time":384000000000,"state":"active","ping":66},{"user_id":45,"name":"🅜🅔🅔🅚🅢🅣🅔\ufffd\ufffd\ufffd","steam_id":76561197999748343,"connected_time":348000000000,"state":"active","ping":90},{"user_id":50,"name":"PageBoiSkull","steam_id":76561198237353578,"connected_time":247000000000,"state":"active","ping":68},{"user_id":47,"name":"Radpipe","steam_id":76561197987049964,"connected_time":310000000000,"state":"active","ping":115},{"user_id":48,"name":"Imitation Caucasian","steam_id":76561198320536166,"connected_time":307000000000,"state":"active","ping":87},{"user_id":52,"name":"cajun thotsauce","steam_id":76561198101636066,"connected_time":197000000000,"state":"active","ping":61},{"user_id":56,"name":"Kingced404","steam_id":76561198101051127,"connected_time":23000000000,"state":"active","ping":159},{"user_id":55,"name":"moe","steam_id":76561198929586245,"connected_time":107000000000,"state":"active","ping":72}]},{"server_id":119,"name":"Uncletopia | Seattle | 2 | All Maps","name_short":"sea-2","host":"sea-1.us.uncletopia.com","port":27025,"enabled":true,"region":"us-west","cc":"us","latitude":47.608013,"longitude":-122.33517,"reserved":0,"last_update":"0001-01-01T00:00:00Z","name_a2s":"Uncletopia | Seattle | 2 | All Maps","protocol":17,"map":"pl_frontier_final","folder":"tf","game":"Team Fortress","app_id":440,"player_count":0,"max_players":24,"Bots":0,"server_type":"Dedicated","server_os":"Linux","password":true,"vac":true,"version":"7961495","steam_id":85568392924469998,"keywords":["nocrits","nodmgspread","payload","uncletopia"],"game_id":440,"stv_port":27026,"stv_name":"Uncletopia | Seattle | 2 | All Maps | STV","players":null},{"server_id":406,"name":"Uncletopia | Seattle | 3 | Stopwatch","name_short":"sea-3","host":"sea-1.us.uncletopia.com","port":27035,"enabled":true,"region":"us-west","cc":"us","latitude":47.608013,"longitude":-122.33517,"reserved":0,"last_update":"0001-01-01T00:00:00Z","name_a2s":"Uncletopia | Seattle | 3 | Stopwatch","protocol":17,"map":"pl_upward","folder":"tf","game":"Team Fortress","app_id":440,"player_count":0,"max_players":24,"Bots":0,"server_type":"Dedicated","server_os":"Linux","password":true,"vac":true,"version":"7961495","steam_id":85568392924515217,"keywords":["nocrits","nodmgspread","payload","uncletopia"],"game_id":440,"stv_port":27036,"stv_name":"Uncletopia | Seattle | 3 | Stopwatch | STV","players":null},{"server_id":17,"name":"Uncletopia | San Francisco | 1 | All Maps","name_short":"sfo-1","host":"sfo-1.us.uncletopia.com","port":27015,"enabled":true,"region":"us-west","cc":"us","latitude":37.77397,"longitude":-122.4313,"reserved":0,"last_update":"0001-01-01T00:00:00Z","name_a2s":"Uncletopia | San Francisco | 1 | All Maps","protocol":17,"map":"koth_cascade","folder":"tf","game":"Team Fortress","app_id":440,"player_count":0,"max_players":24,"Bots":0,"server_type":"Dedicated","server_os":"Linux","password":true,"vac":true,"version":"7961495","steam_id":85568392924469999,"keywords":["cp","nocrits","nodmgspread","uncletopia"],"game_id":440,"stv_port":27016,"stv_name":"Uncletopia | San Francisco | 1 | All Maps | STV","players":null},{"server_id":18,"name":"Uncletopia | San Francisco | 2 | All Maps","name_short":"sfo-2","host":"sfo-1.us.uncletopia.com","port":27025,"enabled":true,"region":"us-west","cc":"us","latitude":37.77397,"longitude":-122.4313,"reserved":0,"last_update":"0001-01-01T00:00:00Z","name_a2s":"Uncletopia | San Francisco | 2 | All Maps","protocol":17,"map":"pl_frontier_final","folder":"tf","game":"Team Fortress","app_id":440,"player_count":0,"max_players":24,"Bots":0,"server_type":"Dedicated","server_os":"Linux","password":true,"vac":true,"version":"7961495","steam_id":85568392924470000,"keywords":["nocrits","nodmgspread","payload","uncletopia"],"game_id":440,"stv_port":27026,"stv_name":"Uncletopia | San Francisco | 2 | All Maps | STV","players":null},{"server_id":19,"name":"Uncletopia | San Francisco | 3 | Stopwatch","name_short":"sfo-3","host":"sfo-1.us.uncletopia.com","port":27035,"enabled":true,"region":"us-west","cc":"us","latitude":37.77397,"longitude":-122.4313,"reserved":0,"last_update":"0001-01-01T00:00:00Z","name_a2s":"Uncletopia | San Francisco | 3 | Stopwatch","protocol":17,"map":"pl_pier","folder":"tf","game":"Team Fortress","app_id":440,"player_count":0,"max_players":24,"Bots":0,"server_type":"Dedicated","server_os":"Linux","password":true,"vac":true,"version":"7961495","steam_id":85568392924742824,"keywords":["nocrits","nodmgspread","payload","uncletopia"],"game_id":440,"stv_port":27036,"stv_name":"Uncletopia | San Francisco | 3 | Stopwatch | STV","players":null},{"server_id":20,"name":"Uncletopia | San Francisco | 4 | Community","name_short":"sfo-4","host":"sfo-1.us.uncletopia.com","port":27045,"enabled":true,"region":"us-west","cc":"us","latitude":37.77397,"longitude":-122.4313,"reserved":0,"last_update":"0001-01-01T00:00:00Z","name_a2s":"Uncletopia | San Francisco | 4 | Community","protocol":17,"map":"pl_pier","folder":"tf","game":"Team Fortress","app_id":440,"player_count":0,"max_players":24,"Bots":0,"server_type":"Dedicated","server_os":"Linux","password":true,"vac":true,"version":"7961495","steam_id":85568392924742826,"keywords":["nocrits","nodmgspread","payload","uncletopia"],"game_id":440,"stv_port":27046,"stv_name":"Uncletopia | San Francisco | 4 | Community | STV","players":null},{"server_id":141,"name":"Uncletopia | Sydney | 1 | All Maps","name_short":"syd-1","host":"syd-1.au.uncletopia.com","port":27015,"enabled":true,"region":"au","cc":"au","latitude":-33.865143,"longitude":151.2099,"reserved":0,"last_update":"0001-01-01T00:00:00Z","name_a2s":"Uncletopia | Sydney | 1 | All Maps","protocol":17,"map":"pl_pier","folder":"tf","game":"Team Fortress","app_id":440,"player_count":0,"max_players":24,"Bots":0,"server_type":"Dedicated","server_os":"Linux","password":true,"vac":true,"version":"7961495","steam_id":85568392924470001,"keywords":["nocrits","nodmgspread","payload","uncletopia"],"game_id":440,"stv_port":27016,"stv_name":"Uncletopia | Sydney | 1 | All Maps | STV","players":null},{"server_id":123,"name":"Uncletopia | Sydney | 2 | All Maps","name_short":"syd-2","host":"syd-1.au.uncletopia.com","port":27025,"enabled":true,"region":"au","cc":"au","latitude":-33.865143,"longitude":151.2099,"reserved":0,"last_update":"0001-01-01T00:00:00Z","name_a2s":"Uncletopia | Sydney | 2 | All Maps","protocol":17,"map":"pl_pier","folder":"tf","game":"Team Fortress","app_id":440,"player_count":0,"max_players":24,"Bots":0,"server_type":"Dedicated","server_os":"Linux","password":true,"vac":true,"version":"7961495","steam_id":85568392924470002,"keywords":["nocrits","nodmgspread","payload","uncletopia"],"game_id":440,"stv_port":27026,"stv_name":"Uncletopia | Sydney | 2 | All Maps | STV","players":null},{"server_id":395,"name":"Uncletopia | Sydney | 3 | All Maps","name_short":"syd-3","host":"syd-1.au.uncletopia.com","port":27035,"enabled":true,"region":"au","cc":"au","latitude":-33.865143,"longitude":151.2099,"reserved":0,"last_update":"0001-01-01T00:00:00Z","name_a2s":"Uncletopia | Sydney | 3 | All Maps","protocol":17,"map":"cp_process_final","folder":"tf","game":"Team Fortress","app_id":440,"player_count":0,"max_players":24,"Bots":0,"server_type":"Dedicated","server_os":"Linux","password":true,"vac":true,"version":"7961495","steam_id":85568392925194467,"keywords":["cp","nocrits","nodmgspread","uncletopia"],"game_id":440,"stv_port":27036,"stv_name":"Uncletopia | Sydney | 3 | All Maps | STV","players":null},{"server_id":396,"name":"Uncletopia | Sydney | 4 | All Maps","name_short":"syd-4","host":"syd-1.au.uncletopia.com","port":27045,"enabled":true,"region":"au","cc":"au","latitude":-33.865143,"longitude":151.2099,"reserved":0,"last_update":"0001-01-01T00:00:00Z","name_a2s":"Uncletopia | Sydney | 4 | All Maps","protocol":17,"map":"cp_altitude","folder":"tf","game":"Team Fortress","app_id":440,"player_count":0,"max_players":24,"Bots":0,"server_type":"Dedicated","server_os":"Linux","password":true,"vac":true,"version":"7961495","steam_id":85568392925397958,"keywords":["cp","nocrits","nodmgspread","uncletopia"],"game_id":440,"stv_port":27046,"stv_name":"Uncletopia | Sydney | 4 | All Maps | STV","players":null},{"server_id":58,"name":"Uncletopia | Sydney | 5 | Stopwatch","name_short":"syd-5","host":"syd-1.au.uncletopia.com","port":27055,"enabled":true,"region":"au","cc":"au","latitude":-33.865143,"longitude":151.2099,"reserved":0,"last_update":"0001-01-01T00:00:00Z","name_a2s":"Uncletopia | Sydney | 5 | Stopwatch","protocol":17,"map":"cp_gullywash_final1","folder":"tf","game":"Team Fortress","app_id":440,"player_count":0,"max_players":24,"Bots":0,"server_type":"Dedicated","server_os":"Linux","password":true,"vac":true,"version":"7961495","steam_id":85568392925397959,"keywords":["cp","nocrits","nodmgspread","uncletopia"],"game_id":440,"stv_port":27056,"stv_name":"Uncletopia | Sydney | 5 | Stopwatch | STV","players":null},{"server_id":59,"name":"Uncletopia | Sydney | 6 | Community","name_short":"syd-6","host":"syd-1.au.uncletopia.com","port":27065,"enabled":true,"region":"au","cc":"au","latitude":-33.865143,"longitude":151.2099,"reserved":0,"last_update":"0001-01-01T00:00:00Z","name_a2s":"Uncletopia | Sydney | 6 | Community","protocol":17,"map":"cp_sunshine","folder":"tf","game":"Team Fortress","app_id":440,"player_count":0,"max_players":24,"Bots":0,"server_type":"Dedicated","server_os":"Linux","password":true,"vac":true,"version":"7961495","steam_id":85568392925397960,"keywords":["cp","nocrits","nodmgspread","uncletopia"],"game_id":440,"stv_port":27066,"stv_name":"Uncletopia | Sydney | 6 | Community | STV","players":null},{"server_id":49,"name":"Uncletopia | Warsaw | 1 | One Thousand Uncles","name_short":"waw-1","host":"waw-1.pl.uncletopia.com","port":27015,"enabled":true,"region":"eu","cc":"pl","latitude":52.2297,"longitude":21.017532,"reserved":0,"last_update":"0001-01-01T00:00:00Z","name_a2s":"Uncletopia | Warsaw | 1 | One Thousand Uncles","protocol":17,"map":"cp_mossrock","folder":"tf","game":"Team Fortress","app_id":440,"player_count":22,"max_players":32,"Bots":16,"server_type":"Dedicated","server_os":"Linux","password":true,"vac":true,"version":"7961495","steam_id":85568392925397850,"keywords":["alltalk","bots","cp","danepve","increased_maxplayers","nocrits","norespawntime","uncletopia"],"game_id":440,"stv_port":0,"stv_name":"","players":[{"user_id":390,"name":"EL SHEPARDOOO32","steam_id":76561198121574523,"connected_time":2500000000000,"state":"active","ping":36},{"user_id":407,"name":"Piesel","steam_id":76561198985453063,"connected_time":2321000000000,"state":"active","ping":33},{"user_id":408,"name":"Enter69","steam_id":76561199049440719,"connected_time":1543000000000,"state":"active","ping":96},{"user_id":409,"name":"tomgru2009","steam_id":76561199466136608,"connected_time":1013000000000,"state":"active","ping":45},{"user_id":410,"name":"𝒯𝓇𝓊𝓈𝓁𝒶𝓋228","steam_id":76561199229195988,"connected_time":52000000000,"state":"active","ping":103},{"user_id":411,"name":"Olekman","steam_id":76561198035446981,"connected_time":33000000000,"state":"active","ping":37}]},{"server_id":50,"name":"Uncletopia | Warsaw | 2 | One Thousand Uncles","name_short":"waw-2","host":"waw-1.pl.uncletopia.com","port":27025,"enabled":true,"region":"eu","cc":"pl","latitude":52.2297,"longitude":21.017532,"reserved":0,"last_update":"0001-01-01T00:00:00Z","name_a2s":"Uncletopia | Warsaw | 2 | One Thousand Uncles","protocol":17,"map":"pl_hoodoo_final","folder":"tf","game":"Team Fortress","app_id":440,"player_count":24,"max_players":32,"Bots":16,"server_type":"Dedicated","server_os":"Linux","password":true,"vac":true,"version":"7961495","steam_id":85568392925397851,"keywords":["alltalk","bots","danepve","increased_maxplayers","nocrits","norespawntime","payload","uncletopia"],"game_id":440,"stv_port":0,"stv_name":"","players":[{"user_id":593,"name":"DDL","steam_id":76561199222895088,"connected_time":1821000000000,"state":"active","ping":52},{"user_id":541,"name":"CrudeMaster","steam_id":76561199117559043,"connected_time":4225000000000,"state":"active","ping":49},{"user_id":598,"name":"Claw","steam_id":76561198060985181,"connected_time":1251000000000,"state":"active","ping":90},{"user_id":588,"name":"XenoLV","steam_id":76561198317367805,"connected_time":2027000000000,"state":"active","ping":74},{"user_id":583,"name":"Max Power","steam_id":76561198019269089,"connected_time":2199000000000,"state":"active","ping":60},{"user_id":580,"name":"Lydde","steam_id":76561198034040842,"connected_time":2434000000000,"state":"active","ping":74},{"user_id":616,"name":"IRobot","steam_id":76561198830182200,"connected_time":571000000000,"state":"active","ping":45},{"user_id":530,"name":"kakash","steam_id":76561199420637314,"connected_time":5006000000000,"state":"active","ping":76}]},{"server_id":51,"name":"Uncletopia | Warsaw | 3 | All Maps","name_short":"waw-3","host":"waw-1.pl.uncletopia.com","port":27035,"enabled":true,"region":"eu","cc":"pl","latitude":52.2297,"longitude":21.017532,"reserved":0,"last_update":"0001-01-01T00:00:00Z","name_a2s":"Uncletopia | Warsaw | 3 | All Maps","protocol":17,"map":"plr_pipeline","folder":"tf","game":"Team Fortress","app_id":440,"player_count":0,"max_players":24,"Bots":0,"server_type":"Dedicated","server_os":"Linux","password":true,"vac":true,"version":"7961495","steam_id":85568392925397852,"keywords":["nocrits","nodmgspread","payload","uncletopia"],"game_id":440,"stv_port":27036,"stv_name":"Uncletopia | Warsaw | 3 | All Maps | STV","players":null},{"server_id":52,"name":"Uncletopia | Warsaw | 4 | All Maps","name_short":"waw-4","host":"waw-1.pl.uncletopia.com","port":27045,"enabled":true,"region":"eu","cc":"pl","latitude":52.2297,"longitude":21.017532,"reserved":0,"last_update":"0001-01-01T00:00:00Z","name_a2s":"Uncletopia | Warsaw | 4 | All Maps","protocol":17,"map":"koth_highpass","folder":"tf","game":"Team Fortress","app_id":440,"player_count":0,"max_players":24,"Bots":0,"server_type":"Dedicated","server_os":"Linux","password":true,"vac":true,"version":"7961495","steam_id":85568392925397853,"keywords":["cp","nocrits","nodmgspread","uncletopia"],"game_id":440,"stv_port":27046,"stv_name":"Uncletopia | Warsaw | 4 | All Maps | STV","players":null},{"server_id":53,"name":"Uncletopia | Warsaw | 5 | Stopwatch","name_short":"waw-5","host":"waw-1.pl.uncletopia.com","port":27055,"enabled":true,"region":"eu","cc":"pl","latitude":52.2297,"longitude":21.017532,"reserved":0,"last_update":"0001-01-01T00:00:00Z","name_a2s":"Uncletopia | Warsaw | 5 | Stopwatch","protocol":17,"map":"workshop/koth_ramjam_rc1.ugc459778887","folder":"tf","game":"Team Fortress","app_id":440,"player_count":0,"max_players":24,"Bots":0,"server_type":"Dedicated","server_os":"Linux","password":true,"vac":true,"version":"7961495","steam_id":85568392925397854,"keywords":["cp","nocrits","nodmgspread","uncletopia"],"game_id":440,"stv_port":27056,"stv_name":"Uncletopia | Warsaw | 5 | Stopwatch | STV","players":null},{"server_id":54,"name":"Uncletopia | Warsaw | 6 | Community","name_short":"waw-6","host":"waw-1.pl.uncletopia.com","port":27065,"enabled":true,"region":"eu","cc":"pl","latitude":52.2297,"longitude":21.017532,"reserved":0,"last_update":"0001-01-01T00:00:00Z","name_a2s":"Uncletopia | Warsaw | 6 | Community","protocol":17,"map":"workshop/pl_fifthcurve_rc1.ugc648227046","folder":"tf","game":"Team Fortress","app_id":440,"player_count":2,"max_players":24,"Bots":0,"server_type":"Dedicated","server_os":"Linux","password":true,"vac":true,"version":"7961495","steam_id":85568392925397856,"keywords":["nocrits","nodmgspread","payload","uncletopia"],"game_id":440,"stv_port":27066,"stv_name":"Uncletopia | Warsaw | 6 | Community | STV","players":[{"user_id":12,"name":"1ofdebois","steam_id":76561198167689030,"connected_time":117000000000,"state":"active","ping":168},{"user_id":11,"name":"T.O.C. 606 \"void'","steam_id":76561199210683614,"connected_time":1702000000000,"state":"active","ping":61}]}]}