{"status":true,"message":"","result":[{"server_id":9,"name":"Uncletopia | Atlanta | 1 | All Maps","name_short":"atl-1","host":"atl-1.us.uncletopia.com","port":27015,"enabled":true,"region":"us-east","cc":"us","latitude":33.753746,"longitude":-84.38633,"reserved":0,"last_update":"0001-01-01T00:00:00Z","name_a2s":"Uncletopia | Atlanta | 1 | All Maps","protocol":17,"map":"pl_enclosure_final","folder":"tf","game":"Team Fortress","app_id":440,"player_count":20,"max_players":24,"Bots":0,"server_type":"Dedicated","server_os":"Linux","password":true,"vac":true,"version":"7708610","steam_id":85568392924469982,"keywords":["nocrits","nodmgspread","payload","uncletopia"],"game_id":440,"stv_port":27016,"stv_name":"Uncletopia | Atlanta | 1 | All Maps | STV","players":[{"user_id":280,"name":"Pills","steam_id":76561198799440163,"connected_time":591000000000,"state":"active","ping":85},{"user_id":186,"name":"ShortenedName","steam_id":76561198079337360,"connected_time":7871000000000,"state":"active","ping":63},{"user_id":278,"name":"Knightmare Steel","steam_id":76561198091116020,"connected_time":687000000000,"state":"active","ping":145},{"user_id":277,"name":"Muffin","steam_id":76561198199495369,"connected_time":690000000000,"state":"active","ping":137},{"user_id":281,"name":"Carl","steam_id":76561198089399299,"connected_time":40000000000,"state":"active","ping":35},{"user_id":205,"name":"Yuhh","steam_id":76561199112894955,"connected_time":6223000000000,"state":"active","ping":81},{"user_id":259,"name":"Crusade","steam_id":76561199192979051,"connected_time":1646000000000,"state":"active","ping":82},{"user_id":269,"name":"[]{}#^*+=","steam_id":76561198127039453,"connected_time":1204000000000,"state":"active","ping":98},{"user_id":270,"name":"cav","steam_id":76561198066561225,"connected_time":1179000000000,"state":"active","ping":88},{"user_id":248,"name":"Violet","steam_id":76561198055860134,"connected_time":2508000000000,"state":"active","ping":55},{"user_id":262,"name":"Walmart Employee","steam_id":76561198840373909,"connected_time":1408000000000,"state":"active","ping":64},{"user_id":273,"name":"Cherry Coke","steam_id":76561198178233006,"connected_time":1026000000000,"state":"active","ping":61},{"user_id":274,"name":"Drokkit","steam_id":76561197994405728,"connected_time":992000000000,"state":"active","ping":61},{"user_id":196,"name":"ATL1 | J O V A","steam_id":76561198090333536,"connected_time":6584000000000,"state":"active","ping":61},{"user_id":222,"name":"Veilos","steam_id":76561198071897172,"connected_time":3757000000000,"state":"active","ping":74},{"user_id":256,"name":"Merchants of Misery","steam_id":76561199188142396,"connected_time":1889000000000,"state":"active","ping":99},{"user_id":271,"name":"[CTC] kooldan","steam_id":76561198136593625,"connected_time":1148000000000,"state":"active","ping":51},{"user_id":272,"name":"JellyParrot","steam_id":76561199190990163,"connected_time":1148000000000,"state":"active","ping":62},{"user_id":250,"name":"HARRY","steam_id":76561198842067238,"connected_time":2184000000000,"state":"active","ping":61},{"user_id":237,"name":"Ownniceguy","steam_id":76561199216772555,"connected_time":3610000000000,"state":"active","ping":103}]},{"server_id":400,"name":"Uncletopia | Atlanta | 3 | All Maps","name_short":"atl-3","host":"atl-1.us.uncletopia.com","port":27035,"enabled":true,"region":"us-east","cc":"us","latitude":33.753746,"longitude":-84.38633,"reserved":0,"last_update":"0001-01-01T00:00:00Z","name_a2s":"Uncletopia | Atlanta | 3 | All Maps","protocol":17,"map":"koth_lakeside_final","folder":"tf","game":"Team Fortress","app_id":440,"player_count":21,"max_players":24,"Bots":0,"server_type":"Dedicated","server_os":"Linux","password":true,"vac":true,"version":"7708610","steam_id":85568392924515187,"keywords":["cp","nocrits","nodmgspread","uncletopia"],"game_id":440,"stv_port":27036,"stv_name":"Uncletopia | Atlanta | 3 | All Maps | STV","players":[{"user_id":29,"name":"Mcfighter2","steam_id":76561198168073956,"connected_time":30000000000,"state":"active","ping":54},{"user_id":12,"name":"Jess :)","steam_id":76561198816806580,"connected_time":791000000000,"state":"active","ping":106},{"user_id":9,"name":"PantLoaf","steam_id":76561198936796846,"connected_time":1316000000000,"state":"active","ping":83},{"user_id":13,"name":"abomination","steam_id":76561198167974713,"connected_time":714000000000,"state":"active","ping":48},{"user_id":11,"name":"Fishy","steam_id":76561198819316173,"connected_time":1136000000000,"state":"active","ping":91},{"user_id":14,"name":"Chipy","steam_id":76561198119367479,"connected_time":702000000000,"state":"active","ping":54},{"user_id":15,"name":"bonehead","steam_id":76561199341666631,"connected_time":603000000000,"state":"active","ping":54},{"user_id":16,"name":"erlenmeyer flask","steam_id":76561199417372813,"connected_time":576000000000,"state":"active","ping":74},{"user_id":17,"name":"Johnny Lawrence #JohnnyMaxxing","steam_id":76561199367141671,"connected_time":379000000000,"state":"active","ping":60},{"user_id":18,"name":"jack merridew","steam_id":76561199206622559,"connected_time":338000000000,"state":"active","ping":73},{"user_id":19,"name":"sary","steam_id":76561199384007193,"connected_time":324000000000,"state":"active","ping":59},{"user_id":20,"name":"newboi (F2P)","steam_id":76561199273882768,"connected_time":299000000000,"state":"active","ping":60},{"user_id":21,"name":"ericgaming2013","steam_id":76561198422891994,"connected_time":226000000000,"state":"active","ping":120},{"user_id":22,"name":"Frongus","steam_id":76561197979056451,"connected_time":210000000000,"state":"active","ping":103},{"user_id":23,"name":"Huntpk","steam_id":76561198340591674,"connected_time":193000000000,"state":"active","ping":64},{"user_id":24,"name":"walrusmash","steam_id":76561198117955845,"connected_time":170000000000,"state":"active","ping":49},{"user_id":25,"name":"tabbymei","steam_id":76561199437351945,"connected_time":133000000000,"state":"active","ping":77},{"user_id":26,"name":"Boggerung","steam_id":76561198111417325,"connected_time":123000000000,"state":"active","ping":63},{"user_id":30,"name":"Engideer","steam_id":76561198145733164,"connected_time":20000000000,"state":"active","ping":81},{"user_id":28,"name":"Young-OG","steam_id":76561198058800479,"connected_time":55000000000,"state":"active","ping":57},{"user_id":31,"name":"Deborp","steam_id":76561198118868430,"connected_time":6000000000,"state":"spawning","ping":89}]},{"server_id":401,"name":"Uncletopia | Atlanta | 4 | No Payload","name_short":"atl-4","host":"atl-1.us.uncletopia.com","port":27045,"enabled":true,"region":"us-east","cc":"us","latitude":33.753746,"longitude":-84.38633,"reserved":0,"last_update":"0001-01-01T00:00:00Z","name_a2s":"Uncletopia | Atlanta | 4 | No Payload","protocol":17,"map":"cp_altitude","folder":"tf","game":"Team Fortress","app_id":440,"player_count":0,"max_players":24,"Bots":0,"server_type":"Dedicated","server_os":"Linux","password":true,"vac":true,"version":"7708610","steam_id":85568392924515188,"keywords":["cp","nocrits","nodmgspread","uncletopia"],"game_id":440,"stv_port":27046,"stv_name":"Uncletopia | Atlanta | 4 | No Payload | STV","players":null},{"server_id":2,"name":"Uncletopia | Chicago | 1 | All Maps","name_short":"chi-1","host":"chi-1.us.uncletopia.com","port":27015,"enabled":true,"region":"us-central","cc":"us","latitude":41.881832,"longitude":-87.62318,"reserved":0,"last_update":"0001-01-01T00:00:00Z","name_a2s":"Uncletopia | Chicago | 1 | All Maps","protocol":17,"map":"pl_borneo","folder":"tf","game":"Team Fortress","app_id":440,"player_count":25,"max_players":24,"Bots":0,"server_type":"Dedicated","server_os":"Linux","password":true,"vac":true,"version":"7708610","steam_id":85568392924469984,"keywords":["nocrits","nodmgspread","payload","uncletopia"],"game_id":440,"stv_port":27016,"stv_name":"Uncletopia | Chicago | 1 | All Maps | STV","players":[{"user_id":435,"name":"Jeramosa","steam_id":76561198811000094,"connected_time":1490000000000,"state":"active","ping":72},{"user_id":369,"name":"HALO 3","steam_id":76561198020825795,"connected_time":5723000000000,"state":"active","ping":66},{"user_id":425,"name":"yesno","steam_id":76561198067156972,"connected_time":2360000000000,"state":"active","ping":75},{"user_id":432,"name":"Taste the Pain","steam_id":76561198081617990,"connected_time":1545000000000,"state":"active","ping":92},{"user_id":327,"name":"[slug]","steam_id":76561197989592178,"connected_time":9835000000000,"state":"active","ping":62},{"user_id":441,"name":"GameGuru the Green Gryphon","steam_id":76561198118495354,"connected_time":686000000000,"state":"active","ping":73},{"user_id":436,"name":"Metagamer","steam_id":76561198298616689,"connected_time":1478000000000,"state":"active","ping":55},{"user_id":424,"name":"richard clock","steam_id":76561198048455671,"connected_time":2384000000000,"state":"active","ping":57},{"user_id":393,"name":"kritik","steam_id":76561198075216115,"connected_time":4070000000000,"state":"active","ping":146},{"user_id":404,"name":"Ye (I Love Hitler) West","steam_id":76561198068830312,"connected_time":3539000000000,"state":"active","ping":47},{"user_id":389,"name":"debin","steam_id":76561198070711217,"connected_time":4580000000000,"state":"active","ping":47},{"user_id":433,"name":"fudge lord","steam_id":76561198118318422,"connected_time":1543000000000,"state":"active","ping":87},{"user_id":443,"name":"motorized bar of soap","steam_id":76561198882404753,"connected_time":444000000000,"state":"active","ping":77},{"user_id":437,"name":"à¶žHD-Colombianà¶ž","steam_id":76561198257720165,"connected_time":1459000000000,"state":"active","ping":118},{"user_id":430,"name":"Lucy Lou!","steam_id":76561198078209088,"connected_time":1960000000000,"state":"active","ping":45},{"user_id":402,"name":"Bearegard","steam_id":76561198061926542,"connected_time":3707000000000,"state":"active","ping":62},{"user_id":440,"name":"Lily Thorn","steam_id":76561198305488625,"connected_time":700000000000,"state":"active","ping":108},{"user_id":444,"name":"Literally a Goat","steam_id":76561198048046579,"connected_time":322000000000,"state":"active","ping":67},{"user_id":438,"name":"Zorlovo","steam_id":76561198006443283,"connected_time":1451000000000,"state":"active","ping":354},{"user_id":428,"name":"NOLSEY","steam_id":76561198108959504,"connected_time":2137000000000,"state":"active","ping":59},{"user_id":416,"name":"Catboy Potemkin","steam_id":76561198078474420,"connected_time":2557000000000,"state":"active","ping":65},{"user_id":429,"name":"DJ Chalice","steam_id":76561197974872458,"connected_time":2099000000000,"state":"active","ping":64},{"user_id":442,"name":"Nefy","steam_id":76561198030017316,"connected_time":686000000000,"state":"active","ping":83},{"user_id":423,"name":"Dude Named Bob","steam_id":76561198310448093,"connected_time":2392000000000,"state":"active","ping":56},{"user_id":450,"name":"Wytch (swag arc)","steam_id":76561198392620732,"connected_time":15000000000,"state":"spawning","ping":60}]},{"server_id":106,"name":"Uncletopia | Chicago | 2 | All Maps","name_short":"chi-2","host":"chi-1.us.uncletopia.com","port":27025,"enabled":true,"region":"us-central","cc":"us","latitude":41.881832,"longitude":-87.62318,"reserved":0,"last_update":"0001-01-01T00:00:00Z","name_a2s":"Uncletopia | Chicago | 2 | All Maps","protocol":17,"map":"pl_pier","folder":"tf","game":"Team Fortress","app_id":440,"player_count":24,"max_players":24,"Bots":0,"server_type":"Dedicated","server_os":"Linux","password":true,"vac":true,"version":"7708610","steam_id":85568392924469985,"keywords":["nocrits","nodmgspread","payload","uncletopia"],"game_id":440,"stv_port":27026,"stv_name":"Uncletopia | Chicago | 2 | All Maps | STV","players":[{"user_id":12,"name":"Rornir","steam_id":76561198081829615,"connected_time":7313000000000,"state":"active","ping":33},{"user_id":124,"name":"$$$","steam_id":76561198218897541,"connected_time":627000000000,"state":"active","ping":60},{"user_id":90,"name":"Jolly Crowbar","steam_id":76561199105488936,"connected_time":2845000000000,"state":"active","ping":141},{"user_id":103,"name":"Dert","steam_id":76561198883014990,"connected_time":1715000000000,"state":"active","ping":57},{"user_id":120,"name":"trilobita","steam_id":76561198428215606,"connected_time":750000000000,"state":"active","ping":74},{"user_id":121,"name":"Nuren","steam_id":76561198111190489,"connected_time":746000000000,"state":"active","ping":96},{"user_id":107,"name":"Kevin Y.","steam_id":76561198364331423,"connected_time":1568000000000,"state":"active","ping":84},{"user_id":60,"name":"Tyler\u0026Fingers","steam_id":76561198085154485,"connected_time":4880000000000,"state":"active","ping":82},{"user_id":83,"name":"OneTrueCorvid","steam_id":76561199012953221,"connected_time":3449000000000,"state":"active","ping":89},{"user_id":125,"name":"Woke Bush","steam_id":76561198047994501,"connected_time":297000000000,"state":"active","ping":56},{"user_id":119,"name":"Fresh Lychee","steam_id":76561198045399559,"connected_time":781000000000,"state":"active","ping":52},{"user_id":118,"name":"â˜†Atomic Waffleâ˜†","steam_id":76561198100385184,"connected_time":792000000000,"state":"active","ping":98},{"user_id":87,"name":"Shwal","steam_id":76561198138840448,"connected_time":3095000000000,"state":"active","ping":85},{"user_id":104,"name":"Tallywyn","steam_id":76561197998572962,"connected_time":1668000000000,"state":"active","ping":71},{"user_id":123,"name":"amrick","steam_id":76561198271788192,"connected_time":644000000000,"state":"active","ping":113},{"user_id":111,"name":"primordialheath","steam_id":76561199386942638,"connected_time":1477000000000,"state":"active","ping":59},{"user_id":113,"name":"tim-","steam_id":76561199119101315,"connected_time":1258000000000,"state":"active","ping":73},{"user_id":112,"name":"M.L.JEW","steam_id":76561198997375055,"connected_time":1469000000000,"state":"active","ping":82},{"user_id":126,"name":"asfd","steam_id":76561198012566405,"connected_time":294000000000,"state":"active","ping":67},{"user_id":127,"name":"SnakeEyes505","steam_id":76561198267634428,"connected_time":179000000000,"state":"active","ping":67},{"user_id":93,"name":"Interrobang","steam_id":76561198385044529,"connected_time":2819000000000,"state":"active","ping":148},{"user_id":94,"name":"JUNE","steam_id":76561198975039481,"connected_time":2675000000000,"state":"active","ping":55},{"user_id":62,"name":"Pork Tenderloin","steam_id":76561198138663842,"connected_time":4585000000000,"state":"active","ping":59},{"user_id":48,"name":"Clean Lines","steam_id":76561197960691518,"connected_time":5412000000000,"state":"active","ping":59}]},{"server_id":402,"name":"Uncletopia | Chicago | 3 | All Maps","name_short":"chi-3","host":"chi-1.us.uncletopia.com","port":27035,"enabled":true,"region":"us-central","cc":"us","latitude":41.881832,"longitude":-87.62318,"reserved":0,"last_update":"0001-01-01T00:00:00Z","name_a2s":"Uncletopia | Chicago | 3 | All Maps","protocol":17,"map":"pl_barnblitz","folder":"tf","game":"Team Fortress","app_id":440,"player_count":0,"max_players":24,"Bots":0,"server_type":"Dedicated","server_os":"Linux","password":true,"vac":true,"version":"7708610","steam_id":85568392924515191,"keywords":["nocrits","nodmgspread","payload","uncletopia"],"game_id":440,"stv_port":27036,"stv_name":"Uncletopia | Chicago | 3 | All Maps | STV","players":null},{"server_id":403,"name":"Uncletopia | Chicago | 4 | All Maps","name_short":"chi-4","host":"chi-1.us.uncletopia.com","port":27045,"enabled":true,"region":"us-central","cc":"us","latitude":41.881832,"longitude":-87.62318,"reserved":0,"last_update":"0001-01-01T00:00:00Z","name_a2s":"Uncletopia | Chicago | 4 | All Maps","protocol":17,"map":"koth_lakeside_final","folder":"tf","game":"Team Fortress","app_id":440,"player_count":0,"max_players":24,"Bots":0,"server_type":"Dedicated","server_os":"Linux","password":true,"vac":true,"version":"7708610","steam_id":85568392924515193,"keywords":["cp","nocrits","nodmgspread","uncletopia"],"game_id":440,"stv_port":27046,"stv_name":"Uncletopia | Chicago | 4 | All Maps | STV","players":null},{"server_id":36,"name":"Uncletopia | Chicago | 5 | All Maps","name_short":"chi-5","host":"chi-2.us.uncletopia.com","port":27015,"enabled":true,"region":"us-central","cc":"us","latitude":41.881832,"longitude":-87.62318,"reserved":0,"last_update":"0001-01-01T00:00:00Z","name_a2s":"Uncletopia | Chicago | 5 | All Maps","protocol":17,"map":"cp_snakewater_final1","folder":"tf","game":"Team Fortress","app_id":440,"player_count":1,"max_players":24,"Bots":0,"server_type":"Dedicated","server_os":"Linux","password":true,"vac":true,"version":"7708610","steam_id":85568392924866362,"keywords":["cp","nocrits","nodmgspread","uncletopia"],"game_id":440,"stv_port":0,"stv_name":"","players":[{"user_id":4,"name":"Seer","steam_id":76561198013492052,"connected_time":20000000000,"state":"active","ping":40}]},{"server_id":37,"name":"Uncletopia | Chicago | 6 | All Maps","name_short":"chi-6","host":"chi-2.us.uncletopia.com","port":27025,"enabled":true,"region":"us-central","cc":"us","latitude":41.881832,"longitude":-87.62318,"reserved":0,"last_update":"0001-01-01T00:00:00Z","name_a2s":"Uncletopia | Chicago | 6 | All Maps","protocol":17,"map":"koth_cascade","folder":"tf","game":"Team Fortress","app_id":440,"player_count":0,"max_players":24,"Bots":0,"server_type":"Dedicated","server_os":"Linux","password":true,"vac":true,"version":"7708610","steam_id":85568392924866363,"keywords":["cp","nocrits","nodmgspread","uncletopia"],"game_id":440,"stv_port":0,"stv_name":"","players":null},{"server_id":38,"name":"Uncletopia | Chicago | 7 | No Payload","name_short":"chi-7","host":"chi-2.us.uncletopia.com","port":27035,"enabled":true,"region":"us-central","cc":"us","latitude":41.881832,"longitude":-87.62318,"reserved":0,"last_update":"0001-01-01T00:00:00Z","name_a2s":"Uncletopia | Chicago | 7 | No Payload","protocol":17,"map":"koth_viaduct","folder":"tf","game":"Team Fortress","app_id":440,"player_count":0,"max_players":24,"Bots":0,"server_type":"Dedicated","server_os":"Linux","password":true,"vac":true,"version":"7708610","steam_id":85568392924866364,"keywords":["cp","nocrits","nodmgspread","uncletopia"],"game_id":440,"stv_port":0,"stv_name":"","players":null},{"server_id":39,"name":"Uncletopia | Chicago | 8 | Community","name_short":"chi-8","host":"chi-2.us.uncletopia.com","port":27045,"enabled":true,"region":"us-central","cc":"us","latitude":41.881832,"longitude":-87.62318,"reserved":0,"last_update":"0001-01-01T00:00:00Z","name_a2s":"Uncletopia | Chicago | 8 | Community","protocol":17,"map":"pl_pier","folder":"tf","game":"Team Fortress","app_id":440,"player_count":0,"max_players":24,"Bots":0,"server_type":"Dedicated","server_os":"Linux","password":true,"vac":true,"version":"7708610","steam_id":85568392924866365,"keywords":["nocrits","nodmgspread","payload","uncletopia"],"game_id":440,"stv_port":0,"stv_name":"","players":null},{"server_id":8,"name":"Uncletopia | Dallas | 1 | All Maps","name_short":"dal-1","host":"dal-1.us.uncletopia.com","port":27015,"enabled":true,"region":"us-central","cc":"us","latitude":32.779167,"longitude":-96.80889,"reserved":0,"last_update":"0001-01-01T00:00:00Z","name_a2s":"Uncletopia | Dallas | 1 | All Maps","protocol":17,"map":"pl_badwater","folder":"tf","game":"Team Fortress","app_id":440,"player_count":21,"max_players":24,"Bots":0,"server_type":"Dedicated","server_os":"Linux","password":true,"vac":true,"version":"7708610","steam_id":85568392924469986,"keywords":["nocrits","nodmgspread","payload","uncletopia"],"game_id":440,"stv_port":27016,"stv_name":"Uncletopia | Dallas | 1 | All Maps | STV","players":[{"user_id":282,"name":"machine embodiment","steam_id":76561199081837220,"connected_time":29000000000,"state":"active","ping":68},{"user_id":235,"name":"MrBeast (Real)","steam_id":76561199139182003,"connected_time":3320000000000,"state":"active","ping":75},{"user_id":239,"name":"Saint Laurent Don","steam_id":76561198116820706,"connected_time":3126000000000,"state":"active","ping":99},{"user_id":283,"name":"conscripted monk","steam_id":76561199029246232,"connected_time":14000000000,"state":"spawning","ping":52},{"user_id":275,"name":"TH-1","steam_id":76561197993467034,"connected_time":785000000000,"state":"active","ping":51},{"user_id":240,"name":"ZachChase","steam_id":76561198086057112,"connected_time":3053000000000,"state":"active","ping":100},{"user_id":277,"name":"Moroes","steam_id":76561198085494609,"connected_time":354000000000,"state":"active","ping":120},{"user_id":274,"name":"Female Gamer","steam_id":76561199366482682,"connected_time":1032000000000,"state":"active","ping":110},{"user_id":257,"name":"parker","steam_id":76561198187085307,"connected_time":1917000000000,"state":"active","ping":70},{"user_id":260,"name":"Jesus","steam_id":76561198018890911,"connected_time":1851000000000,"state":"active","ping":51},{"user_id":177,"name":"Reggievich","steam_id":76561198173252835,"connected_time":8162000000000,"state":"active","ping":75},{"user_id":252,"name":"A Gamer [F2P]","steam_id":76561198138712892,"connected_time":2548000000000,"state":"active","ping":56},{"user_id":179,"name":"HEAVYWHIP","steam_id":76561198188719767,"connected_time":8151000000000,"state":"active","ping":80},{"user_id":276,"name":"Castar","steam_id":76561198090558038,"connected_time":380000000000,"state":"active","ping":49},{"user_id":278,"name":"201rudolf","steam_id":76561197999260528,"connected_time":248000000000,"state":"spawning","ping":338},{"user_id":210,"name":"gorf?","steam_id":76561198142286417,"connected_time":6091000000000,"state":"active","ping":73},{"user_id":256,"name":"what da dog doin","steam_id":76561198090573639,"connected_time":1958000000000,"state":"active","ping":70},{"user_id":279,"name":"connor","steam_id":76561198076527332,"connected_time":213000000000,"state":"active","ping":73},{"user_id":269,"name":"Big Thrust","steam_id":76561198038173702,"connected_time":1564000000000,"state":"active","ping":74},{"user_id":281,"name":"Spirosity","steam_id":76561198013485753,"connected_time":184000000000,"state":"active","ping":72},{"user_id":230,"name":"09robcraft2","steam_id":76561199073189184,"connected_time":3438000000000,"state":"active","ping":92}]},{"server_id":108,"name":"Uncletopia | Dallas | 2 | All Maps","name_short":"dal-2","host":"dal-1.us.uncletopia.com","port":27025,"enabled":true,"region":"us-central","cc":"us","latitude":32.779167,"longitude":-96.80889,"reserved":0,"last_update":"0001-01-01T00:00:00Z","name_a2s":"Uncletopia | Dallas | 2 | All Maps","protocol":17,"map":"pl_pier","folder":"tf","game":"Team Fortress","app_id":440,"player_count":0,"max_players":24,"Bots":0,"server_type":"Dedicated","server_os":"Linux","password":true,"vac":true,"version":"7708610","steam_id":85568392924469988,"keywords":["nocrits","nodmgspread","payload","uncletopia"],"game_id":440,"stv_port":27026,"stv_name":"Uncletopia | Dallas | 2 | All Maps | STV","players":null},{"server_id":5,"name":"Uncletopia | Frankfurt | 1 | All Maps","name_short":"frk-1","host":"frk-1.de.uncletopia.com","port":27015,"enabled":true,"region":"eu","cc":"de","latitude":50.110924,"longitude":8.682127,"reserved":0,"last_update":"0001-01-01T00:00:00Z","name_a2s":"Uncletopia | Frankfurt | 1 | All Maps","protocol":17,"map":"pl_upward","folder":"tf","game":"Team Fortress","app_id":440,"player_count":24,"max_players":24,"Bots":0,"server_type":"Dedicated","server_os":"Linux","password":true,"vac":true,"version":"7708610","steam_id":85568392924469989,"keywords":["nocrits","nodmgspread","payload","uncletopia"],"game_id":440,"stv_port":27016,"stv_name":"Uncletopia | Frankfurt | 1 | All Maps | STV","players":[{"user_id":493,"name":"chrissymas","steam_id":76561198096547662,"connected_time":245000000000,"state":"active","ping":60},{"user_id":475,"name":"i am fok'dop","steam_id":76561198430050570,"connected_time":920000000000,"state":"active","ping":79},{"user_id":482,"name":"à¶žbominasus 2137  #SaveTF2","steam_id":76561198030062981,"connected_time":541000000000,"state":"active","ping":62},{"user_id":462,"name":"-_-","steam_id":76561199210154597,"connected_time":1561000000000,"state":"active","ping":53},{"user_id":469,"name":"highwayman","steam_id":76561199230709660,"connected_time":1028000000000,"state":"active","ping":47},{"user_id":483,"name":"Gay Potato","steam_id":76561198018859519,"connected_time":540000000000,"state":"active","ping":57},{"user_id":449,"name":"George Castriot","steam_id":76561198289735082,"connected_time":2682000000000,"state":"active","ping":59},{"user_id":484,"name":"Jingleboob's Elf","steam_id":76561198067204908,"connected_time":535000000000,"state":"active","ping":61},{"user_id":491,"name":"PoisonedPC","steam_id":76561198280169179,"connected_time":350000000000,"state":"active","ping":80},{"user_id":496,"name":"tealoverr.190","steam_id":76561199028497703,"connected_time":114000000000,"state":"active","ping":92},{"user_id":460,"name":"Patrick Ratrick","steam_id":76561198086190783,"connected_time":1599000000000,"state":"active","ping":58},{"user_id":485,"name":"jingleboob","steam_id":76561198097507847,"connected_time":532000000000,"state":"active","ping":71},{"user_id":471,"name":"mt","steam_id":76561197961319303,"connected_time":985000000000,"state":"active","ping":52},{"user_id":472,"name":"DeCypher","steam_id":76561198171992619,"connected_time":972000000000,"state":"active","ping":63},{"user_id":495,"name":"Gety0","steam_id":76561198044387185,"connected_time":168000000000,"state":"active","ping":83},{"user_id":487,"name":"Morgulan","steam_id":76561198046564543,"connected_time":487000000000,"state":"active","ping":45},{"user_id":477,"name":"ToniGAM3S","steam_id":76561198128605351,"connected_time":788000000000,"state":"active","ping":56},{"user_id":488,"name":"Kili","steam_id":76561198138456346,"connected_time":482000000000,"state":"active","ping":60},{"user_id":494,"name":"tallen","steam_id":76561198061708595,"connected_time":188000000000,"state":"active","ping":78},{"user_id":489,"name":"Operation Bin Coup Hammer","steam_id":76561198449537647,"connected_time":467000000000,"state":"active","ping":69},{"user_id":497,"name":"VERS","steam_id":76561198884232373,"connected_time":68000000000,"state":"active","ping":46},{"user_id":476,"name":"Insain Bolt!","steam_id":76561198025687726,"connected_time":903000000000,"state":"active","ping":60},{"user_id":478,"name":"g","steam_id":76561198033524151,"connected_time":757000000000,"state":"active","ping":61},{"user_id":490,"name":"randompixel","steam_id":76561198003941207,"connected_time":451000000000,"state":"active","ping":64}]},{"server_id":110,"name":"Uncletopia | Frankfurt | 2 | All Maps","name_short":"frk-2","host":"frk-1.de.uncletopia.com","port":27025,"enabled":true,"region":"eu","cc":"de","latitude":50.110924,"longitude":8.682127,"reserved":0,"last_update":"0001-01-01T00:00:00Z","name_a2s":"Uncletopia | Frankfurt | 2 | All Maps","protocol":17,"map":"cp_badlands","folder":"tf","game":"Team Fortress","app_id":440,"player_count":15,"max_players":24,"Bots":0,"server_type":"Dedicated","server_os":"Linux","password":true,"vac":true,"version":"7708610","steam_id":85568392924469990,"keywords":["cp","nocrits","nodmgspread","uncletopia"],"game_id":440,"stv_port":27026,"stv_name":"Uncletopia | Frankfurt | 2 | All Maps | STV","players":[{"user_id":461,"name":"Troodon","steam_id":76561198223648788,"connected_time":207000000000,"state":"active","ping":98},{"user_id":469,"name":"sharkmax12312","steam_id":76561198996008569,"connected_time":55000000000,"state":"active","ping":74},{"user_id":452,"name":"ZeR0","steam_id":76561198272452521,"connected_time":887000000000,"state":"active","ping":56},{"user_id":470,"name":"Milk","steam_id":76561198219146857,"connected_time":36000000000,"state":"active","ping":74},{"user_id":393,"name":"Fekeks |Potato Industries|","steam_id":76561198152536563,"connected_time":4951000000000,"state":"active","ping":54},{"user_id":460,"name":"firenickblood","steam_id":76561199302529256,"connected_time":348000000000,"state":"active","ping":78},{"user_id":462,"name":"Z3US","steam_id":76561198392337102,"connected_time":203000000000,"state":"active","ping":103},{"user_id":465,"name":"sam-","steam_id":76561198013770973,"connected_time":152000000000,"state":"active","ping":44},{"user_id":471,"name":"Wester","steam_id":76561198062486823,"connected_time":30000000000,"state":"active","ping":61},{"user_id":467,"name":"N`Ark31","steam_id":76561198047193015,"connected_time":138000000000,"state":"active","ping":70},{"user_id":414,"name":"feadras","steam_id":76561199098499873,"connected_time":4194000000000,"state":"active","ping":59},{"user_id":468,"name":"Dr.Fish","steam_id":76561198008732728,"connected_time":120000000000,"state":"active","ping":58},{"user_id":438,"name":"kickz","steam_id":76561198038453890,"connected_time":1921000000000,"state":"active","ping":45},{"user_id":439,"name":"dotdotdot","steam_id":76561198057628751,"connected_time":1900000000000,"state":"active","ping":63},{"user_id":456,"name":"ó €¡ó €¡ó €¡ó €¡","steam_id":76561198882254503,"connected_time":513000000000,"state":"active","ping":66}]},{"server_id":308,"name":"Uncletopia | Frankfurt | 3 | All Maps","name_short":"frk-3","host":"frk-1.de.uncletopia.com","port":27035,"enabled":true,"region":"eu","cc":"de","latitude":50.110924,"longitude":8.682127,"reserved":0,"last_update":"0001-01-01T00:00:00Z","name_a2s":"Uncletopia | Frankfurt | 3 | All Maps","protocol":17,"map":"pl_borneo","folder":"tf","game":"Team Fortress","app_id":440,"player_count":24,"max_players":24,"Bots":0,"server_type":"Dedicated","server_os":"Linux","password":true,"vac":true,"version":"7708610","steam_id":85568392924504274,"keywords":["nocrits","nodmgspread","payload","uncletopia"],"game_id":440,"stv_port":27036,"stv_name":"Uncletopia | Frankfurt | 3 | All Maps | STV","players":[{"user_id":106,"name":"MAKENTAKEN","steam_id":76561199127359587,"connected_time":3085000000000,"state":"active","ping":83},{"user_id":122,"name":"Fat Pigeon","steam_id":76561198817940142,"connected_time":2691000000000,"state":"active","ping":47},{"user_id":129,"name":"pablo.gonzalez.2005","steam_id":76561198971389390,"connected_time":2091000000000,"state":"active","ping":58},{"user_id":133,"name":"Zoran Snajper","steam_id":76561198312564061,"connected_time":1481000000000,"state":"active","ping":69},{"user_id":134,"name":"sid","steam_id":76561198093613358,"connected_time":1480000000000,"state":"active","ping":109},{"user_id":121,"name":"Grenelef","steam_id":76561198047617144,"connected_time":2814000000000,"state":"active","ping":71},{"user_id":156,"name":"Lopata","steam_id":76561198820264239,"connected_time":462000000000,"state":"active","ping":88},{"user_id":158,"name":"Pipper","steam_id":76561197970326616,"connected_time":373000000000,"state":"active","ping":51},{"user_id":110,"name":"AFon","steam_id":76561198080783287,"connected_time":3020000000000,"state":"active","ping":95},{"user_id":157,"name":"Gabys","steam_id":76561198282892553,"connected_time":423000000000,"state":"active","ping":74},{"user_id":115,"name":"The creator of sex","steam_id":76561199213901239,"connected_time":2947000000000,"state":"active","ping":53},{"user_id":130,"name":"G6 sherlock","steam_id":76561198802967796,"connected_time":1822000000000,"state":"active","ping":118},{"user_id":159,"name":"E_WM","steam_id":76561198283432737,"connected_time":251000000000,"state":"active","ping":93},{"user_id":144,"name":"Nostradamus","steam_id":76561198349792686,"connected_time":1221000000000,"state":"active","ping":61},{"user_id":138,"name":"dn4k","steam_id":76561199221755690,"connected_time":1416000000000,"state":"active","ping":81},{"user_id":152,"name":"Mr. Burp","steam_id":76561198042927314,"connected_time":887000000000,"state":"active","ping":66},{"user_id":139,"name":"IEatBananaStrings","steam_id":76561198158203877,"connected_time":1366000000000,"state":"active","ping":49},{"user_id":75,"name":"Proto-arc","steam_id":76561198012776747,"connected_time":7441000000000,"state":"active","ping":63},{"user_id":140,"name":"FarbrorBarbro","steam_id":76561198044432289,"connected_time":1320000000000,"state":"active","ping":82},{"user_id":141,"name":".viki","steam_id":76561198119607160,"connected_time":1285000000000,"state":"active","ping":69},{"user_id":155,"name":"CrimZone","steam_id":76561199117195674,"connected_time":511000000000,"state":"active","ping":102},{"user_id":149,"name":"morlo","steam_id":76561198249301650,"connected_time":968000000000,"state":"active","ping":45},{"user_id":145,"name":"Mankor","steam_id":76561198020439322,"connected_time":1205000000000,"state":"active","ping":53},{"user_id":148,"name":"Johnny Boy","steam_id":76561197969525453,"connected_time":1096000000000,"state":"active","ping":65}]},{"server_id":309,"name":"Uncletopia | Frankfurt | 4 | All Maps","name_short":"frk-4","host":"frk-1.de.uncletopia.com","port":27045,"enabled":true,"region":"eu","cc":"de","latitude":50.110924,"longitude":8.682127,"reserved":0,"last_update":"0001-01-01T00:00:00Z","name_a2s":"Uncletopia | Frankfurt | 4 | All Maps","protocol":17,"map":"koth_cascade","folder":"tf","game":"Team Fortress","app_id":440,"player_count":0,"max_players":24,"Bots":0,"server_type":"Dedicated","server_os":"Linux","password":true,"vac":true,"version":"7708610","steam_id":85568392924504275,"keywords":["cp","nocrits","nodmgspread","uncletopia"],"game_id":440,"stv_port":27046,"stv_name":"Uncletopia | Frankfurt | 4 | All Maps | STV","players":null},{"server_id":310,"name":"Uncletopia | Frankfurt | 5 | All Maps","name_short":"frk-5","host":"frk-1.de.uncletopia.com","port":27055,"enabled":true,"region":"eu","cc":"de","latitude":50.110924,"longitude":8.682127,"reserved":0,"last_update":"0001-01-01T00:00:00Z","name_a2s":"Uncletopia | Frankfurt | 5 | All Maps","protocol":17,"map":"koth_cascade","folder":"tf","game":"Team Fortress","app_id":440,"player_count":0,"max_players":24,"Bots":0,"server_type":"Dedicated","server_os":"Linux","password":true,"vac":true,"version":"7708610","steam_id":85568392924504277,"keywords":["cp","nocrits","nodmgspread","uncletopia"],"game_id":440,"stv_port":0,"stv_name":"","players":null},{"server_id":311,"name":"Uncletopia | Frankfurt | 6 | All Maps","name_short":"frk-6","host":"frk-1.de.uncletopia.com","port":27065,"enabled":true,"region":"eu","cc":"de","latitude":50.110924,"longitude":8.682127,"reserved":0,"last_update":"0001-01-01T00:00:00Z","name_a2s":"Uncletopia | Frankfurt | 6 | All Maps","protocol":17,"map":"cp_mountainlab","folder":"tf","game":"Team Fortress","app_id":440,"player_count":14,"max_players":24,"Bots":0,"server_type":"Dedicated","server_os":"Linux","password":true,"vac":true,"version":"7708610","steam_id":85568392924504278,"keywords":["cp","nocrits","nodmgspread","uncletopia"],"game_id":440,"stv_port":27066,"stv_name":"Uncletopia | Frankfurt | 6 | All Maps | STV","players":[{"user_id":530,"name":"Wheatley","steam_id":76561199059006203,"connected_time":278000000000,"state":"active","ping":171},{"user_id":528,"name":"realistic scientist of blackmes","steam_id":76561198423398942,"connected_time":371000000000,"state":"active","ping":62},{"user_id":514,"name":"kyzzie-O","steam_id":76561198099021004,"connected_time":987000000000,"state":"active","ping":103},{"user_id":527,"name":"Condemned B3 Expert","steam_id":76561198248411522,"connected_time":382000000000,"state":"active","ping":73},{"user_id":516,"name":"ethan","steam_id":76561198119495513,"connected_time":634000000000,"state":"active","ping":53},{"user_id":517,"name":"BONA FIDE PISS","steam_id":76561198130020929,"connected_time":518000000000,"state":"active","ping":110},{"user_id":497,"name":"Psychicpie","steam_id":76561198126065206,"connected_time":3242000000000,"state":"active","ping":54},{"user_id":520,"name":"scout gaming","steam_id":76561199380974466,"connected_time":450000000000,"state":"active","ping":109},{"user_id":531,"name":"ff:ff:ff:ff:ff:ff","steam_id":76561198072122983,"connected_time":271000000000,"state":"active","ping":64},{"user_id":522,"name":"Meurik","steam_id":76561198078032795,"connected_time":449000000000,"state":"active","ping":271},{"user_id":523,"name":"shinji","steam_id":76561198099696876,"connected_time":448000000000,"state":"active","ping":62},{"user_id":534,"name":"Equinox","steam_id":76561199055592635,"connected_time":65000000000,"state":"active","ping":54},{"user_id":524,"name":"JoueurFranÃ§ais","steam_id":76561198108081068,"connected_time":409000000000,"state":"active","ping":49},{"user_id":535,"name":"Wdfrodo","steam_id":76561198985647263,"connected_time":47000000000,"state":"active","ping":64}]},{"server_id":23,"name":"Uncletopia | Frankfurt | 7 | No Payload","name_short":"frk-7","host":"frk-1.de.uncletopia.com","port":27075,"enabled":true,"region":"eu","cc":"de","latitude":50.110924,"longitude":8.682127,"reserved":0,"last_update":"0001-01-01T00:00:00Z","name_a2s":"Uncletopia | Frankfurt | 7 | No Payload","protocol":17,"map":"cp_badlands","folder":"tf","game":"Team Fortress","app_id":440,"player_count":19,"max_players":24,"Bots":0,"server_type":"Dedicated","server_os":"Linux","password":true,"vac":true,"version":"7708610","steam_id":85568392924742827,"keywords":["cp","nocrits","nodmgspread","uncletopia"],"game_id":440,"stv_port":27076,"stv_name":"Uncletopia | Frankfurt | 7 | No Payload | STV","players":[{"user_id":388,"name":"Big Gamer (real)","steam_id":76561198160114532,"connected_time":3930000000000,"state":"active","ping":58},{"user_id":444,"name":"Welder","steam_id":76561198355300561,"connected_time":1644000000000,"state":"active","ping":69},{"user_id":442,"name":"Bottomest","steam_id":76561198091734693,"connected_time":1774000000000,"state":"active","ping":86},{"user_id":426,"name":"ðŸŒ­ 0mger","steam_id":76561198053615827,"connected_time":2747000000000,"state":"active","ping":88},{"user_id":430,"name":"Elgolas","steam_id":76561198017915708,"connected_time":2340000000000,"state":"active","ping":63},{"user_id":448,"name":"Miton","steam_id":76561197970323209,"connected_time":1397000000000,"state":"active","ping":82},{"user_id":327,"name":"roblan11","steam_id":76561198066839258,"connected_time":7310000000000,"state":"active","ping":50},{"user_id":427,"name":"Mex","steam_id":76561198108279631,"connected_time":2604000000000,"state":"active","ping":65},{"user_id":443,"name":"average ultiduo medic","steam_id":76561198103285012,"connected_time":1759000000000,"state":"active","ping":50},{"user_id":468,"name":"Fortezza","steam_id":76561198972539903,"connected_time":47000000000,"state":"active","ping":58},{"user_id":457,"name":"Dein LÃ¶we Dein BÃ¤r","steam_id":76561198982322723,"connected_time":774000000000,"state":"active","ping":50},{"user_id":466,"name":"Gandalf","steam_id":76561199072668363,"connected_time":173000000000,"state":"active","ping":86},{"user_id":433,"name":"Player","steam_id":76561198126434250,"connected_time":2276000000000,"state":"active","ping":98},{"user_id":446,"name":"Egtu","steam_id":76561198013757235,"connected_time":1485000000000,"state":"active","ping":66},{"user_id":463,"name":"Shynii","steam_id":76561198194682105,"connected_time":371000000000,"state":"active","ping":66},{"user_id":452,"name":"jacob rothschild","steam_id":76561198870764276,"connected_time":938000000000,"state":"active","ping":75},{"user_id":461,"name":"Kalco","steam_id":76561198824731701,"connected_time":647000000000,"state":"active","ping":75},{"user_id":465,"name":"tumblrgirl","steam_id":76561198051411364,"connected_time":264000000000,"state":"active","ping":49},{"user_id":456,"name":"LadleJockey","steam_id":76561198008796174,"connected_time":853000000000,"state":"active","ping":58}]},{"server_id":24,"name":"Uncletopia | Frankfurt | 8 | Community","name_short":"frk-8","host":"frk-1.de.uncletopia.com","port":27085,"enabled":true,"region":"eu","cc":"de","latitude":50.110924,"longitude":8.682127,"reserved":0,"last_update":"0001-01-01T00:00:00Z","name_a2s":"Uncletopia | Frankfurt | 8 | Community","protocol":17,"map":"workshop/koth_ramjam_v2_b2.ugc2865676487","folder":"tf","game":"Team Fortress","app_id":440,"player_count":0,"max_players":24,"Bots":0,"server_type":"Dedicated","server_os":"Linux","password":true,"vac":true,"version":"7708610","steam_id":85568392924742828,"keywords":["cp","nocrits","nodmgspread","uncletopia"],"game_id":440,"stv_port":27086,"stv_name":"Uncletopia | Frankfurt | 8 | Community | STV","players":null},{"server_id":202,"name":"Uncletopia | Hong Kong | 1 | All Maps","name_short":"hgk-1","host":"hgk-1.hk.uncletopia.com","port":27015,"enabled":true,"region":"asia","cc":"hk","latitude":22.302711,"longitude":114.177216,"reserved":0,"last_update":"0001-01-01T00:00:00Z","name_a2s":"Uncletopia | Hong Kong | 1 | All Maps","protocol":17,"map":"koth_lakeside_final","folder":"tf","game":"Team Fortress","app_id":440,"player_count":0,"max_players":24,"Bots":0,"server_type":"Dedicated","server_os":"Linux","password":true,"vac":true,"version":"7708610","steam_id":85568392924494504,"keywords":["cp","nocrits","nodmgspread","uncletopia"],"game_id":440,"stv_port":27016,"stv_name":"Uncletopia | Hong Kong | 1 | All Maps | STV","players":null},{"server_id":1,"name":"Uncletopia | Los Angeles | 1 | All Maps","name_short":"lax-1","host":"lax-1.us.uncletopia.com","port":27015,"enabled":true,"region":"us-west","cc":"us","latitude":33.94279,"longitude":-118.41004,"reserved":0,"last_update":"0001-01-01T00:00:00Z","name_a2s":"Uncletopia | Los Angeles | 1 | All Maps","protocol":17,"map":"cp_altitude","folder":"tf","game":"Team Fortress","app_id":440,"player_count":3,"max_players":24,"Bots":0,"server_type":"Dedicated","server_os":"Linux","password":true,"vac":true,"version":"7708610","steam_id":85568392924469991,"keywords":["cp","nocrits","nodmgspread","uncletopia"],"game_id":440,"stv_port":27016,"stv_name":"Uncletopia | Los Angeles | 1 | All Maps | STV","players":[{"user_id":9,"name":"Bosnian Chad","steam_id":76561199242780255,"connected_time":773000000000,"state":"active","ping":242},{"user_id":8,"name":"cup","steam_id":76561198121245586,"connected_time":923000000000,"state":"active","ping":64},{"user_id":11,"name":"el Rey","steam_id":76561198105928603,"connected_time":143000000000,"state":"active","ping":34}]},{"server_id":112,"name":"Uncletopia | Los Angeles | 2 | All Maps","name_short":"lax-2","host":"lax-1.us.uncletopia.com","port":27025,"enabled":true,"region":"us-west","cc":"us","latitude":33.94279,"longitude":-118.41004,"reserved":0,"last_update":"0001-01-01T00:00:00Z","name_a2s":"Uncletopia | Los Angeles | 2 | All Maps","protocol":17,"map":"cp_process_final","folder":"tf","game":"Team Fortress","app_id":440,"player_count":0,"max_players":24,"Bots":0,"server_type":"Dedicated","server_os":"Linux","password":true,"vac":true,"version":"7708610","steam_id":85568392924469992,"keywords":["cp","nocrits","nodmgspread","uncletopia"],"game_id":440,"stv_port":27026,"stv_name":"Uncletopia | Los Angeles | 2 | All Maps | STV","players":null},{"server_id":324,"name":"Uncletopia | Los Angeles | 3 | All Maps","name_short":"lax-3","host":"lax-1.us.uncletopia.com","port":27035,"enabled":true,"region":"us-west","cc":"us","latitude":33.94279,"longitude":-118.41004,"reserved":0,"last_update":"0001-01-01T00:00:00Z","name_a2s":"Uncletopia | Los Angeles | 3 | All Maps","protocol":17,"map":"koth_highpass","folder":"tf","game":"Team Fortress","app_id":440,"player_count":0,"max_players":24,"Bots":0,"server_type":"Dedicated","server_os":"Linux","password":true,"vac":true,"version":"7708610","steam_id":85568392924510198,"keywords":["cp","nocrits","nodmgspread","uncletopia"],"game_id":440,"stv_port":27036,"stv_name":"Uncletopia | Los Angeles | 3 | All Maps | STV","players":null},{"server_id":25,"name":"Uncletopia | Los Angeles | 4 | No Payload","name_short":"lax-4","host":"lax-1.us.uncletopia.com","port":27045,"enabled":true,"region":"us-west","cc":"us","latitude":33.94279,"longitude":-118.41004,"reserved":0,"last_update":"0001-01-01T00:00:00Z","name_a2s":"Uncletopia | Los Angeles | 4 | No Payload","protocol":17,"map":"pl_upward","folder":"tf","game":"Team Fortress","app_id":440,"player_count":0,"max_players":24,"Bots":0,"server_type":"Dedicated","server_os":"Linux","password":true,"vac":true,"version":"7708610","steam_id":85568392924510199,"keywords":["nocrits","nodmgspread","payload","uncletopia"],"game_id":440,"stv_port":0,"stv_name":"","players":null},{"server_id":11,"name":"Uncletopia | London | 1 | All Maps","name_short":"lon-1","host":"lon-1.uk.uncletopia.com","port":27015,"enabled":true,"region":"eu","cc":"gb","latitude":51.509865,"longitude":-0.118092,"reserved":0,"last_update":"0001-01-01T00:00:00Z","name_a2s":"Uncletopia | London | 1 | All Maps","protocol":17,"map":"ctf_2fort","folder":"tf","game":"Team Fortress","app_id":440,"player_count":24,"max_players":24,"Bots":0,"server_type":"Dedicated","server_os":"Linux","password":true,"vac":true,"version":"7708610","steam_id":85568392924367362,"keywords":["ctf","nocrits","nodmgspread","uncletopia"],"game_id":440,"stv_port":27016,"stv_name":"Uncletopia | London | 1 | All Maps | STV","players":[{"user_id":207,"name":"PlasticVoid","steam_id":76561197997870306,"connected_time":1740000000000,"state":"active","ping":46},{"user_id":182,"name":"El Mosquito","steam_id":76561198065347907,"connected_time":3078000000000,"state":"active","ping":75},{"user_id":167,"name":"jo bidn' | ETLARTORM","steam_id":76561198869576262,"connected_time":3621000000000,"state":"active","ping":105},{"user_id":209,"name":"Gloteran","steam_id":76561199092623161,"connected_time":1730000000000,"state":"active","ping":68},{"user_id":204,"name":"gagalak","steam_id":76561198089979108,"connected_time":1848000000000,"state":"active","ping":90},{"user_id":224,"name":"KPhii","steam_id":76561198970587061,"connected_time":532000000000,"state":"active","ping":58},{"user_id":193,"name":"Lods of Emone","steam_id":76561198188642265,"connected_time":2600000000000,"state":"active","ping":46},{"user_id":153,"name":"Shift","steam_id":76561198028296732,"connected_time":4782000000000,"state":"active","ping":57},{"user_id":217,"name":"MF Rucksack","steam_id":76561199212379472,"connected_time":1220000000000,"state":"active","ping":59},{"user_id":194,"name":"Kahvi","steam_id":76561198723244199,"connected_time":2392000000000,"state":"active","ping":90},{"user_id":177,"name":"LÃ¶ysÃ¤ Masa","steam_id":76561198343396172,"connected_time":3297000000000,"state":"active","ping":105},{"user_id":220,"name":"The Scoundrel","steam_id":76561199244090814,"connected_time":918000000000,"state":"active","ping":51},{"user_id":208,"name":"Apocalypse Potatoes","steam_id":76561199001466356,"connected_time":1739000000000,"state":"active","ping":49},{"user_id":225,"name":"sigma female","steam_id":76561198298576765,"connected_time":479000000000,"state":"active","ping":79},{"user_id":132,"name":"ç‰›å´Žæ½¤ç¾Žâ„®","steam_id":76561198089132060,"connected_time":5612000000000,"state":"active","ping":68},{"user_id":221,"name":"bruhemian but festive","steam_id":76561198191854931,"connected_time":882000000000,"state":"active","ping":60},{"user_id":215,"name":"Lovelessvaccuum","steam_id":76561198079555422,"connected_time":1420000000000,"state":"active","ping":32},{"user_id":212,"name":"Dr. Heinz Doofenshmirtz","steam_id":76561198154962908,"connected_time":1553000000000,"state":"active","ping":52},{"user_id":228,"name":"Aaron","steam_id":76561197990046953,"connected_time":54000000000,"state":"active","ping":60},{"user_id":189,"name":"trite","steam_id":76561197983765323,"connected_time":2726000000000,"state":"active","ping":48},{"user_id":159,"name":"Mapavri","steam_id":76561198370196400,"connected_time":4243000000000,"state":"active","ping":95},{"user_id":195,"name":"SOPHIIEE","steam_id":76561198443798981,"connected_time":2391000000000,"state":"active","ping":58},{"user_id":124,"name":"Professional Cannon Fodder","steam_id":76561198002162167,"connected_time":6447000000000,"state":"active","ping":59},{"user_id":227,"name":"Him","steam_id":76561198155314925,"connected_time":102000000000,"state":"active","ping":59}]},{"server_id":114,"name":"Uncletopia | London | 2 | All Maps","name_short":"lon-2","host":"lon-1.uk.uncletopia.com","port":27025,"enabled":true,"region":"eu","cc":"gb","latitude":51.509865,"longitude":-0.118092,"reserved":0,"last_update":"0001-01-01T00:00:00Z","name_a2s":"Uncletopia | London | 2 | All Maps","protocol":17,"map":"koth_lakeside_final","folder":"tf","game":"Team Fortress","app_id":440,"player_count":0,"max_players":24,"Bots":0,"server_type":"Dedicated","server_os":"Linux","password":true,"vac":true,"version":"7708610","steam_id":85568392924470941,"keywords":["cp","nocrits","nodmgspread","uncletopia"],"game_id":440,"stv_port":27026,"stv_name":"Uncletopia | London | 2 | All Maps | STV","players":null},{"server_id":320,"name":"Uncletopia | London | 3 | All Maps","name_short":"lon-3","host":"lon-1.uk.uncletopia.com","port":27035,"enabled":true,"region":"eu","cc":"gb","latitude":51.509865,"longitude":-0.118092,"reserved":0,"last_update":"0001-01-01T00:00:00Z","name_a2s":"Uncletopia | London | 3 | All Maps","protocol":17,"map":"pl_pier","folder":"tf","game":"Team Fortress","app_id":440,"player_count":23,"max_players":24,"Bots":0,"server_type":"Dedicated","server_os":"Linux","password":true,"vac":true,"version":"7708610","steam_id":85568392924510192,"keywords":["nocrits","nodmgspread","payload","uncletopia"],"game_id":440,"stv_port":27036,"stv_name":"Uncletopia | London | 3 | All Maps | STV","players":[{"user_id":326,"name":"No | S | uS","steam_id":76561199195727551,"connected_time":1211000000000,"state":"active","ping":46},{"user_id":334,"name":"fl1p","steam_id":76561198148565659,"connected_time":738000000000,"state":"active","ping":75},{"user_id":338,"name":"wynter","steam_id":76561199095793171,"connected_time":381000000000,"state":"active","ping":46},{"user_id":346,"name":"The_Tax_Man","steam_id":76561198205246144,"connected_time":55000000000,"state":"active","ping":175},{"user_id":341,"name":"Komputer1310","steam_id":76561198870066614,"connected_time":262000000000,"state":"active","ping":76},{"user_id":330,"name":"jt7","steam_id":76561198073655162,"connected_time":1035000000000,"state":"active","ping":79},{"user_id":342,"name":"Badger","steam_id":76561198155481888,"connected_time":260000000000,"state":"active","ping":75},{"user_id":312,"name":"Bob_Tostas","steam_id":76561198249006560,"connected_time":2039000000000,"state":"active","ping":79},{"user_id":343,"name":"Ecton","steam_id":76561198025103720,"connected_time":251000000000,"state":"active","ping":56},{"user_id":335,"name":"AwterSix","steam_id":76561198042561678,"connected_time":728000000000,"state":"active","ping":63},{"user_id":336,"name":"Rexadas","steam_id":76561198037553720,"connected_time":679000000000,"state":"active","ping":75},{"user_id":337,"name":"AC3NATOR","steam_id":76561198145415811,"connected_time":452000000000,"state":"active","ping":89},{"user_id":321,"name":"Saul Goodsex","steam_id":76561198173218318,"connected_time":1667000000000,"state":"active","ping":48},{"user_id":308,"name":"Alegz","steam_id":76561198287810139,"connected_time":2456000000000,"state":"active","ping":85},{"user_id":300,"name":"Laxslow","steam_id":76561198065361846,"connected_time":3161000000000,"state":"active","ping":70},{"user_id":314,"name":"ducks","steam_id":76561198166148685,"connected_time":1867000000000,"state":"active","ping":30},{"user_id":295,"name":"Carrrot","steam_id":76561198139404261,"connected_time":3881000000000,"state":"active","ping":45},{"user_id":340,"name":"âœª Danny","steam_id":76561198104483241,"connected_time":310000000000,"state":"active","ping":49},{"user_id":309,"name":"ã€Œâ—†Rakuâ€¢ ã€","steam_id":76561198059283183,"connected_time":2360000000000,"state":"active","ping":83},{"user_id":331,"name":"o_0","steam_id":76561198147173457,"connected_time":1000000000000,"state":"active","ping":80},{"user_id":323,"name":"Frog","steam_id":76561198043981067,"connected_time":1557000000000,"state":"active","ping":68},{"user_id":345,"name":"Pastoss","steam_id":76561198379098260,"connected_time":100000000000,"state":"active","ping":52},{"user_id":329,"name":"Andy","steam_id":76561198046918834,"connected_time":1087000000000,"state":"active","ping":65}]},{"server_id":321,"name":"Uncletopia | London | 4 | All Maps","name_short":"lon-4","host":"lon-1.uk.uncletopia.com","port":27045,"enabled":true,"region":"eu","cc":"gb","latitude":51.509865,"longitude":-0.118092,"reserved":0,"last_update":"0001-01-01T00:00:00Z","name_a2s":"Uncletopia | London | 4 | All Maps","protocol":17,"map":"pl_frontier_final","folder":"tf","game":"Team Fortress","app_id":440,"player_count":24,"max_players":24,"Bots":0,"server_type":"Dedicated","server_os":"Linux","password":true,"vac":true,"version":"7708610","steam_id":85568392924510193,"keywords":["nocrits","nodmgspread","payload","uncletopia"],"game_id":440,"stv_port":27046,"stv_name":"Uncletopia | London | 4 | All Maps | STV","players":[{"user_id":136,"name":"Waffle Wannabe","steam_id":76561198064510650,"connected_time":885000000000,"state":"active","ping":108},{"user_id":128,"name":"PotatoeChisps","steam_id":76561198142556383,"connected_time":1173000000000,"state":"active","ping":175},{"user_id":139,"name":"cyanic","steam_id":76561198047828651,"connected_time":821000000000,"state":"active","ping":51},{"user_id":145,"name":"Dewotter","steam_id":76561198007653168,"connected_time":688000000000,"state":"active","ping":46},{"user_id":98,"name":"El Doktor","steam_id":76561198413013439,"connected_time":3367000000000,"state":"active","ping":165},{"user_id":116,"name":"wxyz kapÄ±cÄ± izzet","steam_id":76561198241873438,"connected_time":2104000000000,"state":"active","ping":94},{"user_id":111,"name":"CitroenSM","steam_id":76561199071383249,"connected_time":2552000000000,"state":"active","ping":118},{"user_id":122,"name":"SliQster","steam_id":76561198036797969,"connected_time":1669000000000,"state":"active","ping":70},{"user_id":149,"name":"ãƒ GeRmAn |Ã—UAÃ—ãƒ ","steam_id":76561199044754898,"connected_time":435000000000,"state":"active","ping":75},{"user_id":150,"name":"soil.dirt.earth","steam_id":76561198014377623,"connected_time":403000000000,"state":"active","ping":53},{"user_id":148,"name":"Exe_Red","steam_id":76561198154952759,"connected_time":582000000000,"state":"active","ping":86},{"user_id":132,"name":"PenQuill","steam_id":76561198077915071,"connected_time":993000000000,"state":"active","ping":50},{"user_id":129,"name":"D_Ink","steam_id":76561198267716662,"connected_time":1138000000000,"state":"active","ping":31},{"user_id":143,"name":"opaacic","steam_id":76561199158514501,"connected_time":770000000000,"state":"active","ping":81},{"user_id":106,"name":"|20BB)\u003eMach","steam_id":76561198952487564,"connected_time":3130000000000,"state":"active","ping":85},{"user_id":134,"name":"Uncle Lame","steam_id":76561198089003514,"connected_time":918000000000,"state":"active","ping":59},{"user_id":107,"name":"[1stBdC]SARG Quintal","steam_id":76561198171396362,"connected_time":3115000000000,"state":"active","ping":102},{"user_id":151,"name":"Mean Green Peen","steam_id":76561198228455736,"connected_time":310000000000,"state":"active","ping":52},{"user_id":135,"name":"Dolphin2011","steam_id":76561197997323419,"connected_time":914000000000,"state":"active","ping":87},{"user_id":152,"name":"Krabs","steam_id":76561198161679477,"connected_time":308000000000,"state":"active","ping":44},{"user_id":96,"name":"Carrot Arc","steam_id":76561198164957006,"connected_time":3495000000000,"state":"active","ping":73},{"user_id":147,"name":"Waffles","steam_id":76561199086942763,"connected_time":663000000000,"state":"active","ping":93},{"user_id":142,"name":"1 month Big Earner challenge","steam_id":76561198799097492,"connected_time":802000000000,"state":"active","ping":45},{"user_id":146,"name":"Ferore","steam_id":76561198152824336,"connected_time":687000000000,"state":"active","ping":47}]},{"server_id":21,"name":"Uncletopia | London | 5 | All Maps","name_short":"lon-5","host":"lon-1.uk.uncletopia.com","port":27055,"enabled":true,"region":"eu","cc":"gb","latitude":51.509865,"longitude":-0.118092,"reserved":0,"last_update":"0001-01-01T00:00:00Z","name_a2s":"Uncletopia | London | 5 | All Maps","protocol":17,"map":"cp_metalworks","folder":"tf","game":"Team Fortress","app_id":440,"player_count":21,"max_players":24,"Bots":0,"server_type":"Dedicated","server_os":"Linux","password":true,"vac":true,"version":"7708610","steam_id":85568392924742829,"keywords":["cp","nocrits","nodmgspread","uncletopia"],"game_id":440,"stv_port":27056,"stv_name":"Uncletopia | London | 5 | All Maps | STV","players":[{"user_id":385,"name":"smell_my_cheese","steam_id":76561198008517427,"connected_time":495000000000,"state":"active","ping":39},{"user_id":390,"name":"NyaifuWaifu","steam_id":76561198101624996,"connected_time":318000000000,"state":"active","ping":85},{"user_id":386,"name":"SPONGE","steam_id":76561198040933472,"connected_time":473000000000,"state":"active","ping":61},{"user_id":383,"name":"Wade Wilson's Spoilt C4","steam_id":76561198013884709,"connected_time":532000000000,"state":"active","ping":77},{"user_id":342,"name":"Blink","steam_id":76561198144033005,"connected_time":5383000000000,"state":"active","ping":45},{"user_id":401,"name":"lowcostfish.co.uk","steam_id":76561198126022039,"connected_time":61000000000,"state":"active","ping":52},{"user_id":389,"name":"Bajas","steam_id":76561198179339326,"connected_time":365000000000,"state":"active","ping":75},{"user_id":303,"name":"Sniper, no sniping!","steam_id":76561198148074472,"connected_time":7778000000000,"state":"active","ping":48},{"user_id":398,"name":"dreamurr36","steam_id":76561199382596019,"connected_time":124000000000,"state":"active","ping":111},{"user_id":391,"name":"made in heaven","steam_id":76561198023211417,"connected_time":265000000000,"state":"active","ping":49},{"user_id":362,"name":"Bananaman","steam_id":76561198042593027,"connected_time":3184000000000,"state":"active","ping":97},{"user_id":384,"name":"Vershal Smershal","steam_id":76561198116223995,"connected_time":521000000000,"state":"active","ping":54},{"user_id":397,"name":"Nestor Makhno","steam_id":76561198963841479,"connected_time":141000000000,"state":"active","ping":94},{"user_id":368,"name":"SuperJagops","steam_id":76561198034689716,"connected_time":2598000000000,"state":"active","ping":134},{"user_id":387,"name":"Oak","steam_id":76561198067315672,"connected_time":432000000000,"state":"active","ping":45},{"user_id":388,"name":"Car Gear","steam_id":76561199183213205,"connected_time":417000000000,"state":"active","ping":50},{"user_id":399,"name":"Benameme","steam_id":76561198074097655,"connected_time":114000000000,"state":"active","ping":44},{"user_id":305,"name":"a great color","steam_id":76561198147277460,"connected_time":7768000000000,"state":"active","ping":60},{"user_id":400,"name":"Moral","steam_id":76561198130601123,"connected_time":98000000000,"state":"active","ping":62},{"user_id":403,"name":"tanyathsus","steam_id":76561198089522447,"connected_time":23000000000,"state":"active","ping":75},{"user_id":382,"name":"Bones","steam_id":76561198065081225,"connected_time":539000000000,"state":"active","ping":44}]},{"server_id":22,"name":"Uncletopia | London | 6 | All Maps","name_short":"lon-6","host":"lon-1.uk.uncletopia.com","port":27065,"enabled":true,"region":"eu","cc":"gb","latitude":51.509865,"longitude":-0.118092,"reserved":0,"last_update":"0001-01-01T00:00:00Z","name_a2s":"Uncletopia | London | 6 | All Maps","protocol":17,"map":"pl_badwater","folder":"tf","game":"Team Fortress","app_id":440,"player_count":24,"max_players":24,"Bots":0,"server_type":"Dedicated","server_os":"Linux","password":true,"vac":true,"version":"7708610","steam_id":85568392924742830,"keywords":["nocrits","nodmgspread","payload","uncletopia"],"game_id":440,"stv_port":27066,"stv_name":"Uncletopia | London | 6 | All Maps | STV","players":[{"user_id":785,"name":"BarrackOmaha","steam_id":76561198027922724,"connected_time":1498000000000,"state":"active","ping":66},{"user_id":770,"name":"giclure :;","steam_id":76561197986362828,"connected_time":2811000000000,"state":"active","ping":38},{"user_id":789,"name":"OnlyTheBest","steam_id":76561198116898098,"connected_time":1340000000000,"state":"active","ping":107},{"user_id":769,"name":"ciliorkun18","steam_id":76561198228942500,"connected_time":2882000000000,"state":"active","ping":89},{"user_id":779,"name":"5Q,Z","steam_id":76561199119176199,"connected_time":1827000000000,"state":"active","ping":88},{"user_id":803,"name":"Marzipan","steam_id":76561199122194201,"connected_time":495000000000,"state":"active","ping":51},{"user_id":815,"name":"Festive Giggen","steam_id":76561198070986689,"connected_time":19000000000,"state":"active","ping":51},{"user_id":805,"name":"Koele Bonen","steam_id":76561198073326820,"connected_time":463000000000,"state":"active","ping":54},{"user_id":811,"name":"csnipery","steam_id":76561199435280050,"connected_time":186000000000,"state":"active","ping":66},{"user_id":812,"name":"glyph","steam_id":76561197980736364,"connected_time":165000000000,"state":"active","ping":91},{"user_id":808,"name":"Umbro","steam_id":76561198087930438,"connected_time":340000000000,"state":"active","ping":79},{"user_id":791,"name":"asianboy0122","steam_id":76561198798678408,"connected_time":1179000000000,"state":"active","ping":123},{"user_id":792,"name":"MR.BLOTTO","steam_id":76561198067920111,"connected_time":1137000000000,"state":"active","ping":48},{"user_id":807,"name":"Joe deez nuts","steam_id":76561198164592120,"connected_time":423000000000,"state":"active","ping":46},{"user_id":794,"name":"bass","steam_id":76561198415564349,"connected_time":1084000000000,"state":"active","ping":60},{"user_id":765,"name":"Redmailbox","steam_id":76561198042930322,"connected_time":3215000000000,"state":"active","ping":73},{"user_id":736,"name":"JackFighter","steam_id":76561198032798785,"connected_time":4800000000000,"state":"active","ping":75},{"user_id":813,"name":"Ð˜Ð½ÑÐ¿ÐµÐºÑ‚Ð¾Ñ€ ÐÑ‚Ð°Ñ","steam_id":76561199175688390,"connected_time":158000000000,"state":"active","ping":84},{"user_id":775,"name":"Dr. Funkenstein","steam_id":76561197977816210,"connected_time":2187000000000,"state":"active","ping":52},{"user_id":755,"name":"moser23","steam_id":76561197960543171,"connected_time":3979000000000,"state":"active","ping":56},{"user_id":796,"name":"0_Dan","steam_id":76561199006567387,"connected_time":1055000000000,"state":"active","ping":47},{"user_id":797,"name":"UrLocalWeeabooWithNoFriendsâ™¥","steam_id":76561198351702867,"connected_time":1053000000000,"state":"active","ping":82},{"user_id":757,"name":"Memesus","steam_id":76561199362236174,"connected_time":3882000000000,"state":"active","ping":60},{"user_id":729,"name":"boat","steam_id":76561198044915818,"connected_time":5395000000000,"state":"active","ping":79}]},{"server_id":40,"name":"Uncletopia | London | 7 | No Payload","name_short":"lon-7","host":"lon-1.uk.uncletopia.com","port":27075,"enabled":true,"region":"eu","cc":"gb","latitude":51.509865,"longitude":-0.118092,"reserved":0,"last_update":"0001-01-01T00:00:00Z","name_a2s":"Uncletopia | London | 7 | No Payload","protocol":17,"map":"koth_brazil","folder":"tf","game":"Team Fortress","app_id":440,"player_count":0,"max_players":24,"Bots":0,"server_type":"Dedicated","server_os":"Linux","password":true,"vac":true,"version":"7708610","steam_id":85568392924964314,"keywords":["cp","nocrits","nodmgspread","uncletopia"],"game_id":440,"stv_port":27076,"stv_name":"Uncletopia | London | 7 | No Payload | STV","players":null},{"server_id":41,"name":"Uncletopia | London | 8 | Community","name_short":"lon-8","host":"lon-1.uk.uncletopia.com","port":27085,"enabled":true,"region":"eu","cc":"gb","latitude":51.509865,"longitude":-0.118092,"reserved":0,"last_update":"0001-01-01T00:00:00Z","name_a2s":"Uncletopia | London | 8 | Community","protocol":17,"map":"workshop/koth_product_final.ugc454272353","folder":"tf","game":"Team Fortress","app_id":440,"player_count":0,"max_players":24,"Bots":0,"server_type":"Dedicated","server_os":"Linux","password":true,"vac":true,"version":"7708610","steam_id":85568392924964315,"keywords":["cp","nocrits","nodmgspread","uncletopia"],"game_id":440,"stv_port":27086,"stv_name":"Uncletopia | London | 8 | Community | STV","players":null},{"server_id":300,"name":"Uncletopia | MontrÃ©al | 1 | All Maps","name_short":"mtl-1","host":"mtl-1.ca.uncletopia.com","port":27015,"enabled":true,"region":"us-east","cc":"ca","latitude":45.50889,"longitude":-73.56167,"reserved":0,"last_update":"0001-01-01T00:00:00Z","name_a2s":"Uncletopia | MontrÃ©al | 1 | All Maps","protocol":17,"map":"koth_cascade","folder":"tf","game":"Team Fortress","app_id":440,"player_count":0,"max_players":24,"Bots":0,"server_type":"Dedicated","server_os":"Linux","password":true,"vac":true,"version":"7708610","steam_id":85568392924500087,"keywords":["cp","nocrits","nodmgspread","uncletopia"],"game_id":440,"stv_port":27016,"stv_name":"Uncletopia | MontrÃ©al | 1 | All Maps | STV","players":null},{"server_id":301,"name":"Uncletopia | MontrÃ©al | 2 | All Maps","name_short":"mtl-2","host":"mtl-1.ca.uncletopia.com","port":27025,"enabled":true,"region":"us-east","cc":"ca","latitude":45.50889,"longitude":-73.56167,"reserved":0,"last_update":"0001-01-01T00:00:00Z","name_a2s":"Uncletopia | MontrÃ©al | 2 | All Maps","protocol":17,"map":"pl_frontier_final","folder":"tf","game":"Team Fortress","app_id":440,"player_count":0,"max_players":24,"Bots":0,"server_type":"Dedicated","server_os":"Linux","password":true,"vac":true,"version":"7708610","steam_id":85568392924500088,"keywords":["nocrits","nodmgspread","payload","uncletopia"],"game_id":440,"stv_port":0,"stv_name":"","players":null},{"server_id":302,"name":"Uncletopia | MontrÃ©al | 3 | All Maps","name_short":"mtl-3","host":"mtl-1.ca.uncletopia.com","port":27035,"enabled":true,"region":"us-east","cc":"ca","latitude":45.50889,"longitude":-73.56167,"reserved":0,"last_update":"0001-01-01T00:00:00Z","name_a2s":"Uncletopia | MontrÃ©al | 3 | All Maps","protocol":17,"map":"pl_snowycoast","folder":"tf","game":"Team Fortress","app_id":440,"player_count":0,"max_players":24,"Bots":0,"server_type":"Dedicated","server_os":"Linux","password":true,"vac":true,"version":"7708610","steam_id":85568392924500089,"keywords":["nocrits","nodmgspread","payload","uncletopia"],"game_id":440,"stv_port":0,"stv_name":"","players":null},{"server_id":303,"name":"Uncletopia | MontrÃ©al | 4 | No Payload","name_short":"mtl-4","host":"mtl-1.ca.uncletopia.com","port":27045,"enabled":true,"region":"us-east","cc":"ca","latitude":45.50889,"longitude":-73.56167,"reserved":0,"last_update":"0001-01-01T00:00:00Z","name_a2s":"Uncletopia | MontrÃ©al | 4 | No Payload","protocol":17,"map":"pl_frontier_final","folder":"tf","game":"Team Fortress","app_id":440,"player_count":0,"max_players":24,"Bots":0,"server_type":"Dedicated","server_os":"Linux","password":true,"vac":true,"version":"7708610","steam_id":85568392924500090,"keywords":["nocrits","nodmgspread","payload","uncletopia"],"game_id":440,"stv_port":0,"stv_name":"","players":null},{"server_id":13,"name":"Uncletopia | New York City | 1 | All Maps","name_short":"nyc-1","host":"nyc-1.us.uncletopia.com","port":27015,"enabled":true,"region":"us-east","cc":"us","latitude":40.73061,"longitude":-73.93524,"reserved":0,"last_update":"0001-01-01T00:00:00Z","name_a2s":"Uncletopia | New York City | 1 | All Maps","protocol":17,"map":"pl_thundermountain","folder":"tf","game":"Team Fortress","app_id":440,"player_count":24,"max_players":24,"Bots":0,"server_type":"Dedicated","server_os":"Linux","password":true,"vac":true,"version":"7708610","steam_id":85568392924469993,"keywords":["nocrits","nodmgspread","payload","uncletopia"],"game_id":440,"stv_port":27016,"stv_name":"Uncletopia | New York City | 1 | All Maps | STV","players":[{"user_id":162,"name":"Cocksneed Fartin","steam_id":76561198126675787,"connected_time":1444000000000,"state":"active","ping":87},{"user_id":172,"name":"leumas","steam_id":76561198240408540,"connected_time":481000000000,"state":"active","ping":44},{"user_id":116,"name":"RIT Obelix","steam_id":76561198274715109,"connected_time":7055000000000,"state":"active","ping":46},{"user_id":156,"name":"PinkLemonade","steam_id":76561198799286228,"connected_time":1659000000000,"state":"active","ping":53},{"user_id":101,"name":"Ether","steam_id":76561198054806528,"connected_time":8624000000000,"state":"active","ping":47},{"user_id":168,"name":"Seller of Waffles","steam_id":76561198296018138,"connected_time":1284000000000,"state":"active","ping":98},{"user_id":123,"name":"Phocae \u003c3","steam_id":76561199317584594,"connected_time":5965000000000,"state":"active","ping":78},{"user_id":155,"name":"Mr. Dr. Proffessor Patrick","steam_id":76561198025706190,"connected_time":1713000000000,"state":"active","ping":53},{"user_id":167,"name":"4","steam_id":76561198009121060,"connected_time":1333000000000,"state":"active","ping":117},{"user_id":130,"name":"Loogey03","steam_id":76561198155483586,"connected_time":4686000000000,"state":"active","ping":73},{"user_id":134,"name":"Calo","steam_id":76561198364414012,"connected_time":4245000000000,"state":"active","ping":51},{"user_id":50,"name":"Bysig_ttv #savetf2","steam_id":76561198086422663,"connected_time":11680000000000,"state":"active","ping":101},{"user_id":139,"name":"Nuke flavoured sparkling Water","steam_id":76561198372661925,"connected_time":3496000000000,"state":"active","ping":146},{"user_id":170,"name":"Windmills","steam_id":76561198035299715,"connected_time":771000000000,"state":"active","ping":61},{"user_id":175,"name":"Vem","steam_id":76561198117273112,"connected_time":47000000000,"state":"active","ping":67},{"user_id":158,"name":"Fly Man","steam_id":76561198201036790,"connected_time":1618000000000,"state":"active","ping":91},{"user_id":169,"name":"JustSomePest","steam_id":76561198185573363,"connected_time":862000000000,"state":"active","ping":86},{"user_id":174,"name":"RyInc","steam_id":76561198874261643,"connected_time":251000000000,"state":"active","ping":60},{"user_id":159,"name":"Scum Knight","steam_id":76561198282444763,"connected_time":1570000000000,"state":"active","ping":47},{"user_id":160,"name":"blammo","steam_id":76561198131814023,"connected_time":1557000000000,"state":"active","ping":59},{"user_id":129,"name":"space mann","steam_id":76561198174447043,"connected_time":5242000000000,"state":"active","ping":44},{"user_id":161,"name":"Murky the murloc","steam_id":76561198004343439,"connected_time":1549000000000,"state":"active","ping":93},{"user_id":151,"name":"Femboy beats","steam_id":76561199245717718,"connected_time":1821000000000,"state":"active","ping":67},{"user_id":113,"name":"forktails","steam_id":76561198046185082,"connected_time":7676000000000,"state":"active","ping":45}]},{"server_id":14,"name":"Uncletopia | New York City | 2 | All Maps","name_short":"nyc-2","host":"nyc-1.us.uncletopia.com","port":27025,"enabled":true,"region":"us-east","cc":"us","latitude":40.73061,"longitude":-73.93524,"reserved":0,"last_update":"0001-01-01T00:00:00Z","name_a2s":"Uncletopia | New York City | 2 | All Maps","protocol":17,"map":"cp_gravelpit_snowy","folder":"tf","game":"Team Fortress","app_id":440,"player_count":19,"max_players":24,"Bots":0,"server_type":"Dedicated","server_os":"Linux","password":true,"vac":true,"version":"7708610","steam_id":85568392924469994,"keywords":["cp","nocrits","nodmgspread","uncletopia"],"game_id":440,"stv_port":27026,"stv_name":"Uncletopia | New York City | 2 | All Maps | STV","players":[{"user_id":63,"name":"Marjorie Taylor Greene","steam_id":76561198236556178,"connected_time":2096000000000,"state":"active","ping":56},{"user_id":89,"name":"1444","steam_id":76561199409264244,"connected_time":671000000000,"state":"active","ping":56},{"user_id":105,"name":"DuckMann","steam_id":76561198197058638,"connected_time":82000000000,"state":"active","ping":85},{"user_id":24,"name":"coffee bagel","steam_id":76561198141198352,"connected_time":3775000000000,"state":"active","ping":60},{"user_id":99,"name":"Strigby","steam_id":76561198004116353,"connected_time":224000000000,"state":"active","ping":75},{"user_id":101,"name":"TexNG","steam_id":76561197976341487,"connected_time":182000000000,"state":"active","ping":89},{"user_id":64,"name":"luvvstory (she/her)","steam_id":76561198333675595,"connected_time":2086000000000,"state":"active","ping":126},{"user_id":80,"name":"Bingus","steam_id":76561198144791538,"connected_time":1434000000000,"state":"active","ping":59},{"user_id":85,"name":"spaaaaace","steam_id":76561199085974120,"connected_time":977000000000,"state":"active","ping":48},{"user_id":102,"name":"HarryjusttHarry","steam_id":76561198982810452,"connected_time":159000000000,"state":"active","ping":81},{"user_id":34,"name":"Splinto","steam_id":76561198111260488,"connected_time":3528000000000,"state":"active","ping":87},{"user_id":97,"name":"qjkxkcd","steam_id":76561198035922283,"connected_time":450000000000,"state":"active","ping":61},{"user_id":95,"name":"braindumbgivefood","steam_id":76561198062763756,"connected_time":542000000000,"state":"active","ping":61},{"user_id":103,"name":"peace, love \u0026 tranquilizers","steam_id":76561198078721142,"connected_time":140000000000,"state":"active","ping":71},{"user_id":104,"name":"Pan Piotr","steam_id":76561198140016126,"connected_time":139000000000,"state":"active","ping":149},{"user_id":83,"name":"...","steam_id":76561198312298321,"connected_time":1132000000000,"state":"active","ping":67},{"user_id":84,"name":"THE JINGLER","steam_id":76561199275294643,"connected_time":991000000000,"state":"active","ping":81},{"user_id":106,"name":"Sicko Mode (Chris Pratt Cover)","steam_id":76561198315786174,"connected_time":35000000000,"state":"active","ping":52},{"user_id":50,"name":"Skippies","steam_id":76561198131280715,"connected_time":3086000000000,"state":"active","ping":50}]},{"server_id":15,"name":"Uncletopia | New York City | 3 | All Maps","name_short":"nyc-3","host":"nyc-1.us.uncletopia.com","port":27035,"enabled":true,"region":"us-east","cc":"us","latitude":40.73061,"longitude":-73.93524,"reserved":0,"last_update":"0001-01-01T00:00:00Z","name_a2s":"Uncletopia | New York City | 3 | All Maps","protocol":17,"map":"cp_process_final","folder":"tf","game":"Team Fortress","app_id":440,"player_count":0,"max_players":24,"Bots":0,"server_type":"Dedicated","server_os":"Linux","password":true,"vac":true,"version":"7708610","steam_id":85568392924742820,"keywords":["cp","nocrits","nodmgspread","uncletopia"],"game_id":440,"stv_port":27036,"stv_name":"Uncletopia | New York City | 3 | All Maps | STV","players":null},{"server_id":16,"name":"Uncletopia | New York City | 4 | Community","name_short":"nyc-4","host":"nyc-1.us.uncletopia.com","port":27045,"enabled":true,"region":"us-east","cc":"us","latitude":40.73061,"longitude":-73.93524,"reserved":0,"last_update":"0001-01-01T00:00:00Z","name_a2s":"Uncletopia | New York City | 4 | Community","protocol":17,"map":"workshop/koth_bagel_rc5.ugc2514036946","folder":"tf","game":"Team Fortress","app_id":440,"player_count":0,"max_players":24,"Bots":0,"server_type":"Dedicated","server_os":"Linux","password":true,"vac":true,"version":"7708610","steam_id":85568392924742821,"keywords":["cp","nocrits","nodmgspread","uncletopia"],"game_id":440,"stv_port":27046,"stv_name":"Uncletopia | New York City | 4 | Community | STV","players":null},{"server_id":142,"name":"Uncletopia | SÃ£o Paulo | 1 | All Maps","name_short":"sao-1","host":"sao-1.br.uncletopia.com","port":27015,"enabled":true,"region":"sa","cc":"br","latitude":-23.533773,"longitude":-46.62529,"reserved":0,"last_update":"0001-01-01T00:00:00Z","name_a2s":"Uncletopia | SÃ£o Paulo | 1 | All Maps","protocol":17,"map":"cp_process_final","folder":"tf","game":"Team Fortress","app_id":440,"player_count":0,"max_players":24,"Bots":0,"server_type":"Dedicated","server_os":"Linux","password":true,"vac":true,"version":"7708610","steam_id":85568392924469996,"keywords":["cp","nocrits","nodmgspread","uncletopia"],"game_id":440,"stv_port":27016,"stv_name":"Uncletopia | SÃ£o Paulo | 1 | All Maps | STV","players":null},{"server_id":143,"name":"Uncletopia | SÃ£o Paulo | 2 | All Maps","name_short":"sao-2","host":"sao-2.br.uncletopia.com","port":27015,"enabled":true,"region":"sa","cc":"br","latitude":-23.533773,"longitude":-46.62529,"reserved":0,"last_update":"0001-01-01T00:00:00Z","name_a2s":"Uncletopia | SÃ£o Paulo | 2 | All Maps","protocol":17,"map":"koth_viaduct","folder":"tf","game":"Team Fortress","app_id":440,"player_count":0,"max_players":24,"Bots":0,"server_type":"Dedicated","server_os":"Linux","password":true,"vac":true,"version":"7708610","steam_id":85568392924485349,"keywords":["cp","nocrits","nodmgspread","uncletopia"],"game_id":440,"stv_port":27016,"stv_name":"Uncletopia | SÃ£o Paulo | 2 | All Maps | STV","players":null},{"server_id":7,"name":"Uncletopia | Seattle | 1 | All Maps","name_short":"sea-1","host":"sea-1.us.uncletopia.com","port":27015,"enabled":true,"region":"us-west","cc":"us","latitude":47.608013,"longitude":-122.33517,"reserved":0,"last_update":"0001-01-01T00:00:00Z","name_a2s":"Uncletopia | Seattle | 1 | All Maps","protocol":17,"map":"pl_swiftwater_final1","folder":"tf","game":"Team Fortress","app_id":440,"player_count":24,"max_players":24,"Bots":0,"server_type":"Dedicated","server_os":"Linux","password":true,"vac":true,"version":"7708610","steam_id":85568392924469997,"keywords":["nocrits","nodmgspread","payload","uncletopia"],"game_id":440,"stv_port":27016,"stv_name":"Uncletopia | Seattle | 1 | All Maps | STV","players":[{"user_id":9,"name":"DaBigA","steam_id":76561198326492538,"connected_time":3095000000000,"state":"active","ping":38},{"user_id":7,"name":"Swag6","steam_id":76561198064110837,"connected_time":3327000000000,"state":"active","ping":72},{"user_id":24,"name":"testament 6p","steam_id":76561198271939793,"connected_time":1753000000000,"state":"active","ping":45},{"user_id":58,"name":"The Bravest of Warriors","steam_id":76561198048289242,"connected_time":447000000000,"state":"active","ping":137},{"user_id":12,"name":"Luca","steam_id":76561198125087140,"connected_time":2735000000000,"state":"active","ping":45},{"user_id":60,"name":"McSpazatron","steam_id":76561198955942148,"connected_time":63000000000,"state":"active","ping":88},{"user_id":52,"name":"Sir Severus","steam_id":76561198061295188,"connected_time":833000000000,"state":"active","ping":50},{"user_id":25,"name":"Illitha","steam_id":76561199135491898,"connected_time":1654000000000,"state":"active","ping":107},{"user_id":26,"name":"zinnk","steam_id":76561198092081825,"connected_time":1567000000000,"state":"active","ping":78},{"user_id":27,"name":"Heavily Armed Enby","steam_id":76561199064861814,"connected_time":1567000000000,"state":"active","ping":39},{"user_id":38,"name":"Ð³Ñ€ÑƒÑÑ‚Ð½Ñ‹Ð¹","steam_id":76561198274550638,"connected_time":1127000000000,"state":"active","ping":109},{"user_id":35,"name":"Level 1 Crook","steam_id":76561198441098132,"connected_time":1235000000000,"state":"active","ping":104},{"user_id":53,"name":"Roz257","steam_id":76561198842844532,"connected_time":600000000000,"state":"active","ping":113},{"user_id":48,"name":"superbad","steam_id":76561198065913973,"connected_time":982000000000,"state":"active","ping":75},{"user_id":39,"name":"sammy","steam_id":76561199001307670,"connected_time":1100000000000,"state":"active","ping":54},{"user_id":40,"name":"Omega E ^The Player^","steam_id":76561198092321592,"connected_time":1083000000000,"state":"active","ping":71},{"user_id":41,"name":"Toasterduds","steam_id":76561198163477584,"connected_time":1076000000000,"state":"active","ping":81},{"user_id":42,"name":"General French","steam_id":76561198321617148,"connected_time":1072000000000,"state":"active","ping":105},{"user_id":49,"name":"shlimp","steam_id":76561198882222733,"connected_time":967000000000,"state":"active","ping":110},{"user_id":51,"name":"Ducks","steam_id":76561198130038345,"connected_time":913000000000,"state":"active","ping":60},{"user_id":45,"name":"booger","steam_id":76561198333832807,"connected_time":1035000000000,"state":"active","ping":107},{"user_id":46,"name":"P.C. Baby","steam_id":76561198067011379,"connected_time":1015000000000,"state":"active","ping":80},{"user_id":61,"name":"wings_","steam_id":76561198136627222,"connected_time":62000000000,"state":"active","ping":49},{"user_id":57,"name":"Swag5","steam_id":76561198065311356,"connected_time":513000000000,"state":"active","ping":74}]},{"server_id":119,"name":"Uncletopia | Seattle | 2 | All Maps","name_short":"sea-2","host":"sea-1.us.uncletopia.com","port":27025,"enabled":true,"region":"us-west","cc":"us","latitude":47.608013,"longitude":-122.33517,"reserved":0,"last_update":"0001-01-01T00:00:00Z","name_a2s":"Uncletopia | Seattle | 2 | All Maps","protocol":17,"map":"koth_cascade","folder":"tf","game":"Team Fortress","app_id":440,"player_count":0,"max_players":24,"Bots":0,"server_type":"Dedicated","server_os":"Linux","password":true,"vac":true,"version":"7708610","steam_id":85568392924469998,"keywords":["cp","nocrits","nodmgspread","uncletopia"],"game_id":440,"stv_port":27026,"stv_name":"Uncletopia | Seattle | 2 | All Maps | STV","players":null},{"server_id":17,"name":"Uncletopia | San Francisco | 1 | All Maps","name_short":"sfo-1","host":"sfo-1.us.uncletopia.com","port":27015,"enabled":true,"region":"us-west","cc":"us","latitude":37.77397,"longitude":-122.4313,"reserved":0,"last_update":"0001-01-01T00:00:00Z","name_a2s":"Uncletopia | San Francisco | 1 | All Maps","protocol":17,"map":"cp_sunshine","folder":"tf","game":"Team Fortress","app_id":440,"player_count":0,"max_players":24,"Bots":0,"server_type":"Dedicated","server_os":"Linux","password":true,"vac":true,"version":"7708610","steam_id":85568392924469999,"keywords":["cp","nocrits","nodmgspread","uncletopia"],"game_id":440,"stv_port":0,"stv_name":"","players":null},{"server_id":18,"name":"Uncletopia | San Francisco | 2 | All Maps","name_short":"sfo-2","host":"sfo-1.us.uncletopia.com","port":27025,"enabled":true,"region":"us-west","cc":"us","latitude":37.77397,"longitude":-122.4313,"reserved":0,"last_update":"0001-01-01T00:00:00Z","name_a2s":"Uncletopia | San Francisco | 2 | All Maps","protocol":17,"map":"koth_cascade","folder":"tf","game":"Team Fortress","app_id":440,"player_count":1,"max_players":24,"Bots":0,"server_type":"Dedicated","server_os":"Linux","password":true,"vac":true,"version":"7708610","steam_id":85568392924470000,"keywords":["cp","nocrits","nodmgspread","uncletopia"],"game_id":440,"stv_port":0,"stv_name":"","players":[{"user_id":15,"name":"Omyxtile","steam_id":76561198268731918,"connected_time":99000000000,"state":"active","ping":78}]},{"server_id":19,"name":"Uncletopia | San Francisco | 3 | No Payload","name_short":"sfo-3","host":"sfo-1.us.uncletopia.com","port":27035,"enabled":true,"region":"us-west","cc":"us","latitude":37.77397,"longitude":-122.4313,"reserved":0,"last_update":"0001-01-01T00:00:00Z","name_a2s":"Uncletopia | San Francisco | 3 | No Payload","protocol":17,"map":"cp_snakewater_final1","folder":"tf","game":"Team Fortress","app_id":440,"player_count":0,"max_players":24,"Bots":0,"server_type":"Dedicated","server_os":"Linux","password":true,"vac":true,"version":"7708610","steam_id":85568392924742824,"keywords":["cp","nocrits","nodmgspread","uncletopia"],"game_id":440,"stv_port":0,"stv_name":"","players":null},{"server_id":20,"name":"Uncletopia | San Francisco | 4 | Community","name_short":"sfo-4","host":"sfo-1.us.uncletopia.com","port":27045,"enabled":true,"region":"us-west","cc":"us","latitude":37.77397,"longitude":-122.4313,"reserved":0,"last_update":"0001-01-01T00:00:00Z","name_a2s":"Uncletopia | San Francisco | 4 | Community","protocol":17,"map":"workshop/pl_barnblitz_pro7.ugc582280235","folder":"tf","game":"Team Fortress","app_id":440,"player_count":0,"max_players":24,"Bots":0,"server_type":"Dedicated","server_os":"Linux","password":true,"vac":true,"version":"7708610","steam_id":85568392924742826,"keywords":["nocrits","nodmgspread","payload","uncletopia"],"game_id":440,"stv_port":27046,"stv_name":"Uncletopia | San Francisco | 4 | Community | STV","players":null},{"server_id":141,"name":"Uncletopia | Sydney | 1 | All Maps","name_short":"syd-1","host":"syd-1.au.uncletopia.com","port":27015,"enabled":true,"region":"au","cc":"au","latitude":-33.865143,"longitude":151.2099,"reserved":0,"last_update":"0001-01-01T00:00:00Z","name_a2s":"Uncletopia | Sydney | 1 | All Maps","protocol":17,"map":"pl_barnblitz","folder":"tf","game":"Team Fortress","app_id":440,"player_count":8,"max_players":24,"Bots":0,"server_type":"Dedicated","server_os":"Linux","password":true,"vac":true,"version":"7708610","steam_id":85568392924470001,"keywords":["nocrits","nodmgspread","payload","uncletopia"],"game_id":440,"stv_port":27016,"stv_name":"Uncletopia | Sydney | 1 | All Maps | STV","players":[{"user_id":2,"name":"The Zoo","steam_id":76561198061713340,"connected_time":2189000000000,"state":"active","ping":61},{"user_id":10,"name":"plr_jack","steam_id":76561199124321542,"connected_time":740000000000,"state":"active","ping":61},{"user_id":5,"name":"carrot monster","steam_id":76561199056025092,"connected_time":1670000000000,"state":"active","ping":40},{"user_id":7,"name":"Painfully Average","steam_id":76561198119409653,"connected_time":1108000000000,"state":"active","ping":70},{"user_id":8,"name":"Mad(enninglyFestive)mannsHat","steam_id":76561199063185304,"connected_time":1092000000000,"state":"active","ping":82},{"user_id":9,"name":"human embodiment of 100 emoji","steam_id":76561199386094919,"connected_time":1045000000000,"state":"active","ping":39},{"user_id":14,"name":"Garfielf","steam_id":76561199184929769,"connected_time":418000000000,"state":"active","ping":332},{"user_id":15,"name":"Eru Iluvatar","steam_id":76561198211377312,"connected_time":236000000000,"state":"active","ping":48}]},{"server_id":123,"name":"Uncletopia | Sydney | 2 | All Maps","name_short":"syd-2","host":"syd-1.au.uncletopia.com","port":27025,"enabled":true,"region":"au","cc":"au","latitude":-33.865143,"longitude":151.2099,"reserved":0,"last_update":"0001-01-01T00:00:00Z","name_a2s":"Uncletopia | Sydney | 2 | All Maps","protocol":17,"map":"pl_snowycoast","folder":"tf","game":"Team Fortress","app_id":440,"player_count":0,"max_players":24,"Bots":0,"server_type":"Dedicated","server_os":"Linux","password":true,"vac":true,"version":"7708610","steam_id":85568392924470002,"keywords":["nocrits","nodmgspread","payload","uncletopia"],"game_id":440,"stv_port":0,"stv_name":"","players":null},{"server_id":395,"name":"Uncletopia | Sydney | 3 | All Maps","name_short":"syd-3","host":"syd-1.au.uncletopia.com","port":27035,"enabled":true,"region":"au","cc":"au","latitude":-33.865143,"longitude":151.2099,"reserved":0,"last_update":"0001-01-01T00:00:00Z","name_a2s":"Uncletopia | Sydney | 3 | All Maps","protocol":17,"map":"pl_borneo","folder":"tf","game":"Team Fortress","app_id":440,"player_count":2,"max_players":24,"Bots":0,"server_type":"Dedicated","server_os":"Linux","password":true,"vac":true,"version":"7708610","steam_id":85568392925194467,"keywords":["nocrits","nodmgspread","payload","uncletopia"],"game_id":440,"stv_port":27036,"stv_name":"Uncletopia | Sydney | 3 | All Maps | STV","players":[{"user_id":6,"name":"squeak","steam_id":76561199061746181,"connected_time":357000000000,"state":"active","ping":67},{"user_id":7,"name":"ChairMcGamingâ„¢","steam_id":76561199215200562,"connected_time":332000000000,"state":"active","ping":62}]},{"server_id":396,"name":"Uncletopia | Sydney | 4 | All Maps","name_short":"syd-4","host":"syd-1.au.uncletopia.com","port":27045,"enabled":true,"region":"au","cc":"au","latitude":-33.865143,"longitude":151.2099,"reserved":0,"last_update":"0001-01-01T00:00:00Z","name_a2s":"Uncletopia | Sydney | 4 | All Maps","protocol":17,"map":"koth_lakeside_final","folder":"tf","game":"Team Fortress","app_id":440,"player_count":0,"max_players":24,"Bots":0,"server_type":"Dedicated","server_os":"Linux","password":true,"vac":true,"version":"7708610","steam_id":85568392925397958,"keywords":["cp","nocrits","nodmgspread","uncletopia"],"game_id":440,"stv_port":0,"stv_name":"","players":null},{"server_id":58,"name":"Uncletopia | Sydney | 5 | No Payload","name_short":"syd-5","host":"syd-1.au.uncletopia.com","port":27055,"enabled":true,"region":"au","cc":"au","latitude":-33.865143,"longitude":151.2099,"reserved":0,"last_update":"0001-01-01T00:00:00Z","name_a2s":"Uncletopia | Sydney | 5 | No Payload","protocol":17,"map":"koth_cascade","folder":"tf","game":"Team Fortress","app_id":440,"player_count":0,"max_players":24,"Bots":0,"server_type":"Dedicated","server_os":"Linux","password":true,"vac":true,"version":"7708610","steam_id":85568392925397959,"keywords":["cp","nocrits","nodmgspread","uncletopia"],"game_id":440,"stv_port":0,"stv_name":"","players":null},{"server_id":59,"name":"Uncletopia | Sydney | 6 | Community","name_short":"syd-6","host":"syd-1.au.uncletopia.com","port":27065,"enabled":true,"region":"au","cc":"au","latitude":-33.865143,"longitude":151.2099,"reserved":0,"last_update":"0001-01-01T00:00:00Z","name_a2s":"Uncletopia | Sydney | 6 | Community","protocol":17,"map":"pl_borneo","folder":"tf","game":"Team Fortress","app_id":440,"player_count":0,"max_players":24,"Bots":0,"server_type":"Dedicated","server_os":"Linux","password":true,"vac":true,"version":"7708610","steam_id":85568392925397960,"keywords":["nocrits","nodmgspread","payload","uncletopia"],"game_id":440,"stv_port":0,"stv_name":"","players":null},{"server_id":49,"name":"Uncletopia | Warsaw | 1 | All Maps","name_short":"waw-1","host":"waw-1.pl.uncletopia.com","port":27015,"enabled":true,"region":"eu","cc":"pl","latitude":52.2297,"longitude":21.017532,"reserved":0,"last_update":"0001-01-01T00:00:00Z","name_a2s":"Uncletopia | Warsaw | 1 | All Maps","protocol":17,"map":"pl_pier","folder":"tf","game":"Team Fortress","app_id":440,"player_count":13,"max_players":24,"Bots":0,"server_type":"Dedicated","server_os":"Linux","password":true,"vac":true,"version":"7708610","steam_id":85568392925397850,"keywords":["nocrits","nodmgspread","payload","uncletopia"],"game_id":440,"stv_port":27016,"stv_name":"Uncletopia | Warsaw | 1 | All Maps | STV","players":[{"user_id":234,"name":"PGAA","steam_id":76561198804210516,"connected_time":1147000000000,"state":"active","ping":89},{"user_id":209,"name":"Soldier gaming","steam_id":76561198355051671,"connected_time":3157000000000,"state":"active","ping":40},{"user_id":194,"name":"Artha","steam_id":76561198198453253,"connected_time":4929000000000,"state":"active","ping":54},{"user_id":235,"name":"borilvp","steam_id":76561198370773417,"connected_time":1123000000000,"state":"active","ping":101},{"user_id":236,"name":"YoN2E","steam_id":76561198981460007,"connected_time":1109000000000,"state":"active","ping":91},{"user_id":153,"name":"Nick (Mute banned on Uncletopia","steam_id":76561198036109469,"connected_time":7296000000000,"state":"active","ping":47},{"user_id":161,"name":"Hexagon","steam_id":76561198151205758,"connected_time":6738000000000,"state":"active","ping":74},{"user_id":248,"name":"TheGreatColon","steam_id":76561198451775231,"connected_time":249000000000,"state":"active","ping":141},{"user_id":163,"name":"Mr. Mundy","steam_id":76561198132008918,"connected_time":6670000000000,"state":"active","ping":87},{"user_id":249,"name":"rEvo","steam_id":76561198042770202,"connected_time":63000000000,"state":"active","ping":107},{"user_id":246,"name":"Dictatorial Karelian","steam_id":76561198196736457,"connected_time":385000000000,"state":"active","ping":99},{"user_id":244,"name":"ã‚¹ãƒ‘ã‚¤ã‚¯","steam_id":76561199417277716,"connected_time":579000000000,"state":"active","ping":143},{"user_id":201,"name":"Niko | RFB","steam_id":76561198103547124,"connected_time":4097000000000,"state":"active","ping":55}]},{"server_id":50,"name":"Uncletopia | Warsaw | 2 | All Maps","name_short":"waw-2","host":"waw-1.pl.uncletopia.com","port":27025,"enabled":true,"region":"eu","cc":"pl","latitude":52.2297,"longitude":21.017532,"reserved":0,"last_update":"0001-01-01T00:00:00Z","name_a2s":"Uncletopia | Warsaw | 2 | All Maps","protocol":17,"map":"koth_lakeside_final","folder":"tf","game":"Team Fortress","app_id":440,"player_count":0,"max_players":24,"Bots":0,"server_type":"Dedicated","server_os":"Linux","password":true,"vac":true,"version":"7708610","steam_id":85568392925397851,"keywords":["cp","nocrits","nodmgspread","uncletopia"],"game_id":440,"stv_port":27026,"stv_name":"Uncletopia | Warsaw | 2 | All Maps | STV","players":null},{"server_id":51,"name":"Uncletopia | Warsaw | 3 | All Maps","name_short":"waw-3","host":"waw-1.pl.uncletopia.com","port":27035,"enabled":true,"region":"eu","cc":"pl","latitude":52.2297,"longitude":21.017532,"reserved":0,"last_update":"0001-01-01T00:00:00Z","name_a2s":"Uncletopia | Warsaw | 3 | All Maps","protocol":17,"map":"pl_borneo","folder":"tf","game":"Team Fortress","app_id":440,"player_count":4,"max_players":24,"Bots":0,"server_type":"Dedicated","server_os":"Linux","password":true,"vac":true,"version":"7708610","steam_id":85568392925397852,"keywords":["nocrits","nodmgspread","payload","uncletopia"],"game_id":440,"stv_port":27036,"stv_name":"Uncletopia | Warsaw | 3 | All Maps | STV","players":[{"user_id":23,"name":"zlitvinkov","steam_id":76561199433503750,"connected_time":1894000000000,"state":"active","ping":89},{"user_id":19,"name":"The Fire Pyro","steam_id":76561198300296457,"connected_time":6974000000000,"state":"active","ping":74},{"user_id":16,"name":"furry uwu gf","steam_id":76561199229766865,"connected_time":8284000000000,"state":"active","ping":121},{"user_id":24,"name":"WonderVaflya","steam_id":76561198077281374,"connected_time":1857000000000,"state":"active","ping":95}]},{"server_id":52,"name":"Uncletopia | Warsaw | 4 | All Maps","name_short":"waw-4","host":"waw-1.pl.uncletopia.com","port":27045,"enabled":true,"region":"eu","cc":"pl","latitude":52.2297,"longitude":21.017532,"reserved":0,"last_update":"0001-01-01T00:00:00Z","name_a2s":"Uncletopia | Warsaw | 4 | All Maps","protocol":17,"map":"cp_process_final","folder":"tf","game":"Team Fortress","app_id":440,"player_count":0,"max_players":24,"Bots":0,"server_type":"Dedicated","server_os":"Linux","password":true,"vac":true,"version":"7708610","steam_id":85568392925397853,"keywords":["cp","nocrits","nodmgspread","uncletopia"],"game_id":440,"stv_port":27046,"stv_name":"Uncletopia | Warsaw | 4 | All Maps | STV","players":null},{"server_id":53,"name":"Uncletopia | Warsaw | 5 | No Payload","name_short":"waw-5","host":"waw-1.pl.uncletopia.com","port":27055,"enabled":true,"region":"eu","cc":"pl","latitude":52.2297,"longitude":21.017532,"reserved":0,"last_update":"0001-01-01T00:00:00Z","name_a2s":"Uncletopia | Warsaw | 5 | No Payload","protocol":17,"map":"plr_pipeline","folder":"tf","game":"Team Fortress","app_id":440,"player_count":0,"max_players":24,"Bots":0,"server_type":"Dedicated","server_os":"Linux","password":true,"vac":true,"version":"7708610","steam_id":85568392925397854,"keywords":["nocrits","nodmgspread","payload","uncletopia"],"game_id":440,"stv_port":27056,"stv_name":"Uncletopia | Warsaw | 5 | No Payload | STV","players":null},{"server_id":54,"name":"Uncletopia | Warsaw | 6 | Community","name_short":"waw-6","host":"waw-1.pl.uncletopia.com","port":27065,"enabled":true,"region":"eu","cc":"pl","latitude":52.2297,"longitude":21.017532,"reserved":0,"last_update":"0001-01-01T00:00:00Z","name_a2s":"Uncletopia | Warsaw | 6 | Community","protocol":17,"map":"koth_highpass","folder":"tf","game":"Team Fortress","app_id":440,"player_count":0,"max_players":24,"Bots":0,"server_type":"Dedicated","server_os":"Linux","password":true,"vac":true,"version":"7708610","steam_id":85568392925397856,"keywords":["cp","nocrits","nodmgspread","uncletopia"],"game_id":440,"stv_port":0,"stv_name":"","players":null}]}