{"status":true,"message":"","result":[{"server_id":9,"name":"Uncletopia | Atlanta | 1 | All Maps","name_short":"atl-1","host":"atl-1.us.uncletopia.com","port":27015,"enabled":true,"region":"us-east","cc":"us","latitude":33.753746,"longitude":-84.38633,"reserved":0,"last_update":"0001-01-01T00:00:00Z","name_a2s":"Uncletopia | Atlanta | 1 | All Maps","protocol":17,"map":"pl_barnblitz","folder":"tf","game":"Team Fortress","app_id":440,"player_count":24,"max_players":24,"Bots":0,"server_type":"Dedicated","server_os":"Linux","password":true,"vac":true,"version":"7757534","steam_id":85568392924469982,"keywords":["nocrits","nodmgspread","payload","uncletopia"],"game_id":440,"stv_port":27016,"stv_name":"Uncletopia | Atlanta | 1 | All Maps | STV","players":[{"user_id":330,"name":"hoboways","steam_id":76561198168035195,"connected_time":877000000000,"state":"active","ping":76},{"user_id":320,"name":"Oddball","steam_id":76561198040440984,"connected_time":1933000000000,"state":"active","ping":88},{"user_id":280,"name":"GKEmperor","steam_id":76561197995187011,"connected_time":6024000000000,"state":"active","ping":74},{"user_id":334,"name":"e0e0","steam_id":76561198293839750,"connected_time":161000000000,"state":"active","ping":49},{"user_id":285,"name":"Bottom Trans Cowgirl","steam_id":76561198304239680,"connected_time":5458000000000,"state":"active","ping":83},{"user_id":318,"name":"PinkLemonade","steam_id":76561198799286228,"connected_time":2025000000000,"state":"active","ping":72},{"user_id":269,"name":"Onyx","steam_id":76561198275349640,"connected_time":6942000000000,"state":"active","ping":75},{"user_id":333,"name":"Kitt(eh) ‚àë:3","steam_id":76561198110858518,"connected_time":385000000000,"state":"active","ping":75},{"user_id":331,"name":"JZ","steam_id":76561198377029198,"connected_time":815000000000,"state":"active","ping":63},{"user_id":325,"name":"Dr. drips","steam_id":76561198209380493,"connected_time":1208000000000,"state":"active","ping":62},{"user_id":306,"name":"HARRY","steam_id":76561198842067238,"connected_time":3491000000000,"state":"active","ping":74},{"user_id":279,"name":"Ghetto Smosh Fan","steam_id":76561198097272509,"connected_time":6159000000000,"state":"active","ping":34},{"user_id":305,"name":"ATL1 | Crystron","steam_id":76561198880437428,"connected_time":3614000000000,"state":"active","ping":89},{"user_id":319,"name":"ash","steam_id":76561198127890645,"connected_time":2019000000000,"state":"active","ping":62},{"user_id":154,"name":"Dr.Zarann","steam_id":76561198163952958,"connected_time":17137000000000,"state":"active","ping":56},{"user_id":315,"name":"Nikki","steam_id":76561199069832535,"connected_time":2572000000000,"state":"active","ping":83},{"user_id":282,"name":"Shrek Forever After","steam_id":76561198023152320,"connected_time":5716000000000,"state":"active","ping":58},{"user_id":295,"name":"Yeti","steam_id":76561198035450920,"connected_time":4634000000000,"state":"active","ping":85},{"user_id":324,"name":"Oxyclean","steam_id":76561198042954813,"connected_time":1727000000000,"state":"active","ping":86},{"user_id":332,"name":"tacofever","steam_id":76561198010966507,"connected_time":805000000000,"state":"active","ping":107},{"user_id":290,"name":"FemboyNate","steam_id":76561198146636410,"connected_time":4792000000000,"state":"active","ping":60},{"user_id":328,"name":"butterthoughts","steam_id":76561198025120284,"connected_time":896000000000,"state":"active","ping":85},{"user_id":329,"name":"Mug","steam_id":76561199282207802,"connected_time":895000000000,"state":"active","ping":79},{"user_id":214,"name":"floofy","steam_id":76561198389769098,"connected_time":10693000000000,"state":"active","ping":86}]},{"server_id":104,"name":"Uncletopia | Atlanta | 2 | All Maps","name_short":"atl-2","host":"atl-1.us.uncletopia.com","port":27025,"enabled":true,"region":"us-east","cc":"us","latitude":33.753746,"longitude":-84.38633,"reserved":0,"last_update":"0001-01-01T00:00:00Z","name_a2s":"Uncletopia | Atlanta | 2 | All Maps","protocol":17,"map":"pl_upward","folder":"tf","game":"Team Fortress","app_id":440,"player_count":24,"max_players":24,"Bots":0,"server_type":"Dedicated","server_os":"Linux","password":true,"vac":true,"version":"7757534","steam_id":85568392924469983,"keywords":["nocrits","nodmgspread","payload","uncletopia"],"game_id":440,"stv_port":27026,"stv_name":"Uncletopia | Atlanta | 2 | All Maps | STV","players":[{"user_id":248,"name":"uniwu - BUFF THE SPEED","steam_id":76561198864421290,"connected_time":1612000000000,"state":"active","ping":44},{"user_id":264,"name":"The Dead Weight","steam_id":76561198056694098,"connected_time":773000000000,"state":"active","ping":48},{"user_id":266,"name":"Trick","steam_id":76561199010111250,"connected_time":566000000000,"state":"active","ping":74},{"user_id":265,"name":"sweppy","steam_id":76561198035457667,"connected_time":723000000000,"state":"active","ping":46},{"user_id":267,"name":"Hashbrowncow","steam_id":76561198272021902,"connected_time":524000000000,"state":"active","ping":102},{"user_id":277,"name":"crusherty7","steam_id":76561199158729541,"connected_time":132000000000,"state":"active","ping":60},{"user_id":260,"name":"mousejumper","steam_id":76561198220181353,"connected_time":967000000000,"state":"active","ping":61},{"user_id":249,"name":"drippy man","steam_id":76561199074936388,"connected_time":1537000000000,"state":"active","ping":75},{"user_id":271,"name":"ThatOneGuy","steam_id":76561198272988503,"connected_time":308000000000,"state":"active","ping":90},{"user_id":272,"name":"The Chosen One","steam_id":76561199046984627,"connected_time":292000000000,"state":"active","ping":71},{"user_id":261,"name":"Zoratunictoon","steam_id":76561199475066871,"connected_time":930000000000,"state":"active","ping":145},{"user_id":222,"name":"Aerobro","steam_id":76561198033530996,"connected_time":2644000000000,"state":"active","ping":83},{"user_id":239,"name":"el vengador de la tienda","steam_id":76561199081928341,"connected_time":2211000000000,"state":"active","ping":84},{"user_id":278,"name":"swag money","steam_id":76561199076063272,"connected_time":66000000000,"state":"active","ping":88},{"user_id":157,"name":"Mall","steam_id":76561198436085386,"connected_time":7337000000000,"state":"active","ping":91},{"user_id":270,"name":"crunchy obama","steam_id":76561198044485217,"connected_time":457000000000,"state":"active","ping":113},{"user_id":269,"name":"DJ Spit","steam_id":76561198186637025,"connected_time":476000000000,"state":"active","ping":91},{"user_id":273,"name":"BigBear","steam_id":76561198105227261,"connected_time":285000000000,"state":"active","ping":81},{"user_id":274,"name":"ryfith","steam_id":76561198878986398,"connected_time":245000000000,"state":"active","ping":66},{"user_id":275,"name":"üåàzantusüåà","steam_id":76561198388545003,"connected_time":234000000000,"state":"active","ping":75},{"user_id":279,"name":"Odd Life","steam_id":76561198244979998,"connected_time":14000000000,"state":"active","ping":97},{"user_id":259,"name":"Restricted_Files","steam_id":76561199448121007,"connected_time":1021000000000,"state":"active","ping":119},{"user_id":276,"name":"High Tier Mortal","steam_id":76561198138347045,"connected_time":192000000000,"state":"active","ping":60},{"user_id":247,"name":"Carthage","steam_id":76561198049001571,"connected_time":1815000000000,"state":"active","ping":148}]},{"server_id":400,"name":"Uncletopia | Atlanta | 3 | Community","name_short":"atl-3","host":"atl-1.us.uncletopia.com","port":27035,"enabled":true,"region":"us-east","cc":"us","latitude":33.753746,"longitude":-84.38633,"reserved":0,"last_update":"0001-01-01T00:00:00Z","name_a2s":"Uncletopia | Atlanta | 3 | Community","protocol":17,"map":"workshop/cp_fulgur_rc2a.ugc2068252300","folder":"tf","game":"Team Fortress","app_id":440,"player_count":21,"max_players":24,"Bots":0,"server_type":"Dedicated","server_os":"Linux","password":true,"vac":true,"version":"7757534","steam_id":85568392924515187,"keywords":["cp","nocrits","nodmgspread","uncletopia"],"game_id":440,"stv_port":27036,"stv_name":"Uncletopia | Atlanta | 3 | Community | STV","players":[{"user_id":177,"name":"MARIOPARTYDSFAN","steam_id":76561198872122117,"connected_time":5922000000000,"state":"active","ping":111},{"user_id":260,"name":"Nugget","steam_id":76561198116697181,"connected_time":1327000000000,"state":"active","ping":61},{"user_id":268,"name":"Just_Bad","steam_id":76561198145153093,"connected_time":984000000000,"state":"active","ping":46},{"user_id":251,"name":"Carmaggedon","steam_id":76561198098744340,"connected_time":1843000000000,"state":"active","ping":56},{"user_id":262,"name":"kazoo2","steam_id":76561198260473504,"connected_time":1159000000000,"state":"active","ping":80},{"user_id":256,"name":"‚ô¶‚ô£Quadric‚ô•‚ô†","steam_id":76561198061003853,"connected_time":1690000000000,"state":"active","ping":74},{"user_id":259,"name":"Hoss Delgado","steam_id":76561197995328504,"connected_time":1531000000000,"state":"active","ping":86},{"user_id":261,"name":"PoggedGlobe1431","steam_id":76561199445351905,"connected_time":1243000000000,"state":"active","ping":92},{"user_id":284,"name":"Dr.BitchAss","steam_id":76561198371625682,"connected_time":235000000000,"state":"active","ping":88},{"user_id":279,"name":"Dr. Enforcicle (real)","steam_id":76561198964471859,"connected_time":752000000000,"state":"active","ping":75},{"user_id":281,"name":"kevin shields #1 fan","steam_id":76561197995200743,"connected_time":544000000000,"state":"active","ping":89},{"user_id":282,"name":"gods silliest sinner","steam_id":76561198972087444,"connected_time":533000000000,"state":"active","ping":52},{"user_id":275,"name":"huh","steam_id":76561198272057200,"connected_time":789000000000,"state":"active","ping":105},{"user_id":228,"name":"Fantastic Mr. Fox Appreciator","steam_id":76561198096306325,"connected_time":3174000000000,"state":"active","ping":105},{"user_id":269,"name":"MeatShield 2000","steam_id":76561199375192850,"connected_time":983000000000,"state":"active","ping":130},{"user_id":229,"name":"dairy","steam_id":76561198117033273,"connected_time":3138000000000,"state":"active","ping":135},{"user_id":270,"name":"Baker","steam_id":76561198055196430,"connected_time":982000000000,"state":"active","ping":76},{"user_id":272,"name":"Kael","steam_id":76561198041277031,"connected_time":931000000000,"state":"active","ping":75},{"user_id":244,"name":"A_Malebolgia","steam_id":76561198097722818,"connected_time":2555000000000,"state":"active","ping":94},{"user_id":278,"name":"Wiener Hole Paper Cut","steam_id":76561198000808203,"connected_time":771000000000,"state":"active","ping":72},{"user_id":247,"name":"Doppelpunkt","steam_id":76561198102137730,"connected_time":2198000000000,"state":"active","ping":56}]},{"server_id":401,"name":"Uncletopia | Atlanta | 4 | No Payload","name_short":"atl-4","host":"atl-1.us.uncletopia.com","port":27045,"enabled":true,"region":"us-east","cc":"us","latitude":33.753746,"longitude":-84.38633,"reserved":0,"last_update":"0001-01-01T00:00:00Z","name_a2s":"","protocol":0,"map":"","folder":"","game":"","app_id":0,"player_count":0,"max_players":0,"Bots":0,"server_type":"","server_os":"","password":false,"vac":false,"version":"","steam_id":0,"keywords":null,"game_id":0,"stv_port":0,"stv_name":"","players":null},{"server_id":2,"name":"Uncletopia | Chicago | 1 | All Maps","name_short":"chi-1","host":"chi-1.us.uncletopia.com","port":27015,"enabled":true,"region":"us-central","cc":"us","latitude":41.881832,"longitude":-87.62318,"reserved":0,"last_update":"0001-01-01T00:00:00Z","name_a2s":"Uncletopia | Chicago | 1 | All Maps","protocol":17,"map":"pl_barnblitz","folder":"tf","game":"Team Fortress","app_id":440,"player_count":20,"max_players":24,"Bots":0,"server_type":"Dedicated","server_os":"Linux","password":true,"vac":true,"version":"7757534","steam_id":85568392924469984,"keywords":["nocrits","nodmgspread","payload","uncletopia"],"game_id":440,"stv_port":27016,"stv_name":"Uncletopia | Chicago | 1 | All Maps | STV","players":[{"user_id":635,"name":"The MilkMann","steam_id":76561199006503777,"connected_time":78000000000,"state":"active","ping":52},{"user_id":556,"name":"Enron Hubbard","steam_id":76561198012951411,"connected_time":4623000000000,"state":"active","ping":49},{"user_id":632,"name":"Jeff Pesos","steam_id":76561198086379892,"connected_time":157000000000,"state":"active","ping":78},{"user_id":611,"name":"kametro4","steam_id":76561198835430429,"connected_time":702000000000,"state":"active","ping":79},{"user_id":596,"name":"Antonin Scalia","steam_id":76561198080687598,"connected_time":1907000000000,"state":"active","ping":56},{"user_id":622,"name":"MoonGazer","steam_id":76561199130046427,"connected_time":308000000000,"state":"active","ping":58},{"user_id":628,"name":"Seico Bass","steam_id":76561198123498500,"connected_time":198000000000,"state":"active","ping":82},{"user_id":621,"name":"bonk","steam_id":76561198821774697,"connected_time":323000000000,"state":"active","ping":57},{"user_id":616,"name":"rustyorion","steam_id":76561198439186347,"connected_time":496000000000,"state":"active","ping":96},{"user_id":609,"name":"car download website no virus","steam_id":76561198358434883,"connected_time":902000000000,"state":"active","ping":80},{"user_id":600,"name":"THE UNDERTAKER","steam_id":76561198089852954,"connected_time":1818000000000,"state":"active","ping":79},{"user_id":601,"name":"Goofy Goober","steam_id":76561198065361279,"connected_time":1800000000000,"state":"active","ping":84},{"user_id":551,"name":"‚ñ≥","steam_id":76561198060642242,"connected_time":4929000000000,"state":"active","ping":81},{"user_id":624,"name":"THEDINKY","steam_id":76561198190077399,"connected_time":251000000000,"state":"active","ping":59},{"user_id":629,"name":"bean goblin","steam_id":76561199185148234,"connected_time":178000000000,"state":"spawning","ping":89},{"user_id":626,"name":"Ivan I","steam_id":76561198341781527,"connected_time":223000000000,"state":"active","ping":85},{"user_id":546,"name":"Fudgely","steam_id":76561198039425862,"connected_time":5478000000000,"state":"active","ping":74},{"user_id":630,"name":"IAmAProfesonal","steam_id":76561199171858953,"connected_time":177000000000,"state":"active","ping":50},{"user_id":631,"name":"Axities","steam_id":76561198278008225,"connected_time":171000000000,"state":"active","ping":75},{"user_id":634,"name":"Sove67","steam_id":76561198069919807,"connected_time":135000000000,"state":"active","ping":77}]},{"server_id":106,"name":"Uncletopia | Chicago | 2 | All Maps","name_short":"chi-2","host":"chi-1.us.uncletopia.com","port":27025,"enabled":true,"region":"us-central","cc":"us","latitude":41.881832,"longitude":-87.62318,"reserved":0,"last_update":"0001-01-01T00:00:00Z","name_a2s":"Uncletopia | Chicago | 2 | All Maps","protocol":17,"map":"cp_steel","folder":"tf","game":"Team Fortress","app_id":440,"player_count":24,"max_players":24,"Bots":0,"server_type":"Dedicated","server_os":"Linux","password":true,"vac":true,"version":"7757534","steam_id":85568392924469985,"keywords":["cp","nocrits","nodmgspread","uncletopia"],"game_id":440,"stv_port":27026,"stv_name":"Uncletopia | Chicago | 2 | All Maps | STV","players":[{"user_id":380,"name":"Yeagle","steam_id":76561199086620299,"connected_time":857000000000,"state":"active","ping":76},{"user_id":384,"name":"the methamphetamine master","steam_id":76561198288526250,"connected_time":551000000000,"state":"active","ping":65},{"user_id":325,"name":"Swshbcklr","steam_id":76561197969421355,"connected_time":4290000000000,"state":"active","ping":62},{"user_id":385,"name":"p i n e ‚Üü ‚Üü","steam_id":76561198058199952,"connected_time":440000000000,"state":"active","ping":66},{"user_id":383,"name":"Bee","steam_id":76561199218602332,"connected_time":701000000000,"state":"active","ping":88},{"user_id":262,"name":"MedRed‚Ñ¢ #IATAH","steam_id":76561198002962970,"connected_time":8551000000000,"state":"active","ping":102},{"user_id":387,"name":"See? Bass!","steam_id":76561198207220181,"connected_time":366000000000,"state":"active","ping":82},{"user_id":388,"name":"blargo","steam_id":76561198073304260,"connected_time":351000000000,"state":"active","ping":76},{"user_id":350,"name":"top pyro hater (KILLEMALL)","steam_id":76561198081220016,"connected_time":2211000000000,"state":"active","ping":52},{"user_id":389,"name":"MrrPamplemousse","steam_id":76561198072241333,"connected_time":337000000000,"state":"active","ping":78},{"user_id":272,"name":"while(1)","steam_id":76561198000876529,"connected_time":7970000000000,"state":"active","ping":59},{"user_id":367,"name":"can't m1","steam_id":76561198060890973,"connected_time":1489000000000,"state":"active","ping":52},{"user_id":376,"name":"Mr.Friendly Reminders","steam_id":76561199067294491,"connected_time":1107000000000,"state":"active","ping":47},{"user_id":379,"name":"Lia_Rein","steam_id":76561198151569597,"connected_time":939000000000,"state":"active","ping":143},{"user_id":348,"name":"Penny #girl","steam_id":76561198144281771,"connected_time":2297000000000,"state":"active","ping":69},{"user_id":374,"name":"Charlie","steam_id":76561198798127908,"connected_time":1155000000000,"state":"active","ping":76},{"user_id":390,"name":"Healing Weapons Guy","steam_id":76561198005608047,"connected_time":61000000000,"state":"active","ping":58},{"user_id":375,"name":"KrashBoomBang","steam_id":76561199002978777,"connected_time":1146000000000,"state":"active","ping":70},{"user_id":324,"name":"hej","steam_id":76561197996366940,"connected_time":4306000000000,"state":"active","ping":60},{"user_id":377,"name":"Pim","steam_id":76561198046050375,"connected_time":1100000000000,"state":"active","ping":129},{"user_id":381,"name":"ap","steam_id":76561198202273263,"connected_time":856000000000,"state":"active","ping":45},{"user_id":378,"name":"The Flaming Monocle","steam_id":76561198060757015,"connected_time":1094000000000,"state":"active","ping":80},{"user_id":369,"name":"Adam (Cursed Confetti Creature)","steam_id":76561198317690197,"connected_time":1300000000000,"state":"active","ping":45},{"user_id":354,"name":"s___ on the grass","steam_id":76561198008453104,"connected_time":2145000000000,"state":"active","ping":58}]},{"server_id":402,"name":"Uncletopia | Chicago | 3 | All Maps","name_short":"chi-3","host":"chi-1.us.uncletopia.com","port":27035,"enabled":true,"region":"us-central","cc":"us","latitude":41.881832,"longitude":-87.62318,"reserved":0,"last_update":"0001-01-01T00:00:00Z","name_a2s":"Uncletopia | Chicago | 3 | All Maps","protocol":17,"map":"koth_highpass","folder":"tf","game":"Team Fortress","app_id":440,"player_count":22,"max_players":24,"Bots":0,"server_type":"Dedicated","server_os":"Linux","password":true,"vac":true,"version":"7757534","steam_id":85568392924515191,"keywords":["cp","nocrits","nodmgspread","uncletopia"],"game_id":440,"stv_port":27036,"stv_name":"Uncletopia | Chicago | 3 | All Maps | STV","players":[{"user_id":274,"name":"HeatLighting","steam_id":76561198167696287,"connected_time":1259000000000,"state":"active","ping":65},{"user_id":263,"name":"Walkiing","steam_id":76561198074473413,"connected_time":2008000000000,"state":"active","ping":44},{"user_id":269,"name":"TEZOS","steam_id":76561197972656632,"connected_time":1494000000000,"state":"active","ping":53},{"user_id":284,"name":"MEGATRON","steam_id":76561198820480684,"connected_time":545000000000,"state":"active","ping":58},{"user_id":272,"name":"PiolaCat","steam_id":76561199100535345,"connected_time":1283000000000,"state":"active","ping":127},{"user_id":275,"name":"Gun Laws (aint ever!)","steam_id":76561198380678609,"connected_time":1235000000000,"state":"active","ping":168},{"user_id":276,"name":"mkl","steam_id":76561197986401685,"connected_time":1180000000000,"state":"active","ping":77},{"user_id":289,"name":"kermit","steam_id":76561198099928281,"connected_time":77000000000,"state":"active","ping":66},{"user_id":280,"name":"Pinto","steam_id":76561199105386998,"connected_time":953000000000,"state":"active","ping":76},{"user_id":236,"name":"ZaChelbom","steam_id":76561198089343809,"connected_time":3764000000000,"state":"active","ping":46},{"user_id":238,"name":"Donnie Oats","steam_id":76561198091111592,"connected_time":3698000000000,"state":"active","ping":63},{"user_id":287,"name":"ribbit","steam_id":76561198036739643,"connected_time":264000000000,"state":"active","ping":54},{"user_id":270,"name":"Julia","steam_id":76561198175727790,"connected_time":1352000000000,"state":"active","ping":94},{"user_id":253,"name":"Blue‚õßMelon","steam_id":76561197970926435,"connected_time":2988000000000,"state":"active","ping":65},{"user_id":225,"name":"Hikage","steam_id":76561198152901166,"connected_time":5098000000000,"state":"active","ping":115},{"user_id":266,"name":"L0b5terlick","steam_id":76561198134990930,"connected_time":1987000000000,"state":"active","ping":55},{"user_id":268,"name":"Grandpa Simpson (Official)","steam_id":76561198057607033,"connected_time":1927000000000,"state":"active","ping":54},{"user_id":273,"name":"jobert","steam_id":76561198180581571,"connected_time":1281000000000,"state":"active","ping":45},{"user_id":223,"name":"ShitsandGiggles‚Ñ¢","steam_id":76561198058708019,"connected_time":5204000000000,"state":"active","ping":53},{"user_id":278,"name":"Spyfall","steam_id":76561198081729993,"connected_time":1164000000000,"state":"active","ping":68},{"user_id":288,"name":"Kidzbopsicle","steam_id":76561198047660691,"connected_time":109000000000,"state":"active","ping":59},{"user_id":286,"name":"TheParanoidAndroid","steam_id":76561198024940715,"connected_time":377000000000,"state":"active","ping":67}]},{"server_id":403,"name":"Uncletopia | Chicago | 4 | All Maps","name_short":"chi-4","host":"chi-1.us.uncletopia.com","port":27045,"enabled":true,"region":"us-central","cc":"us","latitude":41.881832,"longitude":-87.62318,"reserved":0,"last_update":"0001-01-01T00:00:00Z","name_a2s":"Uncletopia | Chicago | 4 | All Maps","protocol":17,"map":"pl_upward","folder":"tf","game":"Team Fortress","app_id":440,"player_count":24,"max_players":24,"Bots":0,"server_type":"Dedicated","server_os":"Linux","password":true,"vac":true,"version":"7757534","steam_id":85568392924515193,"keywords":["nocrits","nodmgspread","payload","uncletopia"],"game_id":440,"stv_port":27046,"stv_name":"Uncletopia | Chicago | 4 | All Maps | STV","players":[{"user_id":716,"name":"yeyoi","steam_id":76561198069821885,"connected_time":655000000000,"state":"active","ping":71},{"user_id":689,"name":"Rick Assley","steam_id":76561198365019199,"connected_time":2857000000000,"state":"active","ping":62},{"user_id":665,"name":"Anthoneeee","steam_id":76561199209220671,"connected_time":4194000000000,"state":"active","ping":122},{"user_id":694,"name":"Indigolake","steam_id":76561198202215807,"connected_time":1792000000000,"state":"active","ping":93},{"user_id":712,"name":"fumblom","steam_id":76561199389283507,"connected_time":682000000000,"state":"active","ping":70},{"user_id":644,"name":"Peepster","steam_id":76561198297854733,"connected_time":5783000000000,"state":"active","ping":71},{"user_id":668,"name":"Krellah","steam_id":76561198287045069,"connected_time":4135000000000,"state":"active","ping":50},{"user_id":703,"name":"hummus in my tummus","steam_id":76561199438698036,"connected_time":1102000000000,"state":"active","ping":80},{"user_id":708,"name":"Toottoot","steam_id":76561197992404836,"connected_time":974000000000,"state":"active","ping":51},{"user_id":700,"name":"Bluedot","steam_id":76561198019909639,"connected_time":1406000000000,"state":"active","ping":62},{"user_id":706,"name":"[El Fail] MR.BadassMCLee","steam_id":76561198043787818,"connected_time":1013000000000,"state":"active","ping":110},{"user_id":701,"name":"mr. bean bananza","steam_id":76561198842567021,"connected_time":1331000000000,"state":"active","ping":87},{"user_id":714,"name":"skipper","steam_id":76561198395965181,"connected_time":664000000000,"state":"active","ping":66},{"user_id":724,"name":"i snort ants","steam_id":76561198040939246,"connected_time":399000000000,"state":"active","ping":48},{"user_id":685,"name":"Mike Charlie","steam_id":76561199470538309,"connected_time":3162000000000,"state":"active","ping":54},{"user_id":675,"name":"cassius","steam_id":76561198203851303,"connected_time":3923000000000,"state":"active","ping":82},{"user_id":726,"name":"Notation","steam_id":76561198119509319,"connected_time":39000000000,"state":"active","ping":60},{"user_id":725,"name":"thomasdee725!!!!","steam_id":76561199189526173,"connected_time":153000000000,"state":"active","ping":92},{"user_id":696,"name":"Diarrhea Gaming","steam_id":76561198090589784,"connected_time":1776000000000,"state":"active","ping":89},{"user_id":702,"name":"Universe Man","steam_id":76561197997710655,"connected_time":1186000000000,"state":"active","ping":86},{"user_id":719,"name":"Dongus","steam_id":76561197979056451,"connected_time":578000000000,"state":"active","ping":90},{"user_id":720,"name":"Chomsky Honk","steam_id":76561198316685679,"connected_time":560000000000,"state":"active","ping":85},{"user_id":721,"name":"ùô¥ ùö° ùöå ùöé ùöï ùöï \ufffd","steam_id":76561198011887958,"connected_time":555000000000,"state":"active","ping":67}]},{"server_id":36,"name":"Uncletopia | Chicago | 5 | All Maps","name_short":"chi-5","host":"chi-2.us.uncletopia.com","port":27015,"enabled":true,"region":"us-central","cc":"us","latitude":41.881832,"longitude":-87.62318,"reserved":0,"last_update":"0001-01-01T00:00:00Z","name_a2s":"Uncletopia | Chicago | 5 | All Maps","protocol":17,"map":"koth_viaduct","folder":"tf","game":"Team Fortress","app_id":440,"player_count":23,"max_players":24,"Bots":0,"server_type":"Dedicated","server_os":"Linux","password":true,"vac":true,"version":"7757534","steam_id":85568392924866362,"keywords":["cp","nocrits","nodmgspread","uncletopia"],"game_id":440,"stv_port":27016,"stv_name":"Uncletopia | Chicago | 5 | All Maps | STV","players":[{"user_id":256,"name":"Hash Yellow Mellow","steam_id":76561198089697360,"connected_time":439000000000,"state":"active","ping":85},{"user_id":226,"name":"‚ù§‚ô°ÔΩ•ÔæüBubblesÔΩ•Ôæü‚ô°‚ù§","steam_id":76561198041057042,"connected_time":1808000000000,"state":"active","ping":57},{"user_id":261,"name":"THE ORPHAN OBLITERATER","steam_id":76561199124748604,"connected_time":184000000000,"state":"active","ping":80},{"user_id":262,"name":"Transformer6000","steam_id":76561199261627100,"connected_time":1000000000,"state":"spawning","ping":54},{"user_id":139,"name":"katana","steam_id":76561198079488962,"connected_time":9093000000000,"state":"active","ping":99},{"user_id":238,"name":"Rodentmancer","steam_id":76561198011675372,"connected_time":1392000000000,"state":"active","ping":110},{"user_id":249,"name":"LoveShark","steam_id":76561198141498508,"connected_time":963000000000,"state":"active","ping":122},{"user_id":197,"name":"Cristanc99","steam_id":76561198114715810,"connected_time":3968000000000,"state":"active","ping":60},{"user_id":235,"name":"roblox car crash","steam_id":76561199012771039,"connected_time":1616000000000,"state":"active","ping":95},{"user_id":258,"name":"otterpilot77","steam_id":76561199092359175,"connected_time":308000000000,"state":"active","ping":73},{"user_id":259,"name":"zooswithoutzebras","steam_id":76561198042053680,"connected_time":297000000000,"state":"active","ping":84},{"user_id":252,"name":"Clean Lines","steam_id":76561197960691518,"connected_time":901000000000,"state":"active","ping":56},{"user_id":260,"name":"Emails","steam_id":76561198836919458,"connected_time":294000000000,"state":"active","ping":80},{"user_id":232,"name":"reymundo","steam_id":76561197989412830,"connected_time":1710000000000,"state":"active","ping":109},{"user_id":255,"name":"Comic","steam_id":76561198391882145,"connected_time":653000000000,"state":"active","ping":38},{"user_id":243,"name":"Cousin Corn on the Cob","steam_id":76561198049837377,"connected_time":1164000000000,"state":"active","ping":48},{"user_id":251,"name":"DJpocalypse","steam_id":76561199230125964,"connected_time":933000000000,"state":"active","ping":91},{"user_id":155,"name":"bash -lc ./asshat.sh","steam_id":76561198004584315,"connected_time":7592000000000,"state":"active","ping":62},{"user_id":219,"name":"Hammerhead","steam_id":76561198897122890,"connected_time":2476000000000,"state":"active","ping":58},{"user_id":127,"name":"mountain*‚ú©‚Äß‚ÇäÀö","steam_id":76561198078395002,"connected_time":10979000000000,"state":"active","ping":64},{"user_id":247,"name":"Blitz3k","steam_id":76561198055758741,"connected_time":1037000000000,"state":"active","ping":60},{"user_id":215,"name":"micah","steam_id":76561197984579630,"connected_time":2693000000000,"state":"active","ping":98},{"user_id":248,"name":"Galaxy","steam_id":76561198035134466,"connected_time":1029000000000,"state":"active","ping":77}]},{"server_id":37,"name":"Uncletopia | Chicago | 6 | All Maps","name_short":"chi-6","host":"chi-2.us.uncletopia.com","port":27025,"enabled":true,"region":"us-central","cc":"us","latitude":41.881832,"longitude":-87.62318,"reserved":0,"last_update":"0001-01-01T00:00:00Z","name_a2s":"Uncletopia | Chicago | 6 | All Maps","protocol":17,"map":"pl_pier","folder":"tf","game":"Team Fortress","app_id":440,"player_count":24,"max_players":24,"Bots":0,"server_type":"Dedicated","server_os":"Linux","password":true,"vac":true,"version":"7757534","steam_id":85568392924866363,"keywords":["nocrits","nodmgspread","payload","uncletopia"],"game_id":440,"stv_port":27026,"stv_name":"Uncletopia | Chicago | 6 | All Maps | STV","players":[{"user_id":342,"name":"SteelForce","steam_id":76561199158386096,"connected_time":614000000000,"state":"active","ping":154},{"user_id":343,"name":"ZofoJackson","steam_id":76561197998366861,"connected_time":585000000000,"state":"active","ping":57},{"user_id":298,"name":"Zote the Mighty","steam_id":76561199200101117,"connected_time":2459000000000,"state":"active","ping":67},{"user_id":310,"name":"Viciosa","steam_id":76561198115155449,"connected_time":1588000000000,"state":"active","ping":70},{"user_id":299,"name":"Pizza Employee","steam_id":76561199073301053,"connected_time":2457000000000,"state":"active","ping":109},{"user_id":293,"name":"Fresh0c0","steam_id":76561198271933283,"connected_time":2645000000000,"state":"active","ping":61},{"user_id":309,"name":"tablepiN","steam_id":76561198348930428,"connected_time":1833000000000,"state":"active","ping":68},{"user_id":295,"name":"ËõãÊç≤:D","steam_id":76561198353606160,"connected_time":2639000000000,"state":"active","ping":62},{"user_id":334,"name":"cream","steam_id":76561198056328408,"connected_time":877000000000,"state":"active","ping":60},{"user_id":336,"name":"lukamine","steam_id":76561198166827208,"connected_time":826000000000,"state":"active","ping":90},{"user_id":332,"name":"ScrambledEggsNRamen","steam_id":76561198206475411,"connected_time":980000000000,"state":"active","ping":90},{"user_id":302,"name":"pedro64m","steam_id":76561199049838300,"connected_time":2422000000000,"state":"active","ping":133},{"user_id":346,"name":"uufyfuu","steam_id":76561198142787212,"connected_time":120000000000,"state":"active","ping":80},{"user_id":325,"name":"sagepeacooler","steam_id":76561199119413147,"connected_time":1313000000000,"state":"active","ping":118},{"user_id":303,"name":"owl","steam_id":76561199138879610,"connected_time":2406000000000,"state":"active","ping":137},{"user_id":347,"name":"Ping","steam_id":76561199206514106,"connected_time":110000000000,"state":"active","ping":55},{"user_id":333,"name":"golem","steam_id":76561198355040593,"connected_time":895000000000,"state":"active","ping":76},{"user_id":304,"name":"Tommy Pickles (Very Cool)","steam_id":76561198391261463,"connected_time":2369000000000,"state":"active","ping":70},{"user_id":345,"name":"Vestuvian","steam_id":76561199007823355,"connected_time":410000000000,"state":"active","ping":79},{"user_id":305,"name":"The BallSmasher","steam_id":76561198107810115,"connected_time":2365000000000,"state":"active","ping":72},{"user_id":340,"name":"Pennis the Menace","steam_id":76561198254878037,"connected_time":717000000000,"state":"active","ping":104},{"user_id":314,"name":"Zero","steam_id":76561199383267408,"connected_time":1498000000000,"state":"active","ping":81},{"user_id":344,"name":"Scita","steam_id":76561198066861559,"connected_time":535000000000,"state":"active","ping":75},{"user_id":321,"name":"Chicken","steam_id":76561198263575314,"connected_time":1378000000000,"state":"active","ping":141}]},{"server_id":38,"name":"Uncletopia | Chicago | 7 | Stopwatch Beta","name_short":"chi-7","host":"chi-2.us.uncletopia.com","port":27035,"enabled":true,"region":"us-central","cc":"us","latitude":41.881832,"longitude":-87.62318,"reserved":0,"last_update":"0001-01-01T00:00:00Z","name_a2s":"Uncletopia | Chicago | 7 | Stopwatch Beta","protocol":17,"map":"pl_upward","folder":"tf","game":"Team Fortress","app_id":440,"player_count":0,"max_players":24,"Bots":0,"server_type":"Dedicated","server_os":"Linux","password":true,"vac":true,"version":"7757534","steam_id":85568392924866364,"keywords":["nocrits","nodmgspread","payload","uncletopia"],"game_id":440,"stv_port":27036,"stv_name":"Uncletopia | Chicago | 7 | Stopwatch Beta | STV","players":null},{"server_id":39,"name":"Uncletopia | Chicago | 8 | Community","name_short":"chi-8","host":"chi-2.us.uncletopia.com","port":27045,"enabled":true,"region":"us-central","cc":"us","latitude":41.881832,"longitude":-87.62318,"reserved":0,"last_update":"0001-01-01T00:00:00Z","name_a2s":"Uncletopia | Chicago | 8 | Community","protocol":17,"map":"workshop/koth_product_final.ugc454272353","folder":"tf","game":"Team Fortress","app_id":440,"player_count":3,"max_players":24,"Bots":0,"server_type":"Dedicated","server_os":"Linux","password":true,"vac":true,"version":"7757534","steam_id":85568392924866365,"keywords":["cp","nocrits","nodmgspread","uncletopia"],"game_id":440,"stv_port":27046,"stv_name":"Uncletopia | Chicago | 8 | Community | STV","players":[{"user_id":45,"name":"i'm so lonly","steam_id":76561198355068405,"connected_time":944000000000,"state":"active","ping":67},{"user_id":36,"name":"Detritrus","steam_id":76561198842014421,"connected_time":2332000000000,"state":"active","ping":53},{"user_id":49,"name":"‡πñ€£€ú‚â´√ê!œü‚òæ‚òâ‚Ñõ√ê","steam_id":76561198095974361,"connected_time":446000000000,"state":"active","ping":85}]},{"server_id":8,"name":"Uncletopia | Dallas | 1 | All Maps","name_short":"dal-1","host":"dal-1.us.uncletopia.com","port":27015,"enabled":true,"region":"us-central","cc":"us","latitude":32.779167,"longitude":-96.80889,"reserved":0,"last_update":"0001-01-01T00:00:00Z","name_a2s":"Uncletopia | Dallas | 1 | All Maps","protocol":17,"map":"pl_snowycoast","folder":"tf","game":"Team Fortress","app_id":440,"player_count":24,"max_players":24,"Bots":0,"server_type":"Dedicated","server_os":"Linux","password":true,"vac":true,"version":"7757534","steam_id":85568392924469986,"keywords":["nocrits","nodmgspread","payload","uncletopia"],"game_id":440,"stv_port":27016,"stv_name":"Uncletopia | Dallas | 1 | All Maps | STV","players":[{"user_id":513,"name":"Chhaam","steam_id":76561198058508132,"connected_time":1448000000000,"state":"active","ping":75},{"user_id":519,"name":"Horse","steam_id":76561199112075552,"connected_time":519000000000,"state":"active","ping":85},{"user_id":516,"name":"boobies arc","steam_id":76561198316753540,"connected_time":1086000000000,"state":"active","ping":34},{"user_id":489,"name":"Gian","steam_id":76561198041434512,"connected_time":4145000000000,"state":"active","ping":111},{"user_id":518,"name":"They could be starlings","steam_id":76561198441020995,"connected_time":562000000000,"state":"active","ping":95},{"user_id":478,"name":"test","steam_id":76561198197388678,"connected_time":5246000000000,"state":"active","ping":74},{"user_id":491,"name":"Walmus","steam_id":76561198111416393,"connected_time":3924000000000,"state":"active","ping":77},{"user_id":507,"name":"Nidus | IFN.GG","steam_id":76561198886277516,"connected_time":2052000000000,"state":"active","ping":66},{"user_id":495,"name":"Bheem","steam_id":76561198170453459,"connected_time":3747000000000,"state":"active","ping":101},{"user_id":511,"name":"BackwardsEagle","steam_id":76561199013712612,"connected_time":1577000000000,"state":"active","ping":97},{"user_id":509,"name":"Fishstall","steam_id":76561198038126034,"connected_time":1792000000000,"state":"active","ping":73},{"user_id":512,"name":"hatchetax","steam_id":76561199013337543,"connected_time":1549000000000,"state":"active","ping":73},{"user_id":502,"name":"iluvtoust","steam_id":76561198869269207,"connected_time":2676000000000,"state":"active","ping":55},{"user_id":517,"name":"Large Charles","steam_id":76561197999663001,"connected_time":1073000000000,"state":"active","ping":62},{"user_id":466,"name":"ROGUE-PLANET","steam_id":76561198116023052,"connected_time":6312000000000,"state":"active","ping":70},{"user_id":298,"name":"average xbox controller enjoyer","steam_id":76561199026721822,"connected_time":10837000000000,"state":"active","ping":89},{"user_id":270,"name":"Joe Swanson","steam_id":76561199089907740,"connected_time":13155000000000,"state":"active","ping":71},{"user_id":498,"name":"K4le","steam_id":76561198747668363,"connected_time":3669000000000,"state":"active","ping":92},{"user_id":515,"name":"Toygar","steam_id":76561198023679830,"connected_time":1198000000000,"state":"active","ping":71},{"user_id":410,"name":"B.","steam_id":76561198040445907,"connected_time":7892000000000,"state":"active","ping":75},{"user_id":508,"name":"Intestinal Straw","steam_id":76561198082095303,"connected_time":1893000000000,"state":"active","ping":86},{"user_id":486,"name":"gremlin","steam_id":76561198796215113,"connected_time":5061000000000,"state":"active","ping":75},{"user_id":469,"name":"Darling","steam_id":76561198127525888,"connected_time":5692000000000,"state":"active","ping":58},{"user_id":510,"name":"Giselle","steam_id":76561198162593640,"connected_time":1774000000000,"state":"active","ping":109}]},{"server_id":108,"name":"Uncletopia | Dallas | 2 | All Maps","name_short":"dal-2","host":"dal-1.us.uncletopia.com","port":27025,"enabled":true,"region":"us-central","cc":"us","latitude":32.779167,"longitude":-96.80889,"reserved":0,"last_update":"0001-01-01T00:00:00Z","name_a2s":"Uncletopia | Dallas | 2 | All Maps","protocol":17,"map":"cp_sunshine","folder":"tf","game":"Team Fortress","app_id":440,"player_count":24,"max_players":24,"Bots":0,"server_type":"Dedicated","server_os":"Linux","password":true,"vac":true,"version":"7757534","steam_id":85568392924469988,"keywords":["cp","nocrits","nodmgspread","uncletopia"],"game_id":440,"stv_port":27026,"stv_name":"Uncletopia | Dallas | 2 | All Maps | STV","players":[{"user_id":375,"name":"Rex The Mouse","steam_id":76561197995569428,"connected_time":68000000000,"state":"active","ping":85},{"user_id":306,"name":"DMM","steam_id":76561198065426171,"connected_time":5175000000000,"state":"active","ping":46},{"user_id":309,"name":"Underscore","steam_id":76561198374209415,"connected_time":5072000000000,"state":"active","ping":57},{"user_id":369,"name":"trobin120","steam_id":76561199122420273,"connected_time":187000000000,"state":"active","ping":80},{"user_id":240,"name":"Hormone Tyrant","steam_id":76561198057571424,"connected_time":9393000000000,"state":"active","ping":110},{"user_id":370,"name":"Unwavering Flavor","steam_id":76561198053306065,"connected_time":164000000000,"state":"active","ping":53},{"user_id":349,"name":"Bacon Hoodie","steam_id":76561198843822629,"connected_time":1836000000000,"state":"active","ping":59},{"user_id":359,"name":"Squirtinq","steam_id":76561198171139050,"connected_time":1547000000000,"state":"active","ping":48},{"user_id":355,"name":"Red","steam_id":76561198031865869,"connected_time":1637000000000,"state":"active","ping":62},{"user_id":353,"name":"lemon","steam_id":76561198086406706,"connected_time":1664000000000,"state":"active","ping":68},{"user_id":341,"name":"xZackAttack27x","steam_id":76561198035446639,"connected_time":2406000000000,"state":"active","ping":44},{"user_id":277,"name":"Gel electrophoresis railgun","steam_id":76561198032259680,"connected_time":7853000000000,"state":"active","ping":91},{"user_id":371,"name":"sock","steam_id":76561199117597830,"connected_time":155000000000,"state":"active","ping":196},{"user_id":368,"name":"seriousbirb","steam_id":76561199047851076,"connected_time":1047000000000,"state":"active","ping":114},{"user_id":372,"name":"Super Mega Buster #savetf2","steam_id":76561198160316069,"connected_time":151000000000,"state":"active","ping":100},{"user_id":326,"name":"Gocel","steam_id":76561198071467515,"connected_time":3550000000000,"state":"active","ping":84},{"user_id":366,"name":"Shattered Glass","steam_id":76561198116835391,"connected_time":1335000000000,"state":"active","ping":90},{"user_id":373,"name":"Sal In Haiti","steam_id":76561198055452939,"connected_time":147000000000,"state":"active","ping":92},{"user_id":356,"name":"Wetwork","steam_id":76561198142023828,"connected_time":1580000000000,"state":"active","ping":94},{"user_id":333,"name":"Tirlby","steam_id":76561198045231233,"connected_time":3112000000000,"state":"active","ping":77},{"user_id":374,"name":"giura","steam_id":76561197986794525,"connected_time":115000000000,"state":"active","ping":84},{"user_id":300,"name":"triph","steam_id":76561198067196509,"connected_time":5728000000000,"state":"active","ping":72},{"user_id":338,"name":"inzang","steam_id":76561198088318074,"connected_time":2718000000000,"state":"active","ping":54},{"user_id":347,"name":"Karma","steam_id":76561199112057184,"connected_time":2295000000000,"state":"active","ping":64}]},{"server_id":5,"name":"Uncletopia | Frankfurt | 1 | All Maps","name_short":"frk-1","host":"frk-1.de.uncletopia.com","port":27015,"enabled":true,"region":"eu","cc":"de","latitude":50.110924,"longitude":8.682127,"reserved":0,"last_update":"0001-01-01T00:00:00Z","name_a2s":"Uncletopia | Frankfurt | 1 | All Maps","protocol":17,"map":"koth_viaduct","folder":"tf","game":"Team Fortress","app_id":440,"player_count":0,"max_players":24,"Bots":0,"server_type":"Dedicated","server_os":"Linux","password":true,"vac":true,"version":"7757534","steam_id":85568392924469989,"keywords":["cp","nocrits","nodmgspread","uncletopia"],"game_id":440,"stv_port":27016,"stv_name":"Uncletopia | Frankfurt | 1 | All Maps | STV","players":null},{"server_id":110,"name":"Uncletopia | Frankfurt | 2 | All Maps","name_short":"frk-2","host":"frk-1.de.uncletopia.com","port":27025,"enabled":true,"region":"eu","cc":"de","latitude":50.110924,"longitude":8.682127,"reserved":0,"last_update":"0001-01-01T00:00:00Z","name_a2s":"Uncletopia | Frankfurt | 2 | All Maps","protocol":17,"map":"koth_cascade","folder":"tf","game":"Team Fortress","app_id":440,"player_count":0,"max_players":24,"Bots":0,"server_type":"Dedicated","server_os":"Linux","password":true,"vac":true,"version":"7757534","steam_id":85568392924469990,"keywords":["cp","nocrits","nodmgspread","uncletopia"],"game_id":440,"stv_port":27026,"stv_name":"Uncletopia | Frankfurt | 2 | All Maps | STV","players":null},{"server_id":308,"name":"Uncletopia | Frankfurt | 3 | All Maps","name_short":"frk-3","host":"frk-1.de.uncletopia.com","port":27035,"enabled":true,"region":"eu","cc":"de","latitude":50.110924,"longitude":8.682127,"reserved":0,"last_update":"0001-01-01T00:00:00Z","name_a2s":"Uncletopia | Frankfurt | 3 | All Maps","protocol":17,"map":"cp_mountainlab","folder":"tf","game":"Team Fortress","app_id":440,"player_count":0,"max_players":24,"Bots":0,"server_type":"Dedicated","server_os":"Linux","password":true,"vac":true,"version":"7757534","steam_id":85568392924504274,"keywords":["cp","nocrits","nodmgspread","uncletopia"],"game_id":440,"stv_port":27036,"stv_name":"Uncletopia | Frankfurt | 3 | All Maps | STV","players":null},{"server_id":309,"name":"Uncletopia | Frankfurt | 4 | All Maps","name_short":"frk-4","host":"frk-1.de.uncletopia.com","port":27045,"enabled":true,"region":"eu","cc":"de","latitude":50.110924,"longitude":8.682127,"reserved":0,"last_update":"0001-01-01T00:00:00Z","name_a2s":"Uncletopia | Frankfurt | 4 | All Maps","protocol":17,"map":"pl_upward","folder":"tf","game":"Team Fortress","app_id":440,"player_count":0,"max_players":24,"Bots":0,"server_type":"Dedicated","server_os":"Linux","password":true,"vac":true,"version":"7757534","steam_id":85568392924504275,"keywords":["nocrits","nodmgspread","payload","uncletopia"],"game_id":440,"stv_port":27046,"stv_name":"Uncletopia | Frankfurt | 4 | All Maps | STV","players":null},{"server_id":310,"name":"Uncletopia | Frankfurt | 5 | All Maps","name_short":"frk-5","host":"frk-1.de.uncletopia.com","port":27055,"enabled":true,"region":"eu","cc":"de","latitude":50.110924,"longitude":8.682127,"reserved":0,"last_update":"0001-01-01T00:00:00Z","name_a2s":"Uncletopia | Frankfurt | 5 | All Maps","protocol":17,"map":"pl_badwater","folder":"tf","game":"Team Fortress","app_id":440,"player_count":24,"max_players":24,"Bots":0,"server_type":"Dedicated","server_os":"Linux","password":true,"vac":true,"version":"7757534","steam_id":85568392924504277,"keywords":["nocrits","nodmgspread","payload","uncletopia"],"game_id":440,"stv_port":27056,"stv_name":"Uncletopia | Frankfurt | 5 | All Maps | STV","players":[{"user_id":639,"name":"Gaming on a Touchpad #RRC","steam_id":76561198352093354,"connected_time":1206000000000,"state":"active","ping":75},{"user_id":654,"name":"Sus Fring","steam_id":76561198821542489,"connected_time":395000000000,"state":"active","ping":96},{"user_id":637,"name":"ali bomaye","steam_id":76561199143737200,"connected_time":1277000000000,"state":"active","ping":98},{"user_id":655,"name":"Senko","steam_id":76561198149361291,"connected_time":379000000000,"state":"active","ping":46},{"user_id":630,"name":"darkwater","steam_id":76561197986978738,"connected_time":1850000000000,"state":"active","ping":59},{"user_id":638,"name":"üÉî Nugg1t(she/they)","steam_id":76561198065652251,"connected_time":1272000000000,"state":"active","ping":44},{"user_id":631,"name":"Total noob","steam_id":76561198274105878,"connected_time":1847000000000,"state":"active","ping":91},{"user_id":609,"name":"ldshwt","steam_id":76561198090364357,"connected_time":3935000000000,"state":"active","ping":46},{"user_id":656,"name":"Gargus","steam_id":76561198054952604,"connected_time":131000000000,"state":"active","ping":46},{"user_id":595,"name":"swazzii","steam_id":76561198141744030,"connected_time":4601000000000,"state":"active","ping":75},{"user_id":650,"name":"Anus Stretcher","steam_id":76561198028304695,"connected_time":622000000000,"state":"active","ping":58},{"user_id":570,"name":"nynon","steam_id":76561197998432126,"connected_time":6573000000000,"state":"active","ping":78},{"user_id":619,"name":"Vershal Smershal","steam_id":76561198116223995,"connected_time":2844000000000,"state":"active","ping":59},{"user_id":643,"name":"frenchie","steam_id":76561198178298931,"connected_time":1166000000000,"state":"active","ping":56},{"user_id":644,"name":"Dragul","steam_id":76561198032885938,"connected_time":1149000000000,"state":"active","ping":58},{"user_id":596,"name":"whip","steam_id":76561198177059485,"connected_time":4591000000000,"state":"active","ping":79},{"user_id":645,"name":"metaslave","steam_id":76561198074667742,"connected_time":1146000000000,"state":"active","ping":64},{"user_id":652,"name":"kaktusswe","steam_id":76561198279344223,"connected_time":596000000000,"state":"active","ping":69},{"user_id":647,"name":"ducks","steam_id":76561198166148685,"connected_time":876000000000,"state":"active","ping":46},{"user_id":599,"name":"cp_frankfurt","steam_id":76561198126008470,"connected_time":4572000000000,"state":"active","ping":52},{"user_id":653,"name":"lun4tic","steam_id":76561198850496647,"connected_time":563000000000,"state":"active","ping":60},{"user_id":623,"name":"Klumz","steam_id":76561198045750180,"connected_time":2193000000000,"state":"active","ping":88},{"user_id":478,"name":"Dr. Grey","steam_id":76561198036320370,"connected_time":13409000000000,"state":"active","ping":90},{"user_id":636,"name":"mooncaller.","steam_id":76561198096787344,"connected_time":1417000000000,"state":"active","ping":87}]},{"server_id":311,"name":"Uncletopia | Frankfurt | 6 | All Maps","name_short":"frk-6","host":"frk-1.de.uncletopia.com","port":27065,"enabled":true,"region":"eu","cc":"de","latitude":50.110924,"longitude":8.682127,"reserved":0,"last_update":"0001-01-01T00:00:00Z","name_a2s":"Uncletopia | Frankfurt | 6 | All Maps","protocol":17,"map":"pl_badwater","folder":"tf","game":"Team Fortress","app_id":440,"player_count":0,"max_players":24,"Bots":0,"server_type":"Dedicated","server_os":"Linux","password":true,"vac":true,"version":"7757534","steam_id":85568392924504278,"keywords":["nocrits","nodmgspread","payload","uncletopia"],"game_id":440,"stv_port":27066,"stv_name":"Uncletopia | Frankfurt | 6 | All Maps | STV","players":null},{"server_id":23,"name":"Uncletopia | Frankfurt | 7 | Stopwatch Beta","name_short":"frk-7","host":"frk-1.de.uncletopia.com","port":27075,"enabled":true,"region":"eu","cc":"de","latitude":50.110924,"longitude":8.682127,"reserved":0,"last_update":"0001-01-01T00:00:00Z","name_a2s":"Uncletopia | Frankfurt | 7 | Stopwatch Beta","protocol":17,"map":"cp_gullywash_final1","folder":"tf","game":"Team Fortress","app_id":440,"player_count":0,"max_players":24,"Bots":0,"server_type":"Dedicated","server_os":"Linux","password":true,"vac":true,"version":"7757534","steam_id":85568392924742827,"keywords":["cp","nocrits","nodmgspread","uncletopia"],"game_id":440,"stv_port":27076,"stv_name":"Uncletopia | Frankfurt | 7 | Stopwatch Beta | STV","players":null},{"server_id":24,"name":"Uncletopia | Frankfurt | 8 | Community","name_short":"frk-8","host":"frk-1.de.uncletopia.com","port":27085,"enabled":true,"region":"eu","cc":"de","latitude":50.110924,"longitude":8.682127,"reserved":0,"last_update":"0001-01-01T00:00:00Z","name_a2s":"Uncletopia | Frankfurt | 8 | Community","protocol":17,"map":"workshop/koth_bagel_rc6.ugc2514036946","folder":"tf","game":"Team Fortress","app_id":440,"player_count":0,"max_players":24,"Bots":0,"server_type":"Dedicated","server_os":"Linux","password":true,"vac":true,"version":"7757534","steam_id":85568392924742828,"keywords":["cp","nocrits","nodmgspread","uncletopia"],"game_id":440,"stv_port":27086,"stv_name":"Uncletopia | Frankfurt | 8 | Community | STV","players":null},{"server_id":202,"name":"Uncletopia | Hong Kong | 1 | All Maps","name_short":"hgk-1","host":"hgk-1.hk.uncletopia.com","port":27015,"enabled":true,"region":"asia","cc":"hk","latitude":22.302711,"longitude":114.177216,"reserved":0,"last_update":"0001-01-01T00:00:00Z","name_a2s":"Uncletopia | Hong Kong | 1 | All Maps","protocol":17,"map":"pl_borneo","folder":"tf","game":"Team Fortress","app_id":440,"player_count":0,"max_players":24,"Bots":0,"server_type":"Dedicated","server_os":"Linux","password":true,"vac":true,"version":"7757534","steam_id":85568392924494504,"keywords":["nocrits","nodmgspread","payload","uncletopia"],"game_id":440,"stv_port":27016,"stv_name":"Uncletopia | Hong Kong | 1 | All Maps | STV","players":null},{"server_id":1,"name":"Uncletopia | Los Angeles | 1 | All Maps","name_short":"lax-1","host":"lax-1.us.uncletopia.com","port":27015,"enabled":true,"region":"us-west","cc":"us","latitude":33.94279,"longitude":-118.41004,"reserved":0,"last_update":"0001-01-01T00:00:00Z","name_a2s":"Uncletopia | Los Angeles | 1 | All Maps","protocol":17,"map":"koth_lakeside_final","folder":"tf","game":"Team Fortress","app_id":440,"player_count":1,"max_players":24,"Bots":0,"server_type":"Dedicated","server_os":"Linux","password":true,"vac":true,"version":"7757534","steam_id":85568392924469991,"keywords":["cp","nocrits","nodmgspread","uncletopia"],"game_id":440,"stv_port":27016,"stv_name":"Uncletopia | Los Angeles | 1 | All Maps | STV","players":[{"user_id":14,"name":"jason2483","steam_id":76561197985954059,"connected_time":32000000000,"state":"active","ping":64}]},{"server_id":112,"name":"Uncletopia | Los Angeles | 2 | All Maps","name_short":"lax-2","host":"lax-1.us.uncletopia.com","port":27025,"enabled":true,"region":"us-west","cc":"us","latitude":33.94279,"longitude":-118.41004,"reserved":0,"last_update":"0001-01-01T00:00:00Z","name_a2s":"Uncletopia | Los Angeles | 2 | All Maps","protocol":17,"map":"pl_frontier_final","folder":"tf","game":"Team Fortress","app_id":440,"player_count":20,"max_players":24,"Bots":0,"server_type":"Dedicated","server_os":"Linux","password":true,"vac":true,"version":"7757534","steam_id":85568392924469992,"keywords":["nocrits","nodmgspread","payload","uncletopia"],"game_id":440,"stv_port":27026,"stv_name":"Uncletopia | Los Angeles | 2 | All Maps | STV","players":[{"user_id":209,"name":"plz talk about dogs","steam_id":76561198062924973,"connected_time":3284000000000,"state":"active","ping":57},{"user_id":240,"name":"Mickmissi√≥n","steam_id":76561199133527421,"connected_time":343000000000,"state":"active","ping":56},{"user_id":246,"name":"Mr. Defaulto","steam_id":76561198315338782,"connected_time":139000000000,"state":"active","ping":59},{"user_id":241,"name":"Crusty_Breads","steam_id":76561198864874443,"connected_time":331000000000,"state":"active","ping":78},{"user_id":242,"name":"MyHeadHz","steam_id":76561198090654531,"connected_time":325000000000,"state":"active","ping":87},{"user_id":247,"name":"Phillip Jeffries","steam_id":76561198064052174,"connected_time":95000000000,"state":"active","ping":110},{"user_id":212,"name":"Pouya","steam_id":76561198060287489,"connected_time":3134000000000,"state":"active","ping":112},{"user_id":244,"name":"HRT","steam_id":76561198013781132,"connected_time":295000000000,"state":"active","ping":112},{"user_id":236,"name":"‚ù§ Ashley ‚ù§","steam_id":76561198056428303,"connected_time":887000000000,"state":"active","ping":46},{"user_id":230,"name":"The Texan Inconvenience","steam_id":76561198958125792,"connected_time":2030000000000,"state":"active","ping":85},{"user_id":245,"name":"moopmop","steam_id":76561198065224965,"connected_time":242000000000,"state":"active","ping":52},{"user_id":238,"name":"ohton","steam_id":76561199033233448,"connected_time":394000000000,"state":"active","ping":44},{"user_id":218,"name":"tf2 sex update","steam_id":76561198081284664,"connected_time":2832000000000,"state":"active","ping":46},{"user_id":189,"name":"flo rida","steam_id":76561198226169704,"connected_time":5015000000000,"state":"active","ping":59},{"user_id":175,"name":"Fun Police","steam_id":76561198267520577,"connected_time":5900000000000,"state":"active","ping":54},{"user_id":219,"name":"Pines","steam_id":76561199024146278,"connected_time":2832000000000,"state":"active","ping":58},{"user_id":215,"name":"Parry","steam_id":76561198151485311,"connected_time":3037000000000,"state":"active","ping":127},{"user_id":233,"name":"AmyPercent","steam_id":76561198071896932,"connected_time":1809000000000,"state":"active","ping":75},{"user_id":223,"name":"Awesome Evil Blue Flaming Skull","steam_id":76561198933598872,"connected_time":2590000000000,"state":"active","ping":36},{"user_id":182,"name":"bigman1","steam_id":76561198050225055,"connected_time":5337000000000,"state":"active","ping":48}]},{"server_id":324,"name":"Uncletopia | Los Angeles | 3 | All Maps","name_short":"lax-3","host":"lax-1.us.uncletopia.com","port":27035,"enabled":true,"region":"us-west","cc":"us","latitude":33.94279,"longitude":-118.41004,"reserved":0,"last_update":"0001-01-01T00:00:00Z","name_a2s":"Uncletopia | Los Angeles | 3 | All Maps","protocol":17,"map":"cp_sunshine","folder":"tf","game":"Team Fortress","app_id":440,"player_count":0,"max_players":24,"Bots":0,"server_type":"Dedicated","server_os":"Linux","password":true,"vac":true,"version":"7757534","steam_id":85568392924510198,"keywords":["cp","nocrits","nodmgspread","uncletopia"],"game_id":440,"stv_port":27036,"stv_name":"Uncletopia | Los Angeles | 3 | All Maps | STV","players":null},{"server_id":25,"name":"Uncletopia | Los Angeles | 4 | Stopwatch Beta","name_short":"lax-4","host":"lax-1.us.uncletopia.com","port":27045,"enabled":true,"region":"us-west","cc":"us","latitude":33.94279,"longitude":-118.41004,"reserved":0,"last_update":"0001-01-01T00:00:00Z","name_a2s":"Uncletopia | Los Angeles | 4 | Stopwatch Beta","protocol":17,"map":"pl_swiftwater_final1","folder":"tf","game":"Team Fortress","app_id":440,"player_count":0,"max_players":24,"Bots":0,"server_type":"Dedicated","server_os":"Linux","password":true,"vac":true,"version":"7757534","steam_id":85568392924510199,"keywords":["nocrits","nodmgspread","payload","uncletopia"],"game_id":440,"stv_port":27046,"stv_name":"Uncletopia | Los Angeles | 4 | Stopwatch Beta | STV","players":null},{"server_id":11,"name":"Uncletopia | London | 1 | All Maps","name_short":"lon-1","host":"lon-1.uk.uncletopia.com","port":27015,"enabled":true,"region":"eu","cc":"gb","latitude":51.509865,"longitude":-0.118092,"reserved":0,"last_update":"0001-01-01T00:00:00Z","name_a2s":"Uncletopia | London | 1 | All Maps","protocol":17,"map":"pl_frontier_final","folder":"tf","game":"Team Fortress","app_id":440,"player_count":24,"max_players":24,"Bots":0,"server_type":"Dedicated","server_os":"Linux","password":true,"vac":true,"version":"7757534","steam_id":85568392924367362,"keywords":["nocrits","nodmgspread","payload","uncletopia"],"game_id":440,"stv_port":27016,"stv_name":"Uncletopia | London | 1 | All Maps | STV","players":[{"user_id":943,"name":"marcus","steam_id":76561198127738021,"connected_time":2288000000000,"state":"active","ping":72},{"user_id":956,"name":"rawrr","steam_id":76561198129806658,"connected_time":1152000000000,"state":"active","ping":58},{"user_id":950,"name":"Joseph Stalin","steam_id":76561198033199746,"connected_time":2021000000000,"state":"active","ping":45},{"user_id":920,"name":"MoeruKurowassan","steam_id":76561198319349647,"connected_time":4120000000000,"state":"active","ping":83},{"user_id":918,"name":"LarsInABox","steam_id":76561198028329262,"connected_time":4428000000000,"state":"active","ping":73},{"user_id":934,"name":"Serton‚ôù","steam_id":76561198011061126,"connected_time":3502000000000,"state":"active","ping":74},{"user_id":953,"name":"Prome","steam_id":76561199050383942,"connected_time":1540000000000,"state":"active","ping":51},{"user_id":914,"name":"EdSuedi","steam_id":76561199387956486,"connected_time":4911000000000,"state":"active","ping":61},{"user_id":961,"name":"Tobi1Kenobi","steam_id":76561197967894779,"connected_time":749000000000,"state":"active","ping":45},{"user_id":958,"name":"s.me.g‚Ñ¢ #savetf2","steam_id":76561198179504314,"connected_time":1114000000000,"state":"active","ping":59},{"user_id":924,"name":"Tort","steam_id":76561198329646769,"connected_time":4076000000000,"state":"active","ping":59},{"user_id":954,"name":"Vitamin Weee","steam_id":76561199183937747,"connected_time":1334000000000,"state":"active","ping":87},{"user_id":945,"name":"dn4k","steam_id":76561199221755690,"connected_time":2272000000000,"state":"active","ping":89},{"user_id":947,"name":"New","steam_id":76561198402195911,"connected_time":2250000000000,"state":"active","ping":113},{"user_id":955,"name":"Juiceydough","steam_id":76561197997323419,"connected_time":1157000000000,"state":"active","ping":87},{"user_id":916,"name":"tired","steam_id":76561198046838168,"connected_time":4904000000000,"state":"active","ping":60},{"user_id":948,"name":"Rustyy","steam_id":76561198973687664,"connected_time":2247000000000,"state":"active","ping":61},{"user_id":929,"name":"Bob Burger","steam_id":76561197996149548,"connected_time":3959000000000,"state":"active","ping":51},{"user_id":880,"name":"Goblin cock","steam_id":76561198980102679,"connected_time":8048000000000,"state":"active","ping":93},{"user_id":907,"name":"AWP Bodyshot :) ‚ù§","steam_id":76561198029928533,"connected_time":5966000000000,"state":"active","ping":55},{"user_id":942,"name":"Aaron","steam_id":76561197990046953,"connected_time":2382000000000,"state":"active","ping":70},{"user_id":960,"name":"chlo√´‚ùÄ‚ù§","steam_id":76561198147199613,"connected_time":810000000000,"state":"active","ping":82},{"user_id":957,"name":"Volcyy","steam_id":76561198063979124,"connected_time":1133000000000,"state":"active","ping":57},{"user_id":951,"name":"Cosmic Craggs","steam_id":76561198331165666,"connected_time":1863000000000,"state":"active","ping":47}]},{"server_id":114,"name":"Uncletopia | London | 2 | All Maps","name_short":"lon-2","host":"lon-1.uk.uncletopia.com","port":27025,"enabled":true,"region":"eu","cc":"gb","latitude":51.509865,"longitude":-0.118092,"reserved":0,"last_update":"0001-01-01T00:00:00Z","name_a2s":"Uncletopia | London | 2 | All Maps","protocol":17,"map":"pl_snowycoast","folder":"tf","game":"Team Fortress","app_id":440,"player_count":25,"max_players":24,"Bots":0,"server_type":"Dedicated","server_os":"Linux","password":true,"vac":true,"version":"7757534","steam_id":85568392924470941,"keywords":["nocrits","nodmgspread","payload","uncletopia"],"game_id":440,"stv_port":27026,"stv_name":"Uncletopia | London | 2 | All Maps | STV","players":[{"user_id":582,"name":"Setiago","steam_id":76561198060770498,"connected_time":1185000000000,"state":"active","ping":73},{"user_id":569,"name":"Illegally Legal","steam_id":76561198982674420,"connected_time":2492000000000,"state":"active","ping":38},{"user_id":560,"name":"minn","steam_id":76561198099101232,"connected_time":2766000000000,"state":"active","ping":54},{"user_id":581,"name":"rag","steam_id":76561198083505031,"connected_time":1317000000000,"state":"active","ping":44},{"user_id":576,"name":"Jampine","steam_id":76561198040419080,"connected_time":1813000000000,"state":"active","ping":64},{"user_id":583,"name":"‚ô• Emma ‚ô•","steam_id":76561198046796406,"connected_time":1173000000000,"state":"active","ping":47},{"user_id":584,"name":"tm`","steam_id":76561197993580412,"connected_time":1166000000000,"state":"active","ping":73},{"user_id":579,"name":"Zogg","steam_id":76561198352683491,"connected_time":1344000000000,"state":"active","ping":41},{"user_id":596,"name":"buuuuuuuuuuuuu","steam_id":76561199233979726,"connected_time":735000000000,"state":"active","ping":90},{"user_id":585,"name":"‚ô• Aura ‚ô•","steam_id":76561198066258544,"connected_time":1160000000000,"state":"active","ping":75},{"user_id":575,"name":"Some Guy","steam_id":76561198137335527,"connected_time":1857000000000,"state":"active","ping":50},{"user_id":443,"name":"Luxuride","steam_id":76561199079011869,"connected_time":12334000000000,"state":"active","ping":73},{"user_id":572,"name":"hananamanna","steam_id":76561198006570285,"connected_time":2166000000000,"state":"active","ping":111},{"user_id":566,"name":"Bodhi","steam_id":76561198000606642,"connected_time":2562000000000,"state":"active","ping":61},{"user_id":586,"name":"Ibilesfighter247","steam_id":76561198880673705,"connected_time":1148000000000,"state":"active","ping":59},{"user_id":588,"name":"cinny","steam_id":76561198832112629,"connected_time":1145000000000,"state":"active","ping":82},{"user_id":592,"name":"Mc Questionable","steam_id":76561198128290663,"connected_time":996000000000,"state":"active","ping":64},{"user_id":555,"name":"MuZe","steam_id":76561198096212604,"connected_time":3596000000000,"state":"active","ping":149},{"user_id":552,"name":"dd","steam_id":76561198257836694,"connected_time":3639000000000,"state":"active","ping":42},{"user_id":580,"name":"frosty","steam_id":76561198094560834,"connected_time":1341000000000,"state":"active","ping":52},{"user_id":590,"name":"Thurny","steam_id":76561198084997045,"connected_time":1011000000000,"state":"active","ping":74},{"user_id":591,"name":"MeleeMeta","steam_id":76561198237963558,"connected_time":1003000000000,"state":"active","ping":67},{"user_id":539,"name":"astigmatic","steam_id":76561199103959197,"connected_time":4262000000000,"state":"active","ping":102},{"user_id":621,"name":"cov","steam_id":76561198328047855,"connected_time":2000000000,"state":"spawning","ping":136},{"user_id":593,"name":"Lola bunny","steam_id":76561198214149431,"connected_time":957000000000,"state":"active","ping":67}]},{"server_id":320,"name":"Uncletopia | London | 3 | All Maps","name_short":"lon-3","host":"lon-1.uk.uncletopia.com","port":27035,"enabled":true,"region":"eu","cc":"gb","latitude":51.509865,"longitude":-0.118092,"reserved":0,"last_update":"0001-01-01T00:00:00Z","name_a2s":"Uncletopia | London | 3 | All Maps","protocol":17,"map":"pl_barnblitz","folder":"tf","game":"Team Fortress","app_id":440,"player_count":24,"max_players":24,"Bots":0,"server_type":"Dedicated","server_os":"Linux","password":true,"vac":true,"version":"7757534","steam_id":85568392924510192,"keywords":["nocrits","nodmgspread","payload","uncletopia"],"game_id":440,"stv_port":27036,"stv_name":"Uncletopia | London | 3 | All Maps | STV","players":[{"user_id":721,"name":"Stick_Mano","steam_id":76561198128510868,"connected_time":1734000000000,"state":"active","ping":79},{"user_id":736,"name":"nutty puppet mayhem","steam_id":76561198188642265,"connected_time":504000000000,"state":"active","ping":52},{"user_id":716,"name":"Juanka","steam_id":76561198070983733,"connected_time":2060000000000,"state":"active","ping":84},{"user_id":686,"name":"dirty","steam_id":76561197995572935,"connected_time":3907000000000,"state":"active","ping":87},{"user_id":694,"name":"Arcader","steam_id":76561198109860110,"connected_time":3363000000000,"state":"active","ping":69},{"user_id":738,"name":"Big Al","steam_id":76561198067692439,"connected_time":442000000000,"state":"active","ping":122},{"user_id":739,"name":"GHOST RIDER/HEAT PUSHER","steam_id":76561198049405872,"connected_time":427000000000,"state":"active","ping":50},{"user_id":719,"name":"Bezoyalapolla","steam_id":76561198236833426,"connected_time":1982000000000,"state":"active","ping":84},{"user_id":677,"name":"LuCroGi","steam_id":76561198057283891,"connected_time":5006000000000,"state":"active","ping":59},{"user_id":714,"name":"Dr. Sex","steam_id":76561198078559771,"connected_time":2240000000000,"state":"active","ping":86},{"user_id":749,"name":"_Starlight_","steam_id":76561197993885738,"connected_time":191000000000,"state":"active","ping":83},{"user_id":744,"name":"washed up","steam_id":76561198275742101,"connected_time":384000000000,"state":"active","ping":69},{"user_id":728,"name":"S_ApplePie","steam_id":76561198106947669,"connected_time":1420000000000,"state":"active","ping":73},{"user_id":725,"name":"brandoncg04","steam_id":76561199189398427,"connected_time":1623000000000,"state":"active","ping":114},{"user_id":600,"name":"WeegeePJ","steam_id":76561199383362382,"connected_time":10850000000000,"state":"active","ping":131},{"user_id":743,"name":"peter dangling","steam_id":76561198864327475,"connected_time":415000000000,"state":"active","ping":60},{"user_id":745,"name":"emnem","steam_id":76561198332712960,"connected_time":384000000000,"state":"active","ping":58},{"user_id":746,"name":"X45Y","steam_id":76561198112534025,"connected_time":373000000000,"state":"active","ping":58},{"user_id":583,"name":"nyanezt","steam_id":76561198253734265,"connected_time":12713000000000,"state":"active","ping":114},{"user_id":733,"name":"FineFrontier","steam_id":76561198367522646,"connected_time":713000000000,"state":"active","ping":134},{"user_id":727,"name":"picoa3","steam_id":76561198064234546,"connected_time":1600000000000,"state":"active","ping":69},{"user_id":747,"name":"Mr.clueless","steam_id":76561198191693514,"connected_time":344000000000,"state":"active","ping":63},{"user_id":660,"name":"Mr_Pulse_","steam_id":76561198095001602,"connected_time":6336000000000,"state":"active","ping":104},{"user_id":748,"name":"Plop_","steam_id":76561198112567921,"connected_time":316000000000,"state":"active","ping":44}]},{"server_id":321,"name":"Uncletopia | London | 4 | All Maps","name_short":"lon-4","host":"lon-1.uk.uncletopia.com","port":27045,"enabled":true,"region":"eu","cc":"gb","latitude":51.509865,"longitude":-0.118092,"reserved":0,"last_update":"0001-01-01T00:00:00Z","name_a2s":"Uncletopia | London | 4 | All Maps","protocol":17,"map":"koth_lakeside_final","folder":"tf","game":"Team Fortress","app_id":440,"player_count":1,"max_players":24,"Bots":0,"server_type":"Dedicated","server_os":"Linux","password":true,"vac":true,"version":"7757534","steam_id":85568392924510193,"keywords":["cp","nocrits","nodmgspread","uncletopia"],"game_id":440,"stv_port":27046,"stv_name":"Uncletopia | London | 4 | All Maps | STV","players":[{"user_id":415,"name":"depressed cows","steam_id":76561198358722215,"connected_time":136000000000,"state":"active","ping":64}]},{"server_id":21,"name":"Uncletopia | London | 5 | All Maps","name_short":"lon-5","host":"lon-1.uk.uncletopia.com","port":27055,"enabled":true,"region":"eu","cc":"gb","latitude":51.509865,"longitude":-0.118092,"reserved":0,"last_update":"0001-01-01T00:00:00Z","name_a2s":"Uncletopia | London | 5 | All Maps","protocol":17,"map":"koth_harvest_final","folder":"tf","game":"Team Fortress","app_id":440,"player_count":24,"max_players":24,"Bots":0,"server_type":"Dedicated","server_os":"Linux","password":true,"vac":true,"version":"7757534","steam_id":85568392924742829,"keywords":["cp","nocrits","nodmgspread","uncletopia"],"game_id":440,"stv_port":27056,"stv_name":"Uncletopia | London | 5 | All Maps | STV","players":[{"user_id":147,"name":"cropping","steam_id":76561198026586456,"connected_time":7070000000000,"state":"active","ping":54},{"user_id":226,"name":"Regan","steam_id":76561198100631086,"connected_time":1629000000000,"state":"active","ping":56},{"user_id":209,"name":"nedilya","steam_id":76561198039692077,"connected_time":3055000000000,"state":"active","ping":62},{"user_id":234,"name":"WiiSportKing","steam_id":76561198114139081,"connected_time":860000000000,"state":"active","ping":57},{"user_id":231,"name":"EggsKenedict","steam_id":76561198078448656,"connected_time":944000000000,"state":"active","ping":47},{"user_id":232,"name":"ÀπFate's¬∑MarionetteÀº","steam_id":76561198034197381,"connected_time":935000000000,"state":"active","ping":52},{"user_id":215,"name":"Kestrel","steam_id":76561198144033005,"connected_time":2243000000000,"state":"active","ping":48},{"user_id":149,"name":"Son Goku","steam_id":76561199383437138,"connected_time":7067000000000,"state":"active","ping":117},{"user_id":112,"name":"thespe","steam_id":76561198088225107,"connected_time":9980000000000,"state":"active","ping":60},{"user_id":216,"name":"Be on my ....!?","steam_id":76561198067204908,"connected_time":2229000000000,"state":"active","ping":56},{"user_id":238,"name":"stonebum","steam_id":76561198057004606,"connected_time":521000000000,"state":"active","ping":50},{"user_id":233,"name":":)","steam_id":76561198356023033,"connected_time":933000000000,"state":"active","ping":64},{"user_id":243,"name":"‚òÅ Lou1smeister ‚òÅ","steam_id":76561198004032968,"connected_time":431000000000,"state":"active","ping":74},{"user_id":236,"name":"LuigiCultLeader","steam_id":76561199179841147,"connected_time":658000000000,"state":"active","ping":62},{"user_id":237,"name":"HilldogGaming","steam_id":76561198082209322,"connected_time":642000000000,"state":"active","ping":91},{"user_id":173,"name":"lark","steam_id":76561198091724522,"connected_time":5753000000000,"state":"active","ping":54},{"user_id":220,"name":"domestic violencuwu","steam_id":76561198193357946,"connected_time":1827000000000,"state":"active","ping":101},{"user_id":239,"name":"Saken","steam_id":76561198049075295,"connected_time":519000000000,"state":"active","ping":59},{"user_id":222,"name":"Fleetway","steam_id":76561198392105594,"connected_time":1811000000000,"state":"active","ping":140},{"user_id":244,"name":"F1z3N","steam_id":76561198058919520,"connected_time":118000000000,"state":"active","ping":75},{"user_id":205,"name":"Nope.avi","steam_id":76561198396687651,"connected_time":3315000000000,"state":"active","ping":90},{"user_id":225,"name":"Lil Ari","steam_id":76561198218178180,"connected_time":1699000000000,"state":"active","ping":79},{"user_id":228,"name":"Sabour","steam_id":76561197963965445,"connected_time":1336000000000,"state":"active","ping":72},{"user_id":240,"name":"ANDreas","steam_id":76561198021281197,"connected_time":508000000000,"state":"active","ping":72}]},{"server_id":22,"name":"Uncletopia | London | 6 | All Maps","name_short":"lon-6","host":"lon-1.uk.uncletopia.com","port":27065,"enabled":true,"region":"eu","cc":"gb","latitude":51.509865,"longitude":-0.118092,"reserved":0,"last_update":"0001-01-01T00:00:00Z","name_a2s":"Uncletopia | London | 6 | All Maps","protocol":17,"map":"koth_highpass","folder":"tf","game":"Team Fortress","app_id":440,"player_count":0,"max_players":24,"Bots":0,"server_type":"Dedicated","server_os":"Linux","password":true,"vac":true,"version":"7757534","steam_id":85568392924742830,"keywords":["cp","nocrits","nodmgspread","uncletopia"],"game_id":440,"stv_port":27066,"stv_name":"Uncletopia | London | 6 | All Maps | STV","players":null},{"server_id":40,"name":"Uncletopia | London | 7 | No Payload","name_short":"lon-7","host":"lon-1.uk.uncletopia.com","port":27075,"enabled":true,"region":"eu","cc":"gb","latitude":51.509865,"longitude":-0.118092,"reserved":0,"last_update":"0001-01-01T00:00:00Z","name_a2s":"Uncletopia | London | 7 | No Payload","protocol":17,"map":"plr_nightfall_final","folder":"tf","game":"Team Fortress","app_id":440,"player_count":0,"max_players":24,"Bots":0,"server_type":"Dedicated","server_os":"Linux","password":true,"vac":true,"version":"7757534","steam_id":85568392924964314,"keywords":["nocrits","nodmgspread","payload","uncletopia"],"game_id":440,"stv_port":27076,"stv_name":"Uncletopia | London | 7 | No Payload | STV","players":null},{"server_id":41,"name":"Uncletopia | London | 8 | Community","name_short":"lon-8","host":"lon-1.uk.uncletopia.com","port":27085,"enabled":true,"region":"eu","cc":"gb","latitude":51.509865,"longitude":-0.118092,"reserved":0,"last_update":"0001-01-01T00:00:00Z","name_a2s":"Uncletopia | London | 8 | Community","protocol":17,"map":"workshop/koth_ramjam_rc1.ugc459778887","folder":"tf","game":"Team Fortress","app_id":440,"player_count":0,"max_players":24,"Bots":0,"server_type":"Dedicated","server_os":"Linux","password":true,"vac":true,"version":"7757534","steam_id":85568392924964315,"keywords":["cp","nocrits","nodmgspread","uncletopia"],"game_id":440,"stv_port":27086,"stv_name":"Uncletopia | London | 8 | Community | STV","players":null},{"server_id":300,"name":"Uncletopia | Montr√©al | 1 | All Maps","name_short":"mtl-1","host":"mtl-1.ca.uncletopia.com","port":27015,"enabled":true,"region":"us-east","cc":"ca","latitude":45.50889,"longitude":-73.56167,"reserved":0,"last_update":"0001-01-01T00:00:00Z","name_a2s":"Uncletopia | Montr√©al | 1 | All Maps","protocol":17,"map":"pl_barnblitz","folder":"tf","game":"Team Fortress","app_id":440,"player_count":0,"max_players":24,"Bots":0,"server_type":"Dedicated","server_os":"Linux","password":true,"vac":true,"version":"7757534","steam_id":85568392924500087,"keywords":["nocrits","nodmgspread","payload","uncletopia"],"game_id":440,"stv_port":27016,"stv_name":"Uncletopia | Montr√©al | 1 | All Maps | STV","players":null},{"server_id":301,"name":"Uncletopia | Montr√©al | 2 | All Maps","name_short":"mtl-2","host":"mtl-1.ca.uncletopia.com","port":27025,"enabled":true,"region":"us-east","cc":"ca","latitude":45.50889,"longitude":-73.56167,"reserved":0,"last_update":"0001-01-01T00:00:00Z","name_a2s":"Uncletopia | Montr√©al | 2 | All Maps","protocol":17,"map":"pl_upward","folder":"tf","game":"Team Fortress","app_id":440,"player_count":0,"max_players":24,"Bots":0,"server_type":"Dedicated","server_os":"Linux","password":true,"vac":true,"version":"7757534","steam_id":85568392924500088,"keywords":["nocrits","nodmgspread","payload","uncletopia"],"game_id":440,"stv_port":27026,"stv_name":"Uncletopia | Montr√©al | 2 | All Maps | STV","players":null},{"server_id":302,"name":"Uncletopia | Montr√©al | 3 | All Maps","name_short":"mtl-3","host":"mtl-1.ca.uncletopia.com","port":27035,"enabled":true,"region":"us-east","cc":"ca","latitude":45.50889,"longitude":-73.56167,"reserved":0,"last_update":"0001-01-01T00:00:00Z","name_a2s":"Uncletopia | Montr√©al | 3 | All Maps","protocol":17,"map":"pl_swiftwater_final1","folder":"tf","game":"Team Fortress","app_id":440,"player_count":0,"max_players":24,"Bots":0,"server_type":"Dedicated","server_os":"Linux","password":true,"vac":true,"version":"7757534","steam_id":85568392924500089,"keywords":["nocrits","nodmgspread","payload","uncletopia"],"game_id":440,"stv_port":27036,"stv_name":"Uncletopia | Montr√©al | 3 | All Maps | STV","players":null},{"server_id":303,"name":"Uncletopia | Montr√©al | 4 | No Payload","name_short":"mtl-4","host":"mtl-1.ca.uncletopia.com","port":27045,"enabled":true,"region":"us-east","cc":"ca","latitude":45.50889,"longitude":-73.56167,"reserved":0,"last_update":"0001-01-01T00:00:00Z","name_a2s":"Uncletopia | Montr√©al | 4 | No Payload","protocol":17,"map":"pl_pier","folder":"tf","game":"Team Fortress","app_id":440,"player_count":0,"max_players":24,"Bots":0,"server_type":"Dedicated","server_os":"Linux","password":true,"vac":true,"version":"7757534","steam_id":85568392924500090,"keywords":["nocrits","nodmgspread","payload","uncletopia"],"game_id":440,"stv_port":27046,"stv_name":"Uncletopia | Montr√©al | 4 | No Payload | STV","players":null},{"server_id":13,"name":"Uncletopia | New York City | 1 | All Maps","name_short":"nyc-1","host":"nyc-1.us.uncletopia.com","port":27015,"enabled":true,"region":"us-east","cc":"us","latitude":40.73061,"longitude":-73.93524,"reserved":0,"last_update":"0001-01-01T00:00:00Z","name_a2s":"Uncletopia | New York City | 1 | All Maps","protocol":17,"map":"pl_badwater","folder":"tf","game":"Team Fortress","app_id":440,"player_count":24,"max_players":24,"Bots":0,"server_type":"Dedicated","server_os":"Linux","password":true,"vac":true,"version":"7757534","steam_id":85568392924469993,"keywords":["nocrits","nodmgspread","payload","uncletopia"],"game_id":440,"stv_port":27016,"stv_name":"Uncletopia | New York City | 1 | All Maps | STV","players":[{"user_id":419,"name":"abed","steam_id":76561198072856511,"connected_time":1511000000000,"state":"active","ping":65},{"user_id":442,"name":"ICqntA1m","steam_id":76561199076783567,"connected_time":165000000000,"state":"active","ping":79},{"user_id":408,"name":"FunnyUsernameWow","steam_id":76561198324177635,"connected_time":2371000000000,"state":"active","ping":55},{"user_id":447,"name":"Gabrielx","steam_id":76561198884724099,"connected_time":4000000000,"state":"spawning","ping":118},{"user_id":431,"name":"Vegerot","steam_id":76561197997843710,"connected_time":545000000000,"state":"active","ping":44},{"user_id":423,"name":"Urist","steam_id":76561198047247422,"connected_time":1274000000000,"state":"active","ping":51},{"user_id":441,"name":"Nassu","steam_id":76561198147367577,"connected_time":165000000000,"state":"active","ping":84},{"user_id":412,"name":"Agent Hugh Jass","steam_id":76561199097744991,"connected_time":2061000000000,"state":"active","ping":67},{"user_id":429,"name":"Dino Aids","steam_id":76561199204984924,"connected_time":737000000000,"state":"active","ping":59},{"user_id":414,"name":"01110000","steam_id":76561198040557190,"connected_time":2043000000000,"state":"active","ping":53},{"user_id":422,"name":"Scoober Doob","steam_id":76561198117582706,"connected_time":1288000000000,"state":"active","ping":73},{"user_id":433,"name":"dermos","steam_id":76561198121901604,"connected_time":515000000000,"state":"active","ping":96},{"user_id":415,"name":"SAY MY NAME","steam_id":76561198069490260,"connected_time":2035000000000,"state":"active","ping":52},{"user_id":420,"name":"Vivid Hut 64","steam_id":76561198170050059,"connected_time":1401000000000,"state":"active","ping":58},{"user_id":443,"name":"Snugboo","steam_id":76561198147970327,"connected_time":125000000000,"state":"active","ping":36},{"user_id":428,"name":"fuzz","steam_id":76561198123865942,"connected_time":1069000000000,"state":"active","ping":108},{"user_id":439,"name":"„ÄéÔº¥ÔΩèÔΩçÔΩèÔΩãÔΩïÔΩìÔΩà„Äè","steam_id":76561198098611646,"connected_time":240000000000,"state":"active","ping":49},{"user_id":444,"name":"Special","steam_id":76561198070380404,"connected_time":120000000000,"state":"active","ping":45},{"user_id":445,"name":"afaniscool","steam_id":76561198121380368,"connected_time":101000000000,"state":"active","ping":116},{"user_id":424,"name":"Torbjorn","steam_id":76561198121023233,"connected_time":1238000000000,"state":"active","ping":73},{"user_id":446,"name":"my palisman would be a polarbea","steam_id":76561199060224916,"connected_time":98000000000,"state":"active","ping":120},{"user_id":387,"name":"stbb","steam_id":76561198173047169,"connected_time":4302000000000,"state":"active","ping":43},{"user_id":427,"name":"Jaime","steam_id":76561198442021682,"connected_time":1115000000000,"state":"active","ping":62},{"user_id":311,"name":"Kaboob","steam_id":76561199121870665,"connected_time":10436000000000,"state":"active","ping":65}]},{"server_id":14,"name":"Uncletopia | New York City | 2 | All Maps","name_short":"nyc-2","host":"nyc-1.us.uncletopia.com","port":27025,"enabled":true,"region":"us-east","cc":"us","latitude":40.73061,"longitude":-73.93524,"reserved":0,"last_update":"0001-01-01T00:00:00Z","name_a2s":"Uncletopia | New York City | 2 | All Maps","protocol":17,"map":"pl_borneo","folder":"tf","game":"Team Fortress","app_id":440,"player_count":17,"max_players":24,"Bots":0,"server_type":"Dedicated","server_os":"Linux","password":true,"vac":true,"version":"7757534","steam_id":85568392924469994,"keywords":["nocrits","nodmgspread","payload","uncletopia"],"game_id":440,"stv_port":27026,"stv_name":"Uncletopia | New York City | 2 | All Maps | STV","players":[{"user_id":510,"name":"RoninHL.ttv","steam_id":76561198800028107,"connected_time":1626000000000,"state":"active","ping":70},{"user_id":506,"name":"heimdall","steam_id":76561198069380992,"connected_time":2497000000000,"state":"active","ping":96},{"user_id":513,"name":"VioletSpecs","steam_id":76561198089366466,"connected_time":1369000000000,"state":"active","ping":66},{"user_id":461,"name":"flappyflap2","steam_id":76561198285048973,"connected_time":5940000000000,"state":"active","ping":37},{"user_id":518,"name":"Egpta","steam_id":76561198237840238,"connected_time":1212000000000,"state":"active","ping":54},{"user_id":519,"name":"jarby","steam_id":76561198130689358,"connected_time":1209000000000,"state":"active","ping":46},{"user_id":515,"name":"Bonita Applebum","steam_id":76561198083237234,"connected_time":1345000000000,"state":"active","ping":67},{"user_id":455,"name":"blankworthy","steam_id":76561199097823273,"connected_time":6389000000000,"state":"active","ping":53},{"user_id":524,"name":"weedcat","steam_id":76561198346054736,"connected_time":19000000000,"state":"spawning","ping":123},{"user_id":463,"name":"Count Flandy","steam_id":76561198009708759,"connected_time":5809000000000,"state":"active","ping":64},{"user_id":521,"name":"saurhead","steam_id":76561198132937722,"connected_time":507000000000,"state":"active","ping":42},{"user_id":512,"name":"Real Demo Man TF2","steam_id":76561199073122406,"connected_time":1457000000000,"state":"active","ping":47},{"user_id":505,"name":"captjosh22","steam_id":76561199092650499,"connected_time":2698000000000,"state":"active","ping":76},{"user_id":500,"name":"carp","steam_id":76561198042865147,"connected_time":3201000000000,"state":"active","ping":58},{"user_id":523,"name":"klo.e","steam_id":76561198061808492,"connected_time":23000000000,"state":"active","ping":47},{"user_id":471,"name":"alset333","steam_id":76561198405345260,"connected_time":5069000000000,"state":"active","ping":44},{"user_id":525,"name":"Reisen","steam_id":76561199174579733,"connected_time":15000000000,"state":"active","ping":83}]},{"server_id":15,"name":"Uncletopia | New York City | 3 | Stopwatch Beta","name_short":"nyc-3","host":"nyc-1.us.uncletopia.com","port":27035,"enabled":true,"region":"us-east","cc":"us","latitude":40.73061,"longitude":-73.93524,"reserved":0,"last_update":"0001-01-01T00:00:00Z","name_a2s":"Uncletopia | New York City | 3 | Stopwatch Beta","protocol":17,"map":"cp_sunshine","folder":"tf","game":"Team Fortress","app_id":440,"player_count":2,"max_players":24,"Bots":0,"server_type":"Dedicated","server_os":"Linux","password":true,"vac":true,"version":"7757534","steam_id":85568392924742820,"keywords":["cp","nocrits","nodmgspread","uncletopia"],"game_id":440,"stv_port":27036,"stv_name":"Uncletopia | New York City | 3 | Stopwatch Beta | STV","players":[{"user_id":30,"name":"le Shtink","steam_id":76561199433948284,"connected_time":2324000000000,"state":"active","ping":45},{"user_id":29,"name":"bookreader","steam_id":76561198978568007,"connected_time":2354000000000,"state":"active","ping":32}]},{"server_id":16,"name":"Uncletopia | New York City | 4 | Community","name_short":"nyc-4","host":"nyc-1.us.uncletopia.com","port":27045,"enabled":true,"region":"us-east","cc":"us","latitude":40.73061,"longitude":-73.93524,"reserved":0,"last_update":"0001-01-01T00:00:00Z","name_a2s":"Uncletopia | New York City | 4 | Community","protocol":17,"map":"workshop/pl_fifthcurve_rc1.ugc648227046","folder":"tf","game":"Team Fortress","app_id":440,"player_count":22,"max_players":24,"Bots":0,"server_type":"Dedicated","server_os":"Linux","password":true,"vac":true,"version":"7757534","steam_id":85568392924742821,"keywords":["nocrits","nodmgspread","payload","uncletopia"],"game_id":440,"stv_port":27046,"stv_name":"Uncletopia | New York City | 4 | Community | STV","players":[{"user_id":212,"name":"Cube","steam_id":76561199021614213,"connected_time":94000000000,"state":"active","ping":153},{"user_id":196,"name":"champion  turkey","steam_id":76561198151338482,"connected_time":1079000000000,"state":"active","ping":49},{"user_id":177,"name":"tamara_s42","steam_id":76561198995039584,"connected_time":4259000000000,"state":"active","ping":70},{"user_id":207,"name":"ancientfunland","steam_id":76561199220174291,"connected_time":360000000000,"state":"active","ping":74},{"user_id":197,"name":"Benis Gonzalez","steam_id":76561198799391259,"connected_time":957000000000,"state":"active","ping":133},{"user_id":211,"name":"[Zero] Lag","steam_id":76561198983494186,"connected_time":167000000000,"state":"active","ping":166},{"user_id":184,"name":"Artyom","steam_id":76561199199932446,"connected_time":2894000000000,"state":"active","ping":78},{"user_id":198,"name":"epicgameslauncherplaer878","steam_id":76561198360279519,"connected_time":941000000000,"state":"active","ping":171},{"user_id":187,"name":"Jamiera","steam_id":76561198352802805,"connected_time":2097000000000,"state":"active","ping":53},{"user_id":203,"name":"dinoboyadventures18","steam_id":76561199003266117,"connected_time":758000000000,"state":"active","ping":90},{"user_id":189,"name":"cringy","steam_id":76561198323000455,"connected_time":1991000000000,"state":"active","ping":146},{"user_id":190,"name":"mrnermal7","steam_id":76561199139504199,"connected_time":1977000000000,"state":"active","ping":131},{"user_id":191,"name":"fleshyissneaky","steam_id":76561199098551283,"connected_time":1975000000000,"state":"active","ping":81},{"user_id":201,"name":"Demoslow","steam_id":76561198805592656,"connected_time":891000000000,"state":"active","ping":128},{"user_id":209,"name":"jizz lord","steam_id":76561198430557120,"connected_time":233000000000,"state":"active","ping":138},{"user_id":204,"name":"MasterTman3","steam_id":76561198333349819,"connected_time":740000000000,"state":"active","ping":62},{"user_id":205,"name":"Kookaburra","steam_id":76561198087450837,"connected_time":725000000000,"state":"active","ping":125},{"user_id":210,"name":"Vision Spire","steam_id":76561198095923905,"connected_time":193000000000,"state":"active","ping":61},{"user_id":213,"name":"Rays","steam_id":76561198835345922,"connected_time":48000000000,"state":"active","ping":60},{"user_id":214,"name":"F_L Nighthawk","steam_id":76561198081945810,"connected_time":47000000000,"state":"active","ping":113},{"user_id":216,"name":"wz123","steam_id":76561198027413849,"connected_time":37000000000,"state":"active","ping":64},{"user_id":217,"name":"Dink","steam_id":76561199403942625,"connected_time":15000000000,"state":"active","ping":70}]},{"server_id":142,"name":"Uncletopia | S√£o Paulo | 1 | All Maps","name_short":"sao-1","host":"sao-1.br.uncletopia.com","port":27015,"enabled":true,"region":"sa","cc":"br","latitude":-23.533773,"longitude":-46.62529,"reserved":0,"last_update":"0001-01-01T00:00:00Z","name_a2s":"Uncletopia | S√£o Paulo | 1 | All Maps","protocol":17,"map":"koth_viaduct","folder":"tf","game":"Team Fortress","app_id":440,"player_count":0,"max_players":24,"Bots":0,"server_type":"Dedicated","server_os":"Linux","password":true,"vac":true,"version":"7757534","steam_id":85568392924469996,"keywords":["cp","nocrits","nodmgspread","uncletopia"],"game_id":440,"stv_port":27016,"stv_name":"Uncletopia | S√£o Paulo | 1 | All Maps | STV","players":null},{"server_id":143,"name":"Uncletopia | S√£o Paulo | 2 | All Maps","name_short":"sao-2","host":"sao-2.br.uncletopia.com","port":27015,"enabled":true,"region":"sa","cc":"br","latitude":-23.533773,"longitude":-46.62529,"reserved":0,"last_update":"0001-01-01T00:00:00Z","name_a2s":"Uncletopia | S√£o Paulo | 2 | All Maps","protocol":17,"map":"cp_sunshine","folder":"tf","game":"Team Fortress","app_id":440,"player_count":24,"max_players":24,"Bots":0,"server_type":"Dedicated","server_os":"Linux","password":true,"vac":true,"version":"7757534","steam_id":85568392924485349,"keywords":["cp","nocrits","nodmgspread","uncletopia"],"game_id":440,"stv_port":27016,"stv_name":"Uncletopia | S√£o Paulo | 2 | All Maps | STV","players":[{"user_id":252,"name":"Babyface","steam_id":76561199240579044,"connected_time":2901000000000,"state":"active","ping":181},{"user_id":270,"name":"Yatoto","steam_id":76561199066360306,"connected_time":1544000000000,"state":"active","ping":81},{"user_id":261,"name":"Sakura Petals","steam_id":76561198821139110,"connected_time":2297000000000,"state":"active","ping":50},{"user_id":242,"name":"EduGhost","steam_id":76561198294986893,"connected_time":4342000000000,"state":"active","ping":82},{"user_id":250,"name":"HeadShotGamerBR","steam_id":76561198116856702,"connected_time":3007000000000,"state":"active","ping":78},{"user_id":283,"name":"Turin","steam_id":76561198102778133,"connected_time":189000000000,"state":"active","ping":54},{"user_id":267,"name":".fnord","steam_id":76561198119754613,"connected_time":1658000000000,"state":"active","ping":58},{"user_id":276,"name":"Pudding","steam_id":76561198426734034,"connected_time":1173000000000,"state":"active","ping":88},{"user_id":255,"name":"SCARFACE‚Ñ¢","steam_id":76561198227772584,"connected_time":2836000000000,"state":"active","ping":80},{"user_id":254,"name":"hadinode","steam_id":76561198191475573,"connected_time":2842000000000,"state":"active","ping":50},{"user_id":281,"name":"Proto","steam_id":76561198131548429,"connected_time":682000000000,"state":"active","ping":53},{"user_id":256,"name":"Cley the Engie Main","steam_id":76561198142839368,"connected_time":2787000000000,"state":"active","ping":53},{"user_id":257,"name":"LouLowRuschel","steam_id":76561198423325380,"connected_time":2764000000000,"state":"active","ping":67},{"user_id":219,"name":"ailuros","steam_id":76561198171349369,"connected_time":6437000000000,"state":"active","ping":44},{"user_id":275,"name":"jao+++++++++++++++++++__+","steam_id":76561198408082822,"connected_time":1266000000000,"state":"active","ping":60},{"user_id":259,"name":"Miel","steam_id":76561199442213560,"connected_time":2709000000000,"state":"active","ping":51},{"user_id":271,"name":"Dredz","steam_id":76561198272916282,"connected_time":1518000000000,"state":"active","ping":54},{"user_id":273,"name":"xeN","steam_id":76561198055445565,"connected_time":1359000000000,"state":"active","ping":120},{"user_id":277,"name":"Anxiety Dealer","steam_id":76561198137728820,"connected_time":1037000000000,"state":"active","ping":87},{"user_id":248,"name":"thims","steam_id":76561199252537253,"connected_time":3627000000000,"state":"active","ping":52},{"user_id":280,"name":"Zeko","steam_id":76561198281769544,"connected_time":835000000000,"state":"active","ping":99},{"user_id":176,"name":":^)","steam_id":76561198276113571,"connected_time":11527000000000,"state":"active","ping":44},{"user_id":279,"name":"jay","steam_id":76561198857391400,"connected_time":872000000000,"state":"active","ping":55},{"user_id":282,"name":"LukaNDR_11","steam_id":76561198813816127,"connected_time":615000000000,"state":"active","ping":131}]},{"server_id":7,"name":"Uncletopia | Seattle | 1 | All Maps","name_short":"sea-1","host":"sea-1.us.uncletopia.com","port":27015,"enabled":true,"region":"us-west","cc":"us","latitude":47.608013,"longitude":-122.33517,"reserved":0,"last_update":"0001-01-01T00:00:00Z","name_a2s":"Uncletopia | Seattle | 1 | All Maps","protocol":17,"map":"cp_dustbowl","folder":"tf","game":"Team Fortress","app_id":440,"player_count":23,"max_players":24,"Bots":0,"server_type":"Dedicated","server_os":"Linux","password":true,"vac":true,"version":"7757534","steam_id":85568392924469997,"keywords":["cp","nocrits","nodmgspread","uncletopia"],"game_id":440,"stv_port":27016,"stv_name":"Uncletopia | Seattle | 1 | All Maps | STV","players":[{"user_id":489,"name":"dust | she/it","steam_id":76561198045218909,"connected_time":780000000000,"state":"active","ping":39},{"user_id":421,"name":"Ocra","steam_id":76561199085256400,"connected_time":6576000000000,"state":"active","ping":79},{"user_id":487,"name":"the bunny man","steam_id":76561199082935128,"connected_time":840000000000,"state":"active","ping":104},{"user_id":474,"name":"MacchuPeachu","steam_id":76561199093242587,"connected_time":2638000000000,"state":"active","ping":62},{"user_id":491,"name":"gerbniak","steam_id":76561199412109852,"connected_time":769000000000,"state":"active","ping":74},{"user_id":488,"name":"SpinetinglingToast","steam_id":76561198099470670,"connected_time":835000000000,"state":"active","ping":125},{"user_id":486,"name":"dimpled","steam_id":76561197983120236,"connected_time":1096000000000,"state":"active","ping":54},{"user_id":467,"name":"They/Them Rattussy","steam_id":76561198238186628,"connected_time":3084000000000,"state":"active","ping":85},{"user_id":490,"name":"murder is OK","steam_id":76561199041466962,"connected_time":778000000000,"state":"active","ping":59},{"user_id":459,"name":"Sly Marbo","steam_id":76561198135271741,"connected_time":3509000000000,"state":"active","ping":60},{"user_id":479,"name":"Boxxy","steam_id":76561198137230635,"connected_time":2117000000000,"state":"active","ping":65},{"user_id":462,"name":"big booty birtha","steam_id":76561198996674933,"connected_time":3378000000000,"state":"active","ping":45},{"user_id":475,"name":"Themasterman75","steam_id":76561199385573293,"connected_time":2467000000000,"state":"active","ping":70},{"user_id":495,"name":"makeshift_burrito","steam_id":76561198042510825,"connected_time":214000000000,"state":"active","ping":70},{"user_id":492,"name":"Aibroc","steam_id":76561199164997748,"connected_time":740000000000,"state":"active","ping":85},{"user_id":493,"name":"John Wick's puppy","steam_id":76561198064662875,"connected_time":739000000000,"state":"active","ping":61},{"user_id":481,"name":"Wizops","steam_id":76561198907030448,"connected_time":1630000000000,"state":"active","ping":127},{"user_id":473,"name":"Glizzy Mcguire","steam_id":76561198101618568,"connected_time":2780000000000,"state":"active","ping":55},{"user_id":496,"name":"mooney","steam_id":76561199110622484,"connected_time":208000000000,"state":"active","ping":72},{"user_id":466,"name":"yamoosey","steam_id":76561198346722579,"connected_time":3228000000000,"state":"active","ping":107},{"user_id":494,"name":"delight","steam_id":76561197980280272,"connected_time":713000000000,"state":"active","ping":47},{"user_id":499,"name":"TheCowledWiz","steam_id":76561198016735868,"connected_time":20000000000,"state":"active","ping":50},{"user_id":379,"name":"nathan","steam_id":76561198170402666,"connected_time":9186000000000,"state":"active","ping":70}]},{"server_id":119,"name":"Uncletopia | Seattle | 2 | All Maps","name_short":"sea-2","host":"sea-1.us.uncletopia.com","port":27025,"enabled":true,"region":"us-west","cc":"us","latitude":47.608013,"longitude":-122.33517,"reserved":0,"last_update":"0001-01-01T00:00:00Z","name_a2s":"Uncletopia | Seattle | 2 | All Maps","protocol":17,"map":"pl_barnblitz","folder":"tf","game":"Team Fortress","app_id":440,"player_count":24,"max_players":24,"Bots":0,"server_type":"Dedicated","server_os":"Linux","password":true,"vac":true,"version":"7757534","steam_id":85568392924469998,"keywords":["nocrits","nodmgspread","payload","uncletopia"],"game_id":440,"stv_port":27026,"stv_name":"Uncletopia | Seattle | 2 | All Maps | STV","players":[{"user_id":309,"name":"Major General Drugs","steam_id":76561198131631865,"connected_time":4374000000000,"state":"active","ping":84},{"user_id":303,"name":"liftin'","steam_id":76561199089515791,"connected_time":4557000000000,"state":"active","ping":75},{"user_id":258,"name":"Faerun_F","steam_id":76561198443906094,"connected_time":8600000000000,"state":"active","ping":128},{"user_id":343,"name":"yaboismitty","steam_id":76561199130187442,"connected_time":1036000000000,"state":"active","ping":99},{"user_id":349,"name":"kodynotcody","steam_id":76561198340685758,"connected_time":724000000000,"state":"active","ping":55},{"user_id":167,"name":"BreadQuest","steam_id":76561198082425960,"connected_time":15228000000000,"state":"active","ping":47},{"user_id":310,"name":"BiohazardSr","steam_id":76561198067241095,"connected_time":4366000000000,"state":"active","ping":84},{"user_id":287,"name":"Plain Toast","steam_id":76561198451580251,"connected_time":6187000000000,"state":"active","ping":120},{"user_id":352,"name":"Isopentyl Ethanoate","steam_id":76561198116389072,"connected_time":31000000000,"state":"active","ping":64},{"user_id":324,"name":"autumnal.messenger","steam_id":76561199345816635,"connected_time":2636000000000,"state":"active","ping":46},{"user_id":311,"name":"1st Lt. Paraphernalia","steam_id":76561198352544325,"connected_time":4357000000000,"state":"active","ping":86},{"user_id":265,"name":"Username","steam_id":76561198855586261,"connected_time":8175000000000,"state":"active","ping":62},{"user_id":342,"name":"Dargoos","steam_id":76561198366212046,"connected_time":1144000000000,"state":"active","ping":73},{"user_id":346,"name":"WaffleWithNoToppings","steam_id":76561199088280111,"connected_time":976000000000,"state":"active","ping":45},{"user_id":337,"name":"Felipe Ramirez 2013","steam_id":76561198150497397,"connected_time":1492000000000,"state":"active","ping":83},{"user_id":293,"name":"BIGWELDFROMROBOTS","steam_id":76561199275349806,"connected_time":5564000000000,"state":"active","ping":77},{"user_id":351,"name":"TheInventor","steam_id":76561198898516778,"connected_time":253000000000,"state":"active","ping":59},{"user_id":257,"name":"ejschild745","steam_id":76561199013388867,"connected_time":8651000000000,"state":"active","ping":74},{"user_id":331,"name":"Cardboardcoin","steam_id":76561199421284163,"connected_time":2034000000000,"state":"active","ping":64},{"user_id":339,"name":"Giorno_Giovanna","steam_id":76561199014402406,"connected_time":1475000000000,"state":"active","ping":72},{"user_id":350,"name":"shroom gloom","steam_id":76561198042941628,"connected_time":346000000000,"state":"active","ping":74},{"user_id":297,"name":"oo","steam_id":76561198119626492,"connected_time":5148000000000,"state":"active","ping":74},{"user_id":347,"name":"flishko","steam_id":76561198326489802,"connected_time":947000000000,"state":"active","ping":55},{"user_id":348,"name":"catbreath","steam_id":76561198337705174,"connected_time":814000000000,"state":"active","ping":76}]},{"server_id":406,"name":"Uncletopia | Seattle | 3 | Stopwatch Beta","name_short":"sea-3","host":"sea-1.us.uncletopia.com","port":27035,"enabled":true,"region":"us-west","cc":"us","latitude":47.608013,"longitude":-122.33517,"reserved":0,"last_update":"0001-01-01T00:00:00Z","name_a2s":"Uncletopia | Seattle | 3 | Stopwatch Beta","protocol":17,"map":"workshop/pl_vigil_rc9.ugc1266210012","folder":"tf","game":"Team Fortress","app_id":440,"player_count":0,"max_players":24,"Bots":0,"server_type":"Dedicated","server_os":"Linux","password":true,"vac":true,"version":"7757534","steam_id":85568392924515217,"keywords":["nocrits","nodmgspread","payload","uncletopia"],"game_id":440,"stv_port":27036,"stv_name":"Uncletopia | Seattle | 3 | Stopwatch Beta | STV","players":null},{"server_id":17,"name":"Uncletopia | San Francisco | 1 | All Maps","name_short":"sfo-1","host":"sfo-1.us.uncletopia.com","port":27015,"enabled":true,"region":"us-west","cc":"us","latitude":37.77397,"longitude":-122.4313,"reserved":0,"last_update":"0001-01-01T00:00:00Z","name_a2s":"Uncletopia | San Francisco | 1 | All Maps","protocol":17,"map":"pl_upward","folder":"tf","game":"Team Fortress","app_id":440,"player_count":24,"max_players":24,"Bots":0,"server_type":"Dedicated","server_os":"Linux","password":true,"vac":true,"version":"7757534","steam_id":85568392924469999,"keywords":["nocrits","nodmgspread","payload","uncletopia"],"game_id":440,"stv_port":27016,"stv_name":"Uncletopia | San Francisco | 1 | All Maps | STV","players":[{"user_id":446,"name":"Alkimia","steam_id":76561198385763137,"connected_time":4349000000000,"state":"active","ping":99},{"user_id":497,"name":"Dov-Ah-Bob","steam_id":76561198147798338,"connected_time":388000000000,"state":"active","ping":65},{"user_id":469,"name":"YouAreReadingThis","steam_id":76561198367831600,"connected_time":2629000000000,"state":"active","ping":88},{"user_id":458,"name":"OGKinGooba","steam_id":76561198044585210,"connected_time":2986000000000,"state":"active","ping":61},{"user_id":431,"name":"great1photo","steam_id":76561198085481933,"connected_time":5385000000000,"state":"active","ping":139},{"user_id":463,"name":"Casket The Clown","steam_id":76561198041346308,"connected_time":2866000000000,"state":"active","ping":117},{"user_id":474,"name":"Icy","steam_id":76561198125015366,"connected_time":2150000000000,"state":"active","ping":88},{"user_id":460,"name":"Florida Man","steam_id":76561198011173843,"connected_time":2958000000000,"state":"active","ping":119},{"user_id":491,"name":"Highground","steam_id":76561199197544789,"connected_time":863000000000,"state":"active","ping":163},{"user_id":478,"name":"landogg","steam_id":76561198049000586,"connected_time":1835000000000,"state":"active","ping":62},{"user_id":495,"name":"SaltyService","steam_id":76561198120366751,"connected_time":669000000000,"state":"active","ping":72},{"user_id":496,"name":"Hooman","steam_id":76561198378237458,"connected_time":632000000000,"state":"active","ping":66},{"user_id":465,"name":"G‡∂ûMER","steam_id":76561198340389876,"connected_time":2745000000000,"state":"active","ping":67},{"user_id":466,"name":"woah there buckaroo","steam_id":76561198175955138,"connected_time":2717000000000,"state":"active","ping":53},{"user_id":467,"name":"Arbiter Soul","steam_id":76561198067798973,"connected_time":2693000000000,"state":"active","ping":72},{"user_id":492,"name":"megaroboleg","steam_id":76561198844644993,"connected_time":851000000000,"state":"active","ping":62},{"user_id":434,"name":"Ivy","steam_id":76561198047758442,"connected_time":5322000000000,"state":"active","ping":88},{"user_id":499,"name":"Lube","steam_id":76561199110893188,"connected_time":249000000000,"state":"active","ping":54},{"user_id":487,"name":"Lloydirving1","steam_id":76561198032215415,"connected_time":1097000000000,"state":"active","ping":118},{"user_id":471,"name":"Limp Pumpo Discography Fan Club","steam_id":76561198145748479,"connected_time":2495000000000,"state":"active","ping":74},{"user_id":498,"name":"Poptart From Mars","steam_id":76561197979930960,"connected_time":350000000000,"state":"active","ping":105},{"user_id":383,"name":"Melody","steam_id":76561198407789232,"connected_time":7842000000000,"state":"active","ping":77},{"user_id":473,"name":"vividbot","steam_id":76561198158980015,"connected_time":2450000000000,"state":"active","ping":70},{"user_id":484,"name":"Vintage TV","steam_id":76561198800334545,"connected_time":1519000000000,"state":"active","ping":53}]},{"server_id":18,"name":"Uncletopia | San Francisco | 2 | All Maps","name_short":"sfo-2","host":"sfo-1.us.uncletopia.com","port":27025,"enabled":true,"region":"us-west","cc":"us","latitude":37.77397,"longitude":-122.4313,"reserved":0,"last_update":"0001-01-01T00:00:00Z","name_a2s":"Uncletopia | San Francisco | 2 | All Maps","protocol":17,"map":"cp_dustbowl","folder":"tf","game":"Team Fortress","app_id":440,"player_count":24,"max_players":24,"Bots":0,"server_type":"Dedicated","server_os":"Linux","password":true,"vac":true,"version":"7757534","steam_id":85568392924470000,"keywords":["cp","nocrits","nodmgspread","uncletopia"],"game_id":440,"stv_port":27026,"stv_name":"Uncletopia | San Francisco | 2 | All Maps | STV","players":[{"user_id":125,"name":"Spaceman","steam_id":76561198349305249,"connected_time":1327000000000,"state":"active","ping":81},{"user_id":121,"name":"Droidder","steam_id":76561198119484250,"connected_time":1402000000000,"state":"active","ping":74},{"user_id":124,"name":"Natalie","steam_id":76561198048848289,"connected_time":1367000000000,"state":"active","ping":63},{"user_id":45,"name":"Tejo","steam_id":76561198200617911,"connected_time":6630000000000,"state":"active","ping":69},{"user_id":140,"name":"The dreaded jar","steam_id":76561199087010656,"connected_time":437000000000,"state":"active","ping":81},{"user_id":141,"name":"CaptainK","steam_id":76561198018979695,"connected_time":392000000000,"state":"active","ping":114},{"user_id":126,"name":"luigifan","steam_id":76561199428693962,"connected_time":1303000000000,"state":"active","ping":109},{"user_id":127,"name":"Logan601 #savetf2","steam_id":76561198263116731,"connected_time":1291000000000,"state":"active","ping":68},{"user_id":86,"name":"A Shiny Meat Bicycle","steam_id":76561198358757709,"connected_time":4699000000000,"state":"active","ping":140},{"user_id":142,"name":"Whoplops","steam_id":76561197977188933,"connected_time":243000000000,"state":"active","ping":120},{"user_id":131,"name":"snub","steam_id":76561198312106312,"connected_time":1100000000000,"state":"active","ping":77},{"user_id":138,"name":"tincant","steam_id":76561198357137800,"connected_time":619000000000,"state":"active","ping":83},{"user_id":106,"name":"HammerHead","steam_id":76561197975668646,"connected_time":2788000000000,"state":"active","ping":81},{"user_id":132,"name":"LWebb","steam_id":76561199162936929,"connected_time":1091000000000,"state":"active","ping":75},{"user_id":137,"name":"Uta","steam_id":76561198271964253,"connected_time":898000000000,"state":"active","ping":92},{"user_id":134,"name":"aqua","steam_id":76561198800365464,"connected_time":1085000000000,"state":"active","ping":92},{"user_id":135,"name":"Coolshroomish","steam_id":76561199109440924,"connected_time":1051000000000,"state":"active","ping":71},{"user_id":78,"name":"bobtheninjaman","steam_id":76561198066424544,"connected_time":5210000000000,"state":"active","ping":64},{"user_id":116,"name":"darktheif54","steam_id":76561198043650119,"connected_time":2092000000000,"state":"active","ping":66},{"user_id":143,"name":"matt martians","steam_id":76561198363821364,"connected_time":197000000000,"state":"active","ping":41},{"user_id":115,"name":"Fwoofy Miraidon","steam_id":76561199102029534,"connected_time":2188000000000,"state":"active","ping":88},{"user_id":88,"name":"Uluyo","steam_id":76561198065857148,"connected_time":4599000000000,"state":"active","ping":79},{"user_id":119,"name":"Tyler\u0026Fingers","steam_id":76561198085154485,"connected_time":1760000000000,"state":"active","ping":117},{"user_id":139,"name":"pingus","steam_id":76561198268995867,"connected_time":612000000000,"state":"active","ping":48}]},{"server_id":19,"name":"Uncletopia | San Francisco | 3 | Stopwatch Beta","name_short":"sfo-3","host":"sfo-1.us.uncletopia.com","port":27035,"enabled":true,"region":"us-west","cc":"us","latitude":37.77397,"longitude":-122.4313,"reserved":0,"last_update":"0001-01-01T00:00:00Z","name_a2s":"Uncletopia | San Francisco | 3 | Stopwatch Beta","protocol":17,"map":"workshop/pl_summercoast_rc8e.ugc1761528829","folder":"tf","game":"Team Fortress","app_id":440,"player_count":0,"max_players":24,"Bots":0,"server_type":"Dedicated","server_os":"Linux","password":true,"vac":true,"version":"7757534","steam_id":85568392924742824,"keywords":["nocrits","nodmgspread","payload","uncletopia"],"game_id":440,"stv_port":27036,"stv_name":"Uncletopia | San Francisco | 3 | Stopwatch Beta | STV","players":null},{"server_id":20,"name":"Uncletopia | San Francisco | 4 | Community","name_short":"sfo-4","host":"sfo-1.us.uncletopia.com","port":27045,"enabled":true,"region":"us-west","cc":"us","latitude":37.77397,"longitude":-122.4313,"reserved":0,"last_update":"0001-01-01T00:00:00Z","name_a2s":"Uncletopia | San Francisco | 4 | Community","protocol":17,"map":"workshop/pl_boundary_final1.ugc456799153","folder":"tf","game":"Team Fortress","app_id":440,"player_count":0,"max_players":24,"Bots":0,"server_type":"Dedicated","server_os":"Linux","password":true,"vac":true,"version":"7757534","steam_id":85568392924742826,"keywords":["nocrits","nodmgspread","payload","uncletopia"],"game_id":440,"stv_port":27046,"stv_name":"Uncletopia | San Francisco | 4 | Community | STV","players":null},{"server_id":141,"name":"Uncletopia | Sydney | 1 | All Maps","name_short":"syd-1","host":"syd-1.au.uncletopia.com","port":27015,"enabled":true,"region":"au","cc":"au","latitude":-33.865143,"longitude":151.2099,"reserved":0,"last_update":"0001-01-01T00:00:00Z","name_a2s":"Uncletopia | Sydney | 1 | All Maps","protocol":17,"map":"pl_barnblitz","folder":"tf","game":"Team Fortress","app_id":440,"player_count":0,"max_players":24,"Bots":0,"server_type":"Dedicated","server_os":"Linux","password":true,"vac":true,"version":"7757534","steam_id":85568392924470001,"keywords":["nocrits","nodmgspread","payload","uncletopia"],"game_id":440,"stv_port":27016,"stv_name":"Uncletopia | Sydney | 1 | All Maps | STV","players":null},{"server_id":123,"name":"Uncletopia | Sydney | 2 | All Maps","name_short":"syd-2","host":"syd-1.au.uncletopia.com","port":27025,"enabled":true,"region":"au","cc":"au","latitude":-33.865143,"longitude":151.2099,"reserved":0,"last_update":"0001-01-01T00:00:00Z","name_a2s":"Uncletopia | Sydney | 2 | All Maps","protocol":17,"map":"koth_lakeside_final","folder":"tf","game":"Team Fortress","app_id":440,"player_count":0,"max_players":24,"Bots":0,"server_type":"Dedicated","server_os":"Linux","password":true,"vac":true,"version":"7757534","steam_id":85568392924470002,"keywords":["cp","nocrits","nodmgspread","uncletopia"],"game_id":440,"stv_port":27026,"stv_name":"Uncletopia | Sydney | 2 | All Maps | STV","players":null},{"server_id":395,"name":"Uncletopia | Sydney | 3 | All Maps","name_short":"syd-3","host":"syd-1.au.uncletopia.com","port":27035,"enabled":true,"region":"au","cc":"au","latitude":-33.865143,"longitude":151.2099,"reserved":0,"last_update":"0001-01-01T00:00:00Z","name_a2s":"Uncletopia | Sydney | 3 | All Maps","protocol":17,"map":"pl_swiftwater_final1","folder":"tf","game":"Team Fortress","app_id":440,"player_count":0,"max_players":24,"Bots":0,"server_type":"Dedicated","server_os":"Linux","password":true,"vac":true,"version":"7757534","steam_id":85568392925194467,"keywords":["nocrits","nodmgspread","payload","uncletopia"],"game_id":440,"stv_port":27036,"stv_name":"Uncletopia | Sydney | 3 | All Maps | STV","players":null},{"server_id":396,"name":"Uncletopia | Sydney | 4 | All Maps","name_short":"syd-4","host":"syd-1.au.uncletopia.com","port":27045,"enabled":true,"region":"au","cc":"au","latitude":-33.865143,"longitude":151.2099,"reserved":0,"last_update":"0001-01-01T00:00:00Z","name_a2s":"Uncletopia | Sydney | 4 | All Maps","protocol":17,"map":"koth_highpass","folder":"tf","game":"Team Fortress","app_id":440,"player_count":0,"max_players":24,"Bots":0,"server_type":"Dedicated","server_os":"Linux","password":true,"vac":true,"version":"7757534","steam_id":85568392925397958,"keywords":["cp","nocrits","nodmgspread","uncletopia"],"game_id":440,"stv_port":27046,"stv_name":"Uncletopia | Sydney | 4 | All Maps | STV","players":null},{"server_id":58,"name":"Uncletopia | Sydney | 5 | Stopwatch Beta","name_short":"syd-5","host":"syd-1.au.uncletopia.com","port":27055,"enabled":true,"region":"au","cc":"au","latitude":-33.865143,"longitude":151.2099,"reserved":0,"last_update":"0001-01-01T00:00:00Z","name_a2s":"Uncletopia | Sydney | 5 | Stopwatch Beta","protocol":17,"map":"koth_cascade","folder":"tf","game":"Team Fortress","app_id":440,"player_count":0,"max_players":24,"Bots":0,"server_type":"Dedicated","server_os":"Linux","password":true,"vac":true,"version":"7757534","steam_id":85568392925397959,"keywords":["cp","nocrits","nodmgspread","uncletopia"],"game_id":440,"stv_port":27056,"stv_name":"Uncletopia | Sydney | 5 | Stopwatch Beta | STV","players":null},{"server_id":59,"name":"Uncletopia | Sydney | 6 | Community","name_short":"syd-6","host":"syd-1.au.uncletopia.com","port":27065,"enabled":true,"region":"au","cc":"au","latitude":-33.865143,"longitude":151.2099,"reserved":0,"last_update":"0001-01-01T00:00:00Z","name_a2s":"Uncletopia | Sydney | 6 | Community","protocol":17,"map":"cp_snakewater_final1","folder":"tf","game":"Team Fortress","app_id":440,"player_count":0,"max_players":24,"Bots":0,"server_type":"Dedicated","server_os":"Linux","password":true,"vac":true,"version":"7757534","steam_id":85568392925397960,"keywords":["cp","nocrits","nodmgspread","uncletopia"],"game_id":440,"stv_port":27066,"stv_name":"Uncletopia | Sydney | 6 | Community | STV","players":null},{"server_id":49,"name":"Uncletopia | Warsaw | 1 | All Maps","name_short":"waw-1","host":"waw-1.pl.uncletopia.com","port":27015,"enabled":true,"region":"eu","cc":"pl","latitude":52.2297,"longitude":21.017532,"reserved":0,"last_update":"0001-01-01T00:00:00Z","name_a2s":"","protocol":0,"map":"","folder":"","game":"","app_id":0,"player_count":0,"max_players":0,"Bots":0,"server_type":"","server_os":"","password":false,"vac":false,"version":"","steam_id":0,"keywords":null,"game_id":0,"stv_port":0,"stv_name":"","players":null},{"server_id":50,"name":"Uncletopia | Warsaw | 2 | All Maps","name_short":"waw-2","host":"waw-1.pl.uncletopia.com","port":27025,"enabled":true,"region":"eu","cc":"pl","latitude":52.2297,"longitude":21.017532,"reserved":0,"last_update":"0001-01-01T00:00:00Z","name_a2s":"Uncletopia | Warsaw | 2 | All Maps","protocol":17,"map":"koth_lakeside_final","folder":"tf","game":"Team Fortress","app_id":440,"player_count":0,"max_players":24,"Bots":0,"server_type":"Dedicated","server_os":"Linux","password":true,"vac":true,"version":"7757534","steam_id":85568392925397851,"keywords":["cp","nocrits","nodmgspread","uncletopia"],"game_id":440,"stv_port":27026,"stv_name":"Uncletopia | Warsaw | 2 | All Maps | STV","players":null},{"server_id":51,"name":"Uncletopia | Warsaw | 3 | All Maps","name_short":"waw-3","host":"waw-1.pl.uncletopia.com","port":27035,"enabled":true,"region":"eu","cc":"pl","latitude":52.2297,"longitude":21.017532,"reserved":0,"last_update":"0001-01-01T00:00:00Z","name_a2s":"Uncletopia | Warsaw | 3 | All Maps","protocol":17,"map":"pl_barnblitz","folder":"tf","game":"Team Fortress","app_id":440,"player_count":0,"max_players":24,"Bots":0,"server_type":"Dedicated","server_os":"Linux","password":true,"vac":true,"version":"7757534","steam_id":85568392925397852,"keywords":["nocrits","nodmgspread","payload","uncletopia"],"game_id":440,"stv_port":27036,"stv_name":"Uncletopia | Warsaw | 3 | All Maps | STV","players":null},{"server_id":52,"name":"Uncletopia | Warsaw | 4 | All Maps","name_short":"waw-4","host":"waw-1.pl.uncletopia.com","port":27045,"enabled":true,"region":"eu","cc":"pl","latitude":52.2297,"longitude":21.017532,"reserved":0,"last_update":"0001-01-01T00:00:00Z","name_a2s":"Uncletopia | Warsaw | 4 | All Maps","protocol":17,"map":"koth_lakeside_final","folder":"tf","game":"Team Fortress","app_id":440,"player_count":0,"max_players":24,"Bots":0,"server_type":"Dedicated","server_os":"Linux","password":true,"vac":true,"version":"7757534","steam_id":85568392925397853,"keywords":["cp","nocrits","nodmgspread","uncletopia"],"game_id":440,"stv_port":27046,"stv_name":"Uncletopia | Warsaw | 4 | All Maps | STV","players":null},{"server_id":53,"name":"Uncletopia | Warsaw | 5 | Stopwatch Beta","name_short":"waw-5","host":"waw-1.pl.uncletopia.com","port":27055,"enabled":true,"region":"eu","cc":"pl","latitude":52.2297,"longitude":21.017532,"reserved":0,"last_update":"0001-01-01T00:00:00Z","name_a2s":"Uncletopia | Warsaw | 5 | Stopwatch Beta","protocol":17,"map":"workshop/koth_bagel_rc6.ugc2514036946","folder":"tf","game":"Team Fortress","app_id":440,"player_count":0,"max_players":24,"Bots":0,"server_type":"Dedicated","server_os":"Linux","password":true,"vac":true,"version":"7757534","steam_id":85568392925397854,"keywords":["cp","nocrits","nodmgspread","uncletopia"],"game_id":440,"stv_port":27056,"stv_name":"Uncletopia | Warsaw | 5 | Stopwatch Beta | STV","players":null},{"server_id":54,"name":"Uncletopia | Warsaw | 6 | Community","name_short":"waw-6","host":"waw-1.pl.uncletopia.com","port":27065,"enabled":true,"region":"eu","cc":"pl","latitude":52.2297,"longitude":21.017532,"reserved":0,"last_update":"0001-01-01T00:00:00Z","name_a2s":"Uncletopia | Warsaw | 6 | Community","protocol":17,"map":"workshop/koth_kemptown_rc1.ugc767410655","folder":"tf","game":"Team Fortress","app_id":440,"player_count":0,"max_players":24,"Bots":0,"server_type":"Dedicated","server_os":"Linux","password":true,"vac":true,"version":"7757534","steam_id":85568392925397856,"keywords":["cp","nocrits","nodmgspread","uncletopia"],"game_id":440,"stv_port":27066,"stv_name":"Uncletopia | Warsaw | 6 | Community | STV","players":null}]}