{"status":true,"message":"","result":[{"server_id":9,"name":"Uncletopia | Atlanta | 1 | All Maps","name_short":"atl-1","host":"atl-1.us.uncletopia.com","port":27015,"enabled":true,"region":"us-east","cc":"us","latitude":33.753746,"longitude":-84.38633,"reserved":0,"last_update":"0001-01-01T00:00:00Z","name_a2s":"Uncletopia | Atlanta | 1 | All Maps","protocol":17,"map":"pl_upward","folder":"tf","game":"Team Fortress","app_id":440,"player_count":20,"max_players":24,"Bots":0,"server_type":"Dedicated","server_os":"Linux","password":true,"vac":true,"version":"7932396","steam_id":85568392924469982,"keywords":["nocrits","nodmgspread","payload","uncletopia"],"game_id":440,"stv_port":27016,"stv_name":"Uncletopia | Atlanta | 1 | All Maps | STV","players":[{"user_id":537,"name":"Metapod","steam_id":76561198008725465,"connected_time":1460000000000,"state":"active","ping":102},{"user_id":566,"name":"Lumi","steam_id":76561198089978036,"connected_time":432000000000,"state":"active","ping":101},{"user_id":557,"name":"Lee-Ch","steam_id":76561198164980622,"connected_time":623000000000,"state":"active","ping":79},{"user_id":535,"name":"Meep","steam_id":76561198357308577,"connected_time":1719000000000,"state":"active","ping":140},{"user_id":573,"name":"Saya","steam_id":76561199476886074,"connected_time":137000000000,"state":"active","ping":84},{"user_id":533,"name":"Joobathan","steam_id":76561198077576449,"connected_time":1835000000000,"state":"active","ping":128},{"user_id":568,"name":"Nivek7769","steam_id":76561199230317225,"connected_time":339000000000,"state":"active","ping":90},{"user_id":542,"name":"Loonie \u003c3","steam_id":76561199159603807,"connected_time":1316000000000,"state":"active","ping":92},{"user_id":539,"name":"Pight","steam_id":76561198823422389,"connected_time":1424000000000,"state":"active","ping":102},{"user_id":520,"name":"Dededoo","steam_id":76561198279033471,"connected_time":2626000000000,"state":"active","ping":119},{"user_id":528,"name":"dr. coomer serket","steam_id":76561197998431617,"connected_time":2104000000000,"state":"active","ping":141},{"user_id":558,"name":"Jeff","steam_id":76561198078570414,"connected_time":599000000000,"state":"active","ping":113},{"user_id":560,"name":"sapphoroth","steam_id":76561198062263639,"connected_time":575000000000,"state":"active","ping":90},{"user_id":547,"name":"unre_mark_able","steam_id":76561198261947417,"connected_time":810000000000,"state":"active","ping":101},{"user_id":525,"name":"Esteban Delsin","steam_id":76561198433519639,"connected_time":2219000000000,"state":"active","ping":137},{"user_id":574,"name":"Cap'n Short Legs","steam_id":76561198164139410,"connected_time":131000000000,"state":"active","ping":114},{"user_id":576,"name":"Reflector","steam_id":76561198078999855,"connected_time":50000000000,"state":"active","ping":100},{"user_id":571,"name":"Subatomicpancake","steam_id":76561198046701061,"connected_time":221000000000,"state":"active","ping":130},{"user_id":575,"name":"LProduct","steam_id":76561199442139670,"connected_time":124000000000,"state":"active","ping":227},{"user_id":553,"name":"ChicoTopic","steam_id":76561198327083342,"connected_time":722000000000,"state":"active","ping":91}]},{"server_id":104,"name":"Uncletopia | Atlanta | 2 | All Maps","name_short":"atl-2","host":"atl-1.us.uncletopia.com","port":27025,"enabled":true,"region":"us-east","cc":"us","latitude":33.753746,"longitude":-84.38633,"reserved":0,"last_update":"0001-01-01T00:00:00Z","name_a2s":"Uncletopia | Atlanta | 2 | All Maps","protocol":17,"map":"pl_pier","folder":"tf","game":"Team Fortress","app_id":440,"player_count":21,"max_players":24,"Bots":0,"server_type":"Dedicated","server_os":"Linux","password":true,"vac":true,"version":"7932396","steam_id":85568392924469983,"keywords":["nocrits","nodmgspread","payload","uncletopia"],"game_id":440,"stv_port":27026,"stv_name":"Uncletopia | Atlanta | 2 | All Maps | STV","players":[{"user_id":786,"name":"Alphawulf07","steam_id":76561199097096420,"connected_time":424000000000,"state":"active","ping":175},{"user_id":585,"name":"M1K3 :)","steam_id":76561198072217407,"connected_time":5623000000000,"state":"active","ping":70},{"user_id":767,"name":"superdupernoperscoper","steam_id":76561198146943449,"connected_time":1018000000000,"state":"active","ping":84},{"user_id":792,"name":"wiff-o-matic","steam_id":76561198968778310,"connected_time":115000000000,"state":"active","ping":124},{"user_id":743,"name":"RandyPickleshoes","steam_id":76561198064139260,"connected_time":1885000000000,"state":"active","ping":123},{"user_id":783,"name":"CAR BATTERY","steam_id":76561199122915452,"connected_time":649000000000,"state":"active","ping":145},{"user_id":787,"name":"Shattered Glass","steam_id":76561198116835391,"connected_time":325000000000,"state":"active","ping":109},{"user_id":756,"name":"Real Azure #SaveTF2","steam_id":76561198095912284,"connected_time":1339000000000,"state":"active","ping":147},{"user_id":793,"name":"Soupman_Official","steam_id":76561198314308732,"connected_time":98000000000,"state":"active","ping":106},{"user_id":610,"name":"Wolfman","steam_id":76561198095264646,"connected_time":5027000000000,"state":"active","ping":109},{"user_id":789,"name":"eroobus","steam_id":76561198004083771,"connected_time":272000000000,"state":"active","ping":85},{"user_id":784,"name":"Rodgedan","steam_id":76561198226236524,"connected_time":607000000000,"state":"active","ping":119},{"user_id":790,"name":"Crimson Countess","steam_id":76561198035676327,"connected_time":238000000000,"state":"active","ping":93},{"user_id":785,"name":"mepng","steam_id":76561199018758598,"connected_time":579000000000,"state":"active","ping":102},{"user_id":754,"name":"Zoro01","steam_id":76561198407989540,"connected_time":1427000000000,"state":"active","ping":150},{"user_id":757,"name":"Wackydavo","steam_id":76561197990094209,"connected_time":1334000000000,"state":"active","ping":169},{"user_id":710,"name":"Techo","steam_id":76561199169405285,"connected_time":2809000000000,"state":"active","ping":160},{"user_id":795,"name":"Seaport Hime","steam_id":76561198055914224,"connected_time":61000000000,"state":"active","ping":134},{"user_id":796,"name":"(TTV) The_Astrum_Guardian","steam_id":76561198130134103,"connected_time":30000000000,"state":"active","ping":76},{"user_id":720,"name":"Pedro Num","steam_id":76561198854600072,"connected_time":2502000000000,"state":"active","ping":171},{"user_id":774,"name":"2_Kan","steam_id":76561199456801899,"connected_time":944000000000,"state":"active","ping":137}]},{"server_id":400,"name":"Uncletopia | Atlanta | 3 | Community","name_short":"atl-3","host":"atl-1.us.uncletopia.com","port":27035,"enabled":true,"region":"us-east","cc":"us","latitude":33.753746,"longitude":-84.38633,"reserved":0,"last_update":"0001-01-01T00:00:00Z","name_a2s":"Uncletopia | Atlanta | 3 | Community","protocol":17,"map":"workshop/koth_trenchfoot_b1a.ugc731436616","folder":"tf","game":"Team Fortress","app_id":440,"player_count":0,"max_players":24,"Bots":0,"server_type":"Dedicated","server_os":"Linux","password":true,"vac":true,"version":"7932396","steam_id":85568392924515187,"keywords":["cp","nocrits","nodmgspread","uncletopia"],"game_id":440,"stv_port":27036,"stv_name":"Uncletopia | Atlanta | 3 | Community | STV","players":null},{"server_id":401,"name":"Uncletopia | Atlanta | 4 | No Payload","name_short":"atl-4","host":"atl-1.us.uncletopia.com","port":27045,"enabled":true,"region":"us-east","cc":"us","latitude":33.753746,"longitude":-84.38633,"reserved":0,"last_update":"0001-01-01T00:00:00Z","name_a2s":"","protocol":0,"map":"","folder":"","game":"","app_id":0,"player_count":0,"max_players":0,"Bots":0,"server_type":"","server_os":"","password":false,"vac":false,"version":"","steam_id":0,"keywords":null,"game_id":0,"stv_port":0,"stv_name":"","players":null},{"server_id":2,"name":"Uncletopia | Chicago | 1 | All Maps","name_short":"chi-1","host":"chi-1.us.uncletopia.com","port":27015,"enabled":true,"region":"us-central","cc":"us","latitude":41.881832,"longitude":-87.62318,"reserved":0,"last_update":"0001-01-01T00:00:00Z","name_a2s":"Uncletopia | Chicago | 1 | All Maps","protocol":17,"map":"pl_frontier_final","folder":"tf","game":"Team Fortress","app_id":440,"player_count":24,"max_players":24,"Bots":0,"server_type":"Dedicated","server_os":"Linux","password":true,"vac":true,"version":"7932396","steam_id":85568392924469984,"keywords":["nocrits","nodmgspread","payload","uncletopia"],"game_id":440,"stv_port":27016,"stv_name":"Uncletopia | Chicago | 1 | All Maps | STV","players":[{"user_id":379,"name":"I'm So Fucking Cool","steam_id":76561198098418071,"connected_time":529000000000,"state":"active","ping":107},{"user_id":347,"name":"troll","steam_id":76561198040890252,"connected_time":3414000000000,"state":"active","ping":70},{"user_id":357,"name":"Swash","steam_id":76561197969421355,"connected_time":2585000000000,"state":"active","ping":70},{"user_id":376,"name":"Kidzbopsicle","steam_id":76561198047660691,"connected_time":911000000000,"state":"active","ping":57},{"user_id":384,"name":"Astoriae!","steam_id":76561199090168858,"connected_time":198000000000,"state":"active","ping":65},{"user_id":373,"name":"Doctor Emerald(real)","steam_id":76561199123003872,"connected_time":1363000000000,"state":"active","ping":92},{"user_id":380,"name":"6t26j","steam_id":76561198278282836,"connected_time":529000000000,"state":"active","ping":54},{"user_id":319,"name":"raspy","steam_id":76561198027298961,"connected_time":6495000000000,"state":"active","ping":48},{"user_id":292,"name":"Zoot","steam_id":76561198121944243,"connected_time":8789000000000,"state":"active","ping":83},{"user_id":344,"name":"DuckMann","steam_id":76561198197058638,"connected_time":4038000000000,"state":"active","ping":60},{"user_id":365,"name":"Rookie","steam_id":76561198191763447,"connected_time":1661000000000,"state":"active","ping":69},{"user_id":381,"name":"Just A Skunk Femboy","steam_id":76561199080883834,"connected_time":516000000000,"state":"active","ping":74},{"user_id":383,"name":"Snom","steam_id":76561198333827920,"connected_time":428000000000,"state":"active","ping":113},{"user_id":341,"name":"Admiral Crumbs (Fasting)","steam_id":76561198108791583,"connected_time":4366000000000,"state":"active","ping":62},{"user_id":366,"name":"Obelix","steam_id":76561198274715109,"connected_time":1660000000000,"state":"active","ping":60},{"user_id":385,"name":"Space","steam_id":76561198350489754,"connected_time":111000000000,"state":"active","ping":51},{"user_id":370,"name":"AYAYA!!!","steam_id":76561198992102180,"connected_time":1646000000000,"state":"active","ping":47},{"user_id":342,"name":"Albino (FATTING)","steam_id":76561198063970639,"connected_time":4366000000000,"state":"active","ping":72},{"user_id":375,"name":"OffKey","steam_id":76561198017660927,"connected_time":1181000000000,"state":"active","ping":46},{"user_id":350,"name":"MR. BEEEEEEEEEEEEEAAAAAAAAAAST","steam_id":76561198205346760,"connected_time":3404000000000,"state":"active","ping":45},{"user_id":352,"name":"Colonel Dissapointment","steam_id":76561198181891649,"connected_time":3394000000000,"state":"active","ping":71},{"user_id":354,"name":"leaf.png","steam_id":76561198847561312,"connected_time":2732000000000,"state":"active","ping":46},{"user_id":208,"name":"Lia_Rein","steam_id":76561198151569597,"connected_time":16553000000000,"state":"active","ping":141},{"user_id":382,"name":"communism's weakest engineer","steam_id":76561198011331991,"connected_time":464000000000,"state":"active","ping":102}]},{"server_id":106,"name":"Uncletopia | Chicago | 2 | All Maps","name_short":"chi-2","host":"chi-1.us.uncletopia.com","port":27025,"enabled":true,"region":"us-central","cc":"us","latitude":41.881832,"longitude":-87.62318,"reserved":0,"last_update":"0001-01-01T00:00:00Z","name_a2s":"Uncletopia | Chicago | 2 | All Maps","protocol":17,"map":"cp_process_final","folder":"tf","game":"Team Fortress","app_id":440,"player_count":24,"max_players":24,"Bots":0,"server_type":"Dedicated","server_os":"Linux","password":true,"vac":true,"version":"7932396","steam_id":85568392924469985,"keywords":["cp","nocrits","nodmgspread","uncletopia"],"game_id":440,"stv_port":27026,"stv_name":"Uncletopia | Chicago | 2 | All Maps | STV","players":[{"user_id":382,"name":"C4K3","steam_id":76561197996963285,"connected_time":880000000000,"state":"active","ping":71},{"user_id":366,"name":"AJTarcza","steam_id":76561198070800190,"connected_time":2078000000000,"state":"active","ping":82},{"user_id":350,"name":"Grand","steam_id":76561198290143399,"connected_time":3640000000000,"state":"active","ping":71},{"user_id":323,"name":"ttv/xiiiTF2","steam_id":76561198079416036,"connected_time":5577000000000,"state":"active","ping":40},{"user_id":378,"name":"Paxa","steam_id":76561198008953177,"connected_time":1506000000000,"state":"active","ping":74},{"user_id":355,"name":"NAHIDA","steam_id":76561198349648942,"connected_time":3170000000000,"state":"active","ping":166},{"user_id":381,"name":"dismissy","steam_id":76561198073904781,"connected_time":881000000000,"state":"active","ping":150},{"user_id":388,"name":"Soup Salad \u0026 Breadsticks","steam_id":76561198382572522,"connected_time":190000000000,"state":"active","ping":67},{"user_id":367,"name":"Fightin Cow","steam_id":76561198080941486,"connected_time":2059000000000,"state":"active","ping":75},{"user_id":383,"name":"the thingamabob","steam_id":76561199157846537,"connected_time":876000000000,"state":"active","ping":73},{"user_id":362,"name":"Flowers","steam_id":76561198031669899,"connected_time":2361000000000,"state":"active","ping":84},{"user_id":384,"name":"playr","steam_id":76561198354622099,"connected_time":865000000000,"state":"active","ping":76},{"user_id":390,"name":"emerge","steam_id":76561198186882891,"connected_time":145000000000,"state":"active","ping":62},{"user_id":386,"name":"a table","steam_id":76561198158461279,"connected_time":403000000000,"state":"active","ping":64},{"user_id":374,"name":"crayonnipple","steam_id":76561198070253331,"connected_time":1816000000000,"state":"active","ping":76},{"user_id":376,"name":"saint martin","steam_id":76561198173047169,"connected_time":1684000000000,"state":"active","ping":59},{"user_id":325,"name":"tomboyfemboy @ttv/xiiitf2","steam_id":76561198061868020,"connected_time":5332000000000,"state":"active","ping":135},{"user_id":358,"name":"Dot.","steam_id":76561198149463984,"connected_time":2922000000000,"state":"active","ping":56},{"user_id":343,"name":"ttv.theohareonion","steam_id":76561198201259645,"connected_time":4320000000000,"state":"active","ping":67},{"user_id":346,"name":"brian eno","steam_id":76561198109901138,"connected_time":3862000000000,"state":"active","ping":75},{"user_id":391,"name":"ItsJustMere","steam_id":76561199091547111,"connected_time":142000000000,"state":"active","ping":59},{"user_id":354,"name":"anyakitten","steam_id":76561197994492154,"connected_time":3214000000000,"state":"active","ping":174},{"user_id":377,"name":"DFR oak","steam_id":76561198092135570,"connected_time":1577000000000,"state":"active","ping":73},{"user_id":348,"name":"Truffles","steam_id":76561198095868800,"connected_time":3816000000000,"state":"active","ping":85}]},{"server_id":402,"name":"Uncletopia | Chicago | 3 | All Maps","name_short":"chi-3","host":"chi-1.us.uncletopia.com","port":27035,"enabled":true,"region":"us-central","cc":"us","latitude":41.881832,"longitude":-87.62318,"reserved":0,"last_update":"0001-01-01T00:00:00Z","name_a2s":"Uncletopia | Chicago | 3 | All Maps","protocol":17,"map":"cp_snakewater_final1","folder":"tf","game":"Team Fortress","app_id":440,"player_count":24,"max_players":24,"Bots":0,"server_type":"Dedicated","server_os":"Linux","password":true,"vac":true,"version":"7932396","steam_id":85568392924515191,"keywords":["cp","nocrits","nodmgspread","uncletopia"],"game_id":440,"stv_port":27036,"stv_name":"Uncletopia | Chicago | 3 | All Maps | STV","players":[{"user_id":859,"name":"crashymicsplody","steam_id":76561198213916765,"connected_time":1043000000000,"state":"active","ping":59},{"user_id":857,"name":"Kevin","steam_id":76561197964311117,"connected_time":1112000000000,"state":"active","ping":86},{"user_id":861,"name":"St. Michael","steam_id":76561198037611052,"connected_time":856000000000,"state":"active","ping":61},{"user_id":835,"name":"Monochi","steam_id":76561198093093118,"connected_time":2440000000000,"state":"active","ping":81},{"user_id":858,"name":"stormfoam","steam_id":76561198936871387,"connected_time":1061000000000,"state":"active","ping":65},{"user_id":862,"name":"Huntpk","steam_id":76561198340591674,"connected_time":755000000000,"state":"active","ping":41},{"user_id":842,"name":"smoking on bhutanese shadow pac","steam_id":76561198095313463,"connected_time":1710000000000,"state":"active","ping":58},{"user_id":873,"name":"the.land.of.avalon","steam_id":76561198245431668,"connected_time":366000000000,"state":"active","ping":59},{"user_id":844,"name":"Infinitytacos","steam_id":76561198884260211,"connected_time":1668000000000,"state":"active","ping":46},{"user_id":874,"name":"Burt Macklin","steam_id":76561198038080028,"connected_time":234000000000,"state":"active","ping":90},{"user_id":863,"name":"ZenkoZSprite","steam_id":76561198190132250,"connected_time":738000000000,"state":"active","ping":113},{"user_id":864,"name":"Thequirka #ForFountainMann","steam_id":76561198968058652,"connected_time":686000000000,"state":"active","ping":102},{"user_id":848,"name":"AXZIOM","steam_id":76561198255074952,"connected_time":1555000000000,"state":"active","ping":93},{"user_id":824,"name":"Dr. Dick","steam_id":76561198138011922,"connected_time":3517000000000,"state":"active","ping":83},{"user_id":865,"name":"Medication Woman","steam_id":76561198348965524,"connected_time":662000000000,"state":"active","ping":74},{"user_id":866,"name":"GuyGoom","steam_id":76561198254522178,"connected_time":624000000000,"state":"active","ping":51},{"user_id":876,"name":"sonikro","steam_id":76561197989428692,"connected_time":55000000000,"state":"active","ping":60},{"user_id":867,"name":"The Sex Defender","steam_id":76561198964223143,"connected_time":620000000000,"state":"active","ping":65},{"user_id":852,"name":"JACK BRUNO","steam_id":76561198027957690,"connected_time":1458000000000,"state":"active","ping":108},{"user_id":869,"name":"Opafama Andr","steam_id":76561198134326972,"connected_time":612000000000,"state":"active","ping":75},{"user_id":870,"name":"Zig","steam_id":76561198817898109,"connected_time":589000000000,"state":"active","ping":91},{"user_id":816,"name":"ultralisk52","steam_id":76561198051666604,"connected_time":3840000000000,"state":"active","ping":62},{"user_id":871,"name":"Walpinsta","steam_id":76561198394882349,"connected_time":576000000000,"state":"active","ping":81},{"user_id":875,"name":"spaceboots","steam_id":76561197977322319,"connected_time":149000000000,"state":"active","ping":65}]},{"server_id":403,"name":"Uncletopia | Chicago | 4 | All Maps","name_short":"chi-4","host":"chi-1.us.uncletopia.com","port":27045,"enabled":true,"region":"us-central","cc":"us","latitude":41.881832,"longitude":-87.62318,"reserved":0,"last_update":"0001-01-01T00:00:00Z","name_a2s":"Uncletopia | Chicago | 4 | All Maps","protocol":17,"map":"cp_mossrock","folder":"tf","game":"Team Fortress","app_id":440,"player_count":22,"max_players":24,"Bots":0,"server_type":"Dedicated","server_os":"Linux","password":true,"vac":true,"version":"7932396","steam_id":85568392924515193,"keywords":["cp","nocrits","nodmgspread","uncletopia"],"game_id":440,"stv_port":27046,"stv_name":"Uncletopia | Chicago | 4 | All Maps | STV","players":[{"user_id":411,"name":"Marc Antony","steam_id":76561198011366517,"connected_time":5973000000000,"state":"active","ping":49},{"user_id":523,"name":"aversa","steam_id":76561198840460101,"connected_time":952000000000,"state":"active","ping":61},{"user_id":507,"name":"l4d2 marshall","steam_id":76561198042570322,"connected_time":1342000000000,"state":"active","ping":49},{"user_id":496,"name":"harold","steam_id":76561199016285746,"connected_time":1456000000000,"state":"active","ping":76},{"user_id":533,"name":"Six Piece Chicken McNobody","steam_id":76561198129848222,"connected_time":28000000000,"state":"spawning","ping":59},{"user_id":394,"name":"RedSock","steam_id":76561198161243404,"connected_time":8237000000000,"state":"active","ping":31},{"user_id":433,"name":"JSlayz","steam_id":76561198853768655,"connected_time":3951000000000,"state":"active","ping":42},{"user_id":410,"name":"taylor swift","steam_id":76561198151135298,"connected_time":6350000000000,"state":"active","ping":90},{"user_id":440,"name":"Pizza","steam_id":76561198118748364,"connected_time":2501000000000,"state":"active","ping":73},{"user_id":521,"name":"Homosexual Warmachine","steam_id":76561198040425096,"connected_time":961000000000,"state":"active","ping":61},{"user_id":508,"name":"nori_420","steam_id":76561199117134203,"connected_time":1319000000000,"state":"active","ping":106},{"user_id":525,"name":"Makina","steam_id":76561198057475567,"connected_time":918000000000,"state":"active","ping":71},{"user_id":522,"name":"Nicolas Cage Kisses Mace Windu","steam_id":76561198046127710,"connected_time":957000000000,"state":"active","ping":47},{"user_id":424,"name":"Double Dip","steam_id":76561198067483536,"connected_time":4813000000000,"state":"active","ping":45},{"user_id":477,"name":"Kng","steam_id":76561198993248203,"connected_time":1658000000000,"state":"active","ping":88},{"user_id":530,"name":"STILLZ","steam_id":76561198131892406,"connected_time":843000000000,"state":"active","ping":81},{"user_id":531,"name":"wedoalittletrolling TF2EASY.COM","steam_id":76561198984807162,"connected_time":697000000000,"state":"active","ping":61},{"user_id":526,"name":"Vibe Check","steam_id":76561198087326826,"connected_time":900000000000,"state":"active","ping":72},{"user_id":506,"name":"he/him whimper","steam_id":76561198097175164,"connected_time":1359000000000,"state":"active","ping":77},{"user_id":527,"name":"puppy :3","steam_id":76561198011196264,"connected_time":890000000000,"state":"active","ping":45},{"user_id":453,"name":"MonotoneMerc","steam_id":76561198022309851,"connected_time":2037000000000,"state":"active","ping":99},{"user_id":528,"name":"Grandpa 1MinecraftEmpire","steam_id":76561198069046338,"connected_time":885000000000,"state":"active","ping":94}]},{"server_id":36,"name":"Uncletopia | Chicago | 5 | All Maps","name_short":"chi-5","host":"chi-2.us.uncletopia.com","port":27015,"enabled":true,"region":"us-central","cc":"us","latitude":41.881832,"longitude":-87.62318,"reserved":0,"last_update":"0001-01-01T00:00:00Z","name_a2s":"Uncletopia | Chicago | 5 | All Maps","protocol":17,"map":"koth_lakeside_final","folder":"tf","game":"Team Fortress","app_id":440,"player_count":9,"max_players":24,"Bots":0,"server_type":"Dedicated","server_os":"Linux","password":true,"vac":true,"version":"7932396","steam_id":85568392924866362,"keywords":["cp","nocrits","nodmgspread","uncletopia"],"game_id":440,"stv_port":27016,"stv_name":"Uncletopia | Chicago | 5 | All Maps | STV","players":[{"user_id":432,"name":"OttotheTomato","steam_id":76561198272610597,"connected_time":724000000000,"state":"active","ping":61},{"user_id":417,"name":"c0mp4c7_d1sc","steam_id":76561199037065992,"connected_time":2042000000000,"state":"active","ping":55},{"user_id":430,"name":"screamy thingy","steam_id":76561198083175190,"connected_time":983000000000,"state":"active","ping":66},{"user_id":416,"name":"Monolith Soldier","steam_id":76561198171898155,"connected_time":2121000000000,"state":"active","ping":53},{"user_id":427,"name":"Irthene","steam_id":76561198047888351,"connected_time":1589000000000,"state":"active","ping":52},{"user_id":425,"name":"Cervidé","steam_id":76561198098579497,"connected_time":1865000000000,"state":"active","ping":71},{"user_id":429,"name":"Monsieur l'INGENIEUR","steam_id":76561198090504334,"connected_time":988000000000,"state":"active","ping":70},{"user_id":397,"name":"Axel Beoulve","steam_id":76561198126511231,"connected_time":3778000000000,"state":"active","ping":120},{"user_id":428,"name":"Snake Handler","steam_id":76561198027198306,"connected_time":1528000000000,"state":"active","ping":45}]},{"server_id":37,"name":"Uncletopia | Chicago | 6 | All Maps","name_short":"chi-6","host":"chi-2.us.uncletopia.com","port":27025,"enabled":true,"region":"us-central","cc":"us","latitude":41.881832,"longitude":-87.62318,"reserved":0,"last_update":"0001-01-01T00:00:00Z","name_a2s":"Uncletopia | Chicago | 6 | All Maps","protocol":17,"map":"pl_borneo","folder":"tf","game":"Team Fortress","app_id":440,"player_count":24,"max_players":24,"Bots":0,"server_type":"Dedicated","server_os":"Linux","password":true,"vac":true,"version":"7932396","steam_id":85568392924866363,"keywords":["nocrits","nodmgspread","payload","uncletopia"],"game_id":440,"stv_port":27026,"stv_name":"Uncletopia | Chicago | 6 | All Maps | STV","players":[{"user_id":163,"name":"RUGRATTER","steam_id":76561198043610132,"connected_time":708000000000,"state":"active","ping":75},{"user_id":174,"name":"crumpsycodger","steam_id":76561197972601902,"connected_time":106000000000,"state":"active","ping":87},{"user_id":164,"name":"JimmySquid","steam_id":76561198254242530,"connected_time":665000000000,"state":"active","ping":71},{"user_id":165,"name":"Victor","steam_id":76561198848984975,"connected_time":343000000000,"state":"active","ping":85},{"user_id":145,"name":"(Past Tense)","steam_id":76561197996279335,"connected_time":2618000000000,"state":"active","ping":46},{"user_id":148,"name":"Demonica","steam_id":76561198841858340,"connected_time":2416000000000,"state":"active","ping":67},{"user_id":139,"name":"Sage","steam_id":76561198143101697,"connected_time":2881000000000,"state":"active","ping":100},{"user_id":166,"name":"ceres","steam_id":76561198291976960,"connected_time":332000000000,"state":"active","ping":104},{"user_id":172,"name":"harison86","steam_id":76561198060100647,"connected_time":163000000000,"state":"active","ping":98},{"user_id":141,"name":"Lore","steam_id":76561198098407538,"connected_time":2783000000000,"state":"active","ping":52},{"user_id":149,"name":"money talks, wealth whispers","steam_id":76561198149666258,"connected_time":2400000000000,"state":"active","ping":48},{"user_id":168,"name":"Stolas \u003c3","steam_id":76561198835430280,"connected_time":318000000000,"state":"active","ping":62},{"user_id":175,"name":"monkeycake","steam_id":76561198272061915,"connected_time":86000000000,"state":"active","ping":60},{"user_id":84,"name":"Walrusto","steam_id":76561198829644616,"connected_time":6710000000000,"state":"active","ping":75},{"user_id":169,"name":"real","steam_id":76561199030879048,"connected_time":230000000000,"state":"active","ping":68},{"user_id":162,"name":"M0T0BREATH  \\TG/","steam_id":76561197961205221,"connected_time":745000000000,"state":"active","ping":75},{"user_id":170,"name":"Dr Oshawott","steam_id":76561198042021629,"connected_time":205000000000,"state":"active","ping":63},{"user_id":176,"name":"Lumina","steam_id":76561198089227368,"connected_time":76000000000,"state":"active","ping":255},{"user_id":173,"name":"frank","steam_id":76561198137777483,"connected_time":139000000000,"state":"active","ping":62},{"user_id":152,"name":"Furious George","steam_id":76561198405111646,"connected_time":2355000000000,"state":"active","ping":96},{"user_id":177,"name":"glowskull","steam_id":76561198013650292,"connected_time":62000000000,"state":"active","ping":116},{"user_id":92,"name":"Peepster","steam_id":76561198297854733,"connected_time":6585000000000,"state":"active","ping":74},{"user_id":129,"name":"helen keller","steam_id":76561197979870540,"connected_time":3633000000000,"state":"active","ping":52},{"user_id":154,"name":"Killroy NQP ❤","steam_id":76561198006983771,"connected_time":2316000000000,"state":"active","ping":78}]},{"server_id":38,"name":"Uncletopia | Chicago | 7 | Stopwatch Beta","name_short":"chi-7","host":"chi-2.us.uncletopia.com","port":27035,"enabled":true,"region":"us-central","cc":"us","latitude":41.881832,"longitude":-87.62318,"reserved":0,"last_update":"0001-01-01T00:00:00Z","name_a2s":"Uncletopia | Chicago | 7 | Stopwatch Beta","protocol":17,"map":"workshop/pl_badwater_pro_v12.ugc2142942074","folder":"tf","game":"Team Fortress","app_id":440,"player_count":1,"max_players":24,"Bots":0,"server_type":"Dedicated","server_os":"Linux","password":true,"vac":true,"version":"7932396","steam_id":85568392924866364,"keywords":["nocrits","nodmgspread","payload","uncletopia"],"game_id":440,"stv_port":27036,"stv_name":"Uncletopia | Chicago | 7 | Stopwatch Beta | STV","players":[{"user_id":72,"name":"R0CK","steam_id":76561198055540752,"connected_time":1924000000000,"state":"active","ping":39}]},{"server_id":39,"name":"Uncletopia | Chicago | 8 | Community","name_short":"chi-8","host":"chi-2.us.uncletopia.com","port":27045,"enabled":true,"region":"us-central","cc":"us","latitude":41.881832,"longitude":-87.62318,"reserved":0,"last_update":"0001-01-01T00:00:00Z","name_a2s":"Uncletopia | Chicago | 8 | Community","protocol":17,"map":"workshop/koth_trenchfoot_b1a.ugc731436616","folder":"tf","game":"Team Fortress","app_id":440,"player_count":0,"max_players":24,"Bots":0,"server_type":"Dedicated","server_os":"Linux","password":true,"vac":true,"version":"7932396","steam_id":85568392924866365,"keywords":["cp","nocrits","nodmgspread","uncletopia"],"game_id":440,"stv_port":27046,"stv_name":"Uncletopia | Chicago | 8 | Community | STV","players":null},{"server_id":8,"name":"Uncletopia | Dallas | 1 | All Maps","name_short":"dal-1","host":"dal-1.us.uncletopia.com","port":27015,"enabled":true,"region":"us-central","cc":"us","latitude":32.779167,"longitude":-96.80889,"reserved":0,"last_update":"0001-01-01T00:00:00Z","name_a2s":"Uncletopia | Dallas | 1 | All Maps","protocol":17,"map":"pl_snowycoast","folder":"tf","game":"Team Fortress","app_id":440,"player_count":22,"max_players":24,"Bots":0,"server_type":"Dedicated","server_os":"Linux","password":true,"vac":true,"version":"7932396","steam_id":85568392924469986,"keywords":["nocrits","nodmgspread","payload","uncletopia"],"game_id":440,"stv_port":27016,"stv_name":"Uncletopia | Dallas | 1 | All Maps | STV","players":[{"user_id":732,"name":"Sup m8","steam_id":76561198081659121,"connected_time":2122000000000,"state":"active","ping":33},{"user_id":742,"name":"Bean Marrow","steam_id":76561198116650223,"connected_time":740000000000,"state":"active","ping":71},{"user_id":648,"name":"cypherzero","steam_id":76561199182960322,"connected_time":10027000000000,"state":"active","ping":50},{"user_id":752,"name":"Satan-2","steam_id":76561199231742764,"connected_time":324000000000,"state":"active","ping":94},{"user_id":731,"name":"plink","steam_id":76561198057829889,"connected_time":2353000000000,"state":"active","ping":75},{"user_id":745,"name":"Big Daddy's Worst Nightmare","steam_id":76561198087155304,"connected_time":667000000000,"state":"active","ping":67},{"user_id":754,"name":"OddSlaush","steam_id":76561198043898488,"connected_time":101000000000,"state":"active","ping":68},{"user_id":755,"name":"Red","steam_id":76561198001939529,"connected_time":52000000000,"state":"active","ping":78},{"user_id":715,"name":"NOT Susie Deltarune (not real)","steam_id":76561199007365488,"connected_time":3744000000000,"state":"active","ping":68},{"user_id":733,"name":"DJ-Whatchya #rEtiReD","steam_id":76561198060355298,"connected_time":1745000000000,"state":"active","ping":85},{"user_id":694,"name":"MEGA NEGBERT","steam_id":76561198325613425,"connected_time":5026000000000,"state":"active","ping":101},{"user_id":741,"name":"Riff III","steam_id":76561198066921423,"connected_time":759000000000,"state":"active","ping":67},{"user_id":748,"name":"derdds","steam_id":76561198034339940,"connected_time":465000000000,"state":"active","ping":75},{"user_id":727,"name":"lüh me da granky.hog","steam_id":76561198056186750,"connected_time":2886000000000,"state":"active","ping":75},{"user_id":680,"name":"DiabetesMan","steam_id":76561198075668940,"connected_time":5904000000000,"state":"active","ping":85},{"user_id":730,"name":"lamadre07","steam_id":76561198067337453,"connected_time":2645000000000,"state":"active","ping":64},{"user_id":711,"name":"how to fly?","steam_id":76561198064255155,"connected_time":4340000000000,"state":"active","ping":68},{"user_id":747,"name":"bkiller","steam_id":76561198029265697,"connected_time":595000000000,"state":"active","ping":79},{"user_id":725,"name":"Swiggs","steam_id":76561198135015291,"connected_time":2926000000000,"state":"active","ping":73},{"user_id":756,"name":"ire","steam_id":76561198228984836,"connected_time":14000000000,"state":"active","ping":118},{"user_id":735,"name":"0x01FE","steam_id":76561198838881917,"connected_time":1711000000000,"state":"active","ping":61},{"user_id":737,"name":"A Straw","steam_id":76561199367935846,"connected_time":1649000000000,"state":"active","ping":72}]},{"server_id":108,"name":"Uncletopia | Dallas | 2 | All Maps","name_short":"dal-2","host":"dal-1.us.uncletopia.com","port":27025,"enabled":true,"region":"us-central","cc":"us","latitude":32.779167,"longitude":-96.80889,"reserved":0,"last_update":"0001-01-01T00:00:00Z","name_a2s":"Uncletopia | Dallas | 2 | All Maps","protocol":17,"map":"pl_snowycoast","folder":"tf","game":"Team Fortress","app_id":440,"player_count":24,"max_players":24,"Bots":0,"server_type":"Dedicated","server_os":"Linux","password":true,"vac":true,"version":"7932396","steam_id":85568392924469988,"keywords":["nocrits","nodmgspread","payload","uncletopia"],"game_id":440,"stv_port":27026,"stv_name":"Uncletopia | Dallas | 2 | All Maps | STV","players":[{"user_id":624,"name":"nav","steam_id":76561198872608266,"connected_time":727000000000,"state":"active","ping":297},{"user_id":628,"name":"obstagoon gaming","steam_id":76561198424507300,"connected_time":692000000000,"state":"active","ping":89},{"user_id":619,"name":"Not Slavoj Žižek","steam_id":76561198004619616,"connected_time":804000000000,"state":"active","ping":89},{"user_id":592,"name":"Kirby.exe","steam_id":76561198242714582,"connected_time":2891000000000,"state":"active","ping":51},{"user_id":611,"name":"MeMyBongusAndTheGreatOutdoors","steam_id":76561198097708978,"connected_time":1142000000000,"state":"active","ping":56},{"user_id":606,"name":"Tuvok Shakur","steam_id":76561198018875334,"connected_time":1666000000000,"state":"active","ping":64},{"user_id":602,"name":"Evangelion","steam_id":76561198059690074,"connected_time":2345000000000,"state":"active","ping":60},{"user_id":620,"name":"elephantofdoom","steam_id":76561198062436835,"connected_time":798000000000,"state":"active","ping":79},{"user_id":610,"name":"chaffy","steam_id":76561198021754567,"connected_time":1157000000000,"state":"active","ping":60},{"user_id":625,"name":"lxzvrdwxzvrd","steam_id":76561198111975583,"connected_time":721000000000,"state":"active","ping":67},{"user_id":622,"name":"firstlastmcgee","steam_id":76561198170187989,"connected_time":773000000000,"state":"active","ping":47},{"user_id":639,"name":"Purp","steam_id":76561198044559535,"connected_time":107000000000,"state":"active","ping":91},{"user_id":616,"name":"Bag","steam_id":76561198012395490,"connected_time":960000000000,"state":"active","ping":68},{"user_id":636,"name":"chilis baby back ribs","steam_id":76561198813516435,"connected_time":401000000000,"state":"active","ping":73},{"user_id":633,"name":"A real set of badonkers","steam_id":76561198138525714,"connected_time":586000000000,"state":"active","ping":85},{"user_id":629,"name":"Relaxed","steam_id":76561199208293985,"connected_time":691000000000,"state":"active","ping":87},{"user_id":598,"name":"Raz","steam_id":76561198002426150,"connected_time":2477000000000,"state":"active","ping":46},{"user_id":640,"name":"Useless","steam_id":76561198117206414,"connected_time":5000000000,"state":"spawning","ping":52},{"user_id":634,"name":"5mech","steam_id":76561198979167520,"connected_time":581000000000,"state":"active","ping":54},{"user_id":554,"name":"dweamy","steam_id":76561198119181880,"connected_time":5433000000000,"state":"active","ping":74},{"user_id":630,"name":"DragonHunter994","steam_id":76561199076203907,"connected_time":670000000000,"state":"active","ping":68},{"user_id":627,"name":"richarven","steam_id":76561198189429665,"connected_time":714000000000,"state":"active","ping":75},{"user_id":631,"name":"Poe Wuppafoe","steam_id":76561198211674749,"connected_time":663000000000,"state":"active","ping":53},{"user_id":635,"name":"anaesthesia","steam_id":76561198258774080,"connected_time":536000000000,"state":"active","ping":82}]},{"server_id":5,"name":"Uncletopia | Frankfurt | 1 | All Maps","name_short":"frk-1","host":"frk-1.de.uncletopia.com","port":27015,"enabled":true,"region":"eu","cc":"de","latitude":50.110924,"longitude":8.682127,"reserved":0,"last_update":"0001-01-01T00:00:00Z","name_a2s":"Uncletopia | Frankfurt | 1 | All Maps","protocol":17,"map":"pl_pier","folder":"tf","game":"Team Fortress","app_id":440,"player_count":0,"max_players":24,"Bots":0,"server_type":"Dedicated","server_os":"Linux","password":true,"vac":true,"version":"7932396","steam_id":85568392924469989,"keywords":["nocrits","nodmgspread","payload","uncletopia"],"game_id":440,"stv_port":27016,"stv_name":"Uncletopia | Frankfurt | 1 | All Maps | STV","players":null},{"server_id":110,"name":"Uncletopia | Frankfurt | 2 | All Maps","name_short":"frk-2","host":"frk-1.de.uncletopia.com","port":27025,"enabled":true,"region":"eu","cc":"de","latitude":50.110924,"longitude":8.682127,"reserved":0,"last_update":"0001-01-01T00:00:00Z","name_a2s":"Uncletopia | Frankfurt | 2 | All Maps","protocol":17,"map":"pl_swiftwater_final1","folder":"tf","game":"Team Fortress","app_id":440,"player_count":0,"max_players":24,"Bots":0,"server_type":"Dedicated","server_os":"Linux","password":true,"vac":true,"version":"7932396","steam_id":85568392924469990,"keywords":["nocrits","nodmgspread","payload","uncletopia"],"game_id":440,"stv_port":27026,"stv_name":"Uncletopia | Frankfurt | 2 | All Maps | STV","players":null},{"server_id":308,"name":"Uncletopia | Frankfurt | 3 | All Maps","name_short":"frk-3","host":"frk-1.de.uncletopia.com","port":27035,"enabled":true,"region":"eu","cc":"de","latitude":50.110924,"longitude":8.682127,"reserved":0,"last_update":"0001-01-01T00:00:00Z","name_a2s":"Uncletopia | Frankfurt | 3 | All Maps","protocol":17,"map":"koth_highpass","folder":"tf","game":"Team Fortress","app_id":440,"player_count":0,"max_players":24,"Bots":0,"server_type":"Dedicated","server_os":"Linux","password":true,"vac":true,"version":"7932396","steam_id":85568392924504274,"keywords":["cp","nocrits","nodmgspread","uncletopia"],"game_id":440,"stv_port":27036,"stv_name":"Uncletopia | Frankfurt | 3 | All Maps | STV","players":null},{"server_id":309,"name":"Uncletopia | Frankfurt | 4 | All Maps","name_short":"frk-4","host":"frk-1.de.uncletopia.com","port":27045,"enabled":true,"region":"eu","cc":"de","latitude":50.110924,"longitude":8.682127,"reserved":0,"last_update":"0001-01-01T00:00:00Z","name_a2s":"Uncletopia | Frankfurt | 4 | All Maps","protocol":17,"map":"koth_lakeside_final","folder":"tf","game":"Team Fortress","app_id":440,"player_count":0,"max_players":24,"Bots":0,"server_type":"Dedicated","server_os":"Linux","password":true,"vac":true,"version":"7932396","steam_id":85568392924504275,"keywords":["cp","nocrits","nodmgspread","uncletopia"],"game_id":440,"stv_port":27046,"stv_name":"Uncletopia | Frankfurt | 4 | All Maps | STV","players":null},{"server_id":310,"name":"Uncletopia | Frankfurt | 5 | All Maps","name_short":"frk-5","host":"frk-1.de.uncletopia.com","port":27055,"enabled":true,"region":"eu","cc":"de","latitude":50.110924,"longitude":8.682127,"reserved":0,"last_update":"0001-01-01T00:00:00Z","name_a2s":"Uncletopia | Frankfurt | 5 | All Maps","protocol":17,"map":"koth_highpass","folder":"tf","game":"Team Fortress","app_id":440,"player_count":0,"max_players":24,"Bots":0,"server_type":"Dedicated","server_os":"Linux","password":true,"vac":true,"version":"7932396","steam_id":85568392924504277,"keywords":["cp","nocrits","nodmgspread","uncletopia"],"game_id":440,"stv_port":27056,"stv_name":"Uncletopia | Frankfurt | 5 | All Maps | STV","players":null},{"server_id":311,"name":"Uncletopia | Frankfurt | 6 | All Maps","name_short":"frk-6","host":"frk-1.de.uncletopia.com","port":27065,"enabled":true,"region":"eu","cc":"de","latitude":50.110924,"longitude":8.682127,"reserved":0,"last_update":"0001-01-01T00:00:00Z","name_a2s":"Uncletopia | Frankfurt | 6 | All Maps","protocol":17,"map":"pl_badwater","folder":"tf","game":"Team Fortress","app_id":440,"player_count":0,"max_players":24,"Bots":0,"server_type":"Dedicated","server_os":"Linux","password":true,"vac":true,"version":"7932396","steam_id":85568392924504278,"keywords":["nocrits","nodmgspread","payload","uncletopia"],"game_id":440,"stv_port":27066,"stv_name":"Uncletopia | Frankfurt | 6 | All Maps | STV","players":null},{"server_id":23,"name":"Uncletopia | Frankfurt | 7 | Stopwatch Beta","name_short":"frk-7","host":"frk-1.de.uncletopia.com","port":27075,"enabled":true,"region":"eu","cc":"de","latitude":50.110924,"longitude":8.682127,"reserved":0,"last_update":"0001-01-01T00:00:00Z","name_a2s":"Uncletopia | Frankfurt | 7 | Stopwatch Beta","protocol":17,"map":"pl_snowycoast","folder":"tf","game":"Team Fortress","app_id":440,"player_count":0,"max_players":24,"Bots":0,"server_type":"Dedicated","server_os":"Linux","password":true,"vac":true,"version":"7932396","steam_id":85568392924742827,"keywords":["nocrits","nodmgspread","payload","uncletopia"],"game_id":440,"stv_port":27076,"stv_name":"Uncletopia | Frankfurt | 7 | Stopwatch Beta | STV","players":null},{"server_id":24,"name":"Uncletopia | Frankfurt | 8 | Community","name_short":"frk-8","host":"frk-1.de.uncletopia.com","port":27085,"enabled":true,"region":"eu","cc":"de","latitude":50.110924,"longitude":8.682127,"reserved":0,"last_update":"0001-01-01T00:00:00Z","name_a2s":"Uncletopia | Frankfurt | 8 | Community","protocol":17,"map":"workshop/cp_bruhstbowl_b6.ugc2878604990","folder":"tf","game":"Team Fortress","app_id":440,"player_count":0,"max_players":24,"Bots":0,"server_type":"Dedicated","server_os":"Linux","password":true,"vac":true,"version":"7932396","steam_id":85568392924742828,"keywords":["cp","nocrits","nodmgspread","uncletopia"],"game_id":440,"stv_port":27086,"stv_name":"Uncletopia | Frankfurt | 8 | Community | STV","players":null},{"server_id":202,"name":"Uncletopia | Hong Kong | 1 | All Maps","name_short":"hgk-1","host":"hgk-1.hk.uncletopia.com","port":27015,"enabled":true,"region":"asia","cc":"hk","latitude":22.302711,"longitude":114.177216,"reserved":0,"last_update":"0001-01-01T00:00:00Z","name_a2s":"Uncletopia | Hong Kong | 1 | All Maps","protocol":17,"map":"cp_mountainlab","folder":"tf","game":"Team Fortress","app_id":440,"player_count":5,"max_players":24,"Bots":0,"server_type":"Dedicated","server_os":"Linux","password":true,"vac":true,"version":"7932396","steam_id":85568392924494504,"keywords":["cp","nocrits","nodmgspread","uncletopia"],"game_id":440,"stv_port":27016,"stv_name":"Uncletopia | Hong Kong | 1 | All Maps | STV","players":[{"user_id":16,"name":"Xx_EpicTrickstabber_xX","steam_id":76561199024960087,"connected_time":2738000000000,"state":"active","ping":50},{"user_id":18,"name":"gero's boytoy","steam_id":76561199226227211,"connected_time":1584000000000,"state":"active","ping":79},{"user_id":19,"name":"jarell","steam_id":76561198271534653,"connected_time":950000000000,"state":"active","ping":61},{"user_id":20,"name":"SugarCoat","steam_id":76561199230196794,"connected_time":447000000000,"state":"active","ping":109},{"user_id":21,"name":"screaming sniper","steam_id":76561199085568674,"connected_time":252000000000,"state":"active","ping":81}]},{"server_id":1,"name":"Uncletopia | Los Angeles | 1 | All Maps","name_short":"lax-1","host":"lax-1.us.uncletopia.com","port":27015,"enabled":true,"region":"us-west","cc":"us","latitude":33.94279,"longitude":-118.41004,"reserved":0,"last_update":"0001-01-01T00:00:00Z","name_a2s":"Uncletopia | Los Angeles | 1 | All Maps","protocol":17,"map":"pl_thundermountain","folder":"tf","game":"Team Fortress","app_id":440,"player_count":24,"max_players":24,"Bots":0,"server_type":"Dedicated","server_os":"Linux","password":true,"vac":true,"version":"7932396","steam_id":85568392924469991,"keywords":["nocrits","nodmgspread","payload","uncletopia"],"game_id":440,"stv_port":27016,"stv_name":"Uncletopia | Los Angeles | 1 | All Maps | STV","players":[{"user_id":251,"name":"californjoe","steam_id":76561197965047795,"connected_time":718000000000,"state":"active","ping":55},{"user_id":249,"name":"June","steam_id":76561198141803658,"connected_time":754000000000,"state":"active","ping":50},{"user_id":227,"name":"Kung fu Mungus","steam_id":76561198069281556,"connected_time":1895000000000,"state":"active","ping":83},{"user_id":255,"name":"ang","steam_id":76561198435151254,"connected_time":605000000000,"state":"active","ping":58},{"user_id":261,"name":"Nobody","steam_id":76561199352089107,"connected_time":501000000000,"state":"active","ping":45},{"user_id":250,"name":"French Crouton","steam_id":76561198238317762,"connected_time":724000000000,"state":"active","ping":50},{"user_id":252,"name":"ham salmontizer","steam_id":76561198168840293,"connected_time":717000000000,"state":"active","ping":98},{"user_id":264,"name":"Sir Lump","steam_id":76561198119879254,"connected_time":321000000000,"state":"active","ping":87},{"user_id":253,"name":"doghouse","steam_id":76561198000319035,"connected_time":670000000000,"state":"active","ping":69},{"user_id":217,"name":"._.","steam_id":76561198300316801,"connected_time":2835000000000,"state":"active","ping":107},{"user_id":256,"name":"moe","steam_id":76561198929586245,"connected_time":589000000000,"state":"active","ping":53},{"user_id":257,"name":"Ralph Kramden (Slim Charles)","steam_id":76561197981687895,"connected_time":575000000000,"state":"active","ping":52},{"user_id":265,"name":"Funkboi","steam_id":76561198046235038,"connected_time":310000000000,"state":"active","ping":76},{"user_id":185,"name":"frostedflakes99","steam_id":76561199049292578,"connected_time":4461000000000,"state":"active","ping":47},{"user_id":204,"name":"TheWhiskeyMan","steam_id":76561198125180961,"connected_time":3471000000000,"state":"active","ping":54},{"user_id":182,"name":"||BassMan||","steam_id":76561198279865229,"connected_time":4932000000000,"state":"active","ping":93},{"user_id":259,"name":"Muscle Man","steam_id":76561198079490586,"connected_time":563000000000,"state":"active","ping":105},{"user_id":246,"name":"WesyUWU (The mini crit pig)","steam_id":76561198069188177,"connected_time":962000000000,"state":"active","ping":86},{"user_id":234,"name":"Juan M. Maldacena","steam_id":76561198066883814,"connected_time":1591000000000,"state":"active","ping":60},{"user_id":207,"name":"Midnight-ag","steam_id":76561198115714484,"connected_time":3465000000000,"state":"active","ping":76},{"user_id":240,"name":"soupy","steam_id":76561197974283797,"connected_time":1490000000000,"state":"active","ping":94},{"user_id":266,"name":"HAT-WEARING™ Maggot Gamer Cat","steam_id":76561197973992705,"connected_time":241000000000,"state":"active","ping":74},{"user_id":267,"name":"Michael Fettuccine","steam_id":76561198056953903,"connected_time":172000000000,"state":"active","ping":45},{"user_id":187,"name":"meme","steam_id":76561199170771700,"connected_time":4296000000000,"state":"active","ping":64}]},{"server_id":112,"name":"Uncletopia | Los Angeles | 2 | All Maps","name_short":"lax-2","host":"lax-1.us.uncletopia.com","port":27025,"enabled":true,"region":"us-west","cc":"us","latitude":33.94279,"longitude":-118.41004,"reserved":0,"last_update":"0001-01-01T00:00:00Z","name_a2s":"Uncletopia | Los Angeles | 2 | All Maps","protocol":17,"map":"ctf_2fort","folder":"tf","game":"Team Fortress","app_id":440,"player_count":24,"max_players":24,"Bots":0,"server_type":"Dedicated","server_os":"Linux","password":true,"vac":true,"version":"7932396","steam_id":85568392924469992,"keywords":["ctf","nocrits","nodmgspread","uncletopia"],"game_id":440,"stv_port":27026,"stv_name":"Uncletopia | Los Angeles | 2 | All Maps | STV","players":[{"user_id":158,"name":"SCUD missile up your ass","steam_id":76561198066452726,"connected_time":1108000000000,"state":"active","ping":46},{"user_id":154,"name":"Iron Argus","steam_id":76561198181088245,"connected_time":1204000000000,"state":"active","ping":122},{"user_id":160,"name":"Gintoki sakata","steam_id":76561198093815304,"connected_time":782000000000,"state":"active","ping":48},{"user_id":167,"name":"Roasty My Toasty","steam_id":76561198041329791,"connected_time":448000000000,"state":"active","ping":40},{"user_id":161,"name":"FaceLaces","steam_id":76561198194417725,"connected_time":771000000000,"state":"active","ping":52},{"user_id":172,"name":"Legendstorm09","steam_id":76561199131721629,"connected_time":261000000000,"state":"active","ping":123},{"user_id":22,"name":"Cinnifox","steam_id":76561198068773971,"connected_time":9675000000000,"state":"active","ping":89},{"user_id":164,"name":"Susie Deltarune","steam_id":76561198374497962,"connected_time":749000000000,"state":"active","ping":66},{"user_id":146,"name":"Sol","steam_id":76561198121500201,"connected_time":2111000000000,"state":"active","ping":46},{"user_id":144,"name":"Wacks","steam_id":76561198079476100,"connected_time":2184000000000,"state":"active","ping":60},{"user_id":151,"name":"Silly Shark","steam_id":76561198130714378,"connected_time":1454000000000,"state":"active","ping":89},{"user_id":78,"name":"DarkForce8","steam_id":76561198853892261,"connected_time":5903000000000,"state":"active","ping":62},{"user_id":135,"name":"Squids023","steam_id":76561199013031576,"connected_time":2440000000000,"state":"active","ping":75},{"user_id":173,"name":"vioxynteris","steam_id":76561198161428666,"connected_time":258000000000,"state":"active","ping":31},{"user_id":168,"name":"Martymar247","steam_id":76561198031027462,"connected_time":438000000000,"state":"active","ping":58},{"user_id":169,"name":"Alan","steam_id":76561198977083959,"connected_time":331000000000,"state":"active","ping":96},{"user_id":81,"name":"Anarchy","steam_id":76561199062545363,"connected_time":5749000000000,"state":"active","ping":137},{"user_id":147,"name":"Victrok","steam_id":76561199441398791,"connected_time":2110000000000,"state":"active","ping":95},{"user_id":175,"name":"Pacifist_Praxis","steam_id":76561199061397593,"connected_time":147000000000,"state":"spawning","ping":75},{"user_id":125,"name":"...","steam_id":76561198121508845,"connected_time":2751000000000,"state":"active","ping":67},{"user_id":145,"name":"Eurobeat too loud, can't hear :","steam_id":76561198330743199,"connected_time":2136000000000,"state":"active","ping":54},{"user_id":85,"name":"FlashofAsh","steam_id":76561198400422981,"connected_time":5477000000000,"state":"active","ping":73},{"user_id":176,"name":"Cheers! I'll drink to that","steam_id":76561198112705880,"connected_time":100000000000,"state":"active","ping":51},{"user_id":177,"name":"StewyVibe","steam_id":76561199159867739,"connected_time":87000000000,"state":"active","ping":75}]},{"server_id":324,"name":"Uncletopia | Los Angeles | 3 | All Maps","name_short":"lax-3","host":"lax-1.us.uncletopia.com","port":27035,"enabled":true,"region":"us-west","cc":"us","latitude":33.94279,"longitude":-118.41004,"reserved":0,"last_update":"0001-01-01T00:00:00Z","name_a2s":"Uncletopia | Los Angeles | 3 | All Maps","protocol":17,"map":"pl_barnblitz","folder":"tf","game":"Team Fortress","app_id":440,"player_count":24,"max_players":24,"Bots":0,"server_type":"Dedicated","server_os":"Linux","password":true,"vac":true,"version":"7932396","steam_id":85568392924510198,"keywords":["nocrits","nodmgspread","payload","uncletopia"],"game_id":440,"stv_port":27036,"stv_name":"Uncletopia | Los Angeles | 3 | All Maps | STV","players":[{"user_id":416,"name":"Rad0Dragon","steam_id":76561199351578880,"connected_time":7467000000000,"state":"active","ping":70},{"user_id":517,"name":"cactus eater","steam_id":76561199107499844,"connected_time":804000000000,"state":"active","ping":58},{"user_id":520,"name":"Capybara Enjoyer","steam_id":76561199147114434,"connected_time":566000000000,"state":"active","ping":128},{"user_id":519,"name":"sheep gf (real)","steam_id":76561198068189558,"connected_time":720000000000,"state":"active","ping":64},{"user_id":521,"name":"Nibotshooter","steam_id":76561199284825579,"connected_time":497000000000,"state":"active","ping":77},{"user_id":489,"name":"Buckethead","steam_id":76561198210181296,"connected_time":3274000000000,"state":"active","ping":88},{"user_id":509,"name":"Elfy","steam_id":76561199166448617,"connected_time":1318000000000,"state":"active","ping":83},{"user_id":522,"name":"Dcoyotzi","steam_id":76561199124707627,"connected_time":489000000000,"state":"active","ping":80},{"user_id":523,"name":"elephant thumb","steam_id":76561198118859752,"connected_time":456000000000,"state":"active","ping":45},{"user_id":524,"name":"thom gaming","steam_id":76561198083497855,"connected_time":436000000000,"state":"active","ping":113},{"user_id":515,"name":"rum","steam_id":76561198465334150,"connected_time":911000000000,"state":"active","ping":135},{"user_id":425,"name":"magunyamu","steam_id":76561198823083676,"connected_time":7123000000000,"state":"active","ping":59},{"user_id":525,"name":"Vv","steam_id":76561199052196750,"connected_time":430000000000,"state":"active","ping":78},{"user_id":526,"name":"[DATS➡] Sugar Meowth","steam_id":76561197995251793,"connected_time":357000000000,"state":"active","ping":74},{"user_id":533,"name":"Tom Crúaich","steam_id":76561197999439911,"connected_time":81000000000,"state":"active","ping":98},{"user_id":528,"name":"Tockbird","steam_id":76561199437964594,"connected_time":267000000000,"state":"active","ping":61},{"user_id":529,"name":"culture shock","steam_id":76561198212421513,"connected_time":247000000000,"state":"active","ping":46},{"user_id":507,"name":"speed","steam_id":76561198074489549,"connected_time":1597000000000,"state":"active","ping":46},{"user_id":512,"name":"NaeNaeChungusBozo","steam_id":76561199446407203,"connected_time":1090000000000,"state":"active","ping":1006},{"user_id":530,"name":"steb","steam_id":76561198089217389,"connected_time":225000000000,"state":"active","ping":85},{"user_id":531,"name":"Tree45","steam_id":76561198143698408,"connected_time":176000000000,"state":"active","ping":122},{"user_id":431,"name":"LOL (dies)","steam_id":76561198045964573,"connected_time":7052000000000,"state":"active","ping":47},{"user_id":432,"name":"Yeerk","steam_id":76561198057999536,"connected_time":7050000000000,"state":"active","ping":60},{"user_id":532,"name":"R5-D4","steam_id":76561198025196439,"connected_time":152000000000,"state":"active","ping":77}]},{"server_id":25,"name":"Uncletopia | Los Angeles | 4 | Stopwatch Beta","name_short":"lax-4","host":"lax-1.us.uncletopia.com","port":27045,"enabled":true,"region":"us-west","cc":"us","latitude":33.94279,"longitude":-118.41004,"reserved":0,"last_update":"0001-01-01T00:00:00Z","name_a2s":"Uncletopia | Los Angeles | 4 | Stopwatch Beta","protocol":17,"map":"pl_borneo","folder":"tf","game":"Team Fortress","app_id":440,"player_count":1,"max_players":24,"Bots":0,"server_type":"Dedicated","server_os":"Linux","password":true,"vac":true,"version":"7932396","steam_id":85568392924510199,"keywords":["nocrits","nodmgspread","payload","uncletopia"],"game_id":440,"stv_port":27046,"stv_name":"Uncletopia | Los Angeles | 4 | Stopwatch Beta | STV","players":[{"user_id":15,"name":"Carl","steam_id":76561198012389116,"connected_time":43000000000,"state":"spawning","ping":75}]},{"server_id":11,"name":"Uncletopia | London | 1 | All Maps","name_short":"lon-1","host":"lon-1.uk.uncletopia.com","port":27015,"enabled":true,"region":"eu","cc":"gb","latitude":51.509865,"longitude":-0.118092,"reserved":0,"last_update":"0001-01-01T00:00:00Z","name_a2s":"Uncletopia | London | 1 | All Maps","protocol":17,"map":"pl_pier","folder":"tf","game":"Team Fortress","app_id":440,"player_count":23,"max_players":24,"Bots":0,"server_type":"Dedicated","server_os":"Linux","password":true,"vac":true,"version":"7932396","steam_id":85568392924367362,"keywords":["nocrits","nodmgspread","payload","uncletopia"],"game_id":440,"stv_port":27016,"stv_name":"Uncletopia | London | 1 | All Maps | STV","players":[{"user_id":1105,"name":"cinny","steam_id":76561198832112629,"connected_time":2941000000000,"state":"active","ping":84},{"user_id":1102,"name":"js'","steam_id":76561198047803200,"connected_time":3558000000000,"state":"active","ping":80},{"user_id":961,"name":"vi","steam_id":76561198303147966,"connected_time":12672000000000,"state":"active","ping":45},{"user_id":1106,"name":"[T]aKer","steam_id":76561198001778013,"connected_time":1368000000000,"state":"active","ping":45},{"user_id":976,"name":"Sakari","steam_id":76561197997811299,"connected_time":10970000000000,"state":"active","ping":61},{"user_id":1111,"name":"puck","steam_id":76561198121260981,"connected_time":1194000000000,"state":"active","ping":41},{"user_id":1128,"name":"killbind irl","steam_id":76561198180637374,"connected_time":143000000000,"state":"active","ping":90},{"user_id":1127,"name":"🃔 Katarina","steam_id":76561198065652251,"connected_time":226000000000,"state":"active","ping":46},{"user_id":1116,"name":"rungameid","steam_id":76561198394533585,"connected_time":853000000000,"state":"active","ping":165},{"user_id":1123,"name":"paradigmatic shift","steam_id":76561197988802856,"connected_time":413000000000,"state":"active","ping":72},{"user_id":1129,"name":"IonizedAtom","steam_id":76561198381463568,"connected_time":5000000000,"state":"spawning","ping":179},{"user_id":1113,"name":"Season Veteran","steam_id":76561198088619665,"connected_time":1146000000000,"state":"active","ping":172},{"user_id":1114,"name":"Eirnix","steam_id":76561198353799435,"connected_time":1112000000000,"state":"active","ping":106},{"user_id":1038,"name":"AVOID EVERYONE","steam_id":76561198051852765,"connected_time":6412000000000,"state":"active","ping":75},{"user_id":1030,"name":"rev up the bugatti wahey","steam_id":76561198079589665,"connected_time":7232000000000,"state":"active","ping":54},{"user_id":1040,"name":"THE RIZZLER","steam_id":76561198083505031,"connected_time":5908000000000,"state":"active","ping":39},{"user_id":968,"name":"Lyncurion","steam_id":76561199260022725,"connected_time":12048000000000,"state":"active","ping":81},{"user_id":1117,"name":"noided","steam_id":76561199480942903,"connected_time":752000000000,"state":"active","ping":72},{"user_id":1118,"name":"Vladimir Chirgin","steam_id":76561198170035235,"connected_time":648000000000,"state":"active","ping":138},{"user_id":1119,"name":"Cosmetic brain","steam_id":76561198055936410,"connected_time":633000000000,"state":"active","ping":84},{"user_id":1121,"name":"Dragon","steam_id":76561198163255365,"connected_time":597000000000,"state":"active","ping":114},{"user_id":1126,"name":"Squishie #SaveTF2","steam_id":76561198321025400,"connected_time":310000000000,"state":"active","ping":38},{"user_id":1052,"name":"e","steam_id":76561198145465595,"connected_time":4353000000000,"state":"active","ping":43}]},{"server_id":114,"name":"Uncletopia | London | 2 | All Maps","name_short":"lon-2","host":"lon-1.uk.uncletopia.com","port":27025,"enabled":true,"region":"eu","cc":"gb","latitude":51.509865,"longitude":-0.118092,"reserved":0,"last_update":"0001-01-01T00:00:00Z","name_a2s":"Uncletopia | London | 2 | All Maps","protocol":17,"map":"pl_snowycoast","folder":"tf","game":"Team Fortress","app_id":440,"player_count":13,"max_players":24,"Bots":0,"server_type":"Dedicated","server_os":"Linux","password":true,"vac":true,"version":"7932396","steam_id":85568392924470941,"keywords":["nocrits","nodmgspread","payload","uncletopia"],"game_id":440,"stv_port":27026,"stv_name":"Uncletopia | London | 2 | All Maps | STV","players":[{"user_id":652,"name":"ForgottenPizzaUncle","steam_id":76561198064337953,"connected_time":698000000000,"state":"active","ping":218},{"user_id":653,"name":"Ran33","steam_id":76561197991474499,"connected_time":572000000000,"state":"active","ping":89},{"user_id":655,"name":"Jouppi","steam_id":76561198063725468,"connected_time":9000000000,"state":"spawning","ping":132},{"user_id":614,"name":"Emily (trans rights)","steam_id":76561198393596975,"connected_time":5020000000000,"state":"active","ping":46},{"user_id":627,"name":"Royal","steam_id":76561198157621024,"connected_time":3728000000000,"state":"active","ping":36},{"user_id":654,"name":"Ｓａｓｓｙ","steam_id":76561198844060342,"connected_time":548000000000,"state":"active","ping":43},{"user_id":642,"name":"Draco","steam_id":76561198031226933,"connected_time":2253000000000,"state":"active","ping":57},{"user_id":636,"name":"Sheep","steam_id":76561198047895760,"connected_time":3065000000000,"state":"active","ping":62},{"user_id":620,"name":"Milca, One eye'd Drunkard","steam_id":76561198848650365,"connected_time":4648000000000,"state":"active","ping":85},{"user_id":631,"name":"DataParty","steam_id":76561198037161826,"connected_time":3322000000000,"state":"active","ping":45},{"user_id":625,"name":"Lubrsi","steam_id":76561198040208195,"connected_time":3925000000000,"state":"active","ping":46},{"user_id":643,"name":"Vix The Nickit","steam_id":76561198292181452,"connected_time":2241000000000,"state":"active","ping":157},{"user_id":633,"name":"dlk","steam_id":76561198086660302,"connected_time":3293000000000,"state":"active","ping":37}]},{"server_id":320,"name":"Uncletopia | London | 3 | All Maps","name_short":"lon-3","host":"lon-1.uk.uncletopia.com","port":27035,"enabled":true,"region":"eu","cc":"gb","latitude":51.509865,"longitude":-0.118092,"reserved":0,"last_update":"0001-01-01T00:00:00Z","name_a2s":"Uncletopia | London | 3 | All Maps","protocol":17,"map":"koth_highpass","folder":"tf","game":"Team Fortress","app_id":440,"player_count":0,"max_players":24,"Bots":0,"server_type":"Dedicated","server_os":"Linux","password":true,"vac":true,"version":"7932396","steam_id":85568392924510192,"keywords":["cp","nocrits","nodmgspread","uncletopia"],"game_id":440,"stv_port":27036,"stv_name":"Uncletopia | London | 3 | All Maps | STV","players":null},{"server_id":321,"name":"Uncletopia | London | 4 | All Maps","name_short":"lon-4","host":"lon-1.uk.uncletopia.com","port":27045,"enabled":true,"region":"eu","cc":"gb","latitude":51.509865,"longitude":-0.118092,"reserved":0,"last_update":"0001-01-01T00:00:00Z","name_a2s":"Uncletopia | London | 4 | All Maps","protocol":17,"map":"pl_frontier_final","folder":"tf","game":"Team Fortress","app_id":440,"player_count":0,"max_players":24,"Bots":0,"server_type":"Dedicated","server_os":"Linux","password":true,"vac":true,"version":"7932396","steam_id":85568392924510193,"keywords":["nocrits","nodmgspread","payload","uncletopia"],"game_id":440,"stv_port":27046,"stv_name":"Uncletopia | London | 4 | All Maps | STV","players":null},{"server_id":21,"name":"Uncletopia | London | 5 | All Maps","name_short":"lon-5","host":"lon-1.uk.uncletopia.com","port":27055,"enabled":true,"region":"eu","cc":"gb","latitude":51.509865,"longitude":-0.118092,"reserved":0,"last_update":"0001-01-01T00:00:00Z","name_a2s":"Uncletopia | London | 5 | All Maps","protocol":17,"map":"koth_lakeside_final","folder":"tf","game":"Team Fortress","app_id":440,"player_count":0,"max_players":24,"Bots":0,"server_type":"Dedicated","server_os":"Linux","password":true,"vac":true,"version":"7932396","steam_id":85568392924742829,"keywords":["cp","nocrits","nodmgspread","uncletopia"],"game_id":440,"stv_port":27056,"stv_name":"Uncletopia | London | 5 | All Maps | STV","players":null},{"server_id":22,"name":"Uncletopia | London | 6 | All Maps","name_short":"lon-6","host":"lon-1.uk.uncletopia.com","port":27065,"enabled":true,"region":"eu","cc":"gb","latitude":51.509865,"longitude":-0.118092,"reserved":0,"last_update":"0001-01-01T00:00:00Z","name_a2s":"Uncletopia | London | 6 | All Maps","protocol":17,"map":"koth_lakeside_final","folder":"tf","game":"Team Fortress","app_id":440,"player_count":0,"max_players":24,"Bots":0,"server_type":"Dedicated","server_os":"Linux","password":true,"vac":true,"version":"7932396","steam_id":85568392924742830,"keywords":["cp","nocrits","nodmgspread","uncletopia"],"game_id":440,"stv_port":27066,"stv_name":"Uncletopia | London | 6 | All Maps | STV","players":null},{"server_id":40,"name":"Uncletopia | London | 7 | No Payload","name_short":"lon-7","host":"lon-1.uk.uncletopia.com","port":27075,"enabled":true,"region":"eu","cc":"gb","latitude":51.509865,"longitude":-0.118092,"reserved":0,"last_update":"0001-01-01T00:00:00Z","name_a2s":"Uncletopia | London | 7 | No Payload","protocol":17,"map":"koth_brazil","folder":"tf","game":"Team Fortress","app_id":440,"player_count":0,"max_players":24,"Bots":0,"server_type":"Dedicated","server_os":"Linux","password":true,"vac":true,"version":"7932396","steam_id":85568392924964314,"keywords":["cp","nocrits","nodmgspread","uncletopia"],"game_id":440,"stv_port":27076,"stv_name":"Uncletopia | London | 7 | No Payload | STV","players":null},{"server_id":41,"name":"Uncletopia | London | 8 | Community","name_short":"lon-8","host":"lon-1.uk.uncletopia.com","port":27085,"enabled":true,"region":"eu","cc":"gb","latitude":51.509865,"longitude":-0.118092,"reserved":0,"last_update":"0001-01-01T00:00:00Z","name_a2s":"Uncletopia | London | 8 | Community","protocol":17,"map":"workshop/cp_snowbase_b18.ugc2081770490","folder":"tf","game":"Team Fortress","app_id":440,"player_count":0,"max_players":24,"Bots":0,"server_type":"Dedicated","server_os":"Linux","password":true,"vac":true,"version":"7932396","steam_id":85568392924964315,"keywords":["cp","nocrits","nodmgspread","uncletopia"],"game_id":440,"stv_port":27086,"stv_name":"Uncletopia | London | 8 | Community | STV","players":null},{"server_id":300,"name":"Uncletopia | Montréal | 1 | All Maps","name_short":"mtl-1","host":"mtl-1.ca.uncletopia.com","port":27015,"enabled":true,"region":"us-east","cc":"ca","latitude":45.50889,"longitude":-73.56167,"reserved":0,"last_update":"0001-01-01T00:00:00Z","name_a2s":"Uncletopia | Montréal | 1 | All Maps","protocol":17,"map":"cp_dustbowl","folder":"tf","game":"Team Fortress","app_id":440,"player_count":0,"max_players":24,"Bots":0,"server_type":"Dedicated","server_os":"Linux","password":true,"vac":true,"version":"7932396","steam_id":85568392924500087,"keywords":["cp","nocrits","nodmgspread","uncletopia"],"game_id":440,"stv_port":27016,"stv_name":"Uncletopia | Montréal | 1 | All Maps | STV","players":null},{"server_id":301,"name":"Uncletopia | Montréal | 2 | All Maps","name_short":"mtl-2","host":"mtl-1.ca.uncletopia.com","port":27025,"enabled":true,"region":"us-east","cc":"ca","latitude":45.50889,"longitude":-73.56167,"reserved":0,"last_update":"0001-01-01T00:00:00Z","name_a2s":"Uncletopia | Montréal | 2 | All Maps","protocol":17,"map":"pl_snowycoast","folder":"tf","game":"Team Fortress","app_id":440,"player_count":0,"max_players":24,"Bots":0,"server_type":"Dedicated","server_os":"Linux","password":true,"vac":true,"version":"7932396","steam_id":85568392924500088,"keywords":["nocrits","nodmgspread","payload","uncletopia"],"game_id":440,"stv_port":27026,"stv_name":"Uncletopia | Montréal | 2 | All Maps | STV","players":null},{"server_id":302,"name":"Uncletopia | Montréal | 3 | All Maps","name_short":"mtl-3","host":"mtl-1.ca.uncletopia.com","port":27035,"enabled":true,"region":"us-east","cc":"ca","latitude":45.50889,"longitude":-73.56167,"reserved":0,"last_update":"0001-01-01T00:00:00Z","name_a2s":"Uncletopia | Montréal | 3 | All Maps","protocol":17,"map":"pl_barnblitz","folder":"tf","game":"Team Fortress","app_id":440,"player_count":0,"max_players":24,"Bots":0,"server_type":"Dedicated","server_os":"Linux","password":true,"vac":true,"version":"7932396","steam_id":85568392924500089,"keywords":["nocrits","nodmgspread","payload","uncletopia"],"game_id":440,"stv_port":27036,"stv_name":"Uncletopia | Montréal | 3 | All Maps | STV","players":null},{"server_id":303,"name":"Uncletopia | Montréal | 4 | No Payload","name_short":"mtl-4","host":"mtl-1.ca.uncletopia.com","port":27045,"enabled":true,"region":"us-east","cc":"ca","latitude":45.50889,"longitude":-73.56167,"reserved":0,"last_update":"0001-01-01T00:00:00Z","name_a2s":"Uncletopia | Montréal | 4 | No Payload","protocol":17,"map":"cp_snakewater_final1","folder":"tf","game":"Team Fortress","app_id":440,"player_count":0,"max_players":24,"Bots":0,"server_type":"Dedicated","server_os":"Linux","password":true,"vac":true,"version":"7932396","steam_id":85568392924500090,"keywords":["cp","nocrits","nodmgspread","uncletopia"],"game_id":440,"stv_port":27046,"stv_name":"Uncletopia | Montréal | 4 | No Payload | STV","players":null},{"server_id":13,"name":"Uncletopia | New York City | 1 | All Maps","name_short":"nyc-1","host":"nyc-1.us.uncletopia.com","port":27015,"enabled":true,"region":"us-east","cc":"us","latitude":40.73061,"longitude":-73.93524,"reserved":0,"last_update":"0001-01-01T00:00:00Z","name_a2s":"Uncletopia | New York City | 1 | All Maps","protocol":17,"map":"pl_goldrush","folder":"tf","game":"Team Fortress","app_id":440,"player_count":24,"max_players":24,"Bots":0,"server_type":"Dedicated","server_os":"Linux","password":true,"vac":true,"version":"7932396","steam_id":85568392924469993,"keywords":["nocrits","nodmgspread","payload","uncletopia"],"game_id":440,"stv_port":27016,"stv_name":"Uncletopia | New York City | 1 | All Maps | STV","players":[{"user_id":351,"name":"Quirinus","steam_id":76561198011516889,"connected_time":691000000000,"state":"active","ping":63},{"user_id":338,"name":"hashmap","steam_id":76561198043794014,"connected_time":1292000000000,"state":"active","ping":59},{"user_id":275,"name":"Discourse","steam_id":76561198984286678,"connected_time":3682000000000,"state":"active","ping":74},{"user_id":352,"name":"Buoyant","steam_id":76561199014064937,"connected_time":581000000000,"state":"active","ping":57},{"user_id":313,"name":"Nerrrd_","steam_id":76561198870129960,"connected_time":2882000000000,"state":"active","ping":40},{"user_id":340,"name":"insafjaleel","steam_id":76561198239445570,"connected_time":1194000000000,"state":"active","ping":58},{"user_id":341,"name":"Quillz","steam_id":76561197996567754,"connected_time":1188000000000,"state":"active","ping":47},{"user_id":211,"name":"BeerPowder","steam_id":76561198058129400,"connected_time":8648000000000,"state":"active","ping":54},{"user_id":350,"name":"Bush.exe","steam_id":76561198124385307,"connected_time":759000000000,"state":"active","ping":68},{"user_id":332,"name":"garbanzo bean","steam_id":76561198045696985,"connected_time":1973000000000,"state":"active","ping":74},{"user_id":353,"name":"STENDO_CLIP","steam_id":76561198059570167,"connected_time":515000000000,"state":"active","ping":97},{"user_id":342,"name":"Grentac","steam_id":76561198140435841,"connected_time":1181000000000,"state":"active","ping":69},{"user_id":216,"name":"Horrizan","steam_id":76561197965028480,"connected_time":7923000000000,"state":"active","ping":90},{"user_id":354,"name":"Calcium anthropology","steam_id":76561198063313115,"connected_time":473000000000,"state":"active","ping":61},{"user_id":328,"name":"Skipluff","steam_id":76561198084734554,"connected_time":2275000000000,"state":"active","ping":69},{"user_id":345,"name":"tesagi","steam_id":76561198026664629,"connected_time":1129000000000,"state":"active","ping":46},{"user_id":346,"name":"chainsaw chains for teeth.","steam_id":76561198294013916,"connected_time":1127000000000,"state":"active","ping":46},{"user_id":337,"name":"L + Ratio","steam_id":76561198263786953,"connected_time":1358000000000,"state":"active","ping":78},{"user_id":356,"name":"Space Cops","steam_id":76561198032414253,"connected_time":95000000000,"state":"active","ping":50},{"user_id":174,"name":"Yummy Kabobz","steam_id":76561198067661705,"connected_time":12385000000000,"state":"active","ping":50},{"user_id":339,"name":"SPOOKY HOTDOG","steam_id":76561197964599698,"connected_time":1219000000000,"state":"active","ping":77},{"user_id":357,"name":"Rumi_killer","steam_id":76561198077439866,"connected_time":86000000000,"state":"active","ping":113},{"user_id":331,"name":"nullptr","steam_id":76561198111790388,"connected_time":2119000000000,"state":"active","ping":96},{"user_id":348,"name":"Parth Makeo","steam_id":76561198002516581,"connected_time":1029000000000,"state":"active","ping":44}]},{"server_id":14,"name":"Uncletopia | New York City | 2 | All Maps","name_short":"nyc-2","host":"nyc-1.us.uncletopia.com","port":27025,"enabled":true,"region":"us-east","cc":"us","latitude":40.73061,"longitude":-73.93524,"reserved":0,"last_update":"0001-01-01T00:00:00Z","name_a2s":"Uncletopia | New York City | 2 | All Maps","protocol":17,"map":"plr_nightfall_final","folder":"tf","game":"Team Fortress","app_id":440,"player_count":22,"max_players":24,"Bots":0,"server_type":"Dedicated","server_os":"Linux","password":true,"vac":true,"version":"7932396","steam_id":85568392924469994,"keywords":["nocrits","nodmgspread","payload","uncletopia"],"game_id":440,"stv_port":27026,"stv_name":"Uncletopia | New York City | 2 | All Maps | STV","players":[{"user_id":393,"name":"Mint Jelly","steam_id":76561197991286751,"connected_time":373000000000,"state":"active","ping":61},{"user_id":394,"name":"bedrockperson","steam_id":76561198131381584,"connected_time":369000000000,"state":"active","ping":56},{"user_id":316,"name":"Grendar","steam_id":76561198823384034,"connected_time":2663000000000,"state":"active","ping":72},{"user_id":317,"name":"Sweetyfluff","steam_id":76561198045397871,"connected_time":2593000000000,"state":"active","ping":50},{"user_id":205,"name":"TheLuzinator","steam_id":76561198377144604,"connected_time":9235000000000,"state":"active","ping":81},{"user_id":398,"name":"CrazyM3rc","steam_id":76561199025383150,"connected_time":20000000000,"state":"spawning","ping":91},{"user_id":302,"name":"Yveltak","steam_id":76561198072636283,"connected_time":3074000000000,"state":"active","ping":145},{"user_id":272,"name":"SPEEEEEEEEEEEEEEEEEEEEED","steam_id":76561198316768819,"connected_time":3732000000000,"state":"active","ping":57},{"user_id":260,"name":"The base jumper doesnt suck","steam_id":76561198317677617,"connected_time":4003000000000,"state":"active","ping":75},{"user_id":384,"name":"gIBBY","steam_id":76561198080099598,"connected_time":731000000000,"state":"active","ping":56},{"user_id":385,"name":"Exio","steam_id":76561198218639325,"connected_time":635000000000,"state":"active","ping":88},{"user_id":199,"name":"Mr. Durian","steam_id":76561198093813212,"connected_time":9574000000000,"state":"active","ping":64},{"user_id":396,"name":"NaterrTot","steam_id":76561198051502808,"connected_time":170000000000,"state":"active","ping":80},{"user_id":270,"name":"Yatchi.","steam_id":76561198878073232,"connected_time":3756000000000,"state":"active","ping":130},{"user_id":320,"name":"VX Ghost","steam_id":76561198072541436,"connected_time":2562000000000,"state":"active","ping":55},{"user_id":331,"name":"Jeremy","steam_id":76561198283977979,"connected_time":2265000000000,"state":"active","ping":53},{"user_id":353,"name":"0","steam_id":76561198046055673,"connected_time":1571000000000,"state":"active","ping":61},{"user_id":273,"name":"GameboyAdvancedSPMobileHotspot","steam_id":76561198413739460,"connected_time":3712000000000,"state":"active","ping":91},{"user_id":388,"name":"NOBODY","steam_id":76561198094578887,"connected_time":602000000000,"state":"active","ping":36},{"user_id":282,"name":"Terror-Billy #SaveTF2","steam_id":76561198328141870,"connected_time":3481000000000,"state":"active","ping":78},{"user_id":255,"name":"Periculosum PhD in Funny","steam_id":76561198123370914,"connected_time":4405000000000,"state":"active","ping":84},{"user_id":305,"name":"GodandTitans","steam_id":76561198070070155,"connected_time":3058000000000,"state":"active","ping":93}]},{"server_id":15,"name":"Uncletopia | New York City | 3 | Stopwatch Beta","name_short":"nyc-3","host":"nyc-1.us.uncletopia.com","port":27035,"enabled":true,"region":"us-east","cc":"us","latitude":40.73061,"longitude":-73.93524,"reserved":0,"last_update":"0001-01-01T00:00:00Z","name_a2s":"Uncletopia | New York City | 3 | Stopwatch Beta","protocol":17,"map":"workshop/koth_ramjam_rc1.ugc459778887","folder":"tf","game":"Team Fortress","app_id":440,"player_count":0,"max_players":24,"Bots":0,"server_type":"Dedicated","server_os":"Linux","password":true,"vac":true,"version":"7932396","steam_id":85568392924742820,"keywords":["cp","nocrits","nodmgspread","uncletopia"],"game_id":440,"stv_port":27036,"stv_name":"Uncletopia | New York City | 3 | Stopwatch Beta | STV","players":null},{"server_id":16,"name":"Uncletopia | New York City | 4 | Community","name_short":"nyc-4","host":"nyc-1.us.uncletopia.com","port":27045,"enabled":true,"region":"us-east","cc":"us","latitude":40.73061,"longitude":-73.93524,"reserved":0,"last_update":"0001-01-01T00:00:00Z","name_a2s":"Uncletopia | New York City | 4 | Community","protocol":17,"map":"workshop/koth_kemptown_rc1.ugc767410655","folder":"tf","game":"Team Fortress","app_id":440,"player_count":23,"max_players":24,"Bots":0,"server_type":"Dedicated","server_os":"Linux","password":true,"vac":true,"version":"7932396","steam_id":85568392924742821,"keywords":["cp","nocrits","nodmgspread","uncletopia"],"game_id":440,"stv_port":27046,"stv_name":"Uncletopia | New York City | 4 | Community | STV","players":[{"user_id":409,"name":"Zhenaj","steam_id":76561199209016136,"connected_time":1313000000000,"state":"active","ping":60},{"user_id":306,"name":"Not Ghostie","steam_id":76561198068686762,"connected_time":7418000000000,"state":"active","ping":54},{"user_id":391,"name":"gorf?","steam_id":76561198142286417,"connected_time":2455000000000,"state":"active","ping":71},{"user_id":384,"name":"Skiddy","steam_id":76561198125942665,"connected_time":3063000000000,"state":"active","ping":106},{"user_id":408,"name":"HundchenTanque","steam_id":76561198122692754,"connected_time":1339000000000,"state":"active","ping":43},{"user_id":339,"name":"DistantJragon","steam_id":76561198117563641,"connected_time":5378000000000,"state":"active","ping":73},{"user_id":416,"name":"mastercoms","steam_id":76561198046110893,"connected_time":908000000000,"state":"active","ping":59},{"user_id":373,"name":"please don't! im helpless!","steam_id":76561198103496593,"connected_time":3941000000000,"state":"active","ping":74},{"user_id":411,"name":"meat.","steam_id":76561198256154493,"connected_time":1075000000000,"state":"active","ping":74},{"user_id":415,"name":"Rabid-Gentleman","steam_id":76561199071967379,"connected_time":981000000000,"state":"active","ping":71},{"user_id":424,"name":"josh","steam_id":76561198092176972,"connected_time":527000000000,"state":"active","ping":45},{"user_id":413,"name":"girl arc","steam_id":76561198406252824,"connected_time":1052000000000,"state":"active","ping":120},{"user_id":393,"name":"123","steam_id":76561198106308056,"connected_time":2260000000000,"state":"active","ping":124},{"user_id":426,"name":"BroBama","steam_id":76561198203732587,"connected_time":221000000000,"state":"active","ping":235},{"user_id":394,"name":"Frontier Psychiatrist","steam_id":76561198038689088,"connected_time":2249000000000,"state":"active","ping":95},{"user_id":406,"name":"k1tty","steam_id":76561198869348268,"connected_time":1486000000000,"state":"active","ping":105},{"user_id":428,"name":"Protoss High Templar","steam_id":76561198020001645,"connected_time":57000000000,"state":"active","ping":56},{"user_id":419,"name":"Lulycan","steam_id":76561198131120199,"connected_time":783000000000,"state":"active","ping":60},{"user_id":427,"name":"squash the beef","steam_id":76561198277163301,"connected_time":169000000000,"state":"active","ping":81},{"user_id":418,"name":"♥ kiss me! ♥","steam_id":76561198014557455,"connected_time":882000000000,"state":"active","ping":75},{"user_id":420,"name":"Low Poly Jerma","steam_id":76561198042689943,"connected_time":775000000000,"state":"active","ping":65},{"user_id":421,"name":"MagikarpEX","steam_id":76561198166172279,"connected_time":742000000000,"state":"active","ping":48},{"user_id":429,"name":"Lexabyte","steam_id":76561198065032237,"connected_time":21000000000,"state":"spawning","ping":67}]},{"server_id":142,"name":"Uncletopia | São Paulo | 1 | All Maps","name_short":"sao-1","host":"sao-1.br.uncletopia.com","port":27015,"enabled":true,"region":"sa","cc":"br","latitude":-23.533773,"longitude":-46.62529,"reserved":0,"last_update":"0001-01-01T00:00:00Z","name_a2s":"Uncletopia | São Paulo | 1 | All Maps","protocol":17,"map":"cp_snakewater_final1","folder":"tf","game":"Team Fortress","app_id":440,"player_count":0,"max_players":24,"Bots":0,"server_type":"Dedicated","server_os":"Linux","password":true,"vac":true,"version":"7932396","steam_id":85568392924469996,"keywords":["cp","nocrits","nodmgspread","uncletopia"],"game_id":440,"stv_port":27016,"stv_name":"Uncletopia | São Paulo | 1 | All Maps | STV","players":null},{"server_id":143,"name":"Uncletopia | São Paulo | 2 | All Maps","name_short":"sao-2","host":"sao-2.br.uncletopia.com","port":27015,"enabled":true,"region":"sa","cc":"br","latitude":-23.533773,"longitude":-46.62529,"reserved":0,"last_update":"0001-01-01T00:00:00Z","name_a2s":"Uncletopia | São Paulo | 2 | All Maps","protocol":17,"map":"koth_harvest_final","folder":"tf","game":"Team Fortress","app_id":440,"player_count":0,"max_players":24,"Bots":0,"server_type":"Dedicated","server_os":"Linux","password":true,"vac":true,"version":"7932396","steam_id":85568392924485349,"keywords":["cp","nocrits","nodmgspread","uncletopia"],"game_id":440,"stv_port":27016,"stv_name":"Uncletopia | São Paulo | 2 | All Maps | STV","players":null},{"server_id":7,"name":"Uncletopia | Seattle | 1 | All Maps","name_short":"sea-1","host":"sea-1.us.uncletopia.com","port":27015,"enabled":true,"region":"us-west","cc":"us","latitude":47.608013,"longitude":-122.33517,"reserved":0,"last_update":"0001-01-01T00:00:00Z","name_a2s":"Uncletopia | Seattle | 1 | All Maps","protocol":17,"map":"pl_snowycoast","folder":"tf","game":"Team Fortress","app_id":440,"player_count":24,"max_players":24,"Bots":0,"server_type":"Dedicated","server_os":"Linux","password":true,"vac":true,"version":"7932396","steam_id":85568392924469997,"keywords":["nocrits","nodmgspread","payload","uncletopia"],"game_id":440,"stv_port":27016,"stv_name":"Uncletopia | Seattle | 1 | All Maps | STV","players":[{"user_id":402,"name":"flamingdorit0s","steam_id":76561198869206247,"connected_time":2343000000000,"state":"active","ping":84},{"user_id":376,"name":"Owl Of Delos","steam_id":76561198437116566,"connected_time":6044000000000,"state":"active","ping":61},{"user_id":394,"name":"gravewater","steam_id":76561198043558709,"connected_time":2936000000000,"state":"active","ping":46},{"user_id":421,"name":"Doctor™","steam_id":76561198134309750,"connected_time":350000000000,"state":"active","ping":108},{"user_id":412,"name":"_ROBLOX_LOVER_","steam_id":76561198870649125,"connected_time":1104000000000,"state":"active","ping":83},{"user_id":372,"name":"goldhed","steam_id":76561198051751133,"connected_time":7173000000000,"state":"active","ping":58},{"user_id":413,"name":"mike, man spreads on ttc","steam_id":76561198225411004,"connected_time":916000000000,"state":"active","ping":64},{"user_id":414,"name":"Nakasmacka","steam_id":76561198049787270,"connected_time":827000000000,"state":"active","ping":38},{"user_id":417,"name":"jon pickle water","steam_id":76561199036212135,"connected_time":759000000000,"state":"active","ping":64},{"user_id":411,"name":"V∆lume The 1rd","steam_id":76561198133260990,"connected_time":1331000000000,"state":"active","ping":59},{"user_id":371,"name":"a cat plushie","steam_id":76561198080046542,"connected_time":7187000000000,"state":"active","ping":46},{"user_id":416,"name":"Sniff","steam_id":76561198010270922,"connected_time":803000000000,"state":"active","ping":44},{"user_id":401,"name":"Igrium","steam_id":76561198119549811,"connected_time":2414000000000,"state":"active","ping":77},{"user_id":378,"name":"jacix3 [gay wolfgirl]{she/it}","steam_id":76561198205004165,"connected_time":5936000000000,"state":"active","ping":72},{"user_id":422,"name":"Ira","steam_id":76561198855586261,"connected_time":251000000000,"state":"active","ping":76},{"user_id":395,"name":"skeletobro","steam_id":76561198311258358,"connected_time":2679000000000,"state":"active","ping":66},{"user_id":404,"name":"Seesawz","steam_id":76561199222588200,"connected_time":2289000000000,"state":"active","ping":66},{"user_id":349,"name":"amantes dominatio","steam_id":76561198042913843,"connected_time":8658000000000,"state":"active","ping":60},{"user_id":418,"name":"Spaceman","steam_id":76561198349305249,"connected_time":754000000000,"state":"active","ping":60},{"user_id":381,"name":"E4Estrogen","steam_id":76561198085813708,"connected_time":5466000000000,"state":"active","ping":118},{"user_id":397,"name":"Jammy","steam_id":76561198119652755,"connected_time":2629000000000,"state":"active","ping":91},{"user_id":389,"name":"sillyjack","steam_id":76561198844273999,"connected_time":4221000000000,"state":"active","ping":45},{"user_id":392,"name":"jorts","steam_id":76561199041179985,"connected_time":3991000000000,"state":"active","ping":60},{"user_id":409,"name":"Nea","steam_id":76561198408792773,"connected_time":1440000000000,"state":"active","ping":47}]},{"server_id":119,"name":"Uncletopia | Seattle | 2 | All Maps","name_short":"sea-2","host":"sea-1.us.uncletopia.com","port":27025,"enabled":true,"region":"us-west","cc":"us","latitude":47.608013,"longitude":-122.33517,"reserved":0,"last_update":"0001-01-01T00:00:00Z","name_a2s":"Uncletopia | Seattle | 2 | All Maps","protocol":17,"map":"pl_snowycoast","folder":"tf","game":"Team Fortress","app_id":440,"player_count":24,"max_players":24,"Bots":0,"server_type":"Dedicated","server_os":"Linux","password":true,"vac":true,"version":"7932396","steam_id":85568392924469998,"keywords":["nocrits","nodmgspread","payload","uncletopia"],"game_id":440,"stv_port":27026,"stv_name":"Uncletopia | Seattle | 2 | All Maps | STV","players":[{"user_id":122,"name":"volta","steam_id":76561199214283884,"connected_time":10607000000000,"state":"active","ping":142},{"user_id":272,"name":"Skabbety","steam_id":76561198168044257,"connected_time":241000000000,"state":"active","ping":31},{"user_id":270,"name":"shelf","steam_id":76561198260021696,"connected_time":904000000000,"state":"active","ping":45},{"user_id":267,"name":"kr1tsurf3r","steam_id":76561198076402476,"connected_time":1119000000000,"state":"active","ping":89},{"user_id":273,"name":"Crabby","steam_id":76561198040023173,"connected_time":115000000000,"state":"active","ping":56},{"user_id":265,"name":"my wife didn't like her present","steam_id":76561198380018244,"connected_time":1284000000000,"state":"active","ping":60},{"user_id":258,"name":"t2h","steam_id":76561198057944303,"connected_time":1769000000000,"state":"active","ping":75},{"user_id":275,"name":"thegreatsawyer","steam_id":76561198393604826,"connected_time":53000000000,"state":"active","ping":54},{"user_id":276,"name":"Neowudan","steam_id":76561198136850867,"connected_time":32000000000,"state":"active","ping":106},{"user_id":238,"name":"BLU3","steam_id":76561198059652670,"connected_time":3675000000000,"state":"active","ping":53},{"user_id":256,"name":"A UsedNom","steam_id":76561198402832756,"connected_time":1947000000000,"state":"active","ping":56},{"user_id":277,"name":"wugmup","steam_id":76561199096287734,"connected_time":9000000000,"state":"spawning","ping":113},{"user_id":262,"name":"Where The F**K I Am?","steam_id":76561197986530028,"connected_time":1426000000000,"state":"active","ping":99},{"user_id":207,"name":"Weakly","steam_id":76561197992690915,"connected_time":6059000000000,"state":"active","ping":63},{"user_id":239,"name":"ORANGE","steam_id":76561198000401769,"connected_time":3672000000000,"state":"active","ping":45},{"user_id":215,"name":"arsenic","steam_id":76561198176391550,"connected_time":5073000000000,"state":"active","ping":62},{"user_id":245,"name":"MCman","steam_id":76561198412110305,"connected_time":2854000000000,"state":"active","ping":77},{"user_id":251,"name":"Vincent Van Bro","steam_id":76561197966919802,"connected_time":2432000000000,"state":"active","ping":58},{"user_id":274,"name":"HideOnTate","steam_id":76561198209880837,"connected_time":93000000000,"state":"active","ping":45},{"user_id":246,"name":"Lightatex","steam_id":76561199068097196,"connected_time":2852000000000,"state":"active","ping":140},{"user_id":254,"name":"Applesauce","steam_id":76561198047011689,"connected_time":2364000000000,"state":"active","ping":89},{"user_id":269,"name":"Atomic_Rooster","steam_id":76561197992862398,"connected_time":942000000000,"state":"active","ping":73},{"user_id":261,"name":"litcherally in vents","steam_id":76561199169558959,"connected_time":1450000000000,"state":"active","ping":45},{"user_id":205,"name":"aisu","steam_id":76561198043768507,"connected_time":6157000000000,"state":"active","ping":77}]},{"server_id":406,"name":"Uncletopia | Seattle | 3 | Stopwatch Beta","name_short":"sea-3","host":"sea-1.us.uncletopia.com","port":27035,"enabled":true,"region":"us-west","cc":"us","latitude":47.608013,"longitude":-122.33517,"reserved":0,"last_update":"0001-01-01T00:00:00Z","name_a2s":"Uncletopia | Seattle | 3 | Stopwatch Beta","protocol":17,"map":"workshop/koth_bagel_rc6.ugc2514036946","folder":"tf","game":"Team Fortress","app_id":440,"player_count":0,"max_players":24,"Bots":0,"server_type":"Dedicated","server_os":"Linux","password":true,"vac":true,"version":"7932396","steam_id":85568392924515217,"keywords":["cp","nocrits","nodmgspread","uncletopia"],"game_id":440,"stv_port":27036,"stv_name":"Uncletopia | Seattle | 3 | Stopwatch Beta | STV","players":null},{"server_id":17,"name":"Uncletopia | San Francisco | 1 | All Maps","name_short":"sfo-1","host":"sfo-1.us.uncletopia.com","port":27015,"enabled":true,"region":"us-west","cc":"us","latitude":37.77397,"longitude":-122.4313,"reserved":0,"last_update":"0001-01-01T00:00:00Z","name_a2s":"Uncletopia | San Francisco | 1 | All Maps","protocol":17,"map":"cp_sunshine","folder":"tf","game":"Team Fortress","app_id":440,"player_count":24,"max_players":24,"Bots":0,"server_type":"Dedicated","server_os":"Linux","password":true,"vac":true,"version":"7932396","steam_id":85568392924469999,"keywords":["cp","nocrits","nodmgspread","uncletopia"],"game_id":440,"stv_port":27016,"stv_name":"Uncletopia | San Francisco | 1 | All Maps | STV","players":[{"user_id":269,"name":"Branz","steam_id":76561198076632143,"connected_time":2624000000000,"state":"active","ping":72},{"user_id":288,"name":"frog with knife","steam_id":76561198171203882,"connected_time":510000000000,"state":"active","ping":106},{"user_id":278,"name":"lemonjack","steam_id":76561198277380277,"connected_time":2230000000000,"state":"active","ping":70},{"user_id":293,"name":"RAT BASTARD","steam_id":76561198281265166,"connected_time":245000000000,"state":"active","ping":101},{"user_id":283,"name":"Siev","steam_id":76561198000518937,"connected_time":1234000000000,"state":"active","ping":65},{"user_id":277,"name":"DoubleX2000","steam_id":76561198164134387,"connected_time":2332000000000,"state":"active","ping":82},{"user_id":291,"name":"VicLoL","steam_id":76561198045580784,"connected_time":274000000000,"state":"active","ping":68},{"user_id":262,"name":"Heavy","steam_id":76561198437794740,"connected_time":3303000000000,"state":"active","ping":50},{"user_id":239,"name":"Ytown","steam_id":76561198165879751,"connected_time":5033000000000,"state":"active","ping":70},{"user_id":286,"name":"Drake from State Farm","steam_id":76561199069029812,"connected_time":600000000000,"state":"active","ping":55},{"user_id":290,"name":"Nani","steam_id":76561198010230727,"connected_time":307000000000,"state":"active","ping":64},{"user_id":265,"name":"里芋 - Tarooo","steam_id":76561198392986348,"connected_time":3100000000000,"state":"active","ping":52},{"user_id":248,"name":"lol","steam_id":76561198026491738,"connected_time":4762000000000,"state":"active","ping":59},{"user_id":249,"name":"Hugh Mann","steam_id":76561198212049401,"connected_time":4760000000000,"state":"active","ping":92},{"user_id":279,"name":"Morgan","steam_id":76561199224141679,"connected_time":2035000000000,"state":"active","ping":44},{"user_id":292,"name":"I'm a easy kill","steam_id":76561199092023746,"connected_time":273000000000,"state":"active","ping":77},{"user_id":298,"name":"Trey","steam_id":76561198110024593,"connected_time":11000000000,"state":"spawning","ping":82},{"user_id":273,"name":"selvhat","steam_id":76561198114225509,"connected_time":2472000000000,"state":"active","ping":66},{"user_id":295,"name":"35 years without a footjob...","steam_id":76561198799299193,"connected_time":192000000000,"state":"active","ping":71},{"user_id":296,"name":"supershyguy147","steam_id":76561199208965131,"connected_time":166000000000,"state":"active","ping":291},{"user_id":268,"name":"Jawn","steam_id":76561198424248616,"connected_time":2834000000000,"state":"active","ping":132},{"user_id":285,"name":"Mint Widget","steam_id":76561198036875245,"connected_time":1101000000000,"state":"active","ping":86},{"user_id":155,"name":"smith","steam_id":76561199391478575,"connected_time":11425000000000,"state":"active","ping":85},{"user_id":276,"name":"Bat(Magnetized to your head)","steam_id":76561198976521735,"connected_time":2363000000000,"state":"active","ping":54}]},{"server_id":18,"name":"Uncletopia | San Francisco | 2 | All Maps","name_short":"sfo-2","host":"sfo-1.us.uncletopia.com","port":27025,"enabled":true,"region":"us-west","cc":"us","latitude":37.77397,"longitude":-122.4313,"reserved":0,"last_update":"0001-01-01T00:00:00Z","name_a2s":"Uncletopia | San Francisco | 2 | All Maps","protocol":17,"map":"koth_lakeside_final","folder":"tf","game":"Team Fortress","app_id":440,"player_count":24,"max_players":24,"Bots":0,"server_type":"Dedicated","server_os":"Linux","password":true,"vac":true,"version":"7932396","steam_id":85568392924470000,"keywords":["cp","nocrits","nodmgspread","uncletopia"],"game_id":440,"stv_port":27026,"stv_name":"Uncletopia | San Francisco | 2 | All Maps | STV","players":[{"user_id":141,"name":"Krysar","steam_id":76561198202077555,"connected_time":3921000000000,"state":"active","ping":99},{"user_id":192,"name":"Squiliam","steam_id":76561198025278006,"connected_time":475000000000,"state":"active","ping":83},{"user_id":142,"name":"Edwon","steam_id":76561198319902846,"connected_time":3916000000000,"state":"active","ping":68},{"user_id":191,"name":"MayKaye","steam_id":76561199016092265,"connected_time":496000000000,"state":"active","ping":75},{"user_id":193,"name":"Mighty Morphin Flower Arrangers","steam_id":76561198133158032,"connected_time":453000000000,"state":"active","ping":41},{"user_id":87,"name":"Hindmost","steam_id":76561199081837220,"connected_time":7035000000000,"state":"active","ping":117},{"user_id":162,"name":"HeHedron","steam_id":76561199199667164,"connected_time":2254000000000,"state":"active","ping":87},{"user_id":169,"name":"Tommy Pickles (Very Cool)","steam_id":76561198391261463,"connected_time":1627000000000,"state":"active","ping":103},{"user_id":175,"name":"G. Howard Dee","steam_id":76561198058382812,"connected_time":1528000000000,"state":"active","ping":62},{"user_id":180,"name":"Scrux","steam_id":76561198129763115,"connected_time":1480000000000,"state":"active","ping":63},{"user_id":154,"name":"scrimblo","steam_id":76561199150833796,"connected_time":3152000000000,"state":"active","ping":72},{"user_id":172,"name":"wlfgng","steam_id":76561198316639499,"connected_time":1588000000000,"state":"active","ping":38},{"user_id":181,"name":"ShredMaan","steam_id":76561198429982138,"connected_time":1263000000000,"state":"active","ping":63},{"user_id":160,"name":"Fermenting Kiwi","steam_id":76561198253303497,"connected_time":2559000000000,"state":"active","ping":88},{"user_id":182,"name":"el wokismo","steam_id":76561198058617608,"connected_time":1258000000000,"state":"active","ping":62},{"user_id":143,"name":"phon","steam_id":76561198140659236,"connected_time":3911000000000,"state":"active","ping":50},{"user_id":134,"name":"no brain","steam_id":76561198451032322,"connected_time":4197000000000,"state":"active","ping":79},{"user_id":196,"name":"Sidekick","steam_id":76561198392740835,"connected_time":72000000000,"state":"active","ping":67},{"user_id":194,"name":"Actually a Shoggoth","steam_id":76561198065857964,"connected_time":360000000000,"state":"active","ping":114},{"user_id":195,"name":"moopmop","steam_id":76561198065224965,"connected_time":335000000000,"state":"active","ping":55},{"user_id":168,"name":"Laxoloni","steam_id":76561199197045700,"connected_time":2070000000000,"state":"active","ping":64},{"user_id":146,"name":"AstraLee","steam_id":76561198093501649,"connected_time":3894000000000,"state":"active","ping":96},{"user_id":185,"name":"Throws Before Bros󠀡","steam_id":76561197992905530,"connected_time":1224000000000,"state":"active","ping":53},{"user_id":136,"name":"Darkgaming579","steam_id":76561199121435004,"connected_time":4076000000000,"state":"active","ping":82}]},{"server_id":19,"name":"Uncletopia | San Francisco | 3 | Stopwatch Beta","name_short":"sfo-3","host":"sfo-1.us.uncletopia.com","port":27035,"enabled":true,"region":"us-west","cc":"us","latitude":37.77397,"longitude":-122.4313,"reserved":0,"last_update":"0001-01-01T00:00:00Z","name_a2s":"Uncletopia | San Francisco | 3 | Stopwatch Beta","protocol":17,"map":"workshop/pl_badwater_pro_v12.ugc2142942074","folder":"tf","game":"Team Fortress","app_id":440,"player_count":0,"max_players":24,"Bots":0,"server_type":"Dedicated","server_os":"Linux","password":true,"vac":true,"version":"7932396","steam_id":85568392924742824,"keywords":["nocrits","nodmgspread","payload","uncletopia"],"game_id":440,"stv_port":27036,"stv_name":"Uncletopia | San Francisco | 3 | Stopwatch Beta | STV","players":null},{"server_id":20,"name":"Uncletopia | San Francisco | 4 | Community","name_short":"sfo-4","host":"sfo-1.us.uncletopia.com","port":27045,"enabled":true,"region":"us-west","cc":"us","latitude":37.77397,"longitude":-122.4313,"reserved":0,"last_update":"0001-01-01T00:00:00Z","name_a2s":"Uncletopia | San Francisco | 4 | Community","protocol":17,"map":"workshop/pl_highwood_b13.ugc1769496557","folder":"tf","game":"Team Fortress","app_id":440,"player_count":6,"max_players":24,"Bots":0,"server_type":"Dedicated","server_os":"Linux","password":true,"vac":true,"version":"7932396","steam_id":85568392924742826,"keywords":["nocrits","nodmgspread","payload","uncletopia"],"game_id":440,"stv_port":27046,"stv_name":"Uncletopia | San Francisco | 4 | Community | STV","players":[{"user_id":10,"name":"G.bo","steam_id":76561198085176270,"connected_time":1776000000000,"state":"active","ping":59},{"user_id":17,"name":"Pyrolimited","steam_id":76561198195455657,"connected_time":254000000000,"state":"active","ping":60},{"user_id":12,"name":"Renz","steam_id":76561198118995036,"connected_time":1263000000000,"state":"active","ping":59},{"user_id":13,"name":"johnman gooberguy","steam_id":76561199014859764,"connected_time":903000000000,"state":"active","ping":59},{"user_id":14,"name":"SvicidalBug","steam_id":76561198221390504,"connected_time":804000000000,"state":"active","ping":79},{"user_id":15,"name":"BoX_hEaD101","steam_id":76561198200875467,"connected_time":561000000000,"state":"active","ping":69}]},{"server_id":141,"name":"Uncletopia | Sydney | 1 | All Maps","name_short":"syd-1","host":"syd-1.au.uncletopia.com","port":27015,"enabled":true,"region":"au","cc":"au","latitude":-33.865143,"longitude":151.2099,"reserved":0,"last_update":"0001-01-01T00:00:00Z","name_a2s":"Uncletopia | Sydney | 1 | All Maps","protocol":17,"map":"cp_snakewater_final1","folder":"tf","game":"Team Fortress","app_id":440,"player_count":0,"max_players":24,"Bots":0,"server_type":"Dedicated","server_os":"Linux","password":true,"vac":true,"version":"7932396","steam_id":85568392924470001,"keywords":["cp","nocrits","nodmgspread","uncletopia"],"game_id":440,"stv_port":27016,"stv_name":"Uncletopia | Sydney | 1 | All Maps | STV","players":null},{"server_id":123,"name":"Uncletopia | Sydney | 2 | All Maps","name_short":"syd-2","host":"syd-1.au.uncletopia.com","port":27025,"enabled":true,"region":"au","cc":"au","latitude":-33.865143,"longitude":151.2099,"reserved":0,"last_update":"0001-01-01T00:00:00Z","name_a2s":"Uncletopia | Sydney | 2 | All Maps","protocol":17,"map":"pl_frontier_final","folder":"tf","game":"Team Fortress","app_id":440,"player_count":2,"max_players":24,"Bots":0,"server_type":"Dedicated","server_os":"Linux","password":true,"vac":true,"version":"7932396","steam_id":85568392924470002,"keywords":["nocrits","nodmgspread","payload","uncletopia"],"game_id":440,"stv_port":27026,"stv_name":"Uncletopia | Sydney | 2 | All Maps | STV","players":[{"user_id":8,"name":"Awesomeguy002","steam_id":76561198070497067,"connected_time":2086000000000,"state":"active","ping":54},{"user_id":14,"name":"Zeppy","steam_id":76561198074766231,"connected_time":659000000000,"state":"active","ping":70}]},{"server_id":395,"name":"Uncletopia | Sydney | 3 | All Maps","name_short":"syd-3","host":"syd-1.au.uncletopia.com","port":27035,"enabled":true,"region":"au","cc":"au","latitude":-33.865143,"longitude":151.2099,"reserved":0,"last_update":"0001-01-01T00:00:00Z","name_a2s":"Uncletopia | Sydney | 3 | All Maps","protocol":17,"map":"cp_dustbowl","folder":"tf","game":"Team Fortress","app_id":440,"player_count":0,"max_players":24,"Bots":0,"server_type":"Dedicated","server_os":"Linux","password":true,"vac":true,"version":"7932396","steam_id":85568392925194467,"keywords":["cp","nocrits","nodmgspread","uncletopia"],"game_id":440,"stv_port":27036,"stv_name":"Uncletopia | Sydney | 3 | All Maps | STV","players":null},{"server_id":396,"name":"Uncletopia | Sydney | 4 | All Maps","name_short":"syd-4","host":"syd-1.au.uncletopia.com","port":27045,"enabled":true,"region":"au","cc":"au","latitude":-33.865143,"longitude":151.2099,"reserved":0,"last_update":"0001-01-01T00:00:00Z","name_a2s":"Uncletopia | Sydney | 4 | All Maps","protocol":17,"map":"pl_pier","folder":"tf","game":"Team Fortress","app_id":440,"player_count":0,"max_players":24,"Bots":0,"server_type":"Dedicated","server_os":"Linux","password":true,"vac":true,"version":"7932396","steam_id":85568392925397958,"keywords":["nocrits","nodmgspread","payload","uncletopia"],"game_id":440,"stv_port":27046,"stv_name":"Uncletopia | Sydney | 4 | All Maps | STV","players":null},{"server_id":58,"name":"Uncletopia | Sydney | 5 | Stopwatch Beta","name_short":"syd-5","host":"syd-1.au.uncletopia.com","port":27055,"enabled":true,"region":"au","cc":"au","latitude":-33.865143,"longitude":151.2099,"reserved":0,"last_update":"0001-01-01T00:00:00Z","name_a2s":"Uncletopia | Sydney | 5 | Stopwatch Beta","protocol":17,"map":"pl_borneo","folder":"tf","game":"Team Fortress","app_id":440,"player_count":0,"max_players":24,"Bots":0,"server_type":"Dedicated","server_os":"Linux","password":true,"vac":true,"version":"7932396","steam_id":85568392925397959,"keywords":["nocrits","nodmgspread","payload","uncletopia"],"game_id":440,"stv_port":27056,"stv_name":"Uncletopia | Sydney | 5 | Stopwatch Beta | STV","players":null},{"server_id":59,"name":"Uncletopia | Sydney | 6 | Community","name_short":"syd-6","host":"syd-1.au.uncletopia.com","port":27065,"enabled":true,"region":"au","cc":"au","latitude":-33.865143,"longitude":151.2099,"reserved":0,"last_update":"0001-01-01T00:00:00Z","name_a2s":"Uncletopia | Sydney | 6 | Community","protocol":17,"map":"workshop/pl_vigil_rc9.ugc1266210012","folder":"tf","game":"Team Fortress","app_id":440,"player_count":0,"max_players":24,"Bots":0,"server_type":"Dedicated","server_os":"Linux","password":true,"vac":true,"version":"7932396","steam_id":85568392925397960,"keywords":["nocrits","nodmgspread","payload","uncletopia"],"game_id":440,"stv_port":27066,"stv_name":"Uncletopia | Sydney | 6 | Community | STV","players":null},{"server_id":49,"name":"Uncletopia | Warsaw | 1 | All Maps","name_short":"waw-1","host":"waw-1.pl.uncletopia.com","port":27015,"enabled":true,"region":"eu","cc":"pl","latitude":52.2297,"longitude":21.017532,"reserved":0,"last_update":"0001-01-01T00:00:00Z","name_a2s":"","protocol":0,"map":"","folder":"","game":"","app_id":0,"player_count":0,"max_players":0,"Bots":0,"server_type":"","server_os":"","password":false,"vac":false,"version":"","steam_id":0,"keywords":null,"game_id":0,"stv_port":0,"stv_name":"","players":null},{"server_id":50,"name":"Uncletopia | Warsaw | 2 | All Maps","name_short":"waw-2","host":"waw-1.pl.uncletopia.com","port":27025,"enabled":true,"region":"eu","cc":"pl","latitude":52.2297,"longitude":21.017532,"reserved":0,"last_update":"0001-01-01T00:00:00Z","name_a2s":"Uncletopia | Warsaw | 2 | All Maps","protocol":17,"map":"koth_highpass","folder":"tf","game":"Team Fortress","app_id":440,"player_count":0,"max_players":24,"Bots":0,"server_type":"Dedicated","server_os":"Linux","password":true,"vac":true,"version":"7932396","steam_id":85568392925397851,"keywords":["cp","nocrits","nodmgspread","uncletopia"],"game_id":440,"stv_port":27026,"stv_name":"Uncletopia | Warsaw | 2 | All Maps | STV","players":null},{"server_id":51,"name":"Uncletopia | Warsaw | 3 | All Maps","name_short":"waw-3","host":"waw-1.pl.uncletopia.com","port":27035,"enabled":true,"region":"eu","cc":"pl","latitude":52.2297,"longitude":21.017532,"reserved":0,"last_update":"0001-01-01T00:00:00Z","name_a2s":"Uncletopia | Warsaw | 3 | All Maps","protocol":17,"map":"koth_viaduct","folder":"tf","game":"Team Fortress","app_id":440,"player_count":0,"max_players":24,"Bots":0,"server_type":"Dedicated","server_os":"Linux","password":true,"vac":true,"version":"7932396","steam_id":85568392925397852,"keywords":["cp","nocrits","nodmgspread","uncletopia"],"game_id":440,"stv_port":27036,"stv_name":"Uncletopia | Warsaw | 3 | All Maps | STV","players":null},{"server_id":52,"name":"Uncletopia | Warsaw | 4 | All Maps","name_short":"waw-4","host":"waw-1.pl.uncletopia.com","port":27045,"enabled":true,"region":"eu","cc":"pl","latitude":52.2297,"longitude":21.017532,"reserved":0,"last_update":"0001-01-01T00:00:00Z","name_a2s":"Uncletopia | Warsaw | 4 | All Maps","protocol":17,"map":"cp_dustbowl","folder":"tf","game":"Team Fortress","app_id":440,"player_count":0,"max_players":24,"Bots":0,"server_type":"Dedicated","server_os":"Linux","password":true,"vac":true,"version":"7932396","steam_id":85568392925397853,"keywords":["cp","nocrits","nodmgspread","uncletopia"],"game_id":440,"stv_port":27046,"stv_name":"Uncletopia | Warsaw | 4 | All Maps | STV","players":null},{"server_id":53,"name":"Uncletopia | Warsaw | 5 | Stopwatch Beta","name_short":"waw-5","host":"waw-1.pl.uncletopia.com","port":27055,"enabled":true,"region":"eu","cc":"pl","latitude":52.2297,"longitude":21.017532,"reserved":0,"last_update":"0001-01-01T00:00:00Z","name_a2s":"Uncletopia | Warsaw | 5 | Stopwatch Beta","protocol":17,"map":"koth_lakeside_final","folder":"tf","game":"Team Fortress","app_id":440,"player_count":0,"max_players":24,"Bots":0,"server_type":"Dedicated","server_os":"Linux","password":true,"vac":true,"version":"7932396","steam_id":85568392925397854,"keywords":["cp","nocrits","nodmgspread","uncletopia"],"game_id":440,"stv_port":27056,"stv_name":"Uncletopia | Warsaw | 5 | Stopwatch Beta | STV","players":null},{"server_id":54,"name":"Uncletopia | Warsaw | 6 | Community","name_short":"waw-6","host":"waw-1.pl.uncletopia.com","port":27065,"enabled":true,"region":"eu","cc":"pl","latitude":52.2297,"longitude":21.017532,"reserved":0,"last_update":"0001-01-01T00:00:00Z","name_a2s":"Uncletopia | Warsaw | 6 | Community","protocol":17,"map":"pl_upward","folder":"tf","game":"Team Fortress","app_id":440,"player_count":0,"max_players":24,"Bots":0,"server_type":"Dedicated","server_os":"Linux","password":true,"vac":true,"version":"7932396","steam_id":85568392925397856,"keywords":["nocrits","nodmgspread","payload","uncletopia"],"game_id":440,"stv_port":27066,"stv_name":"Uncletopia | Warsaw | 6 | Community | STV","players":null}]}