{"status":true,"message":"","result":[{"server_id":9,"name":"Uncletopia | Atlanta | 1 | All Maps","name_short":"atl-1","host":"atl-1.us.uncletopia.com","port":27015,"enabled":true,"region":"us-east","cc":"us","latitude":33.753746,"longitude":-84.38633,"reserved":0,"last_update":"0001-01-01T00:00:00Z","name_a2s":"Uncletopia | Atlanta | 1 | All Maps","protocol":17,"map":"pl_snowycoast","folder":"tf","game":"Team Fortress","app_id":440,"player_count":24,"max_players":24,"Bots":0,"server_type":"Dedicated","server_os":"Linux","password":true,"vac":true,"version":"7757534","steam_id":85568392924469982,"keywords":["nocrits","nodmgspread","payload","uncletopia"],"game_id":440,"stv_port":27016,"stv_name":"Uncletopia | Atlanta | 1 | All Maps | STV","players":[{"user_id":370,"name":"bovvle","steam_id":76561198259113008,"connected_time":2390000000000,"state":"active","ping":70},{"user_id":381,"name":"Pulp Free Fiction","steam_id":76561198095396514,"connected_time":1771000000000,"state":"active","ping":71},{"user_id":357,"name":"Dr.Zarann","steam_id":76561198163952958,"connected_time":3893000000000,"state":"active","ping":55},{"user_id":388,"name":"TGD","steam_id":76561198197582594,"connected_time":1567000000000,"state":"active","ping":60},{"user_id":384,"name":"Karma","steam_id":76561198030565234,"connected_time":1716000000000,"state":"active","ping":72},{"user_id":380,"name":"seraph","steam_id":76561198381136912,"connected_time":1822000000000,"state":"active","ping":76},{"user_id":377,"name":"blue of days","steam_id":76561199113013688,"connected_time":1965000000000,"state":"active","ping":104},{"user_id":392,"name":"portal2trollin","steam_id":76561198046869828,"connected_time":1120000000000,"state":"active","ping":97},{"user_id":354,"name":"hoboways","steam_id":76561198168035195,"connected_time":3904000000000,"state":"active","ping":82},{"user_id":390,"name":"Im High","steam_id":76561198049954886,"connected_time":1383000000000,"state":"active","ping":77},{"user_id":393,"name":"â™¥Bunnyâ™¥Slutâ™¥","steam_id":76561198206376851,"connected_time":400000000000,"state":"active","ping":125},{"user_id":374,"name":"ATL1 | Psionic Box","steam_id":76561198151019322,"connected_time":2015000000000,"state":"active","ping":60},{"user_id":246,"name":"lukiepills","steam_id":76561199020587077,"connected_time":13742000000000,"state":"active","ping":65},{"user_id":365,"name":"Miro","steam_id":76561198936412406,"connected_time":3401000000000,"state":"active","ping":78},{"user_id":360,"name":"Mug","steam_id":76561199282207802,"connected_time":3859000000000,"state":"active","ping":79},{"user_id":386,"name":"Lilith","steam_id":76561198125102885,"connected_time":1669000000000,"state":"active","ping":65},{"user_id":385,"name":"rose","steam_id":76561198048882285,"connected_time":1691000000000,"state":"active","ping":60},{"user_id":369,"name":"com lag","steam_id":76561198019019392,"connected_time":2680000000000,"state":"active","ping":66},{"user_id":367,"name":"AlexLovesYou","steam_id":76561199163263543,"connected_time":3208000000000,"state":"active","ping":77},{"user_id":373,"name":"Just PYE","steam_id":76561199439622967,"connected_time":2194000000000,"state":"active","ping":79},{"user_id":378,"name":"Notafraid90","steam_id":76561198104072542,"connected_time":1941000000000,"state":"active","ping":75},{"user_id":332,"name":"Mage","steam_id":76561198285026879,"connected_time":6440000000000,"state":"active","ping":79},{"user_id":379,"name":"El Bondin","steam_id":76561198820792434,"connected_time":1937000000000,"state":"active","ping":89},{"user_id":389,"name":"MotorolÂª","steam_id":76561198358119669,"connected_time":1519000000000,"state":"active","ping":112}]},{"server_id":104,"name":"Uncletopia | Atlanta | 2 | All Maps","name_short":"atl-2","host":"atl-1.us.uncletopia.com","port":27025,"enabled":true,"region":"us-east","cc":"us","latitude":33.753746,"longitude":-84.38633,"reserved":0,"last_update":"0001-01-01T00:00:00Z","name_a2s":"Uncletopia | Atlanta | 2 | All Maps","protocol":17,"map":"cp_mossrock","folder":"tf","game":"Team Fortress","app_id":440,"player_count":22,"max_players":24,"Bots":0,"server_type":"Dedicated","server_os":"Linux","password":true,"vac":true,"version":"7757534","steam_id":85568392924469983,"keywords":["cp","nocrits","nodmgspread","uncletopia"],"game_id":440,"stv_port":27026,"stv_name":"Uncletopia | Atlanta | 2 | All Maps | STV","players":[{"user_id":483,"name":"Swaus","steam_id":76561198035761308,"connected_time":4087000000000,"state":"active","ping":63},{"user_id":457,"name":"à¼˜ â‹†ËšðŸŽ§Caffeineâ˜•*Ë–Â°","steam_id":76561199259309294,"connected_time":5636000000000,"state":"active","ping":93},{"user_id":516,"name":"jayb1rd","steam_id":76561198057185312,"connected_time":617000000000,"state":"active","ping":44},{"user_id":477,"name":"ItsRoy","steam_id":76561198119525485,"connected_time":4942000000000,"state":"active","ping":60},{"user_id":500,"name":"KoolBucky","steam_id":76561198147927648,"connected_time":2320000000000,"state":"active","ping":76},{"user_id":481,"name":"Chance","steam_id":76561198360789770,"connected_time":4121000000000,"state":"active","ping":66},{"user_id":497,"name":"Eden Hazard","steam_id":76561198089241053,"connected_time":2888000000000,"state":"active","ping":60},{"user_id":515,"name":"Festive Syntax Error","steam_id":76561198101567629,"connected_time":804000000000,"state":"active","ping":68},{"user_id":519,"name":"Genetic Komodo (He/Him)","steam_id":76561198174806758,"connected_time":99000000000,"state":"active","ping":53},{"user_id":479,"name":"Belmore","steam_id":76561198009355231,"connected_time":4288000000000,"state":"active","ping":107},{"user_id":492,"name":"oxygen user","steam_id":76561199111975528,"connected_time":3992000000000,"state":"active","ping":78},{"user_id":472,"name":"Baker","steam_id":76561198055196430,"connected_time":5138000000000,"state":"active","ping":81},{"user_id":473,"name":"BetoelAff es","steam_id":76561198377842585,"connected_time":5119000000000,"state":"active","ping":98},{"user_id":506,"name":"ElephantInTheRoom","steam_id":76561198091991980,"connected_time":1515000000000,"state":"active","ping":64},{"user_id":501,"name":"illious","steam_id":76561198169925494,"connected_time":2173000000000,"state":"active","ping":62},{"user_id":513,"name":"Dabbledornk","steam_id":76561198065241300,"connected_time":1001000000000,"state":"active","ping":45},{"user_id":510,"name":"CrazyKermitRubes","steam_id":76561198009065204,"connected_time":1038000000000,"state":"active","ping":78},{"user_id":464,"name":"venialivelizard","steam_id":76561198198441871,"connected_time":5467000000000,"state":"active","ping":73},{"user_id":463,"name":"Nanachi","steam_id":76561198120705850,"connected_time":5547000000000,"state":"active","ping":91},{"user_id":514,"name":"Festive Conch Shell","steam_id":76561198042072993,"connected_time":998000000000,"state":"active","ping":61},{"user_id":508,"name":"Choose Studly","steam_id":76561198066086096,"connected_time":1320000000000,"state":"active","ping":74},{"user_id":446,"name":"Notsocreative","steam_id":76561198236372202,"connected_time":6273000000000,"state":"active","ping":75}]},{"server_id":400,"name":"Uncletopia | Atlanta | 3 | Community","name_short":"atl-3","host":"atl-1.us.uncletopia.com","port":27035,"enabled":true,"region":"us-east","cc":"us","latitude":33.753746,"longitude":-84.38633,"reserved":0,"last_update":"0001-01-01T00:00:00Z","name_a2s":"Uncletopia | Atlanta | 3 | Community","protocol":17,"map":"workshop/pl_barnblitz_pro7.ugc582280235","folder":"tf","game":"Team Fortress","app_id":440,"player_count":19,"max_players":24,"Bots":0,"server_type":"Dedicated","server_os":"Linux","password":true,"vac":true,"version":"7757534","steam_id":85568392924515187,"keywords":["nocrits","nodmgspread","payload","uncletopia"],"game_id":440,"stv_port":27036,"stv_name":"Uncletopia | Atlanta | 3 | Community | STV","players":[{"user_id":344,"name":"FHC | Nyle","steam_id":76561198045652639,"connected_time":2126000000000,"state":"active","ping":116},{"user_id":343,"name":"cornshot","steam_id":76561198043496387,"connected_time":2150000000000,"state":"active","ping":122},{"user_id":345,"name":"Nicko","steam_id":76561198328490503,"connected_time":1965000000000,"state":"active","ping":145},{"user_id":362,"name":"nanovorg","steam_id":76561198286791976,"connected_time":193000000000,"state":"active","ping":96},{"user_id":346,"name":"BrawlStar17","steam_id":76561199045408110,"connected_time":1937000000000,"state":"active","ping":65},{"user_id":363,"name":"sassy loli","steam_id":76561198402316065,"connected_time":187000000000,"state":"active","ping":94},{"user_id":359,"name":"StuartBell511","steam_id":76561198060931721,"connected_time":855000000000,"state":"active","ping":58},{"user_id":335,"name":"tropis","steam_id":76561198067365603,"connected_time":3133000000000,"state":"active","ping":54},{"user_id":334,"name":"J.G. Klaus","steam_id":76561198001111196,"connected_time":3180000000000,"state":"active","ping":72},{"user_id":211,"name":"The Pencil Cunts","steam_id":76561198272606252,"connected_time":9414000000000,"state":"active","ping":60},{"user_id":364,"name":"Reno Gato","steam_id":76561198048417246,"connected_time":187000000000,"state":"active","ping":88},{"user_id":365,"name":"That one Noobslayer","steam_id":76561199151555893,"connected_time":153000000000,"state":"active","ping":91},{"user_id":283,"name":"bingus","steam_id":76561198283992686,"connected_time":5269000000000,"state":"active","ping":97},{"user_id":366,"name":"STONKS (she/they)","steam_id":76561198965475199,"connected_time":68000000000,"state":"active","ping":73},{"user_id":367,"name":"seven","steam_id":76561198979319783,"connected_time":57000000000,"state":"active","ping":92},{"user_id":368,"name":"Heppeh","steam_id":76561198068049507,"connected_time":47000000000,"state":"active","ping":85},{"user_id":320,"name":"will uber light classes","steam_id":76561198117033273,"connected_time":3854000000000,"state":"active","ping":139},{"user_id":356,"name":"The_Epic_Conclusion","steam_id":76561198084250179,"connected_time":1487000000000,"state":"active","ping":75},{"user_id":360,"name":"Poodwecker","steam_id":76561198344264859,"connected_time":849000000000,"state":"active","ping":79}]},{"server_id":401,"name":"Uncletopia | Atlanta | 4 | No Payload","name_short":"atl-4","host":"atl-1.us.uncletopia.com","port":27045,"enabled":true,"region":"us-east","cc":"us","latitude":33.753746,"longitude":-84.38633,"reserved":0,"last_update":"0001-01-01T00:00:00Z","name_a2s":"","protocol":0,"map":"","folder":"","game":"","app_id":0,"player_count":0,"max_players":0,"Bots":0,"server_type":"","server_os":"","password":false,"vac":false,"version":"","steam_id":0,"keywords":null,"game_id":0,"stv_port":0,"stv_name":"","players":null},{"server_id":2,"name":"Uncletopia | Chicago | 1 | All Maps","name_short":"chi-1","host":"chi-1.us.uncletopia.com","port":27015,"enabled":true,"region":"us-central","cc":"us","latitude":41.881832,"longitude":-87.62318,"reserved":0,"last_update":"0001-01-01T00:00:00Z","name_a2s":"Uncletopia | Chicago | 1 | All Maps","protocol":17,"map":"cp_steel","folder":"tf","game":"Team Fortress","app_id":440,"player_count":24,"max_players":24,"Bots":0,"server_type":"Dedicated","server_os":"Linux","password":true,"vac":true,"version":"7757534","steam_id":85568392924469984,"keywords":["cp","nocrits","nodmgspread","uncletopia"],"game_id":440,"stv_port":27016,"stv_name":"Uncletopia | Chicago | 1 | All Maps | STV","players":[{"user_id":360,"name":"earthbound393","steam_id":76561199444276547,"connected_time":3705000000000,"state":"active","ping":106},{"user_id":338,"name":"Luca!","steam_id":76561198137880777,"connected_time":5945000000000,"state":"active","ping":94},{"user_id":343,"name":"Weebmcgee","steam_id":76561198081231557,"connected_time":5463000000000,"state":"active","ping":63},{"user_id":313,"name":"Ademar","steam_id":76561199391802581,"connected_time":8625000000000,"state":"active","ping":51},{"user_id":410,"name":"Meringue","steam_id":76561198067899943,"connected_time":177000000000,"state":"active","ping":74},{"user_id":373,"name":"BONESAW Lombardi","steam_id":76561198158124937,"connected_time":3397000000000,"state":"active","ping":73},{"user_id":402,"name":"sebjzy â™¥","steam_id":76561198009959034,"connected_time":804000000000,"state":"active","ping":83},{"user_id":403,"name":"Vapeinhand","steam_id":76561198134439943,"connected_time":710000000000,"state":"active","ping":63},{"user_id":396,"name":"asbestos","steam_id":76561198079178866,"connected_time":1608000000000,"state":"active","ping":71},{"user_id":380,"name":"MonkeeBoy","steam_id":76561199004097235,"connected_time":3087000000000,"state":"active","ping":96},{"user_id":407,"name":"AquaPhoenix","steam_id":76561198157474924,"connected_time":192000000000,"state":"active","ping":52},{"user_id":398,"name":"barker bill","steam_id":76561198018451994,"connected_time":1447000000000,"state":"active","ping":83},{"user_id":408,"name":"Tommy Provolone","steam_id":76561198170062377,"connected_time":190000000000,"state":"active","ping":74},{"user_id":368,"name":"Zoot","steam_id":76561198121944243,"connected_time":3613000000000,"state":"active","ping":79},{"user_id":359,"name":"eloressa","steam_id":76561198120330867,"connected_time":3779000000000,"state":"active","ping":50},{"user_id":388,"name":"NBA2k22hoodmoments","steam_id":76561198383103506,"connected_time":2633000000000,"state":"active","ping":47},{"user_id":317,"name":"Dante","steam_id":76561198798234838,"connected_time":7737000000000,"state":"active","ping":115},{"user_id":401,"name":"moistwalnut1967","steam_id":76561198044489449,"connected_time":997000000000,"state":"active","ping":51},{"user_id":395,"name":"[UHS] K24A4 2.4","steam_id":76561199072970627,"connected_time":2193000000000,"state":"active","ping":47},{"user_id":397,"name":"DJ Chalice","steam_id":76561197974872458,"connected_time":1463000000000,"state":"active","ping":78},{"user_id":413,"name":"MikeLovesRabbit","steam_id":76561197997742625,"connected_time":22000000000,"state":"active","ping":65},{"user_id":409,"name":"Alexgo","steam_id":76561198044430542,"connected_time":189000000000,"state":"active","ping":98},{"user_id":414,"name":"time has run out","steam_id":76561198066450438,"connected_time":1000000000,"state":"spawning","ping":59},{"user_id":404,"name":"Lia_Rein","steam_id":76561198151569597,"connected_time":660000000000,"state":"active","ping":146}]},{"server_id":106,"name":"Uncletopia | Chicago | 2 | All Maps","name_short":"chi-2","host":"chi-1.us.uncletopia.com","port":27025,"enabled":true,"region":"us-central","cc":"us","latitude":41.881832,"longitude":-87.62318,"reserved":0,"last_update":"0001-01-01T00:00:00Z","name_a2s":"Uncletopia | Chicago | 2 | All Maps","protocol":17,"map":"pl_borneo","folder":"tf","game":"Team Fortress","app_id":440,"player_count":24,"max_players":24,"Bots":0,"server_type":"Dedicated","server_os":"Linux","password":true,"vac":true,"version":"7757534","steam_id":85568392924469985,"keywords":["nocrits","nodmgspread","payload","uncletopia"],"game_id":440,"stv_port":27026,"stv_name":"Uncletopia | Chicago | 2 | All Maps | STV","players":[{"user_id":634,"name":"Chimpish","steam_id":76561199263493270,"connected_time":30000000000,"state":"spawning","ping":88},{"user_id":622,"name":"MAXIMUM OVERDRIVE","steam_id":76561198113992547,"connected_time":981000000000,"state":"active","ping":96},{"user_id":619,"name":"Not_Douglas","steam_id":76561199024184136,"connected_time":1098000000000,"state":"active","ping":63},{"user_id":602,"name":"Hotdog Goblin","steam_id":76561198004133638,"connected_time":2483000000000,"state":"active","ping":103},{"user_id":632,"name":"pinguez","steam_id":76561199003447981,"connected_time":99000000000,"state":"active","ping":82},{"user_id":603,"name":"Five weasels in a trenchcoat","steam_id":76561199237623071,"connected_time":2182000000000,"state":"active","ping":60},{"user_id":617,"name":"MoriJillPls.TV","steam_id":76561198310822778,"connected_time":1800000000000,"state":"active","ping":71},{"user_id":630,"name":"Valinov","steam_id":76561197991349953,"connected_time":434000000000,"state":"active","ping":55},{"user_id":631,"name":"birbmanminty","steam_id":76561199159145275,"connected_time":380000000000,"state":"active","ping":102},{"user_id":621,"name":"HopefulLily","steam_id":76561198083679014,"connected_time":1046000000000,"state":"active","ping":73},{"user_id":623,"name":"objective permanence","steam_id":76561198050393061,"connected_time":891000000000,"state":"active","ping":69},{"user_id":604,"name":"Cringe Guillotine User","steam_id":76561198997067030,"connected_time":2143000000000,"state":"active","ping":83},{"user_id":624,"name":"Orion","steam_id":76561198349105664,"connected_time":882000000000,"state":"active","ping":114},{"user_id":627,"name":"me shoot floor","steam_id":76561198046526036,"connected_time":846000000000,"state":"active","ping":99},{"user_id":563,"name":"Daniel Craig Fan","steam_id":76561198053467923,"connected_time":4322000000000,"state":"active","ping":50},{"user_id":628,"name":"Wiggee","steam_id":76561197972792989,"connected_time":833000000000,"state":"active","ping":68},{"user_id":581,"name":"Captain Jack Gaming","steam_id":76561198128460335,"connected_time":3416000000000,"state":"active","ping":67},{"user_id":566,"name":"vanilla gorilla","steam_id":76561197989019617,"connected_time":4165000000000,"state":"active","ping":47},{"user_id":616,"name":"shake","steam_id":76561199064204750,"connected_time":1889000000000,"state":"active","ping":79},{"user_id":614,"name":"Pithecanthropus","steam_id":76561197997072732,"connected_time":1954000000000,"state":"active","ping":86},{"user_id":633,"name":"Deathpill","steam_id":76561197994404793,"connected_time":61000000000,"state":"active","ping":69},{"user_id":615,"name":"JFK GAMING","steam_id":76561198025593142,"connected_time":1949000000000,"state":"active","ping":51},{"user_id":629,"name":"Smoky","steam_id":76561198041551259,"connected_time":443000000000,"state":"active","ping":71},{"user_id":578,"name":"!! HEY GOYAMON !!","steam_id":76561198095313463,"connected_time":3620000000000,"state":"active","ping":80}]},{"server_id":402,"name":"Uncletopia | Chicago | 3 | All Maps","name_short":"chi-3","host":"chi-1.us.uncletopia.com","port":27035,"enabled":true,"region":"us-central","cc":"us","latitude":41.881832,"longitude":-87.62318,"reserved":0,"last_update":"0001-01-01T00:00:00Z","name_a2s":"Uncletopia | Chicago | 3 | All Maps","protocol":17,"map":"pl_pier","folder":"tf","game":"Team Fortress","app_id":440,"player_count":24,"max_players":24,"Bots":0,"server_type":"Dedicated","server_os":"Linux","password":true,"vac":true,"version":"7757534","steam_id":85568392924515191,"keywords":["nocrits","nodmgspread","payload","uncletopia"],"game_id":440,"stv_port":27036,"stv_name":"Uncletopia | Chicago | 3 | All Maps | STV","players":[{"user_id":429,"name":"Vin","steam_id":76561198042514817,"connected_time":3316000000000,"state":"active","ping":107},{"user_id":464,"name":"Joey Lemons","steam_id":76561198068104187,"connected_time":772000000000,"state":"active","ping":36},{"user_id":456,"name":"Jamendithas","steam_id":76561198119537716,"connected_time":1886000000000,"state":"active","ping":80},{"user_id":457,"name":"Yam Jazzy Jim","steam_id":76561198000788950,"connected_time":1870000000000,"state":"active","ping":69},{"user_id":460,"name":"Wiscipline","steam_id":76561198019206178,"connected_time":1348000000000,"state":"active","ping":75},{"user_id":451,"name":"His buddy Eric","steam_id":76561198275362375,"connected_time":2127000000000,"state":"active","ping":90},{"user_id":467,"name":"carcin","steam_id":76561198042271448,"connected_time":555000000000,"state":"active","ping":60},{"user_id":466,"name":"RURU","steam_id":76561198039758987,"connected_time":575000000000,"state":"active","ping":105},{"user_id":448,"name":"bonk","steam_id":76561198004823930,"connected_time":2604000000000,"state":"active","ping":54},{"user_id":420,"name":"Forrest702","steam_id":76561198029218298,"connected_time":4270000000000,"state":"active","ping":100},{"user_id":454,"name":"the ifunny watermark","steam_id":76561198077272494,"connected_time":1964000000000,"state":"active","ping":48},{"user_id":458,"name":"PINGAS DISPENSERâ„¢","steam_id":76561198014868070,"connected_time":1846000000000,"state":"active","ping":102},{"user_id":452,"name":"Mildstrife","steam_id":76561198000080715,"connected_time":2127000000000,"state":"active","ping":68},{"user_id":437,"name":"igotmail","steam_id":76561198070631899,"connected_time":2887000000000,"state":"active","ping":69},{"user_id":438,"name":"Doctor Glocktorpus [NGC]","steam_id":76561198049194645,"connected_time":2867000000000,"state":"active","ping":85},{"user_id":462,"name":"Hydro","steam_id":76561199060627243,"connected_time":1264000000000,"state":"active","ping":85},{"user_id":441,"name":"DFR Le4n!!!","steam_id":76561198045522596,"connected_time":2844000000000,"state":"active","ping":84},{"user_id":459,"name":"dodecadron","steam_id":76561198027397222,"connected_time":1838000000000,"state":"active","ping":114},{"user_id":444,"name":"Thumbs","steam_id":76561199065890132,"connected_time":2786000000000,"state":"active","ping":64},{"user_id":445,"name":"bobbymcbobington","steam_id":76561199089411172,"connected_time":2779000000000,"state":"active","ping":118},{"user_id":428,"name":"chiswola","steam_id":76561198046920142,"connected_time":3344000000000,"state":"active","ping":93},{"user_id":446,"name":"Mr.Pan","steam_id":76561198069030613,"connected_time":2772000000000,"state":"active","ping":71},{"user_id":399,"name":"vv","steam_id":76561198134813102,"connected_time":6863000000000,"state":"active","ping":61},{"user_id":447,"name":"ATL1 | Lylith!!!","steam_id":76561198386687546,"connected_time":2770000000000,"state":"active","ping":68}]},{"server_id":403,"name":"Uncletopia | Chicago | 4 | All Maps","name_short":"chi-4","host":"chi-1.us.uncletopia.com","port":27045,"enabled":true,"region":"us-central","cc":"us","latitude":41.881832,"longitude":-87.62318,"reserved":0,"last_update":"0001-01-01T00:00:00Z","name_a2s":"Uncletopia | Chicago | 4 | All Maps","protocol":17,"map":"pl_pier","folder":"tf","game":"Team Fortress","app_id":440,"player_count":21,"max_players":24,"Bots":0,"server_type":"Dedicated","server_os":"Linux","password":true,"vac":true,"version":"7757534","steam_id":85568392924515193,"keywords":["nocrits","nodmgspread","payload","uncletopia"],"game_id":440,"stv_port":27046,"stv_name":"Uncletopia | Chicago | 4 | All Maps | STV","players":[{"user_id":270,"name":"team fortressing man","steam_id":76561198312058142,"connected_time":31000000000,"state":"connecting","ping":112},{"user_id":271,"name":"Sprinklingmydoughnut","steam_id":76561198168009092,"connected_time":10000000000,"state":"connecting","ping":108},{"user_id":266,"name":"Daperlin (Spiritual State)","steam_id":76561198091299113,"connected_time":653000000000,"state":"connecting","ping":83},{"user_id":244,"name":"Girox","steam_id":76561198009921751,"connected_time":1941000000000,"state":"connecting","ping":97},{"user_id":255,"name":"SackOfPotatoes","steam_id":76561198799020069,"connected_time":1410000000000,"state":"connecting","ping":83},{"user_id":245,"name":"Cristanc99","steam_id":76561198114715810,"connected_time":1701000000000,"state":"connecting","ping":69},{"user_id":176,"name":"Worst Scenario","steam_id":76561199052130229,"connected_time":7089000000000,"state":"connecting","ping":60},{"user_id":249,"name":"NUt","steam_id":76561198031007966,"connected_time":1654000000000,"state":"connecting","ping":94},{"user_id":209,"name":"hud_saytext_time 0","steam_id":76561198010327228,"connected_time":4890000000000,"state":"connecting","ping":188},{"user_id":219,"name":"CHEEKY EUNUCH","steam_id":76561198990825232,"connected_time":3955000000000,"state":"connecting","ping":63},{"user_id":250,"name":"Fresh0c0","steam_id":76561198271933283,"connected_time":1651000000000,"state":"connecting","ping":81},{"user_id":237,"name":"matchmatch                     ","steam_id":76561198048925904,"connected_time":2272000000000,"state":"connecting","ping":150},{"user_id":261,"name":"duneblaster0","steam_id":76561198040364680,"connected_time":1040000000000,"state":"connecting","ping":60},{"user_id":251,"name":"LT.Steeamer","steam_id":76561198271938142,"connected_time":1644000000000,"state":"connecting","ping":184},{"user_id":194,"name":"gl1tchr","steam_id":76561198302661983,"connected_time":6227000000000,"state":"connecting","ping":98},{"user_id":269,"name":"Oh No! It's Twister!","steam_id":76561198016791916,"connected_time":422000000000,"state":"connecting","ping":92},{"user_id":236,"name":"Bee","steam_id":76561198074681324,"connected_time":2287000000000,"state":"connecting","ping":89},{"user_id":164,"name":"NovaSc6ut","steam_id":76561198277163301,"connected_time":8513000000000,"state":"connecting","ping":80},{"user_id":262,"name":"Adam (Cursed Confetti Creature)","steam_id":76561198317690197,"connected_time":1038000000000,"state":"connecting","ping":55},{"user_id":265,"name":"_Meme","steam_id":76561199125571082,"connected_time":698000000000,"state":"connecting","ping":104},{"user_id":268,"name":"TheSnipersHat","steam_id":76561198057684066,"connected_time":457000000000,"state":"connecting","ping":76}]},{"server_id":36,"name":"Uncletopia | Chicago | 5 | All Maps","name_short":"chi-5","host":"chi-2.us.uncletopia.com","port":27015,"enabled":true,"region":"us-central","cc":"us","latitude":41.881832,"longitude":-87.62318,"reserved":0,"last_update":"0001-01-01T00:00:00Z","name_a2s":"Uncletopia | Chicago | 5 | All Maps","protocol":17,"map":"pl_snowycoast","folder":"tf","game":"Team Fortress","app_id":440,"player_count":24,"max_players":24,"Bots":0,"server_type":"Dedicated","server_os":"Linux","password":true,"vac":true,"version":"7757534","steam_id":85568392924866362,"keywords":["nocrits","nodmgspread","payload","uncletopia"],"game_id":440,"stv_port":27016,"stv_name":"Uncletopia | Chicago | 5 | All Maps | STV","players":[{"user_id":224,"name":"Normalux","steam_id":76561198293891426,"connected_time":3062000000000,"state":"active","ping":88},{"user_id":266,"name":"demoknight tf2","steam_id":76561198070393998,"connected_time":292000000000,"state":"active","ping":75},{"user_id":269,"name":"Brutus","steam_id":76561198213163211,"connected_time":41000000000,"state":"active","ping":74},{"user_id":247,"name":"Sergeant Joker #savetf2","steam_id":76561198854616604,"connected_time":1359000000000,"state":"active","ping":70},{"user_id":248,"name":"Î›lxium","steam_id":76561198131272900,"connected_time":1140000000000,"state":"active","ping":54},{"user_id":193,"name":"W H E E Z E","steam_id":76561198835430280,"connected_time":6338000000000,"state":"active","ping":61},{"user_id":262,"name":"bananalover5","steam_id":76561199143854578,"connected_time":457000000000,"state":"active","ping":92},{"user_id":203,"name":"WHATISYOURNAME","steam_id":76561198342560783,"connected_time":5677000000000,"state":"active","ping":65},{"user_id":250,"name":"Joshy","steam_id":76561198061405421,"connected_time":1102000000000,"state":"active","ping":86},{"user_id":257,"name":"Dot.","steam_id":76561198149463984,"connected_time":646000000000,"state":"active","ping":44},{"user_id":210,"name":"HollyBlocky","steam_id":76561198030156100,"connected_time":4860000000000,"state":"active","ping":74},{"user_id":184,"name":"*","steam_id":76561198057717934,"connected_time":7003000000000,"state":"active","ping":66},{"user_id":251,"name":"The Juice","steam_id":76561198065307144,"connected_time":1090000000000,"state":"active","ping":62},{"user_id":256,"name":"ZyberTheTrilogy","steam_id":76561199224319852,"connected_time":731000000000,"state":"active","ping":106},{"user_id":238,"name":"KrautCakes!","steam_id":76561198133973878,"connected_time":1873000000000,"state":"active","ping":77},{"user_id":268,"name":"Toygar","steam_id":76561198023679830,"connected_time":81000000000,"state":"active","ping":52},{"user_id":205,"name":"Angry Ginger","steam_id":76561198256929349,"connected_time":4965000000000,"state":"active","ping":51},{"user_id":270,"name":"Hidden Phantom","steam_id":76561198115531799,"connected_time":40000000000,"state":"spawning","ping":84},{"user_id":135,"name":"Sorrow","steam_id":76561198050225563,"connected_time":8329000000000,"state":"active","ping":74},{"user_id":240,"name":"even_steven.4season","steam_id":76561199161322235,"connected_time":1828000000000,"state":"active","ping":74},{"user_id":229,"name":"Báµ¢g Bâ‚’â‚›â‚›","steam_id":76561198090271815,"connected_time":2911000000000,"state":"active","ping":127},{"user_id":235,"name":"...","steam_id":76561198312298321,"connected_time":1934000000000,"state":"active","ping":68},{"user_id":241,"name":"LONG WAY DOWN","steam_id":76561198138221795,"connected_time":1826000000000,"state":"active","ping":73},{"user_id":264,"name":"Seller of Waffles","steam_id":76561198296018138,"connected_time":439000000000,"state":"active","ping":55}]},{"server_id":37,"name":"Uncletopia | Chicago | 6 | All Maps","name_short":"chi-6","host":"chi-2.us.uncletopia.com","port":27025,"enabled":true,"region":"us-central","cc":"us","latitude":41.881832,"longitude":-87.62318,"reserved":0,"last_update":"0001-01-01T00:00:00Z","name_a2s":"Uncletopia | Chicago | 6 | All Maps","protocol":17,"map":"pl_frontier_final","folder":"tf","game":"Team Fortress","app_id":440,"player_count":23,"max_players":24,"Bots":0,"server_type":"Dedicated","server_os":"Linux","password":true,"vac":true,"version":"7757534","steam_id":85568392924866363,"keywords":["nocrits","nodmgspread","payload","uncletopia"],"game_id":440,"stv_port":27026,"stv_name":"Uncletopia | Chicago | 6 | All Maps | STV","players":[{"user_id":385,"name":"iggy destruction","steam_id":76561198081576799,"connected_time":684000000000,"state":"active","ping":87},{"user_id":339,"name":"Ringo Barrs","steam_id":76561198043906449,"connected_time":3271000000000,"state":"active","ping":61},{"user_id":380,"name":"shibaba bababool","steam_id":76561197972601902,"connected_time":1132000000000,"state":"active","ping":87},{"user_id":342,"name":"NyanHorses","steam_id":76561198161584966,"connected_time":2896000000000,"state":"active","ping":62},{"user_id":318,"name":"Evolution","steam_id":76561198144767370,"connected_time":4558000000000,"state":"active","ping":45},{"user_id":374,"name":"sock","steam_id":76561199117597830,"connected_time":1460000000000,"state":"active","ping":61},{"user_id":299,"name":"X-7","steam_id":76561198127217378,"connected_time":5860000000000,"state":"active","ping":66},{"user_id":382,"name":"LargerThanAverageDragon","steam_id":76561198152036300,"connected_time":909000000000,"state":"active","ping":68},{"user_id":360,"name":"ASHCOLOGNE","steam_id":76561198967261342,"connected_time":2106000000000,"state":"active","ping":100},{"user_id":370,"name":"Stickeez Nuts","steam_id":76561199031241776,"connected_time":1542000000000,"state":"active","ping":75},{"user_id":381,"name":"Slashes","steam_id":76561197968573499,"connected_time":1006000000000,"state":"active","ping":57},{"user_id":378,"name":"Hammerhead","steam_id":76561198897122890,"connected_time":1204000000000,"state":"active","ping":56},{"user_id":349,"name":"Zin","steam_id":76561199041369507,"connected_time":2435000000000,"state":"active","ping":76},{"user_id":363,"name":"Clyde","steam_id":76561198158206236,"connected_time":1845000000000,"state":"active","ping":105},{"user_id":383,"name":"Kurg","steam_id":76561198143381218,"connected_time":903000000000,"state":"active","ping":48},{"user_id":356,"name":"Sin the F2P","steam_id":76561198117271690,"connected_time":2298000000000,"state":"active","ping":123},{"user_id":391,"name":"ground dorf","steam_id":76561198044265737,"connected_time":390000000000,"state":"active","ping":45},{"user_id":387,"name":"Winter the Witchie","steam_id":76561198151971178,"connected_time":669000000000,"state":"active","ping":58},{"user_id":376,"name":"MAK","steam_id":76561198089361823,"connected_time":1449000000000,"state":"active","ping":119},{"user_id":352,"name":"corncakecoolcat","steam_id":76561198090716968,"connected_time":2406000000000,"state":"active","ping":63},{"user_id":333,"name":"chica anime caliente","steam_id":76561199477240252,"connected_time":3475000000000,"state":"active","ping":93},{"user_id":393,"name":"Scroobles","steam_id":76561199197646696,"connected_time":34000000000,"state":"active","ping":75},{"user_id":379,"name":"marcus tillius","steam_id":76561197982832274,"connected_time":1204000000000,"state":"active","ping":61}]},{"server_id":38,"name":"Uncletopia | Chicago | 7 | Stopwatch Beta","name_short":"chi-7","host":"chi-2.us.uncletopia.com","port":27035,"enabled":true,"region":"us-central","cc":"us","latitude":41.881832,"longitude":-87.62318,"reserved":0,"last_update":"0001-01-01T00:00:00Z","name_a2s":"Uncletopia | Chicago | 7 | Stopwatch Beta","protocol":17,"map":"cp_gullywash_final1","folder":"tf","game":"Team Fortress","app_id":440,"player_count":24,"max_players":24,"Bots":0,"server_type":"Dedicated","server_os":"Linux","password":true,"vac":true,"version":"7757534","steam_id":85568392924866364,"keywords":["cp","nocrits","nodmgspread","uncletopia"],"game_id":440,"stv_port":27036,"stv_name":"Uncletopia | Chicago | 7 | Stopwatch Beta | STV","players":[{"user_id":21,"name":"Frisbee","steam_id":76561197962808987,"connected_time":4959000000000,"state":"active","ping":58},{"user_id":80,"name":"gromit","steam_id":76561198037746805,"connected_time":699000000000,"state":"active","ping":68},{"user_id":77,"name":"Spike","steam_id":76561198141356571,"connected_time":991000000000,"state":"active","ping":57},{"user_id":83,"name":"Maniac","steam_id":76561197993729460,"connected_time":592000000000,"state":"active","ping":112},{"user_id":45,"name":"gyozaking","steam_id":76561197972312696,"connected_time":3021000000000,"state":"active","ping":43},{"user_id":29,"name":"I Exist","steam_id":76561199229739789,"connected_time":4046000000000,"state":"active","ping":91},{"user_id":30,"name":"Smiegle","steam_id":76561198073535516,"connected_time":3993000000000,"state":"active","ping":71},{"user_id":23,"name":"Evan","steam_id":76561197972292926,"connected_time":4895000000000,"state":"active","ping":73},{"user_id":42,"name":"Stormz64","steam_id":76561198239036482,"connected_time":3192000000000,"state":"active","ping":44},{"user_id":65,"name":"Eden","steam_id":76561198075587475,"connected_time":1944000000000,"state":"active","ping":45},{"user_id":35,"name":"WhoWee","steam_id":76561198269471732,"connected_time":3319000000000,"state":"active","ping":77},{"user_id":86,"name":"e","steam_id":76561198131245396,"connected_time":151000000000,"state":"active","ping":54},{"user_id":81,"name":"sc67","steam_id":76561199302471485,"connected_time":695000000000,"state":"active","ping":42},{"user_id":40,"name":"X0X2","steam_id":76561198418503762,"connected_time":3246000000000,"state":"active","ping":99},{"user_id":41,"name":"ROME Vio","steam_id":76561198068686187,"connected_time":3227000000000,"state":"active","ping":68},{"user_id":64,"name":"t","steam_id":76561198175988929,"connected_time":1973000000000,"state":"active","ping":72},{"user_id":79,"name":"mary","steam_id":76561198014828037,"connected_time":774000000000,"state":"active","ping":154},{"user_id":74,"name":"Hydragon","steam_id":76561198929219710,"connected_time":1471000000000,"state":"active","ping":69},{"user_id":87,"name":"Recursive Gamer","steam_id":76561198042102952,"connected_time":102000000000,"state":"active","ping":64},{"user_id":82,"name":"Maxxycat","steam_id":76561198194062681,"connected_time":669000000000,"state":"active","ping":57},{"user_id":69,"name":"Unicorn","steam_id":76561198119261280,"connected_time":1884000000000,"state":"active","ping":99},{"user_id":84,"name":"Pineapple Pizza","steam_id":76561197997233176,"connected_time":583000000000,"state":"active","ping":89},{"user_id":85,"name":"Rex The Mouse","steam_id":76561197995569428,"connected_time":577000000000,"state":"active","ping":74},{"user_id":88,"name":"Reeder0417","steam_id":76561198160340032,"connected_time":50000000000,"state":"active","ping":67}]},{"server_id":39,"name":"Uncletopia | Chicago | 8 | Community","name_short":"chi-8","host":"chi-2.us.uncletopia.com","port":27045,"enabled":true,"region":"us-central","cc":"us","latitude":41.881832,"longitude":-87.62318,"reserved":0,"last_update":"0001-01-01T00:00:00Z","name_a2s":"Uncletopia | Chicago | 8 | Community","protocol":17,"map":"koth_cascade","folder":"tf","game":"Team Fortress","app_id":440,"player_count":0,"max_players":24,"Bots":0,"server_type":"Dedicated","server_os":"Linux","password":true,"vac":true,"version":"7757534","steam_id":85568392924866365,"keywords":["cp","nocrits","nodmgspread","uncletopia"],"game_id":440,"stv_port":27046,"stv_name":"Uncletopia | Chicago | 8 | Community | STV","players":null},{"server_id":8,"name":"Uncletopia | Dallas | 1 | All Maps","name_short":"dal-1","host":"dal-1.us.uncletopia.com","port":27015,"enabled":true,"region":"us-central","cc":"us","latitude":32.779167,"longitude":-96.80889,"reserved":0,"last_update":"0001-01-01T00:00:00Z","name_a2s":"Uncletopia | Dallas | 1 | All Maps","protocol":17,"map":"cp_dustbowl","folder":"tf","game":"Team Fortress","app_id":440,"player_count":24,"max_players":24,"Bots":0,"server_type":"Dedicated","server_os":"Linux","password":true,"vac":true,"version":"7757534","steam_id":85568392924469986,"keywords":["cp","nocrits","nodmgspread","uncletopia"],"game_id":440,"stv_port":27016,"stv_name":"Uncletopia | Dallas | 1 | All Maps | STV","players":[{"user_id":403,"name":"pp","steam_id":76561198396247454,"connected_time":1448000000000,"state":"active","ping":71},{"user_id":395,"name":"carol in HR","steam_id":76561198071775268,"connected_time":1649000000000,"state":"active","ping":69},{"user_id":381,"name":"Novak","steam_id":76561198137041747,"connected_time":2370000000000,"state":"active","ping":74},{"user_id":389,"name":"Tomato","steam_id":76561197996472649,"connected_time":1787000000000,"state":"active","ping":90},{"user_id":384,"name":"{ST} Oxythemoron","steam_id":76561198060089965,"connected_time":2302000000000,"state":"active","ping":56},{"user_id":361,"name":"Yes","steam_id":76561198175329038,"connected_time":4362000000000,"state":"active","ping":68},{"user_id":367,"name":"orange rind (3 cent wifi)","steam_id":76561198130242461,"connected_time":3842000000000,"state":"active","ping":55},{"user_id":391,"name":"barrakmf","steam_id":76561198124801907,"connected_time":1753000000000,"state":"active","ping":96},{"user_id":380,"name":"Iron Argus","steam_id":76561198181088245,"connected_time":2377000000000,"state":"active","ping":91},{"user_id":411,"name":"Spring Beans","steam_id":76561197978546259,"connected_time":435000000000,"state":"active","ping":32},{"user_id":413,"name":"Gelliterate","steam_id":76561198107233070,"connected_time":295000000000,"state":"active","ping":56},{"user_id":383,"name":"Mothafucka Jones","steam_id":76561199220540891,"connected_time":2324000000000,"state":"active","ping":91},{"user_id":408,"name":"sentry guy","steam_id":76561198947654861,"connected_time":730000000000,"state":"active","ping":63},{"user_id":328,"name":"[cf] Captain Terror","steam_id":76561198028034742,"connected_time":7062000000000,"state":"active","ping":117},{"user_id":404,"name":"thelazydog","steam_id":76561198947215423,"connected_time":1317000000000,"state":"active","ping":63},{"user_id":399,"name":"CartNip","steam_id":76561198290916628,"connected_time":1581000000000,"state":"active","ping":67},{"user_id":402,"name":"GRAPE","steam_id":76561198150447896,"connected_time":1496000000000,"state":"active","ping":85},{"user_id":345,"name":"whats an egg","steam_id":76561198991039398,"connected_time":5361000000000,"state":"active","ping":85},{"user_id":412,"name":"The indomitable human spirit","steam_id":76561198282395338,"connected_time":420000000000,"state":"active","ping":88},{"user_id":410,"name":"SuperFresh","steam_id":76561198200723198,"connected_time":481000000000,"state":"active","ping":57},{"user_id":409,"name":"NOT Susie Deltarune (not real)","steam_id":76561199007365488,"connected_time":580000000000,"state":"active","ping":68},{"user_id":388,"name":"Volley","steam_id":76561198112053055,"connected_time":1866000000000,"state":"active","ping":77},{"user_id":377,"name":"Playboy Carti","steam_id":76561198305836153,"connected_time":2627000000000,"state":"active","ping":74},{"user_id":360,"name":"-Danger-","steam_id":76561198025405728,"connected_time":4480000000000,"state":"active","ping":74}]},{"server_id":108,"name":"Uncletopia | Dallas | 2 | All Maps","name_short":"dal-2","host":"dal-1.us.uncletopia.com","port":27025,"enabled":true,"region":"us-central","cc":"us","latitude":32.779167,"longitude":-96.80889,"reserved":0,"last_update":"0001-01-01T00:00:00Z","name_a2s":"Uncletopia | Dallas | 2 | All Maps","protocol":17,"map":"cp_sunshine","folder":"tf","game":"Team Fortress","app_id":440,"player_count":24,"max_players":24,"Bots":0,"server_type":"Dedicated","server_os":"Linux","password":true,"vac":true,"version":"7757534","steam_id":85568392924469988,"keywords":["cp","nocrits","nodmgspread","uncletopia"],"game_id":440,"stv_port":27026,"stv_name":"Uncletopia | Dallas | 2 | All Maps | STV","players":[{"user_id":281,"name":"MaplePhoenix","steam_id":76561198113437588,"connected_time":799000000000,"state":"active","ping":40},{"user_id":274,"name":"skegeton","steam_id":76561198095581099,"connected_time":1817000000000,"state":"active","ping":57},{"user_id":279,"name":"mkl","steam_id":76561197986401685,"connected_time":1163000000000,"state":"active","ping":61},{"user_id":220,"name":"OttoDogX","steam_id":76561198042007578,"connected_time":6235000000000,"state":"active","ping":69},{"user_id":202,"name":"not paying attention","steam_id":76561198097160898,"connected_time":7358000000000,"state":"active","ping":79},{"user_id":275,"name":"Sir.TopHats","steam_id":76561198267326839,"connected_time":1333000000000,"state":"active","ping":62},{"user_id":283,"name":"BaRs","steam_id":76561198981717009,"connected_time":781000000000,"state":"active","ping":60},{"user_id":295,"name":"like","steam_id":76561199103766971,"connected_time":95000000000,"state":"active","ping":95},{"user_id":271,"name":"Rockcrusher","steam_id":76561199012666353,"connected_time":2085000000000,"state":"active","ping":80},{"user_id":270,"name":"guy","steam_id":76561198967158026,"connected_time":2260000000000,"state":"active","ping":74},{"user_id":285,"name":"neet","steam_id":76561197968115168,"connected_time":775000000000,"state":"active","ping":74},{"user_id":239,"name":"what","steam_id":76561198082336619,"connected_time":4930000000000,"state":"active","ping":90},{"user_id":289,"name":"I am losing my grip on reality","steam_id":76561199088316538,"connected_time":555000000000,"state":"active","ping":173},{"user_id":286,"name":"Raine","steam_id":76561198098860903,"connected_time":772000000000,"state":"active","ping":173},{"user_id":291,"name":"Plasic74x","steam_id":76561199058981206,"connected_time":517000000000,"state":"active","ping":118},{"user_id":249,"name":"?pengin","steam_id":76561198254236408,"connected_time":4208000000000,"state":"active","ping":90},{"user_id":292,"name":"Pinder","steam_id":76561198176708643,"connected_time":380000000000,"state":"active","ping":72},{"user_id":264,"name":"Justis","steam_id":76561197963835016,"connected_time":3264000000000,"state":"active","ping":100},{"user_id":280,"name":"Not A Rapper","steam_id":76561198077523537,"connected_time":806000000000,"state":"active","ping":127},{"user_id":282,"name":"Dragorf2010","steam_id":76561199238402270,"connected_time":791000000000,"state":"active","ping":76},{"user_id":287,"name":"Burny Sanders","steam_id":76561197961879048,"connected_time":766000000000,"state":"active","ping":45},{"user_id":253,"name":"Psych03","steam_id":76561198061753667,"connected_time":3997000000000,"state":"active","ping":76},{"user_id":245,"name":"Jailbreak","steam_id":76561198802085218,"connected_time":4632000000000,"state":"active","ping":54},{"user_id":293,"name":"Korporal K. Reep","steam_id":76561199098222561,"connected_time":353000000000,"state":"active","ping":157}]},{"server_id":5,"name":"Uncletopia | Frankfurt | 1 | All Maps","name_short":"frk-1","host":"frk-1.de.uncletopia.com","port":27015,"enabled":true,"region":"eu","cc":"de","latitude":50.110924,"longitude":8.682127,"reserved":0,"last_update":"0001-01-01T00:00:00Z","name_a2s":"Uncletopia | Frankfurt | 1 | All Maps","protocol":17,"map":"koth_lakeside_final","folder":"tf","game":"Team Fortress","app_id":440,"player_count":0,"max_players":24,"Bots":0,"server_type":"Dedicated","server_os":"Linux","password":true,"vac":true,"version":"7757534","steam_id":85568392924469989,"keywords":["cp","nocrits","nodmgspread","uncletopia"],"game_id":440,"stv_port":27016,"stv_name":"Uncletopia | Frankfurt | 1 | All Maps | STV","players":null},{"server_id":110,"name":"Uncletopia | Frankfurt | 2 | All Maps","name_short":"frk-2","host":"frk-1.de.uncletopia.com","port":27025,"enabled":true,"region":"eu","cc":"de","latitude":50.110924,"longitude":8.682127,"reserved":0,"last_update":"0001-01-01T00:00:00Z","name_a2s":"Uncletopia | Frankfurt | 2 | All Maps","protocol":17,"map":"cp_dustbowl","folder":"tf","game":"Team Fortress","app_id":440,"player_count":0,"max_players":24,"Bots":0,"server_type":"Dedicated","server_os":"Linux","password":true,"vac":true,"version":"7757534","steam_id":85568392924469990,"keywords":["cp","nocrits","nodmgspread","uncletopia"],"game_id":440,"stv_port":27026,"stv_name":"Uncletopia | Frankfurt | 2 | All Maps | STV","players":null},{"server_id":308,"name":"Uncletopia | Frankfurt | 3 | All Maps","name_short":"frk-3","host":"frk-1.de.uncletopia.com","port":27035,"enabled":true,"region":"eu","cc":"de","latitude":50.110924,"longitude":8.682127,"reserved":0,"last_update":"0001-01-01T00:00:00Z","name_a2s":"Uncletopia | Frankfurt | 3 | All Maps","protocol":17,"map":"koth_king","folder":"tf","game":"Team Fortress","app_id":440,"player_count":21,"max_players":24,"Bots":0,"server_type":"Dedicated","server_os":"Linux","password":true,"vac":true,"version":"7757534","steam_id":85568392924504274,"keywords":["cp","nocrits","nodmgspread","uncletopia"],"game_id":440,"stv_port":27036,"stv_name":"Uncletopia | Frankfurt | 3 | All Maps | STV","players":[{"user_id":383,"name":"grandpa's post-mortem photo","steam_id":76561198130116078,"connected_time":9434000000000,"state":"active","ping":91},{"user_id":502,"name":"Nyhde","steam_id":76561198012771416,"connected_time":685000000000,"state":"active","ping":87},{"user_id":474,"name":"kektuse","steam_id":76561198088426580,"connected_time":2160000000000,"state":"active","ping":59},{"user_id":485,"name":"Manslayer","steam_id":76561198063956707,"connected_time":1649000000000,"state":"active","ping":55},{"user_id":491,"name":"noodlehairronaldoprime","steam_id":76561199471954402,"connected_time":1327000000000,"state":"active","ping":59},{"user_id":499,"name":"Olfrad","steam_id":76561198161763817,"connected_time":830000000000,"state":"active","ping":45},{"user_id":471,"name":"Daga","steam_id":76561198055450219,"connected_time":2216000000000,"state":"active","ping":46},{"user_id":503,"name":"intrusive thoughts","steam_id":76561198411107729,"connected_time":654000000000,"state":"active","ping":84},{"user_id":508,"name":"FanFish","steam_id":76561199389558024,"connected_time":246000000000,"state":"active","ping":65},{"user_id":440,"name":"thespe","steam_id":76561198088225107,"connected_time":4265000000000,"state":"active","ping":66},{"user_id":473,"name":"tÃ¯ger","steam_id":76561198260483157,"connected_time":2202000000000,"state":"active","ping":80},{"user_id":506,"name":"Pope John Paul III","steam_id":76561197999421201,"connected_time":358000000000,"state":"active","ping":79},{"user_id":399,"name":"â€  saVage â€ ","steam_id":76561198057824494,"connected_time":8157000000000,"state":"active","ping":82},{"user_id":494,"name":"Schelemago","steam_id":76561198074733578,"connected_time":1036000000000,"state":"active","ping":48},{"user_id":477,"name":"DarthMurloc_OW","steam_id":76561198075577711,"connected_time":1955000000000,"state":"active","ping":75},{"user_id":478,"name":"Phalcon","steam_id":76561197987051394,"connected_time":1953000000000,"state":"active","ping":69},{"user_id":496,"name":"trixy","steam_id":76561199474154775,"connected_time":915000000000,"state":"active","ping":55},{"user_id":505,"name":"FeelsAvokado","steam_id":76561198223660888,"connected_time":548000000000,"state":"active","ping":132},{"user_id":479,"name":"HilldogGaming","steam_id":76561198082209322,"connected_time":1933000000000,"state":"active","ping":85},{"user_id":488,"name":"Syll","steam_id":76561198040736202,"connected_time":1625000000000,"state":"active","ping":100},{"user_id":493,"name":"Mr. Gobling","steam_id":76561199096778623,"connected_time":1189000000000,"state":"active","ping":60}]},{"server_id":309,"name":"Uncletopia | Frankfurt | 4 | All Maps","name_short":"frk-4","host":"frk-1.de.uncletopia.com","port":27045,"enabled":true,"region":"eu","cc":"de","latitude":50.110924,"longitude":8.682127,"reserved":0,"last_update":"0001-01-01T00:00:00Z","name_a2s":"Uncletopia | Frankfurt | 4 | All Maps","protocol":17,"map":"pl_badwater","folder":"tf","game":"Team Fortress","app_id":440,"player_count":0,"max_players":24,"Bots":0,"server_type":"Dedicated","server_os":"Linux","password":true,"vac":true,"version":"7757534","steam_id":85568392924504275,"keywords":["nocrits","nodmgspread","payload","uncletopia"],"game_id":440,"stv_port":27046,"stv_name":"Uncletopia | Frankfurt | 4 | All Maps | STV","players":null},{"server_id":310,"name":"Uncletopia | Frankfurt | 5 | All Maps","name_short":"frk-5","host":"frk-1.de.uncletopia.com","port":27055,"enabled":true,"region":"eu","cc":"de","latitude":50.110924,"longitude":8.682127,"reserved":0,"last_update":"0001-01-01T00:00:00Z","name_a2s":"Uncletopia | Frankfurt | 5 | All Maps","protocol":17,"map":"ctf_well","folder":"tf","game":"Team Fortress","app_id":440,"player_count":0,"max_players":24,"Bots":0,"server_type":"Dedicated","server_os":"Linux","password":true,"vac":true,"version":"7757534","steam_id":85568392924504277,"keywords":["ctf","nocrits","nodmgspread","uncletopia"],"game_id":440,"stv_port":27056,"stv_name":"Uncletopia | Frankfurt | 5 | All Maps | STV","players":null},{"server_id":311,"name":"Uncletopia | Frankfurt | 6 | All Maps","name_short":"frk-6","host":"frk-1.de.uncletopia.com","port":27065,"enabled":true,"region":"eu","cc":"de","latitude":50.110924,"longitude":8.682127,"reserved":0,"last_update":"0001-01-01T00:00:00Z","name_a2s":"Uncletopia | Frankfurt | 6 | All Maps","protocol":17,"map":"cp_altitude","folder":"tf","game":"Team Fortress","app_id":440,"player_count":0,"max_players":24,"Bots":0,"server_type":"Dedicated","server_os":"Linux","password":true,"vac":true,"version":"7757534","steam_id":85568392924504278,"keywords":["cp","nocrits","nodmgspread","uncletopia"],"game_id":440,"stv_port":27066,"stv_name":"Uncletopia | Frankfurt | 6 | All Maps | STV","players":null},{"server_id":23,"name":"Uncletopia | Frankfurt | 7 | Stopwatch Beta","name_short":"frk-7","host":"frk-1.de.uncletopia.com","port":27075,"enabled":true,"region":"eu","cc":"de","latitude":50.110924,"longitude":8.682127,"reserved":0,"last_update":"0001-01-01T00:00:00Z","name_a2s":"Uncletopia | Frankfurt | 7 | Stopwatch Beta","protocol":17,"map":"workshop/koth_bagel_rc6.ugc2514036946","folder":"tf","game":"Team Fortress","app_id":440,"player_count":0,"max_players":24,"Bots":0,"server_type":"Dedicated","server_os":"Linux","password":true,"vac":true,"version":"7757534","steam_id":85568392924742827,"keywords":["cp","nocrits","nodmgspread","uncletopia"],"game_id":440,"stv_port":27076,"stv_name":"Uncletopia | Frankfurt | 7 | Stopwatch Beta | STV","players":null},{"server_id":24,"name":"Uncletopia | Frankfurt | 8 | Community","name_short":"frk-8","host":"frk-1.de.uncletopia.com","port":27085,"enabled":true,"region":"eu","cc":"de","latitude":50.110924,"longitude":8.682127,"reserved":0,"last_update":"0001-01-01T00:00:00Z","name_a2s":"Uncletopia | Frankfurt | 8 | Community","protocol":17,"map":"workshop/cp_hazyfort_rc6.ugc1365963729","folder":"tf","game":"Team Fortress","app_id":440,"player_count":0,"max_players":24,"Bots":0,"server_type":"Dedicated","server_os":"Linux","password":true,"vac":true,"version":"7757534","steam_id":85568392924742828,"keywords":["cp","nocrits","nodmgspread","uncletopia"],"game_id":440,"stv_port":27086,"stv_name":"Uncletopia | Frankfurt | 8 | Community | STV","players":null},{"server_id":202,"name":"Uncletopia | Hong Kong | 1 | All Maps","name_short":"hgk-1","host":"hgk-1.hk.uncletopia.com","port":27015,"enabled":true,"region":"asia","cc":"hk","latitude":22.302711,"longitude":114.177216,"reserved":0,"last_update":"0001-01-01T00:00:00Z","name_a2s":"Uncletopia | Hong Kong | 1 | All Maps","protocol":17,"map":"pl_borneo","folder":"tf","game":"Team Fortress","app_id":440,"player_count":0,"max_players":24,"Bots":0,"server_type":"Dedicated","server_os":"Linux","password":true,"vac":true,"version":"7757534","steam_id":85568392924494504,"keywords":["nocrits","nodmgspread","payload","uncletopia"],"game_id":440,"stv_port":27016,"stv_name":"Uncletopia | Hong Kong | 1 | All Maps | STV","players":null},{"server_id":1,"name":"Uncletopia | Los Angeles | 1 | All Maps","name_short":"lax-1","host":"lax-1.us.uncletopia.com","port":27015,"enabled":true,"region":"us-west","cc":"us","latitude":33.94279,"longitude":-118.41004,"reserved":0,"last_update":"0001-01-01T00:00:00Z","name_a2s":"Uncletopia | Los Angeles | 1 | All Maps","protocol":17,"map":"pl_pier","folder":"tf","game":"Team Fortress","app_id":440,"player_count":20,"max_players":24,"Bots":0,"server_type":"Dedicated","server_os":"Linux","password":true,"vac":true,"version":"7757534","steam_id":85568392924469991,"keywords":["nocrits","nodmgspread","payload","uncletopia"],"game_id":440,"stv_port":27016,"stv_name":"Uncletopia | Los Angeles | 1 | All Maps | STV","players":[{"user_id":110,"name":"Frank Cilantro","steam_id":76561198120789856,"connected_time":2147000000000,"state":"active","ping":105},{"user_id":70,"name":"Isn't Water","steam_id":76561199253511650,"connected_time":5109000000000,"state":"active","ping":109},{"user_id":123,"name":"Landlord","steam_id":76561198987913057,"connected_time":1560000000000,"state":"active","ping":60},{"user_id":131,"name":"Nugakku","steam_id":76561198082346219,"connected_time":509000000000,"state":"active","ping":55},{"user_id":78,"name":"DoctorHa","steam_id":76561198044026008,"connected_time":4730000000000,"state":"active","ping":57},{"user_id":108,"name":"rmbl","steam_id":76561198150137369,"connected_time":2420000000000,"state":"active","ping":45},{"user_id":64,"name":"STONE COLD","steam_id":76561198041643833,"connected_time":5507000000000,"state":"active","ping":90},{"user_id":119,"name":"patjiaviar","steam_id":76561199465783209,"connected_time":1745000000000,"state":"active","ping":54},{"user_id":130,"name":"TTV/ChadMorningWood","steam_id":76561198139832291,"connected_time":513000000000,"state":"active","ping":47},{"user_id":128,"name":"mrthugpug1732","steam_id":76561198881200768,"connected_time":1170000000000,"state":"active","ping":67},{"user_id":118,"name":"â™¥ bibi â™¥","steam_id":76561198354864687,"connected_time":1783000000000,"state":"active","ping":153},{"user_id":52,"name":"jadesouledout","steam_id":76561198866936507,"connected_time":6231000000000,"state":"active","ping":55},{"user_id":72,"name":"wait no stop dont do that","steam_id":76561199117157198,"connected_time":5007000000000,"state":"active","ping":101},{"user_id":125,"name":"imbadatvideogames","steam_id":76561198856246322,"connected_time":1328000000000,"state":"active","ping":105},{"user_id":113,"name":"Coolshroomish","steam_id":76561199109440924,"connected_time":2005000000000,"state":"active","ping":84},{"user_id":133,"name":"Grungus","steam_id":76561198047700230,"connected_time":65000000000,"state":"active","ping":51},{"user_id":116,"name":"DV","steam_id":76561198295570806,"connected_time":1945000000000,"state":"active","ping":61},{"user_id":120,"name":"momus","steam_id":76561198966979196,"connected_time":1745000000000,"state":"active","ping":45},{"user_id":76,"name":"THE UNDERTAKER","steam_id":76561198089852954,"connected_time":4798000000000,"state":"active","ping":107},{"user_id":132,"name":"selvhat","steam_id":76561198114225509,"connected_time":353000000000,"state":"active","ping":46}]},{"server_id":112,"name":"Uncletopia | Los Angeles | 2 | All Maps","name_short":"lax-2","host":"lax-1.us.uncletopia.com","port":27025,"enabled":true,"region":"us-west","cc":"us","latitude":33.94279,"longitude":-118.41004,"reserved":0,"last_update":"0001-01-01T00:00:00Z","name_a2s":"Uncletopia | Los Angeles | 2 | All Maps","protocol":17,"map":"cp_altitude","folder":"tf","game":"Team Fortress","app_id":440,"player_count":0,"max_players":24,"Bots":0,"server_type":"Dedicated","server_os":"Linux","password":true,"vac":true,"version":"7757534","steam_id":85568392924469992,"keywords":["cp","nocrits","nodmgspread","uncletopia"],"game_id":440,"stv_port":27026,"stv_name":"Uncletopia | Los Angeles | 2 | All Maps | STV","players":null},{"server_id":324,"name":"Uncletopia | Los Angeles | 3 | All Maps","name_short":"lax-3","host":"lax-1.us.uncletopia.com","port":27035,"enabled":true,"region":"us-west","cc":"us","latitude":33.94279,"longitude":-118.41004,"reserved":0,"last_update":"0001-01-01T00:00:00Z","name_a2s":"Uncletopia | Los Angeles | 3 | All Maps","protocol":17,"map":"pl_badwater","folder":"tf","game":"Team Fortress","app_id":440,"player_count":6,"max_players":24,"Bots":0,"server_type":"Dedicated","server_os":"Linux","password":true,"vac":true,"version":"7757534","steam_id":85568392924510198,"keywords":["nocrits","nodmgspread","payload","uncletopia"],"game_id":440,"stv_port":27036,"stv_name":"Uncletopia | Los Angeles | 3 | All Maps | STV","players":[{"user_id":18,"name":"cringy","steam_id":76561198323000455,"connected_time":839000000000,"state":"active","ping":64},{"user_id":19,"name":"fleshyissneaky","steam_id":76561199098551283,"connected_time":828000000000,"state":"active","ping":76},{"user_id":20,"name":"johnman gooberguy","steam_id":76561199014859764,"connected_time":827000000000,"state":"active","ping":69},{"user_id":21,"name":"The Cool Man","steam_id":76561198096420556,"connected_time":809000000000,"state":"active","ping":99},{"user_id":24,"name":"aari","steam_id":76561198355068405,"connected_time":368000000000,"state":"active","ping":106},{"user_id":25,"name":"Cav","steam_id":76561198170621723,"connected_time":322000000000,"state":"active","ping":90}]},{"server_id":25,"name":"Uncletopia | Los Angeles | 4 | Stopwatch Beta","name_short":"lax-4","host":"lax-1.us.uncletopia.com","port":27045,"enabled":true,"region":"us-west","cc":"us","latitude":33.94279,"longitude":-118.41004,"reserved":0,"last_update":"0001-01-01T00:00:00Z","name_a2s":"Uncletopia | Los Angeles | 4 | Stopwatch Beta","protocol":17,"map":"pl_swiftwater_final1","folder":"tf","game":"Team Fortress","app_id":440,"player_count":0,"max_players":24,"Bots":0,"server_type":"Dedicated","server_os":"Linux","password":true,"vac":true,"version":"7757534","steam_id":85568392924510199,"keywords":["nocrits","nodmgspread","payload","uncletopia"],"game_id":440,"stv_port":27046,"stv_name":"Uncletopia | Los Angeles | 4 | Stopwatch Beta | STV","players":null},{"server_id":11,"name":"Uncletopia | London | 1 | All Maps","name_short":"lon-1","host":"lon-1.uk.uncletopia.com","port":27015,"enabled":true,"region":"eu","cc":"gb","latitude":51.509865,"longitude":-0.118092,"reserved":0,"last_update":"0001-01-01T00:00:00Z","name_a2s":"Uncletopia | London | 1 | All Maps","protocol":17,"map":"pl_borneo","folder":"tf","game":"Team Fortress","app_id":440,"player_count":24,"max_players":24,"Bots":0,"server_type":"Dedicated","server_os":"Linux","password":true,"vac":true,"version":"7757534","steam_id":85568392924367362,"keywords":["nocrits","nodmgspread","payload","uncletopia"],"game_id":440,"stv_port":27016,"stv_name":"Uncletopia | London | 1 | All Maps | STV","players":[{"user_id":672,"name":"Wedgeridoo","steam_id":76561198082813907,"connected_time":5361000000000,"state":"active","ping":109},{"user_id":795,"name":"SHLUUUURP","steam_id":76561199150903062,"connected_time":1597000000000,"state":"active","ping":51},{"user_id":713,"name":"Depressed","steam_id":76561198154405093,"connected_time":3595000000000,"state":"active","ping":79},{"user_id":630,"name":"SOPHIIEE","steam_id":76561198443798981,"connected_time":9242000000000,"state":"active","ping":55},{"user_id":798,"name":"owo","steam_id":76561198158209651,"connected_time":1520000000000,"state":"active","ping":59},{"user_id":655,"name":"beebo","steam_id":76561199120277007,"connected_time":6417000000000,"state":"active","ping":58},{"user_id":726,"name":"BreadBubbles","steam_id":76561198174332826,"connected_time":2895000000000,"state":"active","ping":71},{"user_id":663,"name":"Air","steam_id":76561198271025518,"connected_time":6194000000000,"state":"active","ping":110},{"user_id":683,"name":"Lau","steam_id":76561197993573576,"connected_time":4778000000000,"state":"active","ping":92},{"user_id":673,"name":"Prome","steam_id":76561199050383942,"connected_time":5360000000000,"state":"active","ping":57},{"user_id":804,"name":"Aaron","steam_id":76561197990046953,"connected_time":1262000000000,"state":"active","ping":68},{"user_id":800,"name":"Oxer","steam_id":76561198055942412,"connected_time":1472000000000,"state":"active","ping":84},{"user_id":809,"name":"rmz.ssj","steam_id":76561198329613930,"connected_time":314000000000,"state":"active","ping":59},{"user_id":754,"name":"GoTo","steam_id":76561197961094787,"connected_time":2298000000000,"state":"active","ping":66},{"user_id":718,"name":"UltimateSlayer","steam_id":76561198384109309,"connected_time":3232000000000,"state":"active","ping":58},{"user_id":802,"name":"Silverdarlin","steam_id":76561198118540970,"connected_time":1463000000000,"state":"active","ping":52},{"user_id":736,"name":"Drosan ãƒ„","steam_id":76561197960389216,"connected_time":2672000000000,"state":"active","ping":50},{"user_id":715,"name":"regimiro","steam_id":76561198120457008,"connected_time":3456000000000,"state":"active","ping":55},{"user_id":710,"name":"homeinvasion$","steam_id":76561199111905021,"connected_time":3845000000000,"state":"active","ping":119},{"user_id":810,"name":"â™¥ aura â™¥","steam_id":76561198066258544,"connected_time":232000000000,"state":"active","ping":68},{"user_id":587,"name":"teddy","steam_id":76561198007436837,"connected_time":13708000000000,"state":"active","ping":44},{"user_id":792,"name":"SuperBob103","steam_id":76561199175360012,"connected_time":1668000000000,"state":"active","ping":49},{"user_id":806,"name":"Rizz","steam_id":76561198192135953,"connected_time":1008000000000,"state":"active","ping":83},{"user_id":685,"name":"Harpenden, Harpenden, Harpenden","steam_id":76561198118138546,"connected_time":4720000000000,"state":"active","ping":45}]},{"server_id":114,"name":"Uncletopia | London | 2 | All Maps","name_short":"lon-2","host":"lon-1.uk.uncletopia.com","port":27025,"enabled":true,"region":"eu","cc":"gb","latitude":51.509865,"longitude":-0.118092,"reserved":0,"last_update":"0001-01-01T00:00:00Z","name_a2s":"Uncletopia | London | 2 | All Maps","protocol":17,"map":"pl_upward","folder":"tf","game":"Team Fortress","app_id":440,"player_count":24,"max_players":24,"Bots":0,"server_type":"Dedicated","server_os":"Linux","password":true,"vac":true,"version":"7757534","steam_id":85568392924470941,"keywords":["nocrits","nodmgspread","payload","uncletopia"],"game_id":440,"stv_port":27026,"stv_name":"Uncletopia | London | 2 | All Maps | STV","players":[{"user_id":582,"name":"Icaras","steam_id":76561198416724843,"connected_time":128000000000,"state":"active","ping":32},{"user_id":518,"name":"Elyo","steam_id":76561198108054688,"connected_time":5041000000000,"state":"active","ping":79},{"user_id":556,"name":"Houlles","steam_id":76561198095277383,"connected_time":2758000000000,"state":"active","ping":53},{"user_id":580,"name":"IronHawkâœ¨","steam_id":76561198008959448,"connected_time":561000000000,"state":"active","ping":77},{"user_id":583,"name":"tobi ^ï¸¿^","steam_id":76561198023388785,"connected_time":125000000000,"state":"active","ping":71},{"user_id":521,"name":"Rubikskubbakall29","steam_id":76561198861495164,"connected_time":4940000000000,"state":"active","ping":90},{"user_id":537,"name":"vani","steam_id":76561197991778291,"connected_time":3430000000000,"state":"active","ping":75},{"user_id":561,"name":"Owenter","steam_id":76561198083201886,"connected_time":1760000000000,"state":"active","ping":39},{"user_id":575,"name":"Joy","steam_id":76561198155314925,"connected_time":1126000000000,"state":"active","ping":59},{"user_id":576,"name":"Hyperek","steam_id":76561198130797464,"connected_time":1126000000000,"state":"active","ping":78},{"user_id":544,"name":"tosti_tower","steam_id":76561198153445364,"connected_time":3107000000000,"state":"active","ping":54},{"user_id":578,"name":"FlukeY","steam_id":76561198026137327,"connected_time":851000000000,"state":"active","ping":69},{"user_id":586,"name":"Sputnik","steam_id":76561198138660241,"connected_time":6000000000,"state":"spawning","ping":47},{"user_id":563,"name":"Volcyy","steam_id":76561198063979124,"connected_time":1634000000000,"state":"active","ping":57},{"user_id":565,"name":"âœª qua âœª","steam_id":76561198066408333,"connected_time":1502000000000,"state":"active","ping":84},{"user_id":557,"name":"LSKi","steam_id":76561198215470228,"connected_time":2579000000000,"state":"active","ping":49},{"user_id":581,"name":"Sonnakai","steam_id":76561198051688749,"connected_time":138000000000,"state":"active","ping":37},{"user_id":553,"name":"Hatonfire","steam_id":76561198287372060,"connected_time":2862000000000,"state":"active","ping":43},{"user_id":558,"name":"jmp","steam_id":76561198168283286,"connected_time":2479000000000,"state":"active","ping":76},{"user_id":562,"name":"all my cables BRAIDED","steam_id":76561198014688238,"connected_time":1730000000000,"state":"active","ping":58},{"user_id":584,"name":"Bonca","steam_id":76561198137503531,"connected_time":122000000000,"state":"active","ping":75},{"user_id":559,"name":"tube","steam_id":76561198188642265,"connected_time":2446000000000,"state":"active","ping":70},{"user_id":585,"name":"alchemist","steam_id":76561198042595246,"connected_time":116000000000,"state":"active","ping":141},{"user_id":573,"name":"Cheshireycat","steam_id":76561198067204908,"connected_time":1165000000000,"state":"active","ping":60}]},{"server_id":320,"name":"Uncletopia | London | 3 | All Maps","name_short":"lon-3","host":"lon-1.uk.uncletopia.com","port":27035,"enabled":true,"region":"eu","cc":"gb","latitude":51.509865,"longitude":-0.118092,"reserved":0,"last_update":"0001-01-01T00:00:00Z","name_a2s":"Uncletopia | London | 3 | All Maps","protocol":17,"map":"koth_viaduct","folder":"tf","game":"Team Fortress","app_id":440,"player_count":0,"max_players":24,"Bots":0,"server_type":"Dedicated","server_os":"Linux","password":true,"vac":true,"version":"7757534","steam_id":85568392924510192,"keywords":["cp","nocrits","nodmgspread","uncletopia"],"game_id":440,"stv_port":27036,"stv_name":"Uncletopia | London | 3 | All Maps | STV","players":null},{"server_id":321,"name":"Uncletopia | London | 4 | All Maps","name_short":"lon-4","host":"lon-1.uk.uncletopia.com","port":27045,"enabled":true,"region":"eu","cc":"gb","latitude":51.509865,"longitude":-0.118092,"reserved":0,"last_update":"0001-01-01T00:00:00Z","name_a2s":"Uncletopia | London | 4 | All Maps","protocol":17,"map":"koth_highpass","folder":"tf","game":"Team Fortress","app_id":440,"player_count":0,"max_players":24,"Bots":0,"server_type":"Dedicated","server_os":"Linux","password":true,"vac":true,"version":"7757534","steam_id":85568392924510193,"keywords":["cp","nocrits","nodmgspread","uncletopia"],"game_id":440,"stv_port":27046,"stv_name":"Uncletopia | London | 4 | All Maps | STV","players":null},{"server_id":21,"name":"Uncletopia | London | 5 | All Maps","name_short":"lon-5","host":"lon-1.uk.uncletopia.com","port":27055,"enabled":true,"region":"eu","cc":"gb","latitude":51.509865,"longitude":-0.118092,"reserved":0,"last_update":"0001-01-01T00:00:00Z","name_a2s":"Uncletopia | London | 5 | All Maps","protocol":17,"map":"pl_barnblitz","folder":"tf","game":"Team Fortress","app_id":440,"player_count":21,"max_players":24,"Bots":0,"server_type":"Dedicated","server_os":"Linux","password":true,"vac":true,"version":"7757534","steam_id":85568392924742829,"keywords":["nocrits","nodmgspread","payload","uncletopia"],"game_id":440,"stv_port":27056,"stv_name":"Uncletopia | London | 5 | All Maps | STV","players":[{"user_id":413,"name":"Mumu :3","steam_id":76561198052794823,"connected_time":634000000000,"state":"active","ping":60},{"user_id":403,"name":"SirSangoor","steam_id":76561198044462559,"connected_time":862000000000,"state":"active","ping":109},{"user_id":379,"name":"Anoobis","steam_id":76561199419533757,"connected_time":2190000000000,"state":"active","ping":78},{"user_id":414,"name":"nyanezt","steam_id":76561198253734265,"connected_time":585000000000,"state":"active","ping":105},{"user_id":384,"name":"bojka","steam_id":76561197993911349,"connected_time":2126000000000,"state":"active","ping":74},{"user_id":356,"name":"Zerfesh","steam_id":76561198117534358,"connected_time":3919000000000,"state":"active","ping":95},{"user_id":405,"name":"SkaEEd","steam_id":76561198370722935,"connected_time":825000000000,"state":"active","ping":59},{"user_id":380,"name":"Cornmac","steam_id":76561198104780569,"connected_time":2147000000000,"state":"active","ping":68},{"user_id":406,"name":"Sneikijs","steam_id":76561198052549308,"connected_time":819000000000,"state":"active","ping":53},{"user_id":381,"name":"Homosapien","steam_id":76561197972035953,"connected_time":2144000000000,"state":"active","ping":62},{"user_id":408,"name":"killbind irl","steam_id":76561198180637374,"connected_time":750000000000,"state":"active","ping":96},{"user_id":409,"name":"rummy","steam_id":76561197997573379,"connected_time":741000000000,"state":"active","ping":45},{"user_id":378,"name":"Garbo","steam_id":76561198133885944,"connected_time":2228000000000,"state":"active","ping":69},{"user_id":410,"name":"Atemu","steam_id":76561198054511718,"connected_time":699000000000,"state":"active","ping":48},{"user_id":418,"name":"Antondi","steam_id":76561198123140065,"connected_time":149000000000,"state":"active","ping":61},{"user_id":401,"name":"Men Fortress 2","steam_id":76561197999459536,"connected_time":938000000000,"state":"active","ping":60},{"user_id":354,"name":"Jyghc","steam_id":76561198405980575,"connected_time":4016000000000,"state":"active","ping":65},{"user_id":373,"name":"Gnarville","steam_id":76561198006373329,"connected_time":3069000000000,"state":"active","ping":46},{"user_id":399,"name":"GipsySorcerer","steam_id":76561198170020311,"connected_time":1016000000000,"state":"active","ping":81},{"user_id":417,"name":"W*","steam_id":76561197972244657,"connected_time":256000000000,"state":"active","ping":54},{"user_id":395,"name":"Superiumentarius","steam_id":76561198081642249,"connected_time":1207000000000,"state":"active","ping":60}]},{"server_id":22,"name":"Uncletopia | London | 6 | All Maps","name_short":"lon-6","host":"lon-1.uk.uncletopia.com","port":27065,"enabled":true,"region":"eu","cc":"gb","latitude":51.509865,"longitude":-0.118092,"reserved":0,"last_update":"0001-01-01T00:00:00Z","name_a2s":"Uncletopia | London | 6 | All Maps","protocol":17,"map":"pl_thundermountain","folder":"tf","game":"Team Fortress","app_id":440,"player_count":24,"max_players":24,"Bots":0,"server_type":"Dedicated","server_os":"Linux","password":true,"vac":true,"version":"7757534","steam_id":85568392924742830,"keywords":["nocrits","nodmgspread","payload","uncletopia"],"game_id":440,"stv_port":27066,"stv_name":"Uncletopia | London | 6 | All Maps | STV","players":[{"user_id":444,"name":"XANNUR","steam_id":76561198255004930,"connected_time":2336000000000,"state":"active","ping":52},{"user_id":458,"name":"Burpman","steam_id":76561198022897937,"connected_time":1851000000000,"state":"active","ping":46},{"user_id":455,"name":"Mike Oxmells-Grim","steam_id":76561198206218692,"connected_time":1967000000000,"state":"active","ping":70},{"user_id":453,"name":"Armando","steam_id":76561198271977372,"connected_time":2160000000000,"state":"active","ping":58},{"user_id":447,"name":"Adi Tagbar","steam_id":76561198255130741,"connected_time":2271000000000,"state":"active","ping":60},{"user_id":465,"name":"Youssef S Ahmed","steam_id":76561199435139103,"connected_time":1654000000000,"state":"active","ping":110},{"user_id":468,"name":"Twitchy Gains","steam_id":76561198981136003,"connected_time":1433000000000,"state":"active","ping":128},{"user_id":456,"name":"Burnie","steam_id":76561198240975318,"connected_time":1961000000000,"state":"active","ping":67},{"user_id":467,"name":"tone","steam_id":76561197975301462,"connected_time":1506000000000,"state":"active","ping":69},{"user_id":471,"name":"ja","steam_id":76561199228540618,"connected_time":1245000000000,"state":"active","ping":88},{"user_id":482,"name":"Gearless","steam_id":76561198362367074,"connected_time":260000000000,"state":"active","ping":78},{"user_id":479,"name":"Scott (Scottish)","steam_id":76561198857260673,"connected_time":1051000000000,"state":"active","ping":59},{"user_id":426,"name":"Penis Contortionist","steam_id":76561198073663784,"connected_time":3617000000000,"state":"active","ping":41},{"user_id":427,"name":"Mari Christmas","steam_id":76561197997020707,"connected_time":3551000000000,"state":"active","ping":55},{"user_id":394,"name":"nedilya","steam_id":76561198039692077,"connected_time":6112000000000,"state":"active","ping":63},{"user_id":473,"name":"vug","steam_id":76561198042227249,"connected_time":1175000000000,"state":"active","ping":48},{"user_id":484,"name":"ó ³â§â§ snowii","steam_id":76561198836246326,"connected_time":143000000000,"state":"active","ping":55},{"user_id":461,"name":"Black Sheep","steam_id":76561198042244701,"connected_time":1833000000000,"state":"active","ping":64},{"user_id":475,"name":"randompixel","steam_id":76561198003941207,"connected_time":1161000000000,"state":"active","ping":57},{"user_id":365,"name":"BonsaiCat_","steam_id":76561198232236020,"connected_time":7578000000000,"state":"active","ping":53},{"user_id":476,"name":"DiscoTraveler","steam_id":76561199240168088,"connected_time":1152000000000,"state":"active","ping":115},{"user_id":481,"name":"Indigolake","steam_id":76561198202215807,"connected_time":796000000000,"state":"active","ping":133},{"user_id":485,"name":"Fus in Boots","steam_id":76561198053897722,"connected_time":105000000000,"state":"active","ping":53},{"user_id":477,"name":"NB","steam_id":76561198079361515,"connected_time":1151000000000,"state":"active","ping":60}]},{"server_id":40,"name":"Uncletopia | London | 7 | No Payload","name_short":"lon-7","host":"lon-1.uk.uncletopia.com","port":27075,"enabled":true,"region":"eu","cc":"gb","latitude":51.509865,"longitude":-0.118092,"reserved":0,"last_update":"0001-01-01T00:00:00Z","name_a2s":"Uncletopia | London | 7 | No Payload","protocol":17,"map":"cp_gorge","folder":"tf","game":"Team Fortress","app_id":440,"player_count":2,"max_players":24,"Bots":0,"server_type":"Dedicated","server_os":"Linux","password":true,"vac":true,"version":"7757534","steam_id":85568392924964314,"keywords":["cp","nocrits","nodmgspread","uncletopia"],"game_id":440,"stv_port":27076,"stv_name":"Uncletopia | London | 7 | No Payload | STV","players":[{"user_id":367,"name":"Fat Pigeon","steam_id":76561198817940142,"connected_time":63000000000,"state":"active","ping":49},{"user_id":368,"name":"disc0rd.gg/FB6YuUvQQA","steam_id":76561199480554789,"connected_time":19000000000,"state":"active","ping":88}]},{"server_id":41,"name":"Uncletopia | London | 8 | Community","name_short":"lon-8","host":"lon-1.uk.uncletopia.com","port":27085,"enabled":true,"region":"eu","cc":"gb","latitude":51.509865,"longitude":-0.118092,"reserved":0,"last_update":"0001-01-01T00:00:00Z","name_a2s":"Uncletopia | London | 8 | Community","protocol":17,"map":"workshop/koth_bagel_rc6.ugc2514036946","folder":"tf","game":"Team Fortress","app_id":440,"player_count":0,"max_players":24,"Bots":0,"server_type":"Dedicated","server_os":"Linux","password":true,"vac":true,"version":"7757534","steam_id":85568392924964315,"keywords":["cp","nocrits","nodmgspread","uncletopia"],"game_id":440,"stv_port":27086,"stv_name":"Uncletopia | London | 8 | Community | STV","players":null},{"server_id":300,"name":"Uncletopia | MontrÃ©al | 1 | All Maps","name_short":"mtl-1","host":"mtl-1.ca.uncletopia.com","port":27015,"enabled":true,"region":"us-east","cc":"ca","latitude":45.50889,"longitude":-73.56167,"reserved":0,"last_update":"0001-01-01T00:00:00Z","name_a2s":"Uncletopia | MontrÃ©al | 1 | All Maps","protocol":17,"map":"koth_highpass","folder":"tf","game":"Team Fortress","app_id":440,"player_count":0,"max_players":24,"Bots":0,"server_type":"Dedicated","server_os":"Linux","password":true,"vac":true,"version":"7757534","steam_id":85568392924500087,"keywords":["cp","nocrits","nodmgspread","uncletopia"],"game_id":440,"stv_port":27016,"stv_name":"Uncletopia | MontrÃ©al | 1 | All Maps | STV","players":null},{"server_id":301,"name":"Uncletopia | MontrÃ©al | 2 | All Maps","name_short":"mtl-2","host":"mtl-1.ca.uncletopia.com","port":27025,"enabled":true,"region":"us-east","cc":"ca","latitude":45.50889,"longitude":-73.56167,"reserved":0,"last_update":"0001-01-01T00:00:00Z","name_a2s":"Uncletopia | MontrÃ©al | 2 | All Maps","protocol":17,"map":"koth_lakeside_final","folder":"tf","game":"Team Fortress","app_id":440,"player_count":0,"max_players":24,"Bots":0,"server_type":"Dedicated","server_os":"Linux","password":true,"vac":true,"version":"7757534","steam_id":85568392924500088,"keywords":["cp","nocrits","nodmgspread","uncletopia"],"game_id":440,"stv_port":27026,"stv_name":"Uncletopia | MontrÃ©al | 2 | All Maps | STV","players":null},{"server_id":302,"name":"Uncletopia | MontrÃ©al | 3 | All Maps","name_short":"mtl-3","host":"mtl-1.ca.uncletopia.com","port":27035,"enabled":true,"region":"us-east","cc":"ca","latitude":45.50889,"longitude":-73.56167,"reserved":0,"last_update":"0001-01-01T00:00:00Z","name_a2s":"Uncletopia | MontrÃ©al | 3 | All Maps","protocol":17,"map":"koth_lakeside_final","folder":"tf","game":"Team Fortress","app_id":440,"player_count":0,"max_players":24,"Bots":0,"server_type":"Dedicated","server_os":"Linux","password":true,"vac":true,"version":"7757534","steam_id":85568392924500089,"keywords":["cp","nocrits","nodmgspread","uncletopia"],"game_id":440,"stv_port":27036,"stv_name":"Uncletopia | MontrÃ©al | 3 | All Maps | STV","players":null},{"server_id":303,"name":"Uncletopia | MontrÃ©al | 4 | No Payload","name_short":"mtl-4","host":"mtl-1.ca.uncletopia.com","port":27045,"enabled":true,"region":"us-east","cc":"ca","latitude":45.50889,"longitude":-73.56167,"reserved":0,"last_update":"0001-01-01T00:00:00Z","name_a2s":"Uncletopia | MontrÃ©al | 4 | No Payload","protocol":17,"map":"cp_foundry","folder":"tf","game":"Team Fortress","app_id":440,"player_count":0,"max_players":24,"Bots":0,"server_type":"Dedicated","server_os":"Linux","password":true,"vac":true,"version":"7757534","steam_id":85568392924500090,"keywords":["cp","nocrits","nodmgspread","uncletopia"],"game_id":440,"stv_port":27046,"stv_name":"Uncletopia | MontrÃ©al | 4 | No Payload | STV","players":null},{"server_id":13,"name":"Uncletopia | New York City | 1 | All Maps","name_short":"nyc-1","host":"nyc-1.us.uncletopia.com","port":27015,"enabled":true,"region":"us-east","cc":"us","latitude":40.73061,"longitude":-73.93524,"reserved":0,"last_update":"0001-01-01T00:00:00Z","name_a2s":"Uncletopia | New York City | 1 | All Maps","protocol":17,"map":"cp_altitude","folder":"tf","game":"Team Fortress","app_id":440,"player_count":24,"max_players":24,"Bots":0,"server_type":"Dedicated","server_os":"Linux","password":true,"vac":true,"version":"7757534","steam_id":85568392924469993,"keywords":["cp","nocrits","nodmgspread","uncletopia"],"game_id":440,"stv_port":27016,"stv_name":"Uncletopia | New York City | 1 | All Maps | STV","players":[{"user_id":390,"name":"Strangelove","steam_id":76561198353773611,"connected_time":367000000000,"state":"active","ping":98},{"user_id":314,"name":"Porcupine's Revenge!","steam_id":76561199121615234,"connected_time":7317000000000,"state":"active","ping":52},{"user_id":386,"name":"Kahuna","steam_id":76561198210707220,"connected_time":851000000000,"state":"active","ping":47},{"user_id":339,"name":"Grebnedulgo The Elder","steam_id":76561199123285878,"connected_time":4600000000000,"state":"active","ping":66},{"user_id":389,"name":"noel","steam_id":76561198128280883,"connected_time":372000000000,"state":"active","ping":71},{"user_id":384,"name":"Victor Skull","steam_id":76561198352212864,"connected_time":1421000000000,"state":"active","ping":37},{"user_id":391,"name":"like a g6","steam_id":76561198070923665,"connected_time":346000000000,"state":"active","ping":78},{"user_id":381,"name":"joe the baby grabber","steam_id":76561198285162538,"connected_time":1596000000000,"state":"active","ping":50},{"user_id":364,"name":"fumblom","steam_id":76561199389283507,"connected_time":2818000000000,"state":"active","ping":68},{"user_id":299,"name":"Vivid Hut 64","steam_id":76561198170050059,"connected_time":8976000000000,"state":"active","ping":58},{"user_id":365,"name":"Underqualified Gunman","steam_id":76561198111061367,"connected_time":2804000000000,"state":"active","ping":86},{"user_id":392,"name":"PL4T Biznickel","steam_id":76561199422511230,"connected_time":302000000000,"state":"active","ping":113},{"user_id":385,"name":"reanimator","steam_id":76561198085830470,"connected_time":1378000000000,"state":"active","ping":47},{"user_id":336,"name":"I am a Toaster","steam_id":76561199190216106,"connected_time":4926000000000,"state":"active","ping":95},{"user_id":377,"name":"Motorbung87","steam_id":76561198976821898,"connected_time":1863000000000,"state":"active","ping":120},{"user_id":374,"name":"ð™´ ðš¡ ðšŒ ðšŽ ðš• ðš• \ufffd","steam_id":76561198011887958,"connected_time":2262000000000,"state":"active","ping":54},{"user_id":393,"name":"cavelife","steam_id":76561198091369097,"connected_time":267000000000,"state":"active","ping":56},{"user_id":382,"name":"aer","steam_id":76561198293502053,"connected_time":1506000000000,"state":"active","ping":44},{"user_id":387,"name":"weenie sniffer","steam_id":76561199124375673,"connected_time":652000000000,"state":"active","ping":158},{"user_id":375,"name":"BasicPeaches","steam_id":76561198190890150,"connected_time":2251000000000,"state":"active","ping":66},{"user_id":295,"name":"Mochi","steam_id":76561199151314140,"connected_time":9475000000000,"state":"active","ping":39},{"user_id":394,"name":"penglings123","steam_id":76561199119268050,"connected_time":245000000000,"state":"active","ping":112},{"user_id":371,"name":"Mr_Frosty","steam_id":76561199380389079,"connected_time":2733000000000,"state":"active","ping":113},{"user_id":337,"name":"Cool_Dude_909","steam_id":76561198313870988,"connected_time":4743000000000,"state":"active","ping":59}]},{"server_id":14,"name":"Uncletopia | New York City | 2 | All Maps","name_short":"nyc-2","host":"nyc-1.us.uncletopia.com","port":27025,"enabled":true,"region":"us-east","cc":"us","latitude":40.73061,"longitude":-73.93524,"reserved":0,"last_update":"0001-01-01T00:00:00Z","name_a2s":"Uncletopia | New York City | 2 | All Maps","protocol":17,"map":"koth_viaduct","folder":"tf","game":"Team Fortress","app_id":440,"player_count":24,"max_players":24,"Bots":0,"server_type":"Dedicated","server_os":"Linux","password":true,"vac":true,"version":"7757534","steam_id":85568392924469994,"keywords":["cp","nocrits","nodmgspread","uncletopia"],"game_id":440,"stv_port":27026,"stv_name":"Uncletopia | New York City | 2 | All Maps | STV","players":[{"user_id":673,"name":"FunnyUsernameWow","steam_id":76561198324177635,"connected_time":4995000000000,"state":"active","ping":50},{"user_id":742,"name":"TzonaZ","steam_id":76561198838685135,"connected_time":407000000000,"state":"active","ping":59},{"user_id":734,"name":"corn bone","steam_id":76561198155443069,"connected_time":696000000000,"state":"active","ping":71},{"user_id":746,"name":"[rat] RaviRavioli","steam_id":76561198968636443,"connected_time":108000000000,"state":"active","ping":82},{"user_id":739,"name":"Zoo Keeper Engie","steam_id":76561198064380111,"connected_time":434000000000,"state":"active","ping":70},{"user_id":711,"name":"Lifial","steam_id":76561198271885819,"connected_time":2476000000000,"state":"active","ping":58},{"user_id":728,"name":"papi Chulo","steam_id":76561198126274984,"connected_time":1269000000000,"state":"active","ping":136},{"user_id":729,"name":"-Ï€- BakaD","steam_id":76561197960559169,"connected_time":1193000000000,"state":"active","ping":45},{"user_id":743,"name":"Space Cops","steam_id":76561198032414253,"connected_time":400000000000,"state":"active","ping":45},{"user_id":738,"name":"Goobus","steam_id":76561198013808088,"connected_time":443000000000,"state":"active","ping":52},{"user_id":722,"name":"Joy #savetf2","steam_id":76561198073690173,"connected_time":1584000000000,"state":"active","ping":54},{"user_id":716,"name":"The Greendale Human Beings","steam_id":76561198055433422,"connected_time":1786000000000,"state":"active","ping":67},{"user_id":747,"name":"enotown","steam_id":76561198109901138,"connected_time":103000000000,"state":"active","ping":59},{"user_id":744,"name":"CertifiedCereal","steam_id":76561198055027895,"connected_time":290000000000,"state":"active","ping":52},{"user_id":714,"name":"Blueâ›§Melon","steam_id":76561197970926435,"connected_time":2000000000000,"state":"active","ping":56},{"user_id":682,"name":"Waffle Wannabe","steam_id":76561198064510650,"connected_time":4772000000000,"state":"active","ping":39},{"user_id":704,"name":"boppetson","steam_id":76561198073529045,"connected_time":3101000000000,"state":"active","ping":57},{"user_id":723,"name":"nnobi","steam_id":76561198878729277,"connected_time":1574000000000,"state":"active","ping":75},{"user_id":712,"name":"Sumuler","steam_id":76561199067107105,"connected_time":2197000000000,"state":"active","ping":56},{"user_id":724,"name":"Sploonbabagoosecooties","steam_id":76561198139972201,"connected_time":1568000000000,"state":"active","ping":136},{"user_id":696,"name":"Rent is Due","steam_id":76561198155872356,"connected_time":3579000000000,"state":"active","ping":38},{"user_id":726,"name":"JZ","steam_id":76561198377029198,"connected_time":1524000000000,"state":"active","ping":69},{"user_id":741,"name":"Ritzy","steam_id":76561198381955342,"connected_time":424000000000,"state":"active","ping":133},{"user_id":733,"name":"alex","steam_id":76561198095203229,"connected_time":826000000000,"state":"active","ping":73}]},{"server_id":15,"name":"Uncletopia | New York City | 3 | Stopwatch Beta","name_short":"nyc-3","host":"nyc-1.us.uncletopia.com","port":27035,"enabled":true,"region":"us-east","cc":"us","latitude":40.73061,"longitude":-73.93524,"reserved":0,"last_update":"0001-01-01T00:00:00Z","name_a2s":"Uncletopia | New York City | 3 | Stopwatch Beta","protocol":17,"map":"pl_upward","folder":"tf","game":"Team Fortress","app_id":440,"player_count":0,"max_players":24,"Bots":0,"server_type":"Dedicated","server_os":"Linux","password":true,"vac":true,"version":"7757534","steam_id":85568392924742820,"keywords":["nocrits","nodmgspread","payload","uncletopia"],"game_id":440,"stv_port":27036,"stv_name":"Uncletopia | New York City | 3 | Stopwatch Beta | STV","players":null},{"server_id":16,"name":"Uncletopia | New York City | 4 | Community","name_short":"nyc-4","host":"nyc-1.us.uncletopia.com","port":27045,"enabled":true,"region":"us-east","cc":"us","latitude":40.73061,"longitude":-73.93524,"reserved":0,"last_update":"0001-01-01T00:00:00Z","name_a2s":"Uncletopia | New York City | 4 | Community","protocol":17,"map":"workshop/cp_propaganda_b18.ugc1603743849","folder":"tf","game":"Team Fortress","app_id":440,"player_count":0,"max_players":24,"Bots":0,"server_type":"Dedicated","server_os":"Linux","password":true,"vac":true,"version":"7757534","steam_id":85568392924742821,"keywords":["cp","nocrits","nodmgspread","uncletopia"],"game_id":440,"stv_port":27046,"stv_name":"Uncletopia | New York City | 4 | Community | STV","players":null},{"server_id":142,"name":"Uncletopia | SÃ£o Paulo | 1 | All Maps","name_short":"sao-1","host":"sao-1.br.uncletopia.com","port":27015,"enabled":true,"region":"sa","cc":"br","latitude":-23.533773,"longitude":-46.62529,"reserved":0,"last_update":"0001-01-01T00:00:00Z","name_a2s":"Uncletopia | SÃ£o Paulo | 1 | All Maps","protocol":17,"map":"koth_cascade","folder":"tf","game":"Team Fortress","app_id":440,"player_count":0,"max_players":24,"Bots":0,"server_type":"Dedicated","server_os":"Linux","password":true,"vac":true,"version":"7757534","steam_id":85568392924469996,"keywords":["cp","nocrits","nodmgspread","uncletopia"],"game_id":440,"stv_port":27016,"stv_name":"Uncletopia | SÃ£o Paulo | 1 | All Maps | STV","players":null},{"server_id":143,"name":"Uncletopia | SÃ£o Paulo | 2 | All Maps","name_short":"sao-2","host":"sao-2.br.uncletopia.com","port":27015,"enabled":true,"region":"sa","cc":"br","latitude":-23.533773,"longitude":-46.62529,"reserved":0,"last_update":"0001-01-01T00:00:00Z","name_a2s":"Uncletopia | SÃ£o Paulo | 2 | All Maps","protocol":17,"map":"cp_sunshine","folder":"tf","game":"Team Fortress","app_id":440,"player_count":18,"max_players":24,"Bots":0,"server_type":"Dedicated","server_os":"Linux","password":true,"vac":true,"version":"7757534","steam_id":85568392924485349,"keywords":["cp","nocrits","nodmgspread","uncletopia"],"game_id":440,"stv_port":27016,"stv_name":"Uncletopia | SÃ£o Paulo | 2 | All Maps | STV","players":[{"user_id":257,"name":"Becker23","steam_id":76561198048735075,"connected_time":1662000000000,"state":"active","ping":49},{"user_id":282,"name":"Matheus","steam_id":76561198051007451,"connected_time":434000000000,"state":"active","ping":70},{"user_id":276,"name":"La'caca","steam_id":76561199047860229,"connected_time":658000000000,"state":"active","ping":61},{"user_id":277,"name":"Werth","steam_id":76561199084693688,"connected_time":642000000000,"state":"active","ping":57},{"user_id":286,"name":"Zocaido","steam_id":76561198116150885,"connected_time":227000000000,"state":"active","ping":63},{"user_id":263,"name":"MÃªs do Orgulho Zap","steam_id":76561198094296399,"connected_time":1411000000000,"state":"active","ping":53},{"user_id":278,"name":"eriquesaltos02","steam_id":76561199440339479,"connected_time":609000000000,"state":"active","ping":49},{"user_id":240,"name":"kaoru mitoma","steam_id":76561198143438576,"connected_time":2513000000000,"state":"active","ping":42},{"user_id":290,"name":"abulo","steam_id":76561199038206884,"connected_time":66000000000,"state":"active","ping":117},{"user_id":198,"name":"Evanbrs","steam_id":76561198041508327,"connected_time":5297000000000,"state":"active","ping":71},{"user_id":243,"name":"rivers","steam_id":76561198447294478,"connected_time":2321000000000,"state":"active","ping":89},{"user_id":244,"name":"Sabot","steam_id":76561198176478934,"connected_time":2313000000000,"state":"active","ping":89},{"user_id":273,"name":"ailuros","steam_id":76561198171349369,"connected_time":794000000000,"state":"active","ping":38},{"user_id":274,"name":"lezv","steam_id":76561199083829484,"connected_time":774000000000,"state":"active","ping":45},{"user_id":279,"name":"vpc","steam_id":76561198355770264,"connected_time":589000000000,"state":"active","ping":54},{"user_id":292,"name":"Anxiety Dealer","steam_id":76561198137728820,"connected_time":59000000000,"state":"active","ping":94},{"user_id":253,"name":"Consumidor de suco profissional","steam_id":76561198935892698,"connected_time":1888000000000,"state":"active","ping":122},{"user_id":254,"name":"demson","steam_id":76561199087663959,"connected_time":1877000000000,"state":"active","ping":65}]},{"server_id":7,"name":"Uncletopia | Seattle | 1 | All Maps","name_short":"sea-1","host":"sea-1.us.uncletopia.com","port":27015,"enabled":true,"region":"us-west","cc":"us","latitude":47.608013,"longitude":-122.33517,"reserved":0,"last_update":"0001-01-01T00:00:00Z","name_a2s":"Uncletopia | Seattle | 1 | All Maps","protocol":17,"map":"pl_swiftwater_final1","folder":"tf","game":"Team Fortress","app_id":440,"player_count":24,"max_players":24,"Bots":0,"server_type":"Dedicated","server_os":"Linux","password":true,"vac":true,"version":"7757534","steam_id":85568392924469997,"keywords":["nocrits","nodmgspread","payload","uncletopia"],"game_id":440,"stv_port":27016,"stv_name":"Uncletopia | Seattle | 1 | All Maps | STV","players":[{"user_id":269,"name":"Greskrendtregk","steam_id":76561197969553142,"connected_time":2108000000000,"state":"active","ping":49},{"user_id":278,"name":"Quantum Rizzicist","steam_id":76561198085470745,"connected_time":1443000000000,"state":"active","ping":66},{"user_id":288,"name":"https://en.wikipedia.org/","steam_id":76561198261326806,"connected_time":531000000000,"state":"active","ping":75},{"user_id":290,"name":"Gaming","steam_id":76561198327632113,"connected_time":256000000000,"state":"active","ping":45},{"user_id":284,"name":"doomshroom","steam_id":76561198092827250,"connected_time":964000000000,"state":"active","ping":65},{"user_id":291,"name":"vvvvvinyl","steam_id":76561198116805255,"connected_time":195000000000,"state":"active","ping":63},{"user_id":281,"name":"DenzelTIP","steam_id":76561198021912929,"connected_time":1050000000000,"state":"active","ping":55},{"user_id":292,"name":"TendedKibbles0","steam_id":76561198320304516,"connected_time":190000000000,"state":"active","ping":139},{"user_id":271,"name":"THE_DARK_TRICKSTER","steam_id":76561198870649125,"connected_time":2011000000000,"state":"active","ping":84},{"user_id":230,"name":"MerkZ","steam_id":76561198047620432,"connected_time":5156000000000,"state":"active","ping":72},{"user_id":249,"name":"Salmon","steam_id":76561198285883040,"connected_time":3776000000000,"state":"active","ping":62},{"user_id":253,"name":"litcherally in vents","steam_id":76561199169558959,"connected_time":3121000000000,"state":"active","ping":41},{"user_id":294,"name":"rat gets the cheese","steam_id":76561198031234032,"connected_time":33000000000,"state":"active","ping":101},{"user_id":261,"name":"Serene Salamander","steam_id":76561198001094770,"connected_time":2879000000000,"state":"active","ping":88},{"user_id":293,"name":"R5-D4","steam_id":76561198025196439,"connected_time":162000000000,"state":"active","ping":56},{"user_id":233,"name":"Fire_box41238","steam_id":76561199185673650,"connected_time":5122000000000,"state":"active","ping":56},{"user_id":282,"name":"Skabbety","steam_id":76561198168044257,"connected_time":1039000000000,"state":"active","ping":45},{"user_id":286,"name":"Skoad","steam_id":76561198104650528,"connected_time":577000000000,"state":"active","ping":64},{"user_id":283,"name":"Danny Fentanyl","steam_id":76561197970791798,"connected_time":1015000000000,"state":"active","ping":45},{"user_id":280,"name":"zzrat","steam_id":76561198014925415,"connected_time":1062000000000,"state":"active","ping":57},{"user_id":276,"name":"mooney","steam_id":76561199110622484,"connected_time":1691000000000,"state":"active","ping":74},{"user_id":273,"name":"Thunder","steam_id":76561198795676044,"connected_time":1987000000000,"state":"active","ping":71},{"user_id":287,"name":"Logan601 #savetf2","steam_id":76561198263116731,"connected_time":562000000000,"state":"active","ping":95},{"user_id":289,"name":"makeshift_burrito","steam_id":76561198042510825,"connected_time":330000000000,"state":"active","ping":74}]},{"server_id":119,"name":"Uncletopia | Seattle | 2 | All Maps","name_short":"sea-2","host":"sea-1.us.uncletopia.com","port":27025,"enabled":true,"region":"us-west","cc":"us","latitude":47.608013,"longitude":-122.33517,"reserved":0,"last_update":"0001-01-01T00:00:00Z","name_a2s":"Uncletopia | Seattle | 2 | All Maps","protocol":17,"map":"pl_upward","folder":"tf","game":"Team Fortress","app_id":440,"player_count":23,"max_players":24,"Bots":0,"server_type":"Dedicated","server_os":"Linux","password":true,"vac":true,"version":"7757534","steam_id":85568392924469998,"keywords":["nocrits","nodmgspread","payload","uncletopia"],"game_id":440,"stv_port":27026,"stv_name":"Uncletopia | Seattle | 2 | All Maps | STV","players":[{"user_id":483,"name":"â™¥Lyraâ™¥","steam_id":76561198092853824,"connected_time":1529000000000,"state":"active","ping":59},{"user_id":481,"name":"ã¨ã‚Šã‚ãˆãšã¾ã  ç§ã¯æŠ˜","steam_id":76561198068672882,"connected_time":1759000000000,"state":"active","ping":64},{"user_id":494,"name":"vortexgamer","steam_id":76561197999435527,"connected_time":527000000000,"state":"active","ping":129},{"user_id":409,"name":"joe rippa","steam_id":76561198170402666,"connected_time":8203000000000,"state":"active","ping":73},{"user_id":417,"name":"jon pickle water","steam_id":76561199036212135,"connected_time":7374000000000,"state":"active","ping":67},{"user_id":484,"name":"Berry Festive Vlad","steam_id":76561198149616270,"connected_time":1525000000000,"state":"active","ping":88},{"user_id":466,"name":"Naffers","steam_id":76561198195957335,"connected_time":2698000000000,"state":"active","ping":44},{"user_id":493,"name":"McSpazatron","steam_id":76561198955942148,"connected_time":549000000000,"state":"active","ping":88},{"user_id":492,"name":"Cha' Brah","steam_id":76561197980385816,"connected_time":575000000000,"state":"active","ping":68},{"user_id":497,"name":"i am going to shit yourself","steam_id":76561198396414319,"connected_time":244000000000,"state":"active","ping":81},{"user_id":489,"name":"yup (muted)","steam_id":76561199190800520,"connected_time":1073000000000,"state":"active","ping":39},{"user_id":479,"name":"Dongus","steam_id":76561197979056451,"connected_time":1969000000000,"state":"active","ping":45},{"user_id":482,"name":"exephur","steam_id":76561198135763234,"connected_time":1557000000000,"state":"active","ping":62},{"user_id":471,"name":"Rusty","steam_id":76561198178868626,"connected_time":2642000000000,"state":"active","ping":61},{"user_id":480,"name":"COOL master_9","steam_id":76561198073041151,"connected_time":1964000000000,"state":"active","ping":103},{"user_id":491,"name":"Deja Vu","steam_id":76561198062090620,"connected_time":950000000000,"state":"active","ping":89},{"user_id":485,"name":"Bubbamanme","steam_id":76561198119778504,"connected_time":1509000000000,"state":"active","ping":61},{"user_id":487,"name":"MadVillain","steam_id":76561199251331156,"connected_time":1338000000000,"state":"active","ping":94},{"user_id":433,"name":"Tibetan Pop Star","steam_id":76561198844903984,"connected_time":6575000000000,"state":"active","ping":87},{"user_id":486,"name":"Mitsuri's V-Taper","steam_id":76561198045209288,"connected_time":1490000000000,"state":"active","ping":71},{"user_id":464,"name":"Theory-ZaZa","steam_id":76561198116419931,"connected_time":3042000000000,"state":"active","ping":64},{"user_id":447,"name":"nav","steam_id":76561198872608266,"connected_time":4440000000000,"state":"active","ping":130},{"user_id":496,"name":"Algibruh","steam_id":76561199221599415,"connected_time":489000000000,"state":"active","ping":48}]},{"server_id":406,"name":"Uncletopia | Seattle | 3 | Stopwatch Beta","name_short":"sea-3","host":"sea-1.us.uncletopia.com","port":27035,"enabled":true,"region":"us-west","cc":"us","latitude":47.608013,"longitude":-122.33517,"reserved":0,"last_update":"0001-01-01T00:00:00Z","name_a2s":"Uncletopia | Seattle | 3 | Stopwatch Beta","protocol":17,"map":"koth_lakeside_final","folder":"tf","game":"Team Fortress","app_id":440,"player_count":0,"max_players":24,"Bots":0,"server_type":"Dedicated","server_os":"Linux","password":true,"vac":true,"version":"7757534","steam_id":85568392924515217,"keywords":["cp","nocrits","nodmgspread","uncletopia"],"game_id":440,"stv_port":27036,"stv_name":"Uncletopia | Seattle | 3 | Stopwatch Beta | STV","players":null},{"server_id":17,"name":"Uncletopia | San Francisco | 1 | All Maps","name_short":"sfo-1","host":"sfo-1.us.uncletopia.com","port":27015,"enabled":true,"region":"us-west","cc":"us","latitude":37.77397,"longitude":-122.4313,"reserved":0,"last_update":"0001-01-01T00:00:00Z","name_a2s":"Uncletopia | San Francisco | 1 | All Maps","protocol":17,"map":"pl_pier","folder":"tf","game":"Team Fortress","app_id":440,"player_count":24,"max_players":24,"Bots":0,"server_type":"Dedicated","server_os":"Linux","password":true,"vac":true,"version":"7757534","steam_id":85568392924469999,"keywords":["nocrits","nodmgspread","payload","uncletopia"],"game_id":440,"stv_port":27016,"stv_name":"Uncletopia | San Francisco | 1 | All Maps | STV","players":[{"user_id":95,"name":"Phil Collins","steam_id":76561198068868644,"connected_time":10391000000000,"state":"active","ping":71},{"user_id":241,"name":"fire retarded","steam_id":76561198383636396,"connected_time":347000000000,"state":"active","ping":101},{"user_id":239,"name":"darktheif54","steam_id":76561198043650119,"connected_time":809000000000,"state":"active","ping":68},{"user_id":242,"name":"kym","steam_id":76561198340743816,"connected_time":332000000000,"state":"active","ping":57},{"user_id":243,"name":"u z r u z r u z r u z r u z r","steam_id":76561198799343084,"connected_time":332000000000,"state":"active","ping":59},{"user_id":244,"name":"nfseskimo","steam_id":76561198078745666,"connected_time":278000000000,"state":"active","ping":60},{"user_id":222,"name":"dlatgirp","steam_id":76561198417137724,"connected_time":1955000000000,"state":"active","ping":45},{"user_id":176,"name":"Spaceman","steam_id":76561198349305249,"connected_time":4598000000000,"state":"active","ping":75},{"user_id":245,"name":"tomasreade","steam_id":76561198079242123,"connected_time":154000000000,"state":"active","ping":119},{"user_id":251,"name":"Amadeus","steam_id":76561198160047173,"connected_time":69000000000,"state":"active","ping":57},{"user_id":223,"name":"FiddyFoMike","steam_id":76561198057072581,"connected_time":1939000000000,"state":"active","ping":49},{"user_id":247,"name":"Franz","steam_id":76561198041929745,"connected_time":138000000000,"state":"active","ping":58},{"user_id":234,"name":"Wingman","steam_id":76561198066270405,"connected_time":1157000000000,"state":"active","ping":44},{"user_id":248,"name":"Frenchy","steam_id":76561198064517370,"connected_time":109000000000,"state":"active","ping":59},{"user_id":249,"name":"JurassicShark","steam_id":76561198837335780,"connected_time":98000000000,"state":"active","ping":76},{"user_id":209,"name":"alpharuby","steam_id":76561198051638462,"connected_time":2744000000000,"state":"active","ping":54},{"user_id":215,"name":"rbstat","steam_id":76561198050169034,"connected_time":2667000000000,"state":"active","ping":88},{"user_id":211,"name":"JIBA","steam_id":76561198141315991,"connected_time":2724000000000,"state":"active","ping":56},{"user_id":235,"name":"crunchy obama","steam_id":76561198044485217,"connected_time":1000000000000,"state":"active","ping":71},{"user_id":230,"name":"Frogzilla","steam_id":76561198077657538,"connected_time":1644000000000,"state":"active","ping":84},{"user_id":250,"name":"Bushforg","steam_id":76561198967806996,"connected_time":94000000000,"state":"active","ping":61},{"user_id":236,"name":"Rhutebeer","steam_id":76561198018302761,"connected_time":953000000000,"state":"active","ping":131},{"user_id":238,"name":"moocifer45","steam_id":76561198274748359,"connected_time":875000000000,"state":"active","ping":141},{"user_id":240,"name":"Captain Falcon real","steam_id":76561198171082595,"connected_time":745000000000,"state":"active","ping":50}]},{"server_id":18,"name":"Uncletopia | San Francisco | 2 | All Maps","name_short":"sfo-2","host":"sfo-1.us.uncletopia.com","port":27025,"enabled":true,"region":"us-west","cc":"us","latitude":37.77397,"longitude":-122.4313,"reserved":0,"last_update":"0001-01-01T00:00:00Z","name_a2s":"Uncletopia | San Francisco | 2 | All Maps","protocol":17,"map":"pl_swiftwater_final1","folder":"tf","game":"Team Fortress","app_id":440,"player_count":24,"max_players":24,"Bots":0,"server_type":"Dedicated","server_os":"Linux","password":true,"vac":true,"version":"7757534","steam_id":85568392924470000,"keywords":["nocrits","nodmgspread","payload","uncletopia"],"game_id":440,"stv_port":27026,"stv_name":"Uncletopia | San Francisco | 2 | All Maps | STV","players":[{"user_id":257,"name":"Lane","steam_id":76561197965828506,"connected_time":553000000000,"state":"active","ping":90},{"user_id":169,"name":"Crazy Hungarian","steam_id":76561198025498172,"connected_time":5586000000000,"state":"active","ping":62},{"user_id":148,"name":"ChaoticAngel","steam_id":76561198293528217,"connected_time":6741000000000,"state":"active","ping":106},{"user_id":234,"name":"Johni3FireFly","steam_id":76561198089760607,"connected_time":2072000000000,"state":"active","ping":68},{"user_id":264,"name":"supreme toad","steam_id":76561197998392954,"connected_time":313000000000,"state":"active","ping":61},{"user_id":258,"name":"weenie hut jr","steam_id":76561198206922028,"connected_time":485000000000,"state":"active","ping":60},{"user_id":248,"name":"Portal2Player","steam_id":76561198062870114,"connected_time":1048000000000,"state":"active","ping":130},{"user_id":259,"name":"lamadre07","steam_id":76561198067337453,"connected_time":483000000000,"state":"active","ping":108},{"user_id":210,"name":"King Sans","steam_id":76561198294198517,"connected_time":3205000000000,"state":"active","ping":102},{"user_id":260,"name":"Zeruel","steam_id":76561198149673080,"connected_time":455000000000,"state":"active","ping":43},{"user_id":252,"name":"Petroleum Jelly","steam_id":76561198118778800,"connected_time":986000000000,"state":"active","ping":60},{"user_id":211,"name":"jackhillard83","steam_id":76561199057098390,"connected_time":3181000000000,"state":"active","ping":104},{"user_id":247,"name":"Pinkk","steam_id":76561198989798211,"connected_time":1066000000000,"state":"active","ping":57},{"user_id":240,"name":"parallax","steam_id":76561198004438881,"connected_time":1473000000000,"state":"active","ping":56},{"user_id":261,"name":"A Shiny Meat Bicycle","steam_id":76561198358757709,"connected_time":455000000000,"state":"active","ping":134},{"user_id":199,"name":"big ol' buford","steam_id":76561198290675957,"connected_time":4070000000000,"state":"active","ping":79},{"user_id":221,"name":"Bobby Ray","steam_id":76561198044131188,"connected_time":2680000000000,"state":"active","ping":73},{"user_id":244,"name":"LovingKindne2z","steam_id":76561199064932372,"connected_time":1108000000000,"state":"active","ping":51},{"user_id":250,"name":"pb79","steam_id":76561198044023345,"connected_time":1036000000000,"state":"active","ping":65},{"user_id":251,"name":"Meet The Kazoo","steam_id":76561199229748300,"connected_time":1025000000000,"state":"active","ping":66},{"user_id":265,"name":"destroylonely","steam_id":76561198349941380,"connected_time":222000000000,"state":"active","ping":92},{"user_id":256,"name":"omugai_","steam_id":76561198086481768,"connected_time":704000000000,"state":"active","ping":47},{"user_id":263,"name":"[ibbâ„¢]Shadow20X6-ENGI","steam_id":76561198019292755,"connected_time":395000000000,"state":"active","ping":72},{"user_id":232,"name":"Arbitrated","steam_id":76561198119156865,"connected_time":2086000000000,"state":"active","ping":129}]},{"server_id":19,"name":"Uncletopia | San Francisco | 3 | Stopwatch Beta","name_short":"sfo-3","host":"sfo-1.us.uncletopia.com","port":27035,"enabled":true,"region":"us-west","cc":"us","latitude":37.77397,"longitude":-122.4313,"reserved":0,"last_update":"0001-01-01T00:00:00Z","name_a2s":"Uncletopia | San Francisco | 3 | Stopwatch Beta","protocol":17,"map":"workshop/cp_reckoner_rc6.ugc674719999","folder":"tf","game":"Team Fortress","app_id":440,"player_count":0,"max_players":24,"Bots":0,"server_type":"Dedicated","server_os":"Linux","password":true,"vac":true,"version":"7757534","steam_id":85568392924742824,"keywords":["cp","nocrits","nodmgspread","uncletopia"],"game_id":440,"stv_port":27036,"stv_name":"Uncletopia | San Francisco | 3 | Stopwatch Beta | STV","players":null},{"server_id":20,"name":"Uncletopia | San Francisco | 4 | Community","name_short":"sfo-4","host":"sfo-1.us.uncletopia.com","port":27045,"enabled":true,"region":"us-west","cc":"us","latitude":37.77397,"longitude":-122.4313,"reserved":0,"last_update":"0001-01-01T00:00:00Z","name_a2s":"Uncletopia | San Francisco | 4 | Community","protocol":17,"map":"workshop/pl_cactuscanyon_redux_final2.ugc2579644293","folder":"tf","game":"Team Fortress","app_id":440,"player_count":23,"max_players":24,"Bots":0,"server_type":"Dedicated","server_os":"Linux","password":true,"vac":true,"version":"7757534","steam_id":85568392924742826,"keywords":["nocrits","nodmgspread","payload","uncletopia"],"game_id":440,"stv_port":27046,"stv_name":"Uncletopia | San Francisco | 4 | Community | STV","players":[{"user_id":45,"name":"Vacation","steam_id":76561198348081238,"connected_time":816000000000,"state":"spawning","ping":262},{"user_id":25,"name":"Buzz Buzz","steam_id":76561198294101501,"connected_time":2240000000000,"state":"active","ping":88},{"user_id":65,"name":"Isopentyl Ethanoate","steam_id":76561198116389072,"connected_time":117000000000,"state":"active","ping":77},{"user_id":59,"name":"iSaH","steam_id":76561198305136202,"connected_time":482000000000,"state":"active","ping":70},{"user_id":26,"name":"the stink","steam_id":76561199099203623,"connected_time":2003000000000,"state":"active","ping":88},{"user_id":27,"name":"autumnal.messenger","steam_id":76561199345816635,"connected_time":1507000000000,"state":"active","ping":71},{"user_id":66,"name":"Mr.Cool","steam_id":76561198132105194,"connected_time":41000000000,"state":"active","ping":116},{"user_id":67,"name":"silly jester","steam_id":76561198079609974,"connected_time":20000000000,"state":"active","ping":148},{"user_id":43,"name":"Fox Milk","steam_id":76561198004652591,"connected_time":976000000000,"state":"active","ping":63},{"user_id":63,"name":"Eclipse530","steam_id":76561198897055930,"connected_time":276000000000,"state":"active","ping":105},{"user_id":50,"name":"The_Pacific_gamer","steam_id":76561198089491446,"connected_time":692000000000,"state":"active","ping":69},{"user_id":34,"name":"tum","steam_id":76561198084712019,"connected_time":1166000000000,"state":"active","ping":60},{"user_id":38,"name":"liftin'","steam_id":76561199089515791,"connected_time":1064000000000,"state":"active","ping":58},{"user_id":36,"name":"big fish","steam_id":76561198186479818,"connected_time":1108000000000,"state":"active","ping":69},{"user_id":37,"name":"gargoyle","steam_id":76561198856903497,"connected_time":1101000000000,"state":"active","ping":100},{"user_id":64,"name":"primordialheath","steam_id":76561199386942638,"connected_time":201000000000,"state":"active","ping":102},{"user_id":60,"name":"Wyatt","steam_id":76561198871098447,"connected_time":471000000000,"state":"active","ping":127},{"user_id":56,"name":"Le0901","steam_id":76561198372891244,"connected_time":531000000000,"state":"active","ping":102},{"user_id":57,"name":"I Eat Trains","steam_id":76561198054791624,"connected_time":520000000000,"state":"active","ping":102},{"user_id":58,"name":"Gorgon Freeman","steam_id":76561198000367036,"connected_time":506000000000,"state":"active","ping":109},{"user_id":68,"name":"golem","steam_id":76561198355040593,"connected_time":14000000000,"state":"spawning","ping":190},{"user_id":69,"name":"richcheetah","steam_id":76561198446474123,"connected_time":6000000000,"state":"spawning","ping":119},{"user_id":70,"name":"jaw's been poppin' since","steam_id":76561198421913648,"connected_time":3000000000,"state":"spawning","ping":66}]},{"server_id":141,"name":"Uncletopia | Sydney | 1 | All Maps","name_short":"syd-1","host":"syd-1.au.uncletopia.com","port":27015,"enabled":true,"region":"au","cc":"au","latitude":-33.865143,"longitude":151.2099,"reserved":0,"last_update":"0001-01-01T00:00:00Z","name_a2s":"Uncletopia | Sydney | 1 | All Maps","protocol":17,"map":"pl_barnblitz","folder":"tf","game":"Team Fortress","app_id":440,"player_count":0,"max_players":24,"Bots":0,"server_type":"Dedicated","server_os":"Linux","password":true,"vac":true,"version":"7757534","steam_id":85568392924470001,"keywords":["nocrits","nodmgspread","payload","uncletopia"],"game_id":440,"stv_port":27016,"stv_name":"Uncletopia | Sydney | 1 | All Maps | STV","players":null},{"server_id":123,"name":"Uncletopia | Sydney | 2 | All Maps","name_short":"syd-2","host":"syd-1.au.uncletopia.com","port":27025,"enabled":true,"region":"au","cc":"au","latitude":-33.865143,"longitude":151.2099,"reserved":0,"last_update":"0001-01-01T00:00:00Z","name_a2s":"Uncletopia | Sydney | 2 | All Maps","protocol":17,"map":"cp_process_final","folder":"tf","game":"Team Fortress","app_id":440,"player_count":0,"max_players":24,"Bots":0,"server_type":"Dedicated","server_os":"Linux","password":true,"vac":true,"version":"7757534","steam_id":85568392924470002,"keywords":["cp","nocrits","nodmgspread","uncletopia"],"game_id":440,"stv_port":27026,"stv_name":"Uncletopia | Sydney | 2 | All Maps | STV","players":null},{"server_id":395,"name":"Uncletopia | Sydney | 3 | All Maps","name_short":"syd-3","host":"syd-1.au.uncletopia.com","port":27035,"enabled":true,"region":"au","cc":"au","latitude":-33.865143,"longitude":151.2099,"reserved":0,"last_update":"0001-01-01T00:00:00Z","name_a2s":"Uncletopia | Sydney | 3 | All Maps","protocol":17,"map":"pl_swiftwater_final1","folder":"tf","game":"Team Fortress","app_id":440,"player_count":0,"max_players":24,"Bots":0,"server_type":"Dedicated","server_os":"Linux","password":true,"vac":true,"version":"7757534","steam_id":85568392925194467,"keywords":["nocrits","nodmgspread","payload","uncletopia"],"game_id":440,"stv_port":27036,"stv_name":"Uncletopia | Sydney | 3 | All Maps | STV","players":null},{"server_id":396,"name":"Uncletopia | Sydney | 4 | All Maps","name_short":"syd-4","host":"syd-1.au.uncletopia.com","port":27045,"enabled":true,"region":"au","cc":"au","latitude":-33.865143,"longitude":151.2099,"reserved":0,"last_update":"0001-01-01T00:00:00Z","name_a2s":"Uncletopia | Sydney | 4 | All Maps","protocol":17,"map":"koth_highpass","folder":"tf","game":"Team Fortress","app_id":440,"player_count":0,"max_players":24,"Bots":0,"server_type":"Dedicated","server_os":"Linux","password":true,"vac":true,"version":"7757534","steam_id":85568392925397958,"keywords":["cp","nocrits","nodmgspread","uncletopia"],"game_id":440,"stv_port":27046,"stv_name":"Uncletopia | Sydney | 4 | All Maps | STV","players":null},{"server_id":58,"name":"Uncletopia | Sydney | 5 | Stopwatch Beta","name_short":"syd-5","host":"syd-1.au.uncletopia.com","port":27055,"enabled":true,"region":"au","cc":"au","latitude":-33.865143,"longitude":151.2099,"reserved":0,"last_update":"0001-01-01T00:00:00Z","name_a2s":"Uncletopia | Sydney | 5 | Stopwatch Beta","protocol":17,"map":"workshop/cp_reckoner_rc6.ugc674719999","folder":"tf","game":"Team Fortress","app_id":440,"player_count":0,"max_players":24,"Bots":0,"server_type":"Dedicated","server_os":"Linux","password":true,"vac":true,"version":"7757534","steam_id":85568392925397959,"keywords":["cp","nocrits","nodmgspread","uncletopia"],"game_id":440,"stv_port":27056,"stv_name":"Uncletopia | Sydney | 5 | Stopwatch Beta | STV","players":null},{"server_id":59,"name":"Uncletopia | Sydney | 6 | Community","name_short":"syd-6","host":"syd-1.au.uncletopia.com","port":27065,"enabled":true,"region":"au","cc":"au","latitude":-33.865143,"longitude":151.2099,"reserved":0,"last_update":"0001-01-01T00:00:00Z","name_a2s":"Uncletopia | Sydney | 6 | Community","protocol":17,"map":"workshop/koth_ashville_final.ugc2130459942","folder":"tf","game":"Team Fortress","app_id":440,"player_count":0,"max_players":24,"Bots":0,"server_type":"Dedicated","server_os":"Linux","password":true,"vac":true,"version":"7757534","steam_id":85568392925397960,"keywords":["cp","nocrits","nodmgspread","uncletopia"],"game_id":440,"stv_port":27066,"stv_name":"Uncletopia | Sydney | 6 | Community | STV","players":null},{"server_id":49,"name":"Uncletopia | Warsaw | 1 | All Maps","name_short":"waw-1","host":"waw-1.pl.uncletopia.com","port":27015,"enabled":true,"region":"eu","cc":"pl","latitude":52.2297,"longitude":21.017532,"reserved":0,"last_update":"0001-01-01T00:00:00Z","name_a2s":"","protocol":0,"map":"","folder":"","game":"","app_id":0,"player_count":0,"max_players":0,"Bots":0,"server_type":"","server_os":"","password":false,"vac":false,"version":"","steam_id":0,"keywords":null,"game_id":0,"stv_port":0,"stv_name":"","players":null},{"server_id":50,"name":"Uncletopia | Warsaw | 2 | All Maps","name_short":"waw-2","host":"waw-1.pl.uncletopia.com","port":27025,"enabled":true,"region":"eu","cc":"pl","latitude":52.2297,"longitude":21.017532,"reserved":0,"last_update":"0001-01-01T00:00:00Z","name_a2s":"Uncletopia | Warsaw | 2 | All Maps","protocol":17,"map":"koth_viaduct","folder":"tf","game":"Team Fortress","app_id":440,"player_count":0,"max_players":24,"Bots":0,"server_type":"Dedicated","server_os":"Linux","password":true,"vac":true,"version":"7757534","steam_id":85568392925397851,"keywords":["cp","nocrits","nodmgspread","uncletopia"],"game_id":440,"stv_port":27026,"stv_name":"Uncletopia | Warsaw | 2 | All Maps | STV","players":null},{"server_id":51,"name":"Uncletopia | Warsaw | 3 | All Maps","name_short":"waw-3","host":"waw-1.pl.uncletopia.com","port":27035,"enabled":true,"region":"eu","cc":"pl","latitude":52.2297,"longitude":21.017532,"reserved":0,"last_update":"0001-01-01T00:00:00Z","name_a2s":"Uncletopia | Warsaw | 3 | All Maps","protocol":17,"map":"koth_viaduct","folder":"tf","game":"Team Fortress","app_id":440,"player_count":0,"max_players":24,"Bots":0,"server_type":"Dedicated","server_os":"Linux","password":true,"vac":true,"version":"7757534","steam_id":85568392925397852,"keywords":["cp","nocrits","nodmgspread","uncletopia"],"game_id":440,"stv_port":27036,"stv_name":"Uncletopia | Warsaw | 3 | All Maps | STV","players":null},{"server_id":52,"name":"Uncletopia | Warsaw | 4 | All Maps","name_short":"waw-4","host":"waw-1.pl.uncletopia.com","port":27045,"enabled":true,"region":"eu","cc":"pl","latitude":52.2297,"longitude":21.017532,"reserved":0,"last_update":"0001-01-01T00:00:00Z","name_a2s":"Uncletopia | Warsaw | 4 | All Maps","protocol":17,"map":"koth_lakeside_final","folder":"tf","game":"Team Fortress","app_id":440,"player_count":0,"max_players":24,"Bots":0,"server_type":"Dedicated","server_os":"Linux","password":true,"vac":true,"version":"7757534","steam_id":85568392925397853,"keywords":["cp","nocrits","nodmgspread","uncletopia"],"game_id":440,"stv_port":27046,"stv_name":"Uncletopia | Warsaw | 4 | All Maps | STV","players":null},{"server_id":53,"name":"Uncletopia | Warsaw | 5 | Stopwatch Beta","name_short":"waw-5","host":"waw-1.pl.uncletopia.com","port":27055,"enabled":true,"region":"eu","cc":"pl","latitude":52.2297,"longitude":21.017532,"reserved":0,"last_update":"0001-01-01T00:00:00Z","name_a2s":"Uncletopia | Warsaw | 5 | Stopwatch Beta","protocol":17,"map":"pl_borneo","folder":"tf","game":"Team Fortress","app_id":440,"player_count":0,"max_players":24,"Bots":0,"server_type":"Dedicated","server_os":"Linux","password":true,"vac":true,"version":"7757534","steam_id":85568392925397854,"keywords":["nocrits","nodmgspread","payload","uncletopia"],"game_id":440,"stv_port":27056,"stv_name":"Uncletopia | Warsaw | 5 | Stopwatch Beta | STV","players":null},{"server_id":54,"name":"Uncletopia | Warsaw | 6 | Community","name_short":"waw-6","host":"waw-1.pl.uncletopia.com","port":27065,"enabled":true,"region":"eu","cc":"pl","latitude":52.2297,"longitude":21.017532,"reserved":0,"last_update":"0001-01-01T00:00:00Z","name_a2s":"Uncletopia | Warsaw | 6 | Community","protocol":17,"map":"koth_lakeside_final","folder":"tf","game":"Team Fortress","app_id":440,"player_count":0,"max_players":24,"Bots":0,"server_type":"Dedicated","server_os":"Linux","password":true,"vac":true,"version":"7757534","steam_id":85568392925397856,"keywords":["cp","nocrits","nodmgspread","uncletopia"],"game_id":440,"stv_port":27066,"stv_name":"Uncletopia | Warsaw | 6 | Community | STV","players":null}]}