{"status":true,"message":"","result":[{"server_id":9,"name":"Uncletopia | Atlanta | 1 | All Maps","name_short":"atl-1","host":"atl-1.us.uncletopia.com","port":27015,"enabled":true,"region":"us-east","cc":"us","latitude":33.753746,"longitude":-84.38633,"reserved":0,"last_update":"0001-01-01T00:00:00Z","name_a2s":"Uncletopia | Atlanta | 1 | All Maps","protocol":17,"map":"koth_lakeside_final","folder":"tf","game":"Team Fortress","app_id":440,"player_count":0,"max_players":24,"Bots":0,"server_type":"Dedicated","server_os":"Linux","password":true,"vac":true,"version":"7961495","steam_id":85568392924469982,"keywords":["cp","nocrits","nodmgspread","uncletopia"],"game_id":440,"stv_port":27016,"stv_name":"Uncletopia | Atlanta | 1 | All Maps | STV","players":null},{"server_id":104,"name":"Uncletopia | Atlanta | 2 | All Maps","name_short":"atl-2","host":"atl-1.us.uncletopia.com","port":27025,"enabled":true,"region":"us-east","cc":"us","latitude":33.753746,"longitude":-84.38633,"reserved":0,"last_update":"0001-01-01T00:00:00Z","name_a2s":"Uncletopia | Atlanta | 2 | All Maps","protocol":17,"map":"koth_cascade","folder":"tf","game":"Team Fortress","app_id":440,"player_count":0,"max_players":24,"Bots":0,"server_type":"Dedicated","server_os":"Linux","password":true,"vac":true,"version":"7961495","steam_id":85568392924469983,"keywords":["cp","nocrits","nodmgspread","uncletopia"],"game_id":440,"stv_port":27026,"stv_name":"Uncletopia | Atlanta | 2 | All Maps | STV","players":null},{"server_id":400,"name":"Uncletopia | Atlanta | 3 | Stopwatch","name_short":"atl-3","host":"atl-1.us.uncletopia.com","port":27035,"enabled":true,"region":"us-east","cc":"us","latitude":33.753746,"longitude":-84.38633,"reserved":0,"last_update":"0001-01-01T00:00:00Z","name_a2s":"Uncletopia | Atlanta | 3 | Stopwatch","protocol":17,"map":"pl_badwater","folder":"tf","game":"Team Fortress","app_id":440,"player_count":0,"max_players":24,"Bots":0,"server_type":"Dedicated","server_os":"Linux","password":true,"vac":true,"version":"7961495","steam_id":85568392924515187,"keywords":["nocrits","nodmgspread","payload","uncletopia"],"game_id":440,"stv_port":27036,"stv_name":"Uncletopia | Atlanta | 3 | Stopwatch | STV","players":null},{"server_id":401,"name":"Uncletopia | Atlanta | 4 | Community","name_short":"atl-4","host":"atl-1.us.uncletopia.com","port":27045,"enabled":true,"region":"us-east","cc":"us","latitude":33.753746,"longitude":-84.38633,"reserved":0,"last_update":"0001-01-01T00:00:00Z","name_a2s":"Uncletopia | Atlanta | 4 | Community","protocol":17,"map":"cp_sunshine","folder":"tf","game":"Team Fortress","app_id":440,"player_count":0,"max_players":24,"Bots":0,"server_type":"Dedicated","server_os":"Linux","password":true,"vac":true,"version":"7961495","steam_id":85568392924515188,"keywords":["cp","nocrits","nodmgspread","uncletopia"],"game_id":440,"stv_port":27046,"stv_name":"Uncletopia | Atlanta | 4 | Community | STV","players":null},{"server_id":2,"name":"Uncletopia | Chicago | 1 | All Maps","name_short":"chi-1","host":"chi-1.us.uncletopia.com","port":27015,"enabled":true,"region":"us-central","cc":"us","latitude":41.881832,"longitude":-87.62318,"reserved":0,"last_update":"0001-01-01T00:00:00Z","name_a2s":"Uncletopia | Chicago | 1 | All Maps","protocol":17,"map":"koth_highpass","folder":"tf","game":"Team Fortress","app_id":440,"player_count":0,"max_players":24,"Bots":0,"server_type":"Dedicated","server_os":"Linux","password":true,"vac":true,"version":"7961495","steam_id":85568392924469984,"keywords":["cp","nocrits","nodmgspread","uncletopia"],"game_id":440,"stv_port":27016,"stv_name":"Uncletopia | Chicago | 1 | All Maps | STV","players":null},{"server_id":106,"name":"Uncletopia | Chicago | 2 | All Maps","name_short":"chi-2","host":"chi-1.us.uncletopia.com","port":27025,"enabled":true,"region":"us-central","cc":"us","latitude":41.881832,"longitude":-87.62318,"reserved":0,"last_update":"0001-01-01T00:00:00Z","name_a2s":"Uncletopia | Chicago | 2 | All Maps","protocol":17,"map":"pl_borneo","folder":"tf","game":"Team Fortress","app_id":440,"player_count":24,"max_players":24,"Bots":0,"server_type":"Dedicated","server_os":"Linux","password":true,"vac":true,"version":"7961495","steam_id":85568392924469985,"keywords":["nocrits","nodmgspread","payload","uncletopia"],"game_id":440,"stv_port":27026,"stv_name":"Uncletopia | Chicago | 2 | All Maps | STV","players":[{"user_id":121,"name":"Siren","steam_id":76561198047395823,"connected_time":50000000000,"state":"active","ping":95},{"user_id":79,"name":"Dareu","steam_id":76561198081781710,"connected_time":3680000000000,"state":"active","ping":72},{"user_id":96,"name":"Gargathor the Entity Catcher","steam_id":76561198189429665,"connected_time":2893000000000,"state":"active","ping":71},{"user_id":122,"name":"SCARY MONSTERS","steam_id":76561198042034176,"connected_time":7000000000,"state":"active","ping":75},{"user_id":55,"name":"newjack","steam_id":76561198353456379,"connected_time":5868000000000,"state":"active","ping":64},{"user_id":94,"name":"AwesomeMissB","steam_id":76561199066244584,"connected_time":2924000000000,"state":"active","ping":74},{"user_id":51,"name":"c","steam_id":76561198881665250,"connected_time":7294000000000,"state":"active","ping":90},{"user_id":98,"name":"viagra addict","steam_id":76561198017705248,"connected_time":2146000000000,"state":"active","ping":45},{"user_id":102,"name":"Reznika","steam_id":76561198116144377,"connected_time":2099000000000,"state":"active","ping":74},{"user_id":74,"name":"Sonic Mania 2 [100 Real Leaked","steam_id":76561198062764039,"connected_time":4296000000000,"state":"active","ping":163},{"user_id":103,"name":"Vortexian","steam_id":76561199066950535,"connected_time":1881000000000,"state":"active","ping":80},{"user_id":15,"name":"ImmortalProphet","steam_id":76561198012352477,"connected_time":9618000000000,"state":"active","ping":45},{"user_id":104,"name":"ol' musty","steam_id":76561198081075865,"connected_time":1876000000000,"state":"active","ping":71},{"user_id":101,"name":"floofy","steam_id":76561198389769098,"connected_time":2117000000000,"state":"active","ping":80},{"user_id":40,"name":"John Calibur","steam_id":76561197999986606,"connected_time":8189000000000,"state":"active","ping":91},{"user_id":113,"name":"FaZe Pumpkin","steam_id":76561197999128868,"connected_time":636000000000,"state":"active","ping":82},{"user_id":64,"name":"lynt","steam_id":76561198988333976,"connected_time":5818000000000,"state":"active","ping":68},{"user_id":22,"name":"albert581_gaming","steam_id":76561198219209367,"connected_time":9469000000000,"state":"active","ping":68},{"user_id":112,"name":"Brown_Dream","steam_id":76561198975766145,"connected_time":658000000000,"state":"active","ping":83},{"user_id":99,"name":"club going up","steam_id":76561198141700569,"connected_time":2144000000000,"state":"active","ping":75},{"user_id":84,"name":"meowfang","steam_id":76561198123056791,"connected_time":3610000000000,"state":"active","ping":65},{"user_id":107,"name":"rice white","steam_id":76561198320732910,"connected_time":1796000000000,"state":"active","ping":74},{"user_id":117,"name":"00Lemon","steam_id":76561198068014451,"connected_time":225000000000,"state":"active","ping":102},{"user_id":110,"name":"inshallah","steam_id":76561198165212575,"connected_time":1315000000000,"state":"active","ping":74}]},{"server_id":402,"name":"Uncletopia | Chicago | 3 | All Maps","name_short":"chi-3","host":"chi-1.us.uncletopia.com","port":27035,"enabled":true,"region":"us-central","cc":"us","latitude":41.881832,"longitude":-87.62318,"reserved":0,"last_update":"0001-01-01T00:00:00Z","name_a2s":"Uncletopia | Chicago | 3 | All Maps","protocol":17,"map":"pl_upward","folder":"tf","game":"Team Fortress","app_id":440,"player_count":24,"max_players":24,"Bots":0,"server_type":"Dedicated","server_os":"Linux","password":true,"vac":true,"version":"7961495","steam_id":85568392924515191,"keywords":["nocrits","nodmgspread","payload","uncletopia"],"game_id":440,"stv_port":27036,"stv_name":"Uncletopia | Chicago | 3 | All Maps | STV","players":[{"user_id":52,"name":"Drachma","steam_id":76561198007310514,"connected_time":2925000000000,"state":"active","ping":57},{"user_id":62,"name":"Mick","steam_id":76561198972619900,"connected_time":2229000000000,"state":"active","ping":67},{"user_id":61,"name":"Nuts from Berserk","steam_id":76561199474152483,"connected_time":2414000000000,"state":"active","ping":70},{"user_id":75,"name":"world machine","steam_id":76561198020689909,"connected_time":303000000000,"state":"active","ping":87},{"user_id":69,"name":"Tonio The Jester","steam_id":76561199489156825,"connected_time":1204000000000,"state":"active","ping":65},{"user_id":82,"name":"TV12Lime","steam_id":76561199036195384,"connected_time":168000000000,"state":"active","ping":63},{"user_id":85,"name":"SuitNtie_","steam_id":76561199405831719,"connected_time":52000000000,"state":"active","ping":84},{"user_id":53,"name":"Gooper Blooper","steam_id":76561198067174070,"connected_time":2909000000000,"state":"active","ping":93},{"user_id":77,"name":"Hulkster","steam_id":76561198278156353,"connected_time":288000000000,"state":"active","ping":109},{"user_id":65,"name":"Airwolf28","steam_id":76561199002019722,"connected_time":1626000000000,"state":"active","ping":88},{"user_id":43,"name":"cashinchina","steam_id":76561199449147549,"connected_time":3676000000000,"state":"active","ping":74},{"user_id":48,"name":"zacmattsmith","steam_id":76561199027704149,"connected_time":3139000000000,"state":"active","ping":78},{"user_id":86,"name":"conner","steam_id":76561198052911241,"connected_time":39000000000,"state":"active","ping":70},{"user_id":73,"name":"Wet","steam_id":76561199474220124,"connected_time":540000000000,"state":"active","ping":90},{"user_id":87,"name":"♥Stephiebees♥","steam_id":76561198021529860,"connected_time":22000000000,"state":"spawning","ping":95},{"user_id":30,"name":"Chicago Shoplifter","steam_id":76561197986530028,"connected_time":4390000000000,"state":"active","ping":104},{"user_id":57,"name":"denzell05","steam_id":76561198086987061,"connected_time":2558000000000,"state":"active","ping":104},{"user_id":54,"name":"Rick Assley","steam_id":76561198365019199,"connected_time":2907000000000,"state":"active","ping":60},{"user_id":79,"name":"Zymiren","steam_id":76561198054985471,"connected_time":265000000000,"state":"active","ping":99},{"user_id":81,"name":"Pixel Beat","steam_id":76561198027624919,"connected_time":212000000000,"state":"active","ping":78},{"user_id":28,"name":"Tsars","steam_id":76561198220145115,"connected_time":4498000000000,"state":"active","ping":86},{"user_id":80,"name":"Deltaco","steam_id":76561198094572694,"connected_time":234000000000,"state":"active","ping":113},{"user_id":59,"name":"Kiss Master","steam_id":76561198289572271,"connected_time":2507000000000,"state":"active","ping":80},{"user_id":84,"name":"the BIG CHEESE","steam_id":76561198281735951,"connected_time":101000000000,"state":"active","ping":65}]},{"server_id":403,"name":"Uncletopia | Chicago | 4 | All Maps","name_short":"chi-4","host":"chi-1.us.uncletopia.com","port":27045,"enabled":true,"region":"us-central","cc":"us","latitude":41.881832,"longitude":-87.62318,"reserved":0,"last_update":"0001-01-01T00:00:00Z","name_a2s":"Uncletopia | Chicago | 4 | All Maps","protocol":17,"map":"pl_barnblitz","folder":"tf","game":"Team Fortress","app_id":440,"player_count":0,"max_players":24,"Bots":0,"server_type":"Dedicated","server_os":"Linux","password":true,"vac":true,"version":"7961495","steam_id":85568392924515193,"keywords":["nocrits","nodmgspread","payload","uncletopia"],"game_id":440,"stv_port":27046,"stv_name":"Uncletopia | Chicago | 4 | All Maps | STV","players":null},{"server_id":36,"name":"Uncletopia | Chicago | 5 | All Maps","name_short":"chi-5","host":"chi-2.us.uncletopia.com","port":27015,"enabled":true,"region":"us-central","cc":"us","latitude":41.881832,"longitude":-87.62318,"reserved":0,"last_update":"0001-01-01T00:00:00Z","name_a2s":"Uncletopia | Chicago | 5 | All Maps","protocol":17,"map":"koth_viaduct","folder":"tf","game":"Team Fortress","app_id":440,"player_count":0,"max_players":24,"Bots":0,"server_type":"Dedicated","server_os":"Linux","password":true,"vac":true,"version":"7961495","steam_id":85568392924866362,"keywords":["cp","nocrits","nodmgspread","uncletopia"],"game_id":440,"stv_port":27016,"stv_name":"Uncletopia | Chicago | 5 | All Maps | STV","players":null},{"server_id":37,"name":"Uncletopia | Chicago | 6 | All Maps","name_short":"chi-6","host":"chi-2.us.uncletopia.com","port":27025,"enabled":true,"region":"us-central","cc":"us","latitude":41.881832,"longitude":-87.62318,"reserved":0,"last_update":"0001-01-01T00:00:00Z","name_a2s":"Uncletopia | Chicago | 6 | All Maps","protocol":17,"map":"pl_frontier_final","folder":"tf","game":"Team Fortress","app_id":440,"player_count":24,"max_players":24,"Bots":0,"server_type":"Dedicated","server_os":"Linux","password":true,"vac":true,"version":"7961495","steam_id":85568392924866363,"keywords":["nocrits","nodmgspread","payload","uncletopia"],"game_id":440,"stv_port":27026,"stv_name":"Uncletopia | Chicago | 6 | All Maps | STV","players":[{"user_id":4,"name":"Carton","steam_id":76561198989473391,"connected_time":2794000000000,"state":"active","ping":64},{"user_id":12,"name":"XD_ChaChingXD","steam_id":76561199103086783,"connected_time":969000000000,"state":"active","ping":83},{"user_id":7,"name":"harold of rock salt kingdom","steam_id":76561199016285746,"connected_time":1476000000000,"state":"active","ping":83},{"user_id":31,"name":"Chafn","steam_id":76561197969386702,"connected_time":83000000000,"state":"active","ping":98},{"user_id":9,"name":"Kindagoodplayer","steam_id":76561198814625843,"connected_time":1179000000000,"state":"active","ping":68},{"user_id":10,"name":"Bangushonkle","steam_id":76561198218887511,"connected_time":1128000000000,"state":"active","ping":100},{"user_id":11,"name":"BaraWolf","steam_id":76561198119677738,"connected_time":1025000000000,"state":"active","ping":97},{"user_id":13,"name":"socializedCryptid","steam_id":76561198991665007,"connected_time":955000000000,"state":"active","ping":49},{"user_id":14,"name":"Tabby!!!!","steam_id":76561198018288153,"connected_time":948000000000,"state":"active","ping":43},{"user_id":15,"name":"ThatPizzaGuy","steam_id":76561198836374659,"connected_time":736000000000,"state":"active","ping":59},{"user_id":16,"name":"kolkon","steam_id":76561198073360267,"connected_time":690000000000,"state":"active","ping":84},{"user_id":17,"name":"penguin heister","steam_id":76561198384120999,"connected_time":605000000000,"state":"active","ping":73},{"user_id":18,"name":"Novu","steam_id":76561198886997024,"connected_time":598000000000,"state":"active","ping":87},{"user_id":19,"name":"Missing Minus","steam_id":76561198120822928,"connected_time":531000000000,"state":"active","ping":61},{"user_id":20,"name":"THE CUMEST LORD","steam_id":76561198061412592,"connected_time":528000000000,"state":"active","ping":77},{"user_id":21,"name":"Big_Beans888","steam_id":76561198100822287,"connected_time":511000000000,"state":"active","ping":115},{"user_id":22,"name":"RAMpageVII","steam_id":76561198055586643,"connected_time":450000000000,"state":"active","ping":87},{"user_id":23,"name":"Literally a Trans Woman","steam_id":76561198054639925,"connected_time":440000000000,"state":"active","ping":63},{"user_id":24,"name":"Gaming Grandpa","steam_id":76561198121418631,"connected_time":435000000000,"state":"active","ping":62},{"user_id":25,"name":"Yukon Lil’ Man","steam_id":76561198129911964,"connected_time":434000000000,"state":"active","ping":92},{"user_id":29,"name":"Yeonwoo","steam_id":76561199082985721,"connected_time":333000000000,"state":"active","ping":72},{"user_id":27,"name":"Okpar","steam_id":76561199221067945,"connected_time":377000000000,"state":"active","ping":100},{"user_id":28,"name":"Red Heavy (Redemption Arc)","steam_id":76561198347098230,"connected_time":358000000000,"state":"active","ping":100},{"user_id":30,"name":"socialism doesnt work","steam_id":76561198044115698,"connected_time":309000000000,"state":"active","ping":76}]},{"server_id":38,"name":"Uncletopia | Chicago | 7 | Stopwatch","name_short":"chi-7","host":"chi-2.us.uncletopia.com","port":27035,"enabled":true,"region":"us-central","cc":"us","latitude":41.881832,"longitude":-87.62318,"reserved":0,"last_update":"0001-01-01T00:00:00Z","name_a2s":"Uncletopia | Chicago | 7 | Stopwatch","protocol":17,"map":"workshop/koth_product_final.ugc454272353","folder":"tf","game":"Team Fortress","app_id":440,"player_count":0,"max_players":24,"Bots":0,"server_type":"Dedicated","server_os":"Linux","password":true,"vac":true,"version":"7961495","steam_id":85568392924866364,"keywords":["cp","nocrits","nodmgspread","uncletopia"],"game_id":440,"stv_port":27036,"stv_name":"Uncletopia | Chicago | 7 | Stopwatch | STV","players":null},{"server_id":39,"name":"Uncletopia | Chicago | 8 | Community","name_short":"chi-8","host":"chi-2.us.uncletopia.com","port":27045,"enabled":true,"region":"us-central","cc":"us","latitude":41.881832,"longitude":-87.62318,"reserved":0,"last_update":"0001-01-01T00:00:00Z","name_a2s":"Uncletopia | Chicago | 8 | Community","protocol":17,"map":"pl_pier","folder":"tf","game":"Team Fortress","app_id":440,"player_count":0,"max_players":24,"Bots":0,"server_type":"Dedicated","server_os":"Linux","password":true,"vac":true,"version":"7961495","steam_id":85568392924866365,"keywords":["nocrits","nodmgspread","payload","uncletopia"],"game_id":440,"stv_port":27046,"stv_name":"Uncletopia | Chicago | 8 | Community | STV","players":null},{"server_id":8,"name":"Uncletopia | Dallas | 1 | All Maps","name_short":"dal-1","host":"dal-1.us.uncletopia.com","port":27015,"enabled":true,"region":"us-central","cc":"us","latitude":32.779167,"longitude":-96.80889,"reserved":0,"last_update":"0001-01-01T00:00:00Z","name_a2s":"Uncletopia | Dallas | 1 | All Maps","protocol":17,"map":"pl_barnblitz","folder":"tf","game":"Team Fortress","app_id":440,"player_count":0,"max_players":24,"Bots":0,"server_type":"Dedicated","server_os":"Linux","password":true,"vac":true,"version":"7961495","steam_id":85568392924469986,"keywords":["nocrits","nodmgspread","payload","uncletopia"],"game_id":440,"stv_port":27016,"stv_name":"Uncletopia | Dallas | 1 | All Maps | STV","players":null},{"server_id":108,"name":"Uncletopia | Dallas | 2 | All Maps","name_short":"dal-2","host":"dal-1.us.uncletopia.com","port":27025,"enabled":true,"region":"us-central","cc":"us","latitude":32.779167,"longitude":-96.80889,"reserved":0,"last_update":"0001-01-01T00:00:00Z","name_a2s":"Uncletopia | Dallas | 2 | All Maps","protocol":17,"map":"pl_snowycoast","folder":"tf","game":"Team Fortress","app_id":440,"player_count":0,"max_players":24,"Bots":0,"server_type":"Dedicated","server_os":"Linux","password":true,"vac":true,"version":"7961495","steam_id":85568392924469988,"keywords":["nocrits","nodmgspread","payload","uncletopia"],"game_id":440,"stv_port":27026,"stv_name":"Uncletopia | Dallas | 2 | All Maps | STV","players":null},{"server_id":404,"name":"Uncletopia | Dallas | 3 | All Maps","name_short":"dal-3","host":"dal-1.us.uncletopia.com","port":27035,"enabled":true,"region":"us-central","cc":"us","latitude":32.779167,"longitude":-96.80889,"reserved":0,"last_update":"0001-01-01T00:00:00Z","name_a2s":"Uncletopia | Dallas | 3 | All Maps","protocol":17,"map":"pl_badwater","folder":"tf","game":"Team Fortress","app_id":440,"player_count":0,"max_players":24,"Bots":0,"server_type":"Dedicated","server_os":"Linux","password":true,"vac":true,"version":"7961495","steam_id":85568392924515219,"keywords":["nocrits","nodmgspread","payload","uncletopia"],"game_id":440,"stv_port":27036,"stv_name":"Uncletopia | Dallas | 3 | All Maps | STV","players":null},{"server_id":405,"name":"Uncletopia | Dallas | 4 | Community","name_short":"dal-4","host":"dal-1.us.uncletopia.com","port":27045,"enabled":true,"region":"us-central","cc":"us","latitude":32.779167,"longitude":-96.80889,"reserved":0,"last_update":"0001-01-01T00:00:00Z","name_a2s":"Uncletopia | Dallas | 4 | Community","protocol":17,"map":"pl_pier","folder":"tf","game":"Team Fortress","app_id":440,"player_count":0,"max_players":24,"Bots":0,"server_type":"Dedicated","server_os":"Linux","password":true,"vac":true,"version":"7961495","steam_id":85568392924515220,"keywords":["nocrits","nodmgspread","payload","uncletopia"],"game_id":440,"stv_port":27046,"stv_name":"Uncletopia | Dallas | 4 | Community | STV","players":null},{"server_id":5,"name":"Uncletopia | Frankfurt | 1 | All Maps","name_short":"frk-1","host":"frk-1.de.uncletopia.com","port":27015,"enabled":true,"region":"eu","cc":"de","latitude":50.110924,"longitude":8.682127,"reserved":0,"last_update":"0001-01-01T00:00:00Z","name_a2s":"Uncletopia | Frankfurt | 1 | All Maps","protocol":17,"map":"cp_process_final","folder":"tf","game":"Team Fortress","app_id":440,"player_count":24,"max_players":24,"Bots":0,"server_type":"Dedicated","server_os":"Linux","password":true,"vac":true,"version":"7961495","steam_id":85568392924469989,"keywords":["cp","nocrits","nodmgspread","uncletopia"],"game_id":440,"stv_port":27016,"stv_name":"Uncletopia | Frankfurt | 1 | All Maps | STV","players":[{"user_id":181,"name":"jekk.97","steam_id":76561198146961838,"connected_time":1284000000000,"state":"active","ping":108},{"user_id":156,"name":"Zaanx","steam_id":76561199125603907,"connected_time":3279000000000,"state":"active","ping":103},{"user_id":170,"name":"videogaming","steam_id":76561198818037965,"connected_time":1945000000000,"state":"active","ping":108},{"user_id":50,"name":"Alpi","steam_id":76561198106304435,"connected_time":9892000000000,"state":"active","ping":88},{"user_id":106,"name":"Dot","steam_id":76561198047299145,"connected_time":5837000000000,"state":"active","ping":70},{"user_id":172,"name":"Zm4j","steam_id":76561198259465946,"connected_time":1826000000000,"state":"active","ping":87},{"user_id":175,"name":"agent_richi","steam_id":76561199218542987,"connected_time":1552000000000,"state":"active","ping":53},{"user_id":131,"name":"submackeen","steam_id":76561198799855913,"connected_time":4905000000000,"state":"active","ping":173},{"user_id":171,"name":"❤","steam_id":76561198798841999,"connected_time":1863000000000,"state":"active","ping":65},{"user_id":183,"name":"Tywhip","steam_id":76561199207545191,"connected_time":1246000000000,"state":"active","ping":59},{"user_id":116,"name":"dnc about you, gopro","steam_id":76561199176835169,"connected_time":5692000000000,"state":"active","ping":66},{"user_id":135,"name":"VilunkiVille","steam_id":76561198091475935,"connected_time":4838000000000,"state":"active","ping":104},{"user_id":133,"name":"ThomasAngel","steam_id":76561198034573104,"connected_time":4885000000000,"state":"active","ping":133},{"user_id":186,"name":"leonardini.w","steam_id":76561199097963071,"connected_time":884000000000,"state":"active","ping":94},{"user_id":177,"name":"Will","steam_id":76561198173329977,"connected_time":1525000000000,"state":"active","ping":64},{"user_id":114,"name":"cosmetical","steam_id":76561198444036574,"connected_time":5746000000000,"state":"active","ping":60},{"user_id":188,"name":"xavier","steam_id":76561198076494034,"connected_time":59000000000,"state":"active","ping":57},{"user_id":180,"name":"TheEventGuy","steam_id":76561197972797744,"connected_time":1303000000000,"state":"active","ping":69},{"user_id":166,"name":"Imperial City Guard","steam_id":76561198083355845,"connected_time":2171000000000,"state":"active","ping":60},{"user_id":148,"name":"Bulyto","steam_id":76561198043205202,"connected_time":3987000000000,"state":"active","ping":71},{"user_id":138,"name":"madhead200","steam_id":76561198119498666,"connected_time":4673000000000,"state":"active","ping":90},{"user_id":185,"name":"N00BCSF","steam_id":76561198035530934,"connected_time":981000000000,"state":"active","ping":75},{"user_id":184,"name":"Švarcas","steam_id":76561198841646694,"connected_time":1187000000000,"state":"active","ping":68},{"user_id":174,"name":"hipster_doofus","steam_id":76561197970902697,"connected_time":1665000000000,"state":"active","ping":71}]},{"server_id":110,"name":"Uncletopia | Frankfurt | 2 | All Maps","name_short":"frk-2","host":"frk-1.de.uncletopia.com","port":27025,"enabled":true,"region":"eu","cc":"de","latitude":50.110924,"longitude":8.682127,"reserved":0,"last_update":"0001-01-01T00:00:00Z","name_a2s":"Uncletopia | Frankfurt | 2 | All Maps","protocol":17,"map":"pl_borneo","folder":"tf","game":"Team Fortress","app_id":440,"player_count":25,"max_players":24,"Bots":0,"server_type":"Dedicated","server_os":"Linux","password":true,"vac":true,"version":"7961495","steam_id":85568392924469990,"keywords":["nocrits","nodmgspread","payload","uncletopia"],"game_id":440,"stv_port":27026,"stv_name":"Uncletopia | Frankfurt | 2 | All Maps | STV","players":[{"user_id":91,"name":"Tri-","steam_id":76561198133524794,"connected_time":197000000000,"state":"active","ping":57},{"user_id":33,"name":"Veltek","steam_id":76561198112681438,"connected_time":3249000000000,"state":"active","ping":81},{"user_id":63,"name":".tv/red_naxela","steam_id":76561197998803950,"connected_time":2012000000000,"state":"active","ping":48},{"user_id":35,"name":"płó","steam_id":76561198286747891,"connected_time":3131000000000,"state":"active","ping":75},{"user_id":69,"name":"deez","steam_id":76561199093115772,"connected_time":1617000000000,"state":"active","ping":78},{"user_id":70,"name":"coffee","steam_id":76561198382387303,"connected_time":1594000000000,"state":"active","ping":127},{"user_id":61,"name":"Aver555","steam_id":76561198280370727,"connected_time":2312000000000,"state":"active","ping":54},{"user_id":88,"name":"gpupdate","steam_id":76561198154677956,"connected_time":228000000000,"state":"active","ping":71},{"user_id":72,"name":"xX_NoiceMaster69_Xx","steam_id":76561198179315669,"connected_time":1582000000000,"state":"active","ping":80},{"user_id":82,"name":"Niko","steam_id":76561199006295285,"connected_time":930000000000,"state":"active","ping":215},{"user_id":42,"name":"TheOxideGamer","steam_id":76561199445897326,"connected_time":2925000000000,"state":"active","ping":84},{"user_id":80,"name":"Wardruna96","steam_id":76561199057083828,"connected_time":1468000000000,"state":"active","ping":69},{"user_id":74,"name":"Phloggers","steam_id":76561198213268633,"connected_time":1566000000000,"state":"active","ping":49},{"user_id":45,"name":"Kittisci","steam_id":76561198086690940,"connected_time":2824000000000,"state":"active","ping":60},{"user_id":65,"name":"Mind Fuzz","steam_id":76561198050079428,"connected_time":1790000000000,"state":"active","ping":96},{"user_id":47,"name":"Swift","steam_id":76561198194603287,"connected_time":2807000000000,"state":"active","ping":59},{"user_id":48,"name":"Eggcracker","steam_id":76561199274850641,"connected_time":2773000000000,"state":"active","ping":100},{"user_id":59,"name":"frontier best map","steam_id":76561198220348987,"connected_time":2433000000000,"state":"active","ping":80},{"user_id":81,"name":"Audrekas","steam_id":76561198797219460,"connected_time":1148000000000,"state":"active","ping":58},{"user_id":58,"name":"nikita buyanov","steam_id":76561198250731852,"connected_time":2578000000000,"state":"active","ping":60},{"user_id":92,"name":"daanvanliempt05","steam_id":76561198355398948,"connected_time":182000000000,"state":"active","ping":49},{"user_id":86,"name":"That Phlog mfer","steam_id":76561198050416948,"connected_time":425000000000,"state":"active","ping":57},{"user_id":110,"name":"God's Goofiest Goober","steam_id":76561198103175187,"connected_time":44000000000,"state":"active","ping":59},{"user_id":104,"name":"finbar","steam_id":76561198056812396,"connected_time":125000000000,"state":"active","ping":74},{"user_id":111,"name":"Bottle O' Scrumpy","steam_id":76561199244250562,"connected_time":9000000000,"state":"spawning","ping":340}]},{"server_id":308,"name":"Uncletopia | Frankfurt | 3 | All Maps","name_short":"frk-3","host":"frk-1.de.uncletopia.com","port":27035,"enabled":true,"region":"eu","cc":"de","latitude":50.110924,"longitude":8.682127,"reserved":0,"last_update":"0001-01-01T00:00:00Z","name_a2s":"Uncletopia | Frankfurt | 3 | All Maps","protocol":17,"map":"cp_process_final","folder":"tf","game":"Team Fortress","app_id":440,"player_count":24,"max_players":24,"Bots":0,"server_type":"Dedicated","server_os":"Linux","password":true,"vac":true,"version":"7961495","steam_id":85568392924504274,"keywords":["cp","nocrits","nodmgspread","uncletopia"],"game_id":440,"stv_port":27036,"stv_name":"Uncletopia | Frankfurt | 3 | All Maps | STV","players":[{"user_id":104,"name":"im a girl","steam_id":76561198101995942,"connected_time":1513000000000,"state":"active","ping":98},{"user_id":121,"name":"AWP Bodyshot :) ❤","steam_id":76561198029928533,"connected_time":227000000000,"state":"active","ping":42},{"user_id":122,"name":"aaa","steam_id":76561198322459156,"connected_time":169000000000,"state":"active","ping":56},{"user_id":79,"name":"Na'vi Misato (by popular demand","steam_id":76561198130860698,"connected_time":2639000000000,"state":"active","ping":57},{"user_id":24,"name":"cotroD","steam_id":76561198130063938,"connected_time":7589000000000,"state":"active","ping":110},{"user_id":105,"name":"kiniènse?","steam_id":76561198177533491,"connected_time":1504000000000,"state":"active","ping":48},{"user_id":71,"name":"DEFENDOR62","steam_id":76561199386703896,"connected_time":3475000000000,"state":"active","ping":62},{"user_id":99,"name":"jeezo","steam_id":76561198123592400,"connected_time":1772000000000,"state":"active","ping":87},{"user_id":106,"name":"HUUUUUUUUUARSH","steam_id":76561198177660805,"connected_time":1492000000000,"state":"active","ping":48},{"user_id":81,"name":"ᴋᴜᴀʀᴛ","steam_id":76561199212930778,"connected_time":2573000000000,"state":"active","ping":81},{"user_id":85,"name":"ash","steam_id":76561198004728744,"connected_time":2502000000000,"state":"active","ping":51},{"user_id":82,"name":"odeg","steam_id":76561198326615982,"connected_time":2570000000000,"state":"active","ping":64},{"user_id":118,"name":"why rum gone","steam_id":76561198158484784,"connected_time":621000000000,"state":"active","ping":60},{"user_id":38,"name":"moglimbo","steam_id":76561198083937378,"connected_time":5719000000000,"state":"active","ping":60},{"user_id":108,"name":"ピドラス","steam_id":76561198092463910,"connected_time":1433000000000,"state":"active","ping":60},{"user_id":110,"name":"Falfe","steam_id":76561199007446494,"connected_time":1263000000000,"state":"active","ping":62},{"user_id":50,"name":"Jahlil D'armequanius Finglenut","steam_id":76561198855897385,"connected_time":5256000000000,"state":"active","ping":69},{"user_id":116,"name":"Titut11","steam_id":76561198392505656,"connected_time":658000000000,"state":"active","ping":65},{"user_id":115,"name":"Team Fortress 2","steam_id":76561198190936635,"connected_time":719000000000,"state":"active","ping":61},{"user_id":114,"name":"Arsonist","steam_id":76561199087953833,"connected_time":763000000000,"state":"active","ping":103},{"user_id":111,"name":"Local Toaster","steam_id":76561198323678206,"connected_time":1062000000000,"state":"active","ping":60},{"user_id":119,"name":"джегеми хэпкингс","steam_id":76561198131531394,"connected_time":441000000000,"state":"active","ping":90},{"user_id":91,"name":"stuff liker","steam_id":76561198058012525,"connected_time":2328000000000,"state":"active","ping":48},{"user_id":107,"name":"Fly in Ointment","steam_id":76561198292003338,"connected_time":1490000000000,"state":"active","ping":75}]},{"server_id":309,"name":"Uncletopia | Frankfurt | 4 | All Maps","name_short":"frk-4","host":"frk-1.de.uncletopia.com","port":27045,"enabled":true,"region":"eu","cc":"de","latitude":50.110924,"longitude":8.682127,"reserved":0,"last_update":"0001-01-01T00:00:00Z","name_a2s":"Uncletopia | Frankfurt | 4 | All Maps","protocol":17,"map":"cp_metalworks","folder":"tf","game":"Team Fortress","app_id":440,"player_count":24,"max_players":24,"Bots":0,"server_type":"Dedicated","server_os":"Linux","password":true,"vac":true,"version":"7961495","steam_id":85568392924504275,"keywords":["cp","nocrits","nodmgspread","uncletopia"],"game_id":440,"stv_port":27046,"stv_name":"Uncletopia | Frankfurt | 4 | All Maps | STV","players":[{"user_id":263,"name":"steinar","steam_id":76561198441857153,"connected_time":1329000000000,"state":"active","ping":76},{"user_id":213,"name":"DudeoftheRock","steam_id":76561198059401865,"connected_time":4239000000000,"state":"active","ping":78},{"user_id":252,"name":"Aven","steam_id":76561198974343597,"connected_time":1789000000000,"state":"active","ping":86},{"user_id":267,"name":"DemocracyFirst","steam_id":76561198242291028,"connected_time":1149000000000,"state":"active","ping":88},{"user_id":200,"name":"Spinya","steam_id":76561198086653667,"connected_time":4378000000000,"state":"active","ping":63},{"user_id":261,"name":"Gruset","steam_id":76561198327512432,"connected_time":1404000000000,"state":"active","ping":89},{"user_id":206,"name":"Cabbch","steam_id":76561198045955679,"connected_time":4324000000000,"state":"active","ping":59},{"user_id":264,"name":"ConTheCon","steam_id":76561198877684106,"connected_time":1327000000000,"state":"active","ping":91},{"user_id":226,"name":"Finkaksu :3","steam_id":76561198201389163,"connected_time":3158000000000,"state":"active","ping":61},{"user_id":243,"name":"Lorenzo Lovers","steam_id":76561198073973581,"connected_time":2230000000000,"state":"active","ping":78},{"user_id":268,"name":"Strafe","steam_id":76561198194054443,"connected_time":1141000000000,"state":"active","ping":56},{"user_id":229,"name":"Mister","steam_id":76561199049647854,"connected_time":3083000000000,"state":"active","ping":48},{"user_id":182,"name":"Lartsa","steam_id":76561198275690230,"connected_time":6265000000000,"state":"active","ping":97},{"user_id":193,"name":"Sherlock Bond","steam_id":76561198042045955,"connected_time":5386000000000,"state":"active","ping":40},{"user_id":262,"name":"Vischan but worse","steam_id":76561199371650805,"connected_time":1357000000000,"state":"active","ping":98},{"user_id":265,"name":"Goldoni","steam_id":76561198030223489,"connected_time":1304000000000,"state":"active","ping":82},{"user_id":245,"name":"Wir suchen dich!","steam_id":76561198307613521,"connected_time":2182000000000,"state":"active","ping":56},{"user_id":273,"name":"laser","steam_id":76561198036030697,"connected_time":666000000000,"state":"active","ping":55},{"user_id":272,"name":"Dommy","steam_id":76561197990864747,"connected_time":783000000000,"state":"active","ping":53},{"user_id":222,"name":"lusy_marek","steam_id":76561199101571868,"connected_time":3450000000000,"state":"active","ping":93},{"user_id":276,"name":"fl1p","steam_id":76561198148565659,"connected_time":198000000000,"state":"active","ping":84},{"user_id":258,"name":"Jessica","steam_id":76561198342993279,"connected_time":1524000000000,"state":"active","ping":118},{"user_id":275,"name":"Fridge","steam_id":76561198071665589,"connected_time":439000000000,"state":"active","ping":95},{"user_id":270,"name":"Pumpkin Pie","steam_id":76561198115230959,"connected_time":1091000000000,"state":"active","ping":85}]},{"server_id":310,"name":"Uncletopia | Frankfurt | 5 | All Maps","name_short":"frk-5","host":"frk-1.de.uncletopia.com","port":27055,"enabled":true,"region":"eu","cc":"de","latitude":50.110924,"longitude":8.682127,"reserved":0,"last_update":"0001-01-01T00:00:00Z","name_a2s":"Uncletopia | Frankfurt | 5 | All Maps","protocol":17,"map":"pl_hoodoo_final","folder":"tf","game":"Team Fortress","app_id":440,"player_count":24,"max_players":24,"Bots":0,"server_type":"Dedicated","server_os":"Linux","password":true,"vac":true,"version":"7961495","steam_id":85568392924504277,"keywords":["nocrits","nodmgspread","payload","uncletopia"],"game_id":440,"stv_port":27056,"stv_name":"Uncletopia | Frankfurt | 5 | All Maps | STV","players":[{"user_id":123,"name":"I I | #saveTF2","steam_id":76561199101935057,"connected_time":1642000000000,"state":"active","ping":97},{"user_id":148,"name":"Joo ♦","steam_id":76561197987609203,"connected_time":289000000000,"state":"active","ping":73},{"user_id":149,"name":"Saame","steam_id":76561198215525976,"connected_time":282000000000,"state":"active","ping":79},{"user_id":44,"name":"dingus deluxe","steam_id":76561198834355366,"connected_time":7689000000000,"state":"active","ping":155},{"user_id":150,"name":"lunaire","steam_id":76561198163344452,"connected_time":276000000000,"state":"active","ping":90},{"user_id":94,"name":"Toasty5050","steam_id":76561198073540881,"connected_time":3907000000000,"state":"active","ping":41},{"user_id":137,"name":"Octafish","steam_id":76561198866038505,"connected_time":1071000000000,"state":"active","ping":134},{"user_id":92,"name":"Rimx","steam_id":76561198053034840,"connected_time":4018000000000,"state":"active","ping":92},{"user_id":111,"name":"SpineJuice","steam_id":76561199084272069,"connected_time":1978000000000,"state":"active","ping":67},{"user_id":151,"name":"Matteo Il Biondo","steam_id":76561198315389475,"connected_time":268000000000,"state":"active","ping":65},{"user_id":132,"name":"[HUN] AtorVP64","steam_id":76561198133906500,"connected_time":1400000000000,"state":"active","ping":91},{"user_id":152,"name":"hemp gruz","steam_id":76561198228941832,"connected_time":265000000000,"state":"active","ping":76},{"user_id":159,"name":"SNESFlint","steam_id":76561198069358863,"connected_time":128000000000,"state":"active","ping":71},{"user_id":115,"name":"midlpsyzl47","steam_id":76561199475972637,"connected_time":1845000000000,"state":"active","ping":81},{"user_id":156,"name":"Golden Boy","steam_id":76561198987866839,"connected_time":164000000000,"state":"active","ping":63},{"user_id":145,"name":"oskaroku00","steam_id":76561199025360128,"connected_time":623000000000,"state":"active","ping":64},{"user_id":160,"name":"Wild_Xray26","steam_id":76561198059386050,"connected_time":81000000000,"state":"active","ping":63},{"user_id":157,"name":"hAhA hEy, HeY yOu. AeAeAeAeAe","steam_id":76561199223880297,"connected_time":140000000000,"state":"active","ping":167},{"user_id":142,"name":"Eno","steam_id":76561198387892963,"connected_time":913000000000,"state":"active","ping":70},{"user_id":141,"name":"apagnan","steam_id":76561198150060767,"connected_time":921000000000,"state":"active","ping":59},{"user_id":143,"name":"fever gaming","steam_id":76561198334042273,"connected_time":800000000000,"state":"active","ping":71},{"user_id":158,"name":"strohkopf9","steam_id":76561198059349860,"connected_time":130000000000,"state":"active","ping":67},{"user_id":135,"name":"bady_3","steam_id":76561199030975778,"connected_time":1340000000000,"state":"active","ping":136},{"user_id":155,"name":"Scandinavian sleeping and livin","steam_id":76561198241982958,"connected_time":194000000000,"state":"active","ping":99}]},{"server_id":311,"name":"Uncletopia | Frankfurt | 6 | All Maps","name_short":"frk-6","host":"frk-1.de.uncletopia.com","port":27065,"enabled":true,"region":"eu","cc":"de","latitude":50.110924,"longitude":8.682127,"reserved":0,"last_update":"0001-01-01T00:00:00Z","name_a2s":"Uncletopia | Frankfurt | 6 | All Maps","protocol":17,"map":"ctf_2fort","folder":"tf","game":"Team Fortress","app_id":440,"player_count":24,"max_players":24,"Bots":0,"server_type":"Dedicated","server_os":"Linux","password":true,"vac":true,"version":"7961495","steam_id":85568392924504278,"keywords":["ctf","nocrits","nodmgspread","uncletopia"],"game_id":440,"stv_port":27066,"stv_name":"Uncletopia | Frankfurt | 6 | All Maps | STV","players":[{"user_id":308,"name":"Honda Civic","steam_id":76561199012566222,"connected_time":2572000000000,"state":"active","ping":53},{"user_id":368,"name":"The Daniella","steam_id":76561198023075547,"connected_time":349000000000,"state":"active","ping":55},{"user_id":364,"name":"caffreze","steam_id":76561198408988907,"connected_time":449000000000,"state":"active","ping":91},{"user_id":362,"name":"Gorgeous George","steam_id":76561198144256544,"connected_time":514000000000,"state":"active","ping":59},{"user_id":367,"name":"You know i had to do it to em","steam_id":76561198023884216,"connected_time":382000000000,"state":"active","ping":60},{"user_id":328,"name":"Itai","steam_id":76561198804555329,"connected_time":1713000000000,"state":"active","ping":99},{"user_id":345,"name":"tensh1","steam_id":76561198282471866,"connected_time":1086000000000,"state":"active","ping":102},{"user_id":284,"name":"MortezBA21","steam_id":76561198073617497,"connected_time":4092000000000,"state":"active","ping":68},{"user_id":355,"name":"engineer drip","steam_id":76561198991032570,"connected_time":702000000000,"state":"active","ping":97},{"user_id":313,"name":"Amiriki","steam_id":76561198005050734,"connected_time":2366000000000,"state":"active","ping":71},{"user_id":350,"name":"MintyGhoul666","steam_id":76561198232417796,"connected_time":957000000000,"state":"active","ping":164},{"user_id":302,"name":"Dr. Mario","steam_id":76561199125182282,"connected_time":2926000000000,"state":"active","ping":54},{"user_id":252,"name":"Del0Voi","steam_id":76561198866515088,"connected_time":6098000000000,"state":"active","ping":80},{"user_id":360,"name":"OctolingNexus","steam_id":76561199173732652,"connected_time":582000000000,"state":"active","ping":56},{"user_id":341,"name":"Average meme enjoyer","steam_id":76561199087566663,"connected_time":1415000000000,"state":"active","ping":80},{"user_id":366,"name":"Mr'Sejd","steam_id":76561198079279279,"connected_time":414000000000,"state":"active","ping":97},{"user_id":369,"name":"groyper_8814_bligger","steam_id":76561198276691164,"connected_time":90000000000,"state":"active","ping":76},{"user_id":281,"name":"Bobo","steam_id":76561198052308399,"connected_time":4261000000000,"state":"active","ping":58},{"user_id":327,"name":"Average Engineer Enjoyer","steam_id":76561198298618127,"connected_time":1760000000000,"state":"active","ping":45},{"user_id":365,"name":"Nikola","steam_id":76561198368324940,"connected_time":446000000000,"state":"active","ping":77},{"user_id":307,"name":"The man from the window","steam_id":76561198055949151,"connected_time":2763000000000,"state":"active","ping":58},{"user_id":361,"name":"Hugh","steam_id":76561198976348754,"connected_time":573000000000,"state":"active","ping":56},{"user_id":325,"name":"Aivohiiri","steam_id":76561198061344125,"connected_time":1781000000000,"state":"active","ping":103},{"user_id":363,"name":"Woman (Real)","steam_id":76561199151823932,"connected_time":499000000000,"state":"active","ping":76}]},{"server_id":23,"name":"Uncletopia | Frankfurt | 7 | Stopwatch","name_short":"frk-7","host":"frk-1.de.uncletopia.com","port":27075,"enabled":true,"region":"eu","cc":"de","latitude":50.110924,"longitude":8.682127,"reserved":0,"last_update":"0001-01-01T00:00:00Z","name_a2s":"Uncletopia | Frankfurt | 7 | Stopwatch","protocol":17,"map":"workshop/koth_bagel_rc6.ugc2514036946","folder":"tf","game":"Team Fortress","app_id":440,"player_count":0,"max_players":24,"Bots":0,"server_type":"Dedicated","server_os":"Linux","password":true,"vac":true,"version":"7961495","steam_id":85568392924742827,"keywords":["cp","nocrits","nodmgspread","uncletopia"],"game_id":440,"stv_port":27076,"stv_name":"Uncletopia | Frankfurt | 7 | Stopwatch | STV","players":null},{"server_id":24,"name":"Uncletopia | Frankfurt | 8 | Community","name_short":"frk-8","host":"frk-1.de.uncletopia.com","port":27085,"enabled":true,"region":"eu","cc":"de","latitude":50.110924,"longitude":8.682127,"reserved":0,"last_update":"0001-01-01T00:00:00Z","name_a2s":"Uncletopia | Frankfurt | 8 | Community","protocol":17,"map":"workshop/cp_coilblaze_rc7.ugc1272700588","folder":"tf","game":"Team Fortress","app_id":440,"player_count":2,"max_players":24,"Bots":0,"server_type":"Dedicated","server_os":"Linux","password":true,"vac":true,"version":"7961495","steam_id":85568392924742828,"keywords":["cp","nocrits","nodmgspread","uncletopia"],"game_id":440,"stv_port":27086,"stv_name":"Uncletopia | Frankfurt | 8 | Community | STV","players":[{"user_id":5,"name":"Slowest hands in the west","steam_id":76561199286764992,"connected_time":556000000000,"state":"active","ping":75},{"user_id":6,"name":"Flying skyhigh","steam_id":76561198372971096,"connected_time":410000000000,"state":"active","ping":76}]},{"server_id":202,"name":"Uncletopia | Hong Kong | 1 | All Maps","name_short":"hgk-1","host":"hgk-1.hk.uncletopia.com","port":27015,"enabled":true,"region":"asia","cc":"hk","latitude":22.302711,"longitude":114.177216,"reserved":0,"last_update":"0001-01-01T00:00:00Z","name_a2s":"Uncletopia | Hong Kong | 1 | All Maps","protocol":17,"map":"pl_swiftwater_final1","folder":"tf","game":"Team Fortress","app_id":440,"player_count":24,"max_players":24,"Bots":0,"server_type":"Dedicated","server_os":"Linux","password":true,"vac":true,"version":"7961495","steam_id":85568392924494504,"keywords":["nocrits","nodmgspread","payload","uncletopia"],"game_id":440,"stv_port":27016,"stv_name":"Uncletopia | Hong Kong | 1 | All Maps | STV","players":[{"user_id":524,"name":"2746","steam_id":76561199390507975,"connected_time":964000000000,"state":"active","ping":54},{"user_id":459,"name":"pyroman51","steam_id":76561198074339034,"connected_time":5723000000000,"state":"active","ping":75},{"user_id":496,"name":"⬞","steam_id":76561199373637717,"connected_time":1630000000000,"state":"active","ping":87},{"user_id":474,"name":"pison","steam_id":76561198992723983,"connected_time":3852000000000,"state":"active","ping":98},{"user_id":494,"name":"Milf (The fan O'Milk)","steam_id":76561198213031155,"connected_time":2111000000000,"state":"active","ping":94},{"user_id":475,"name":"Momoxhien","steam_id":76561198414997429,"connected_time":3802000000000,"state":"active","ping":66},{"user_id":526,"name":"RAHHHHH!!!!!!!","steam_id":76561198324008555,"connected_time":944000000000,"state":"active","ping":55},{"user_id":478,"name":"v1.","steam_id":76561198037571054,"connected_time":3237000000000,"state":"active","ping":42},{"user_id":490,"name":"spinach (old mouse)","steam_id":76561198042539541,"connected_time":2356000000000,"state":"active","ping":81},{"user_id":527,"name":"nub playr","steam_id":76561198839201635,"connected_time":934000000000,"state":"active","ping":153},{"user_id":492,"name":"vintage","steam_id":76561198230213828,"connected_time":2352000000000,"state":"active","ping":70},{"user_id":493,"name":"LEGS","steam_id":76561199111623890,"connected_time":2316000000000,"state":"active","ping":74},{"user_id":356,"name":"mutwo","steam_id":76561198077043500,"connected_time":6957000000000,"state":"active","ping":81},{"user_id":479,"name":"13MAN","steam_id":76561198900023603,"connected_time":3225000000000,"state":"active","ping":140},{"user_id":498,"name":"Sgt・BEHOZUN","steam_id":76561198152362492,"connected_time":1585000000000,"state":"active","ping":160},{"user_id":245,"name":"birdo","steam_id":76561199206075827,"connected_time":10715000000000,"state":"active","ping":96},{"user_id":470,"name":"Lu ✿","steam_id":76561198320532821,"connected_time":3979000000000,"state":"active","ping":63},{"user_id":463,"name":"P","steam_id":76561198304514505,"connected_time":5094000000000,"state":"active","ping":86},{"user_id":195,"name":"xXx_420_Tr!ckSt@bb3R_360_xXx","steam_id":76561198833527091,"connected_time":14200000000000,"state":"active","ping":107},{"user_id":482,"name":"pspsps miming","steam_id":76561198337154745,"connected_time":2380000000000,"state":"active","ping":134},{"user_id":349,"name":"Cheesey","steam_id":76561198975684137,"connected_time":7089000000000,"state":"active","ping":88},{"user_id":224,"name":"tuna.mp4","steam_id":76561199166987061,"connected_time":12726000000000,"state":"active","ping":71},{"user_id":523,"name":"Fhone","steam_id":76561199198665314,"connected_time":1030000000000,"state":"active","ping":85},{"user_id":488,"name":"sierra","steam_id":76561197969873415,"connected_time":2367000000000,"state":"active","ping":105}]},{"server_id":1,"name":"Uncletopia | Los Angeles | 1 | All Maps","name_short":"lax-1","host":"lax-1.us.uncletopia.com","port":27015,"enabled":true,"region":"us-west","cc":"us","latitude":33.94279,"longitude":-118.41004,"reserved":0,"last_update":"0001-01-01T00:00:00Z","name_a2s":"Uncletopia | Los Angeles | 1 | All Maps","protocol":17,"map":"pl_snowycoast","folder":"tf","game":"Team Fortress","app_id":440,"player_count":0,"max_players":24,"Bots":0,"server_type":"Dedicated","server_os":"Linux","password":true,"vac":true,"version":"7961495","steam_id":85568392924469991,"keywords":["nocrits","nodmgspread","payload","uncletopia"],"game_id":440,"stv_port":27016,"stv_name":"Uncletopia | Los Angeles | 1 | All Maps | STV","players":null},{"server_id":112,"name":"Uncletopia | Los Angeles | 2 | All Maps","name_short":"lax-2","host":"lax-1.us.uncletopia.com","port":27025,"enabled":true,"region":"us-west","cc":"us","latitude":33.94279,"longitude":-118.41004,"reserved":0,"last_update":"0001-01-01T00:00:00Z","name_a2s":"Uncletopia | Los Angeles | 2 | All Maps","protocol":17,"map":"cp_mountainlab","folder":"tf","game":"Team Fortress","app_id":440,"player_count":0,"max_players":24,"Bots":0,"server_type":"Dedicated","server_os":"Linux","password":true,"vac":true,"version":"7961495","steam_id":85568392924469992,"keywords":["cp","nocrits","nodmgspread","uncletopia"],"game_id":440,"stv_port":27026,"stv_name":"Uncletopia | Los Angeles | 2 | All Maps | STV","players":null},{"server_id":324,"name":"Uncletopia | Los Angeles | 3 | All Maps","name_short":"lax-3","host":"lax-1.us.uncletopia.com","port":27035,"enabled":true,"region":"us-west","cc":"us","latitude":33.94279,"longitude":-118.41004,"reserved":0,"last_update":"0001-01-01T00:00:00Z","name_a2s":"Uncletopia | Los Angeles | 3 | All Maps","protocol":17,"map":"pl_frontier_final","folder":"tf","game":"Team Fortress","app_id":440,"player_count":0,"max_players":24,"Bots":0,"server_type":"Dedicated","server_os":"Linux","password":true,"vac":true,"version":"7961495","steam_id":85568392924510198,"keywords":["nocrits","nodmgspread","payload","uncletopia"],"game_id":440,"stv_port":27036,"stv_name":"Uncletopia | Los Angeles | 3 | All Maps | STV","players":null},{"server_id":25,"name":"Uncletopia | Los Angeles | 4 | Stopwatch","name_short":"lax-4","host":"lax-1.us.uncletopia.com","port":27045,"enabled":true,"region":"us-west","cc":"us","latitude":33.94279,"longitude":-118.41004,"reserved":0,"last_update":"0001-01-01T00:00:00Z","name_a2s":"Uncletopia | Los Angeles | 4 | Stopwatch","protocol":17,"map":"pl_barnblitz","folder":"tf","game":"Team Fortress","app_id":440,"player_count":0,"max_players":24,"Bots":0,"server_type":"Dedicated","server_os":"Linux","password":true,"vac":true,"version":"7961495","steam_id":85568392924510199,"keywords":["nocrits","nodmgspread","payload","uncletopia"],"game_id":440,"stv_port":27046,"stv_name":"Uncletopia | Los Angeles | 4 | Stopwatch | STV","players":null},{"server_id":11,"name":"Uncletopia | London | 1 | All Maps","name_short":"lon-1","host":"lon-1.uk.uncletopia.com","port":27015,"enabled":true,"region":"eu","cc":"gb","latitude":51.509865,"longitude":-0.118092,"reserved":0,"last_update":"0001-01-01T00:00:00Z","name_a2s":"Uncletopia | London | 1 | All Maps","protocol":17,"map":"pl_frontier_final","folder":"tf","game":"Team Fortress","app_id":440,"player_count":24,"max_players":24,"Bots":0,"server_type":"Dedicated","server_os":"Linux","password":true,"vac":true,"version":"7961495","steam_id":85568392924367362,"keywords":["nocrits","nodmgspread","payload","uncletopia"],"game_id":440,"stv_port":27016,"stv_name":"Uncletopia | London | 1 | All Maps | STV","players":[{"user_id":364,"name":"Reomk","steam_id":76561198309314129,"connected_time":4303000000000,"state":"active","ping":78},{"user_id":411,"name":"Brallerin","steam_id":76561198060026189,"connected_time":38000000000,"state":"spawning","ping":44},{"user_id":386,"name":"I have","steam_id":76561199184873889,"connected_time":2453000000000,"state":"active","ping":72},{"user_id":402,"name":"olli","steam_id":76561198028769326,"connected_time":1077000000000,"state":"active","ping":71},{"user_id":340,"name":"YaBoiBepis","steam_id":76561198088982533,"connected_time":5203000000000,"state":"active","ping":88},{"user_id":336,"name":"KarAkma","steam_id":76561198072365138,"connected_time":5441000000000,"state":"active","ping":84},{"user_id":337,"name":"Makkie","steam_id":76561198118950916,"connected_time":5419000000000,"state":"active","ping":91},{"user_id":400,"name":"godmodule","steam_id":76561198165995444,"connected_time":1184000000000,"state":"active","ping":76},{"user_id":407,"name":"[UwU] Blackblood909","steam_id":76561198079427660,"connected_time":540000000000,"state":"active","ping":82},{"user_id":401,"name":"mesλ","steam_id":76561198324582918,"connected_time":1147000000000,"state":"active","ping":105},{"user_id":384,"name":"hero","steam_id":76561198338943416,"connected_time":2860000000000,"state":"active","ping":44},{"user_id":369,"name":"scmikle","steam_id":76561198389556655,"connected_time":3947000000000,"state":"active","ping":76},{"user_id":358,"name":"Veiknings","steam_id":76561198091835426,"connected_time":4657000000000,"state":"active","ping":80},{"user_id":347,"name":"Greenmaker","steam_id":76561198060466591,"connected_time":5010000000000,"state":"active","ping":91},{"user_id":403,"name":"Unpaid Taxes","steam_id":76561198167104693,"connected_time":1077000000000,"state":"active","ping":45},{"user_id":396,"name":"Femboy Thighs","steam_id":76561198115496457,"connected_time":1718000000000,"state":"active","ping":39},{"user_id":410,"name":"oloar242","steam_id":76561198798904576,"connected_time":77000000000,"state":"active","ping":82},{"user_id":371,"name":"Max Power","steam_id":76561198019269089,"connected_time":3920000000000,"state":"active","ping":59},{"user_id":409,"name":"Supev","steam_id":76561198060158253,"connected_time":104000000000,"state":"active","ping":55},{"user_id":357,"name":"Mintme","steam_id":76561199033531922,"connected_time":4829000000000,"state":"active","ping":46},{"user_id":389,"name":"Ramza","steam_id":76561197978427096,"connected_time":2294000000000,"state":"active","ping":67},{"user_id":405,"name":"mbappe buddy","steam_id":76561197988733568,"connected_time":950000000000,"state":"active","ping":62},{"user_id":404,"name":"Coup de Grass","steam_id":76561198011643226,"connected_time":1070000000000,"state":"active","ping":141},{"user_id":383,"name":"Mario","steam_id":76561198053838936,"connected_time":3082000000000,"state":"active","ping":91}]},{"server_id":114,"name":"Uncletopia | London | 2 | All Maps","name_short":"lon-2","host":"lon-1.uk.uncletopia.com","port":27025,"enabled":true,"region":"eu","cc":"gb","latitude":51.509865,"longitude":-0.118092,"reserved":0,"last_update":"0001-01-01T00:00:00Z","name_a2s":"Uncletopia | London | 2 | All Maps","protocol":17,"map":"cp_process_final","folder":"tf","game":"Team Fortress","app_id":440,"player_count":24,"max_players":24,"Bots":0,"server_type":"Dedicated","server_os":"Linux","password":true,"vac":true,"version":"7961495","steam_id":85568392924470941,"keywords":["cp","nocrits","nodmgspread","uncletopia"],"game_id":440,"stv_port":27026,"stv_name":"Uncletopia | London | 2 | All Maps | STV","players":[{"user_id":238,"name":"gamercatsvr","steam_id":76561199242794862,"connected_time":192000000000,"state":"active","ping":69},{"user_id":212,"name":"ornithology 1:1","steam_id":76561198097239850,"connected_time":2172000000000,"state":"active","ping":61},{"user_id":233,"name":"ThornDrayton","steam_id":76561198141985675,"connected_time":842000000000,"state":"active","ping":55},{"user_id":224,"name":"Xipheria","steam_id":76561198077414706,"connected_time":1010000000000,"state":"active","ping":80},{"user_id":225,"name":"GROMBRINDAL, THE WHITE DWARF","steam_id":76561198305487648,"connected_time":1005000000000,"state":"active","ping":140},{"user_id":204,"name":"Noku","steam_id":76561199244666974,"connected_time":2600000000000,"state":"active","ping":80},{"user_id":222,"name":"Flying Squirrel","steam_id":76561198005202791,"connected_time":1110000000000,"state":"active","ping":80},{"user_id":218,"name":"Scottishwolf12","steam_id":76561199263476623,"connected_time":1675000000000,"state":"active","ping":91},{"user_id":240,"name":"Sheen (Khang)","steam_id":76561198371062974,"connected_time":159000000000,"state":"active","ping":95},{"user_id":226,"name":"Draco","steam_id":76561198031226933,"connected_time":994000000000,"state":"active","ping":58},{"user_id":236,"name":"FilipeskoBro  GameTame.com","steam_id":76561198831347261,"connected_time":337000000000,"state":"active","ping":68},{"user_id":192,"name":"aberatus","steam_id":76561197979455244,"connected_time":3279000000000,"state":"active","ping":78},{"user_id":194,"name":"Jonkheervanflep","steam_id":76561198006853101,"connected_time":3137000000000,"state":"active","ping":70},{"user_id":229,"name":"Kamanie","steam_id":76561198135448255,"connected_time":961000000000,"state":"active","ping":70},{"user_id":237,"name":"Alter","steam_id":76561199135934698,"connected_time":268000000000,"state":"active","ping":119},{"user_id":235,"name":"Udinese Dion","steam_id":76561198067931573,"connected_time":633000000000,"state":"active","ping":56},{"user_id":234,"name":"japjao","steam_id":76561199230386527,"connected_time":737000000000,"state":"active","ping":51},{"user_id":228,"name":"Vix The Vulpix","steam_id":76561198292181452,"connected_time":979000000000,"state":"active","ping":152},{"user_id":205,"name":"gamerkiddo","steam_id":76561198047380360,"connected_time":2546000000000,"state":"active","ping":59},{"user_id":230,"name":"summer","steam_id":76561198170056395,"connected_time":915000000000,"state":"active","ping":60},{"user_id":158,"name":"Mega Man Legends 3","steam_id":76561198014110199,"connected_time":5739000000000,"state":"active","ping":45},{"user_id":203,"name":"Cowworth","steam_id":76561198081542434,"connected_time":2644000000000,"state":"active","ping":43},{"user_id":231,"name":"Fish_n_Chips","steam_id":76561199039556489,"connected_time":897000000000,"state":"active","ping":99},{"user_id":232,"name":"alibi","steam_id":76561198079490000,"connected_time":894000000000,"state":"active","ping":54}]},{"server_id":320,"name":"Uncletopia | London | 3 | All Maps","name_short":"lon-3","host":"lon-1.uk.uncletopia.com","port":27035,"enabled":true,"region":"eu","cc":"gb","latitude":51.509865,"longitude":-0.118092,"reserved":0,"last_update":"0001-01-01T00:00:00Z","name_a2s":"Uncletopia | London | 3 | All Maps","protocol":17,"map":"pl_upward","folder":"tf","game":"Team Fortress","app_id":440,"player_count":24,"max_players":24,"Bots":0,"server_type":"Dedicated","server_os":"Linux","password":true,"vac":true,"version":"7961495","steam_id":85568392924510192,"keywords":["nocrits","nodmgspread","payload","uncletopia"],"game_id":440,"stv_port":27036,"stv_name":"Uncletopia | London | 3 | All Maps | STV","players":[{"user_id":134,"name":"منحرف لكن محترف","steam_id":76561198143222686,"connected_time":3978000000000,"state":"active","ping":107},{"user_id":170,"name":"95 dollar egg","steam_id":76561198280507478,"connected_time":594000000000,"state":"active","ping":62},{"user_id":174,"name":"Cypher","steam_id":76561197996967254,"connected_time":327000000000,"state":"active","ping":63},{"user_id":132,"name":"Apollo17","steam_id":76561198886930836,"connected_time":4105000000000,"state":"active","ping":80},{"user_id":175,"name":"walluu","steam_id":76561198121830870,"connected_time":323000000000,"state":"active","ping":81},{"user_id":165,"name":"Mr_Pulse_","steam_id":76561198095001602,"connected_time":1278000000000,"state":"active","ping":111},{"user_id":83,"name":"Chris","steam_id":76561198179791702,"connected_time":7532000000000,"state":"active","ping":179},{"user_id":176,"name":"Sir Crust","steam_id":76561199122077146,"connected_time":318000000000,"state":"active","ping":58},{"user_id":171,"name":"Pastoss","steam_id":76561198379098260,"connected_time":377000000000,"state":"active","ping":62},{"user_id":166,"name":"Gintonas","steam_id":76561198043837552,"connected_time":1247000000000,"state":"active","ping":79},{"user_id":177,"name":"Dude™","steam_id":76561198082099161,"connected_time":315000000000,"state":"active","ping":96},{"user_id":172,"name":"glyph","steam_id":76561197980736364,"connected_time":375000000000,"state":"active","ping":78},{"user_id":110,"name":"Quote","steam_id":76561198170090267,"connected_time":5284000000000,"state":"active","ping":151},{"user_id":144,"name":"GoblinGaming","steam_id":76561198360395476,"connected_time":3601000000000,"state":"active","ping":35},{"user_id":155,"name":"fluffy474","steam_id":76561198375486320,"connected_time":2313000000000,"state":"active","ping":65},{"user_id":183,"name":"Captain Puddleboat","steam_id":76561198053913970,"connected_time":1000000000,"state":"spawning","ping":30},{"user_id":182,"name":"Stanislavthewarcriminal","steam_id":76561199096430955,"connected_time":22000000000,"state":"active","ping":72},{"user_id":151,"name":"vomitlust","steam_id":76561197994492154,"connected_time":2544000000000,"state":"active","ping":75},{"user_id":181,"name":"w+m1","steam_id":76561198010428082,"connected_time":33000000000,"state":"active","ping":80},{"user_id":55,"name":"perry the platypus","steam_id":76561199379159771,"connected_time":10733000000000,"state":"active","ping":147},{"user_id":169,"name":"Eric Catman","steam_id":76561198802117294,"connected_time":1013000000000,"state":"active","ping":64},{"user_id":146,"name":"sv_MrGibbs","steam_id":76561198114071972,"connected_time":3594000000000,"state":"active","ping":53},{"user_id":173,"name":"Plep","steam_id":76561198840259819,"connected_time":369000000000,"state":"active","ping":59},{"user_id":180,"name":"LEGEND FUMO.","steam_id":76561198061033903,"connected_time":166000000000,"state":"active","ping":53}]},{"server_id":321,"name":"Uncletopia | London | 4 | All Maps","name_short":"lon-4","host":"lon-1.uk.uncletopia.com","port":27045,"enabled":true,"region":"eu","cc":"gb","latitude":51.509865,"longitude":-0.118092,"reserved":0,"last_update":"0001-01-01T00:00:00Z","name_a2s":"Uncletopia | London | 4 | All Maps","protocol":17,"map":"cp_steel","folder":"tf","game":"Team Fortress","app_id":440,"player_count":24,"max_players":24,"Bots":0,"server_type":"Dedicated","server_os":"Linux","password":true,"vac":true,"version":"7961495","steam_id":85568392924510193,"keywords":["cp","nocrits","nodmgspread","uncletopia"],"game_id":440,"stv_port":27046,"stv_name":"Uncletopia | London | 4 | All Maps | STV","players":[{"user_id":244,"name":"Purple Soup :D","steam_id":76561198985100366,"connected_time":984000000000,"state":"active","ping":92},{"user_id":253,"name":"Metal","steam_id":76561199013364336,"connected_time":694000000000,"state":"active","ping":59},{"user_id":150,"name":"Virtual Mage","steam_id":76561198180779897,"connected_time":3221000000000,"state":"active","ping":45},{"user_id":236,"name":"Fat Pigeon","steam_id":76561198817940142,"connected_time":1159000000000,"state":"active","ping":45},{"user_id":129,"name":"Marukuso","steam_id":76561198154229845,"connected_time":5448000000000,"state":"active","ping":63},{"user_id":254,"name":"caramel❤","steam_id":76561198819353867,"connected_time":662000000000,"state":"active","ping":30},{"user_id":255,"name":"Jupajup","steam_id":76561198112456777,"connected_time":661000000000,"state":"active","ping":84},{"user_id":238,"name":"Nittugai","steam_id":76561198067366462,"connected_time":1100000000000,"state":"active","ping":60},{"user_id":261,"name":"rets_","steam_id":76561198061551392,"connected_time":42000000000,"state":"active","ping":63},{"user_id":257,"name":"querkkid","steam_id":76561199101703055,"connected_time":392000000000,"state":"active","ping":87},{"user_id":218,"name":"tis but a scratch","steam_id":76561198452111945,"connected_time":1735000000000,"state":"active","ping":44},{"user_id":154,"name":"Ullr","steam_id":76561198140547483,"connected_time":3125000000000,"state":"active","ping":41},{"user_id":259,"name":"N5LH","steam_id":76561199112528775,"connected_time":220000000000,"state":"active","ping":110},{"user_id":205,"name":"Sir Cauterize","steam_id":76561198047079422,"connected_time":2130000000000,"state":"active","ping":52},{"user_id":258,"name":"beardeath","steam_id":76561199064688448,"connected_time":330000000000,"state":"active","ping":87},{"user_id":239,"name":"lulu","steam_id":76561199147764133,"connected_time":1052000000000,"state":"active","ping":75},{"user_id":103,"name":"kat","steam_id":76561198879664338,"connected_time":6744000000000,"state":"active","ping":69},{"user_id":134,"name":"Rin-Nakaret","steam_id":76561197971051188,"connected_time":5332000000000,"state":"active","ping":56},{"user_id":260,"name":"Jucatron","steam_id":76561198044259577,"connected_time":185000000000,"state":"active","ping":87},{"user_id":113,"name":"Xtis","steam_id":76561198043837480,"connected_time":6393000000000,"state":"active","ping":64},{"user_id":106,"name":"Sham!","steam_id":76561198050434275,"connected_time":6705000000000,"state":"active","ping":60},{"user_id":240,"name":"Open Salami(testing controller)","steam_id":76561198351223374,"connected_time":1036000000000,"state":"active","ping":73},{"user_id":206,"name":"Oye Manzana!","steam_id":76561198374605382,"connected_time":2120000000000,"state":"active","ping":113},{"user_id":159,"name":"azzy","steam_id":76561198061293740,"connected_time":3054000000000,"state":"active","ping":76}]},{"server_id":21,"name":"Uncletopia | London | 5 | All Maps","name_short":"lon-5","host":"lon-1.uk.uncletopia.com","port":27055,"enabled":true,"region":"eu","cc":"gb","latitude":51.509865,"longitude":-0.118092,"reserved":0,"last_update":"0001-01-01T00:00:00Z","name_a2s":"Uncletopia | London | 5 | All Maps","protocol":17,"map":"koth_lakeside_final","folder":"tf","game":"Team Fortress","app_id":440,"player_count":1,"max_players":24,"Bots":0,"server_type":"Dedicated","server_os":"Linux","password":true,"vac":true,"version":"7961495","steam_id":85568392924742829,"keywords":["cp","nocrits","nodmgspread","uncletopia"],"game_id":440,"stv_port":27056,"stv_name":"Uncletopia | London | 5 | All Maps | STV","players":[{"user_id":15,"name":"nop 21","steam_id":76561198331641220,"connected_time":8000000000,"state":"spawning","ping":82}]},{"server_id":22,"name":"Uncletopia | London | 6 | All Maps","name_short":"lon-6","host":"lon-1.uk.uncletopia.com","port":27065,"enabled":true,"region":"eu","cc":"gb","latitude":51.509865,"longitude":-0.118092,"reserved":0,"last_update":"0001-01-01T00:00:00Z","name_a2s":"Uncletopia | London | 6 | All Maps","protocol":17,"map":"pl_goldrush","folder":"tf","game":"Team Fortress","app_id":440,"player_count":19,"max_players":24,"Bots":0,"server_type":"Dedicated","server_os":"Linux","password":true,"vac":true,"version":"7961495","steam_id":85568392924742830,"keywords":["nocrits","nodmgspread","payload","uncletopia"],"game_id":440,"stv_port":27066,"stv_name":"Uncletopia | London | 6 | All Maps | STV","players":[{"user_id":126,"name":"Phinton","steam_id":76561198014690842,"connected_time":150000000000,"state":"active","ping":77},{"user_id":124,"name":"JamesPepega","steam_id":76561198019156154,"connected_time":629000000000,"state":"active","ping":73},{"user_id":55,"name":"rickyrickyricky","steam_id":76561198041765918,"connected_time":5821000000000,"state":"active","ping":166},{"user_id":111,"name":"Bonuxer","steam_id":76561198093098132,"connected_time":1872000000000,"state":"active","ping":74},{"user_id":104,"name":"A Very Disappointing Salad","steam_id":76561198020277939,"connected_time":2376000000000,"state":"active","ping":53},{"user_id":105,"name":"MelioiBoi","steam_id":76561198929188491,"connected_time":2376000000000,"state":"active","ping":179},{"user_id":87,"name":"Evil","steam_id":76561198080015327,"connected_time":3767000000000,"state":"active","ping":38},{"user_id":113,"name":"jfrizzle420","steam_id":76561198105544691,"connected_time":1735000000000,"state":"active","ping":159},{"user_id":125,"name":"Serg","steam_id":76561198218959001,"connected_time":286000000000,"state":"active","ping":71},{"user_id":92,"name":"Thunder Humper","steam_id":76561197988549488,"connected_time":3392000000000,"state":"active","ping":88},{"user_id":120,"name":"SechsZahl | Max","steam_id":76561198369736583,"connected_time":1049000000000,"state":"active","ping":84},{"user_id":121,"name":"highest noon","steam_id":76561199103959197,"connected_time":1033000000000,"state":"active","ping":92},{"user_id":119,"name":"Dromeka","steam_id":76561198963557200,"connected_time":1410000000000,"state":"active","ping":57},{"user_id":86,"name":"ttv/SimplyJeevs","steam_id":76561198060545372,"connected_time":3782000000000,"state":"active","ping":59},{"user_id":117,"name":"Goblin on deez nuts","steam_id":76561199070562554,"connected_time":1563000000000,"state":"active","ping":66},{"user_id":102,"name":"krafno-lomac2006","steam_id":76561198808332971,"connected_time":2854000000000,"state":"active","ping":65},{"user_id":88,"name":"else1","steam_id":76561197996558319,"connected_time":3756000000000,"state":"active","ping":85},{"user_id":112,"name":"ThatTFguy","steam_id":76561198056794321,"connected_time":1863000000000,"state":"active","ping":58},{"user_id":116,"name":"Rheto","steam_id":76561198113355122,"connected_time":1671000000000,"state":"active","ping":55}]},{"server_id":40,"name":"Uncletopia | London | 7 | Stopwatch","name_short":"lon-7","host":"lon-1.uk.uncletopia.com","port":27075,"enabled":true,"region":"eu","cc":"gb","latitude":51.509865,"longitude":-0.118092,"reserved":0,"last_update":"0001-01-01T00:00:00Z","name_a2s":"Uncletopia | London | 7 | Stopwatch","protocol":17,"map":"workshop/koth_bagel_rc6.ugc2514036946","folder":"tf","game":"Team Fortress","app_id":440,"player_count":0,"max_players":24,"Bots":0,"server_type":"Dedicated","server_os":"Linux","password":true,"vac":true,"version":"7961495","steam_id":85568392924964314,"keywords":["cp","nocrits","nodmgspread","uncletopia"],"game_id":440,"stv_port":27076,"stv_name":"Uncletopia | London | 7 | Stopwatch | STV","players":null},{"server_id":41,"name":"Uncletopia | London | 8 | Community","name_short":"lon-8","host":"lon-1.uk.uncletopia.com","port":27085,"enabled":true,"region":"eu","cc":"gb","latitude":51.509865,"longitude":-0.118092,"reserved":0,"last_update":"0001-01-01T00:00:00Z","name_a2s":"Uncletopia | London | 8 | Community","protocol":17,"map":"workshop/koth_ramjam_rc1.ugc459778887","folder":"tf","game":"Team Fortress","app_id":440,"player_count":0,"max_players":24,"Bots":0,"server_type":"Dedicated","server_os":"Linux","password":true,"vac":true,"version":"7961495","steam_id":85568392924964315,"keywords":["cp","nocrits","nodmgspread","uncletopia"],"game_id":440,"stv_port":27086,"stv_name":"Uncletopia | London | 8 | Community | STV","players":null},{"server_id":300,"name":"Uncletopia | Montréal | 1 | One Thousand Uncles","name_short":"mtl-1","host":"mtl-1.ca.uncletopia.com","port":27015,"enabled":true,"region":"us-east","cc":"ca","latitude":45.50889,"longitude":-73.56167,"reserved":0,"last_update":"0001-01-01T00:00:00Z","name_a2s":"","protocol":0,"map":"","folder":"","game":"","app_id":0,"player_count":10,"max_players":0,"Bots":0,"server_type":"","server_os":"","password":false,"vac":false,"version":"","steam_id":0,"keywords":null,"game_id":0,"stv_port":0,"stv_name":"","players":[{"user_id":2,"name":"cpg","steam_id":76561198853515541,"connected_time":2901000000000,"state":"active","ping":71},{"user_id":19,"name":"doamgeo468","steam_id":76561199485287045,"connected_time":2059000000000,"state":"active","ping":54},{"user_id":46,"name":"puffy","steam_id":76561198411347037,"connected_time":401000000000,"state":"active","ping":56},{"user_id":47,"name":"Shadowwalker","steam_id":76561198344642637,"connected_time":189000000000,"state":"active","ping":99},{"user_id":22,"name":"Congcrab","steam_id":76561198078687685,"connected_time":1538000000000,"state":"active","ping":86},{"user_id":23,"name":"Sussin'","steam_id":76561198059813696,"connected_time":1526000000000,"state":"active","ping":65},{"user_id":24,"name":"manbearswineflu","steam_id":76561198083945137,"connected_time":1437000000000,"state":"active","ping":73},{"user_id":48,"name":"Clo ♥ Trans Rights","steam_id":76561198026151556,"connected_time":47000000000,"state":"active","ping":94},{"user_id":26,"name":"DeepDive","steam_id":76561198140542184,"connected_time":1235000000000,"state":"active","ping":54},{"user_id":49,"name":"Consolidated Fart","steam_id":76561198924101909,"connected_time":33000000000,"state":"active","ping":269}]},{"server_id":301,"name":"Uncletopia | Montréal | 2 | One Thousand Uncles","name_short":"mtl-2","host":"mtl-1.ca.uncletopia.com","port":27025,"enabled":true,"region":"us-east","cc":"ca","latitude":45.50889,"longitude":-73.56167,"reserved":0,"last_update":"0001-01-01T00:00:00Z","name_a2s":"","protocol":0,"map":"","folder":"","game":"","app_id":0,"player_count":0,"max_players":0,"Bots":0,"server_type":"","server_os":"","password":false,"vac":false,"version":"","steam_id":0,"keywords":null,"game_id":0,"stv_port":0,"stv_name":"","players":null},{"server_id":302,"name":"Uncletopia | Montréal | 3 | One Thousand Uncles","name_short":"mtl-3","host":"mtl-1.ca.uncletopia.com","port":27035,"enabled":true,"region":"us-east","cc":"ca","latitude":45.50889,"longitude":-73.56167,"reserved":0,"last_update":"0001-01-01T00:00:00Z","name_a2s":"","protocol":0,"map":"","folder":"","game":"","app_id":0,"player_count":0,"max_players":0,"Bots":0,"server_type":"","server_os":"","password":false,"vac":false,"version":"","steam_id":0,"keywords":null,"game_id":0,"stv_port":0,"stv_name":"","players":null},{"server_id":13,"name":"Uncletopia | New York City | 1 | All Maps","name_short":"nyc-1","host":"nyc-1.us.uncletopia.com","port":27015,"enabled":true,"region":"us-east","cc":"us","latitude":40.73061,"longitude":-73.93524,"reserved":0,"last_update":"0001-01-01T00:00:00Z","name_a2s":"Uncletopia | New York City | 1 | All Maps","protocol":17,"map":"koth_lakeside_final","folder":"tf","game":"Team Fortress","app_id":440,"player_count":0,"max_players":24,"Bots":0,"server_type":"Dedicated","server_os":"Linux","password":true,"vac":true,"version":"7961495","steam_id":85568392924469993,"keywords":["cp","nocrits","nodmgspread","uncletopia"],"game_id":440,"stv_port":27016,"stv_name":"Uncletopia | New York City | 1 | All Maps | STV","players":null},{"server_id":14,"name":"Uncletopia | New York City | 2 | All Maps","name_short":"nyc-2","host":"nyc-1.us.uncletopia.com","port":27025,"enabled":true,"region":"us-east","cc":"us","latitude":40.73061,"longitude":-73.93524,"reserved":0,"last_update":"0001-01-01T00:00:00Z","name_a2s":"Uncletopia | New York City | 2 | All Maps","protocol":17,"map":"pl_snowycoast","folder":"tf","game":"Team Fortress","app_id":440,"player_count":2,"max_players":24,"Bots":0,"server_type":"Dedicated","server_os":"Linux","password":true,"vac":true,"version":"7961495","steam_id":85568392924469994,"keywords":["nocrits","nodmgspread","payload","uncletopia"],"game_id":440,"stv_port":27026,"stv_name":"Uncletopia | New York City | 2 | All Maps | STV","players":[{"user_id":3,"name":"Luke is not Riplix","steam_id":76561198943902633,"connected_time":427000000000,"state":"active","ping":34},{"user_id":4,"name":"Noisyfireknight","steam_id":76561198045921893,"connected_time":169000000000,"state":"active","ping":66}]},{"server_id":15,"name":"Uncletopia | New York City | 3 | Stopwatch","name_short":"nyc-3","host":"nyc-1.us.uncletopia.com","port":27035,"enabled":true,"region":"us-east","cc":"us","latitude":40.73061,"longitude":-73.93524,"reserved":0,"last_update":"0001-01-01T00:00:00Z","name_a2s":"Uncletopia | New York City | 3 | Stopwatch","protocol":17,"map":"workshop/cp_process_f12.ugc2302948105","folder":"tf","game":"Team Fortress","app_id":440,"player_count":0,"max_players":24,"Bots":0,"server_type":"Dedicated","server_os":"Linux","password":true,"vac":true,"version":"7961495","steam_id":85568392924742820,"keywords":["cp","nocrits","nodmgspread","uncletopia"],"game_id":440,"stv_port":27036,"stv_name":"Uncletopia | New York City | 3 | Stopwatch | STV","players":null},{"server_id":16,"name":"Uncletopia | New York City | 4 | Community","name_short":"nyc-4","host":"nyc-1.us.uncletopia.com","port":27045,"enabled":true,"region":"us-east","cc":"us","latitude":40.73061,"longitude":-73.93524,"reserved":0,"last_update":"0001-01-01T00:00:00Z","name_a2s":"Uncletopia | New York City | 4 | Community","protocol":17,"map":"workshop/koth_synthetic_rc6a.ugc1549817316","folder":"tf","game":"Team Fortress","app_id":440,"player_count":0,"max_players":24,"Bots":0,"server_type":"Dedicated","server_os":"Linux","password":true,"vac":true,"version":"7961495","steam_id":85568392924742821,"keywords":["cp","nocrits","nodmgspread","uncletopia"],"game_id":440,"stv_port":27046,"stv_name":"Uncletopia | New York City | 4 | Community | STV","players":null},{"server_id":142,"name":"Uncletopia | São Paulo | 1 | All Maps","name_short":"sao-1","host":"sao-1.br.uncletopia.com","port":27015,"enabled":true,"region":"sa","cc":"br","latitude":-23.533773,"longitude":-46.62529,"reserved":0,"last_update":"0001-01-01T00:00:00Z","name_a2s":"Uncletopia | São Paulo | 1 | All Maps","protocol":17,"map":"cp_mountainlab","folder":"tf","game":"Team Fortress","app_id":440,"player_count":0,"max_players":24,"Bots":0,"server_type":"Dedicated","server_os":"Linux","password":true,"vac":true,"version":"7961495","steam_id":85568392924469996,"keywords":["cp","nocrits","nodmgspread","uncletopia"],"game_id":440,"stv_port":27016,"stv_name":"Uncletopia | São Paulo | 1 | All Maps | STV","players":null},{"server_id":143,"name":"Uncletopia | São Paulo | 2 | Community","name_short":"sao-2","host":"sao-2.br.uncletopia.com","port":27015,"enabled":true,"region":"sa","cc":"br","latitude":-23.533773,"longitude":-46.62529,"reserved":0,"last_update":"0001-01-01T00:00:00Z","name_a2s":"Uncletopia | São Paulo | 2 | Community","protocol":17,"map":"pl_badwater","folder":"tf","game":"Team Fortress","app_id":440,"player_count":0,"max_players":24,"Bots":0,"server_type":"Dedicated","server_os":"Linux","password":true,"vac":true,"version":"7961495","steam_id":85568392924485349,"keywords":["nocrits","nodmgspread","payload","uncletopia"],"game_id":440,"stv_port":27016,"stv_name":"Uncletopia | São Paulo | 2 | Community | STV","players":null},{"server_id":7,"name":"Uncletopia | Seattle | 1 | All Maps","name_short":"sea-1","host":"sea-1.us.uncletopia.com","port":27015,"enabled":true,"region":"us-west","cc":"us","latitude":47.608013,"longitude":-122.33517,"reserved":0,"last_update":"0001-01-01T00:00:00Z","name_a2s":"Uncletopia | Seattle | 1 | All Maps","protocol":17,"map":"pl_pier","folder":"tf","game":"Team Fortress","app_id":440,"player_count":1,"max_players":24,"Bots":0,"server_type":"Dedicated","server_os":"Linux","password":true,"vac":true,"version":"7961495","steam_id":85568392924469997,"keywords":["nocrits","nodmgspread","payload","uncletopia"],"game_id":440,"stv_port":27016,"stv_name":"Uncletopia | Seattle | 1 | All Maps | STV","players":[{"user_id":4,"name":"HailedClown","steam_id":76561199225239977,"connected_time":34000000000,"state":"spawning","ping":74}]},{"server_id":119,"name":"Uncletopia | Seattle | 2 | All Maps","name_short":"sea-2","host":"sea-1.us.uncletopia.com","port":27025,"enabled":true,"region":"us-west","cc":"us","latitude":47.608013,"longitude":-122.33517,"reserved":0,"last_update":"0001-01-01T00:00:00Z","name_a2s":"Uncletopia | Seattle | 2 | All Maps","protocol":17,"map":"cp_process_final","folder":"tf","game":"Team Fortress","app_id":440,"player_count":0,"max_players":24,"Bots":0,"server_type":"Dedicated","server_os":"Linux","password":true,"vac":true,"version":"7961495","steam_id":85568392924469998,"keywords":["cp","nocrits","nodmgspread","uncletopia"],"game_id":440,"stv_port":27026,"stv_name":"Uncletopia | Seattle | 2 | All Maps | STV","players":null},{"server_id":406,"name":"Uncletopia | Seattle | 3 | Stopwatch","name_short":"sea-3","host":"sea-1.us.uncletopia.com","port":27035,"enabled":true,"region":"us-west","cc":"us","latitude":47.608013,"longitude":-122.33517,"reserved":0,"last_update":"0001-01-01T00:00:00Z","name_a2s":"Uncletopia | Seattle | 3 | Stopwatch","protocol":17,"map":"pl_pier","folder":"tf","game":"Team Fortress","app_id":440,"player_count":0,"max_players":24,"Bots":0,"server_type":"Dedicated","server_os":"Linux","password":true,"vac":true,"version":"7961495","steam_id":85568392924515217,"keywords":["nocrits","nodmgspread","payload","uncletopia"],"game_id":440,"stv_port":27036,"stv_name":"Uncletopia | Seattle | 3 | Stopwatch | STV","players":null},{"server_id":17,"name":"Uncletopia | San Francisco | 1 | All Maps","name_short":"sfo-1","host":"sfo-1.us.uncletopia.com","port":27015,"enabled":true,"region":"us-west","cc":"us","latitude":37.77397,"longitude":-122.4313,"reserved":0,"last_update":"0001-01-01T00:00:00Z","name_a2s":"Uncletopia | San Francisco | 1 | All Maps","protocol":17,"map":"koth_cascade","folder":"tf","game":"Team Fortress","app_id":440,"player_count":0,"max_players":24,"Bots":0,"server_type":"Dedicated","server_os":"Linux","password":true,"vac":true,"version":"7961495","steam_id":85568392924469999,"keywords":["cp","nocrits","nodmgspread","uncletopia"],"game_id":440,"stv_port":27016,"stv_name":"Uncletopia | San Francisco | 1 | All Maps | STV","players":null},{"server_id":18,"name":"Uncletopia | San Francisco | 2 | All Maps","name_short":"sfo-2","host":"sfo-1.us.uncletopia.com","port":27025,"enabled":true,"region":"us-west","cc":"us","latitude":37.77397,"longitude":-122.4313,"reserved":0,"last_update":"0001-01-01T00:00:00Z","name_a2s":"Uncletopia | San Francisco | 2 | All Maps","protocol":17,"map":"cp_dustbowl","folder":"tf","game":"Team Fortress","app_id":440,"player_count":0,"max_players":24,"Bots":0,"server_type":"Dedicated","server_os":"Linux","password":true,"vac":true,"version":"7961495","steam_id":85568392924470000,"keywords":["cp","nocrits","nodmgspread","uncletopia"],"game_id":440,"stv_port":27026,"stv_name":"Uncletopia | San Francisco | 2 | All Maps | STV","players":null},{"server_id":19,"name":"Uncletopia | San Francisco | 3 | Stopwatch","name_short":"sfo-3","host":"sfo-1.us.uncletopia.com","port":27035,"enabled":true,"region":"us-west","cc":"us","latitude":37.77397,"longitude":-122.4313,"reserved":0,"last_update":"0001-01-01T00:00:00Z","name_a2s":"Uncletopia | San Francisco | 3 | Stopwatch","protocol":17,"map":"pl_pier","folder":"tf","game":"Team Fortress","app_id":440,"player_count":0,"max_players":24,"Bots":0,"server_type":"Dedicated","server_os":"Linux","password":true,"vac":true,"version":"7961495","steam_id":85568392924742824,"keywords":["nocrits","nodmgspread","payload","uncletopia"],"game_id":440,"stv_port":27036,"stv_name":"Uncletopia | San Francisco | 3 | Stopwatch | STV","players":null},{"server_id":20,"name":"Uncletopia | San Francisco | 4 | Community","name_short":"sfo-4","host":"sfo-1.us.uncletopia.com","port":27045,"enabled":true,"region":"us-west","cc":"us","latitude":37.77397,"longitude":-122.4313,"reserved":0,"last_update":"0001-01-01T00:00:00Z","name_a2s":"Uncletopia | San Francisco | 4 | Community","protocol":17,"map":"pl_pier","folder":"tf","game":"Team Fortress","app_id":440,"player_count":0,"max_players":24,"Bots":0,"server_type":"Dedicated","server_os":"Linux","password":true,"vac":true,"version":"7961495","steam_id":85568392924742826,"keywords":["nocrits","nodmgspread","payload","uncletopia"],"game_id":440,"stv_port":27046,"stv_name":"Uncletopia | San Francisco | 4 | Community | STV","players":null},{"server_id":141,"name":"Uncletopia | Sydney | 1 | All Maps","name_short":"syd-1","host":"syd-1.au.uncletopia.com","port":27015,"enabled":true,"region":"au","cc":"au","latitude":-33.865143,"longitude":151.2099,"reserved":0,"last_update":"0001-01-01T00:00:00Z","name_a2s":"Uncletopia | Sydney | 1 | All Maps","protocol":17,"map":"koth_viaduct","folder":"tf","game":"Team Fortress","app_id":440,"player_count":0,"max_players":24,"Bots":0,"server_type":"Dedicated","server_os":"Linux","password":true,"vac":true,"version":"7961495","steam_id":85568392924470001,"keywords":["cp","nocrits","nodmgspread","uncletopia"],"game_id":440,"stv_port":27016,"stv_name":"Uncletopia | Sydney | 1 | All Maps | STV","players":null},{"server_id":123,"name":"Uncletopia | Sydney | 2 | All Maps","name_short":"syd-2","host":"syd-1.au.uncletopia.com","port":27025,"enabled":true,"region":"au","cc":"au","latitude":-33.865143,"longitude":151.2099,"reserved":0,"last_update":"0001-01-01T00:00:00Z","name_a2s":"Uncletopia | Sydney | 2 | All Maps","protocol":17,"map":"pl_frontier_final","folder":"tf","game":"Team Fortress","app_id":440,"player_count":24,"max_players":24,"Bots":0,"server_type":"Dedicated","server_os":"Linux","password":true,"vac":true,"version":"7961495","steam_id":85568392924470002,"keywords":["nocrits","nodmgspread","payload","uncletopia"],"game_id":440,"stv_port":27026,"stv_name":"Uncletopia | Sydney | 2 | All Maps | STV","players":[{"user_id":343,"name":"NORKIE","steam_id":76561198027693856,"connected_time":1849000000000,"state":"active","ping":90},{"user_id":339,"name":"WikkyD","steam_id":76561198043452962,"connected_time":2123000000000,"state":"active","ping":68},{"user_id":355,"name":"{Azura Sarah}","steam_id":76561197989210208,"connected_time":996000000000,"state":"active","ping":45},{"user_id":356,"name":"yilli_","steam_id":76561198210960700,"connected_time":987000000000,"state":"active","ping":61},{"user_id":342,"name":"Araxamas","steam_id":76561198014474886,"connected_time":2009000000000,"state":"active","ping":100},{"user_id":266,"name":"Chez","steam_id":76561198089925051,"connected_time":5334000000000,"state":"active","ping":94},{"user_id":366,"name":"soupy","steam_id":76561198073734936,"connected_time":362000000000,"state":"active","ping":87},{"user_id":234,"name":"ash :)","steam_id":76561198127508905,"connected_time":6990000000000,"state":"active","ping":44},{"user_id":358,"name":"DeadX","steam_id":76561198158096860,"connected_time":830000000000,"state":"active","ping":60},{"user_id":330,"name":"♥ BILL!!! ♥","steam_id":76561198066726621,"connected_time":3381000000000,"state":"active","ping":47},{"user_id":359,"name":"AceChillus","steam_id":76561198178119043,"connected_time":787000000000,"state":"active","ping":41},{"user_id":362,"name":"The Goon","steam_id":76561198434696450,"connected_time":602000000000,"state":"active","ping":162},{"user_id":323,"name":"Selling Anti-Matter for $543","steam_id":76561198070708382,"connected_time":3933000000000,"state":"active","ping":50},{"user_id":313,"name":"LightningBlock","steam_id":76561198289997742,"connected_time":4491000000000,"state":"active","ping":43},{"user_id":341,"name":"strogan my beef til im off","steam_id":76561198127848228,"connected_time":2079000000000,"state":"active","ping":60},{"user_id":363,"name":"lil tecca","steam_id":76561198073390595,"connected_time":543000000000,"state":"active","ping":49},{"user_id":367,"name":"BombZAustranium","steam_id":76561199029964552,"connected_time":360000000000,"state":"active","ping":158},{"user_id":348,"name":"ShiftAU","steam_id":76561198036359969,"connected_time":1527000000000,"state":"active","ping":57},{"user_id":318,"name":"Rinzler","steam_id":76561197990858536,"connected_time":4250000000000,"state":"active","ping":54},{"user_id":324,"name":"Lincoln2603","steam_id":76561198170236666,"connected_time":3932000000000,"state":"active","ping":42},{"user_id":365,"name":"oldbie","steam_id":76561198053297711,"connected_time":502000000000,"state":"active","ping":68},{"user_id":337,"name":"҂Storm","steam_id":76561198073213264,"connected_time":2469000000000,"state":"active","ping":48},{"user_id":368,"name":"Perplexia","steam_id":76561198012215739,"connected_time":266000000000,"state":"active","ping":77},{"user_id":262,"name":"Griffin","steam_id":76561198024926514,"connected_time":5532000000000,"state":"active","ping":90}]},{"server_id":395,"name":"Uncletopia | Sydney | 3 | All Maps","name_short":"syd-3","host":"syd-1.au.uncletopia.com","port":27035,"enabled":true,"region":"au","cc":"au","latitude":-33.865143,"longitude":151.2099,"reserved":0,"last_update":"0001-01-01T00:00:00Z","name_a2s":"Uncletopia | Sydney | 3 | All Maps","protocol":17,"map":"koth_lakeside_final","folder":"tf","game":"Team Fortress","app_id":440,"player_count":0,"max_players":24,"Bots":0,"server_type":"Dedicated","server_os":"Linux","password":true,"vac":true,"version":"7961495","steam_id":85568392925194467,"keywords":["cp","nocrits","nodmgspread","uncletopia"],"game_id":440,"stv_port":27036,"stv_name":"Uncletopia | Sydney | 3 | All Maps | STV","players":null},{"server_id":396,"name":"Uncletopia | Sydney | 4 | All Maps","name_short":"syd-4","host":"syd-1.au.uncletopia.com","port":27045,"enabled":true,"region":"au","cc":"au","latitude":-33.865143,"longitude":151.2099,"reserved":0,"last_update":"0001-01-01T00:00:00Z","name_a2s":"Uncletopia | Sydney | 4 | All Maps","protocol":17,"map":"koth_highpass","folder":"tf","game":"Team Fortress","app_id":440,"player_count":0,"max_players":24,"Bots":0,"server_type":"Dedicated","server_os":"Linux","password":true,"vac":true,"version":"7961495","steam_id":85568392925397958,"keywords":["cp","nocrits","nodmgspread","uncletopia"],"game_id":440,"stv_port":27046,"stv_name":"Uncletopia | Sydney | 4 | All Maps | STV","players":null},{"server_id":58,"name":"Uncletopia | Sydney | 5 | Stopwatch","name_short":"syd-5","host":"syd-1.au.uncletopia.com","port":27055,"enabled":true,"region":"au","cc":"au","latitude":-33.865143,"longitude":151.2099,"reserved":0,"last_update":"0001-01-01T00:00:00Z","name_a2s":"Uncletopia | Sydney | 5 | Stopwatch","protocol":17,"map":"koth_highpass","folder":"tf","game":"Team Fortress","app_id":440,"player_count":0,"max_players":24,"Bots":0,"server_type":"Dedicated","server_os":"Linux","password":true,"vac":true,"version":"7961495","steam_id":85568392925397959,"keywords":["cp","nocrits","nodmgspread","uncletopia"],"game_id":440,"stv_port":27056,"stv_name":"Uncletopia | Sydney | 5 | Stopwatch | STV","players":null},{"server_id":59,"name":"Uncletopia | Sydney | 6 | Community","name_short":"syd-6","host":"syd-1.au.uncletopia.com","port":27065,"enabled":true,"region":"au","cc":"au","latitude":-33.865143,"longitude":151.2099,"reserved":0,"last_update":"0001-01-01T00:00:00Z","name_a2s":"Uncletopia | Sydney | 6 | Community","protocol":17,"map":"workshop/pl_fifthcurve_rc1.ugc648227046","folder":"tf","game":"Team Fortress","app_id":440,"player_count":0,"max_players":24,"Bots":0,"server_type":"Dedicated","server_os":"Linux","password":true,"vac":true,"version":"7961495","steam_id":85568392925397960,"keywords":["nocrits","nodmgspread","payload","uncletopia"],"game_id":440,"stv_port":27066,"stv_name":"Uncletopia | Sydney | 6 | Community | STV","players":null},{"server_id":49,"name":"Uncletopia | Warsaw | 1 | One Thousand Uncles","name_short":"waw-1","host":"waw-1.pl.uncletopia.com","port":27015,"enabled":true,"region":"eu","cc":"pl","latitude":52.2297,"longitude":21.017532,"reserved":0,"last_update":"0001-01-01T00:00:00Z","name_a2s":"Uncletopia | Warsaw | 1 | One Thousand Uncles","protocol":17,"map":"cp_egypt_final","folder":"tf","game":"Team Fortress","app_id":440,"player_count":29,"max_players":32,"Bots":16,"server_type":"Dedicated","server_os":"Linux","password":true,"vac":true,"version":"7961495","steam_id":85568392925397850,"keywords":["alltalk","bots","cp","danepve","increased_maxplayers","nocrits","norespawntime","uncletopia"],"game_id":440,"stv_port":0,"stv_name":"","players":[{"user_id":309,"name":"Денис Базука","steam_id":76561198835849082,"connected_time":4605000000000,"state":"active","ping":61},{"user_id":388,"name":"bonour74","steam_id":76561199089910337,"connected_time":628000000000,"state":"active","ping":194},{"user_id":377,"name":"bartoszmalaszkiewicz","steam_id":76561199157266817,"connected_time":1588000000000,"state":"active","ping":44},{"user_id":389,"name":"BigAA","steam_id":76561199477658677,"connected_time":583000000000,"state":"active","ping":95},{"user_id":392,"name":"womandestroyer2006","steam_id":76561198173325629,"connected_time":281000000000,"state":"active","ping":111},{"user_id":382,"name":"sphere","steam_id":76561197971059842,"connected_time":1031000000000,"state":"active","ping":62},{"user_id":306,"name":"Uncle Ando","steam_id":76561197994056083,"connected_time":5545000000000,"state":"active","ping":66},{"user_id":312,"name":"?TheEnd","steam_id":76561198055280327,"connected_time":4180000000000,"state":"active","ping":53},{"user_id":383,"name":"white_foxx_","steam_id":76561199142643747,"connected_time":1020000000000,"state":"active","ping":54},{"user_id":243,"name":"Gamer_X","steam_id":76561198085349286,"connected_time":9570000000000,"state":"active","ping":93},{"user_id":390,"name":"antondstepanenko","steam_id":76561198966147466,"connected_time":496000000000,"state":"active","ping":83},{"user_id":336,"name":"Oxouggoss","steam_id":76561198096187461,"connected_time":2824000000000,"state":"active","ping":88},{"user_id":391,"name":"Bobby Bigman","steam_id":76561198044679656,"connected_time":290000000000,"state":"active","ping":419}]},{"server_id":50,"name":"Uncletopia | Warsaw | 2 | One Thousand Uncles","name_short":"waw-2","host":"waw-1.pl.uncletopia.com","port":27025,"enabled":true,"region":"eu","cc":"pl","latitude":52.2297,"longitude":21.017532,"reserved":0,"last_update":"0001-01-01T00:00:00Z","name_a2s":"Uncletopia | Warsaw | 2 | One Thousand Uncles","protocol":17,"map":"cp_egypt_final","folder":"tf","game":"Team Fortress","app_id":440,"player_count":24,"max_players":32,"Bots":16,"server_type":"Dedicated","server_os":"Linux","password":true,"vac":true,"version":"7961495","steam_id":85568392925397851,"keywords":["alltalk","bots","cp","danepve","increased_maxplayers","nocrits","norespawntime","uncletopia"],"game_id":440,"stv_port":0,"stv_name":"","players":[{"user_id":145,"name":"Dmitry Kerman","steam_id":76561198300020540,"connected_time":4411000000000,"state":"active","ping":89},{"user_id":179,"name":"Lukas","steam_id":76561198009118452,"connected_time":250000000000,"state":"active","ping":67},{"user_id":173,"name":"TERRORIST","steam_id":76561199096023182,"connected_time":1315000000000,"state":"active","ping":102},{"user_id":174,"name":"Anubito","steam_id":76561199480459323,"connected_time":1300000000000,"state":"active","ping":91},{"user_id":175,"name":"[SQ UA] MartianDill","steam_id":76561198405382822,"connected_time":888000000000,"state":"active","ping":56},{"user_id":176,"name":"Error","steam_id":76561199196557511,"connected_time":699000000000,"state":"active","ping":190},{"user_id":177,"name":"Loo32","steam_id":76561199094568704,"connected_time":574000000000,"state":"active","ping":72},{"user_id":180,"name":"Miedzan","steam_id":76561198405250516,"connected_time":112000000000,"state":"active","ping":51}]},{"server_id":51,"name":"Uncletopia | Warsaw | 3 | All Maps","name_short":"waw-3","host":"waw-1.pl.uncletopia.com","port":27035,"enabled":true,"region":"eu","cc":"pl","latitude":52.2297,"longitude":21.017532,"reserved":0,"last_update":"0001-01-01T00:00:00Z","name_a2s":"Uncletopia | Warsaw | 3 | All Maps","protocol":17,"map":"plr_pipeline","folder":"tf","game":"Team Fortress","app_id":440,"player_count":1,"max_players":24,"Bots":0,"server_type":"Dedicated","server_os":"Linux","password":true,"vac":true,"version":"7961495","steam_id":85568392925397852,"keywords":["nocrits","nodmgspread","payload","uncletopia"],"game_id":440,"stv_port":27036,"stv_name":"Uncletopia | Warsaw | 3 | All Maps | STV","players":[{"user_id":7,"name":"Chekmate","steam_id":76561199390025272,"connected_time":22000000000,"state":"active","ping":114}]},{"server_id":52,"name":"Uncletopia | Warsaw | 4 | All Maps","name_short":"waw-4","host":"waw-1.pl.uncletopia.com","port":27045,"enabled":true,"region":"eu","cc":"pl","latitude":52.2297,"longitude":21.017532,"reserved":0,"last_update":"0001-01-01T00:00:00Z","name_a2s":"Uncletopia | Warsaw | 4 | All Maps","protocol":17,"map":"cp_coldfront","folder":"tf","game":"Team Fortress","app_id":440,"player_count":0,"max_players":24,"Bots":0,"server_type":"Dedicated","server_os":"Linux","password":true,"vac":true,"version":"7961495","steam_id":85568392925397853,"keywords":["cp","nocrits","nodmgspread","uncletopia"],"game_id":440,"stv_port":27046,"stv_name":"Uncletopia | Warsaw | 4 | All Maps | STV","players":null},{"server_id":53,"name":"Uncletopia | Warsaw | 5 | Stopwatch","name_short":"waw-5","host":"waw-1.pl.uncletopia.com","port":27055,"enabled":true,"region":"eu","cc":"pl","latitude":52.2297,"longitude":21.017532,"reserved":0,"last_update":"0001-01-01T00:00:00Z","name_a2s":"Uncletopia | Warsaw | 5 | Stopwatch","protocol":17,"map":"workshop/cp_reckoner_rc6.ugc674719999","folder":"tf","game":"Team Fortress","app_id":440,"player_count":0,"max_players":24,"Bots":0,"server_type":"Dedicated","server_os":"Linux","password":true,"vac":true,"version":"7961495","steam_id":85568392925397854,"keywords":["cp","nocrits","nodmgspread","uncletopia"],"game_id":440,"stv_port":27056,"stv_name":"Uncletopia | Warsaw | 5 | Stopwatch | STV","players":null},{"server_id":54,"name":"Uncletopia | Warsaw | 6 | Community","name_short":"waw-6","host":"waw-1.pl.uncletopia.com","port":27065,"enabled":true,"region":"eu","cc":"pl","latitude":52.2297,"longitude":21.017532,"reserved":0,"last_update":"0001-01-01T00:00:00Z","name_a2s":"Uncletopia | Warsaw | 6 | Community","protocol":17,"map":"workshop/cp_mannbase_rc2a.ugc1900737467","folder":"tf","game":"Team Fortress","app_id":440,"player_count":0,"max_players":24,"Bots":0,"server_type":"Dedicated","server_os":"Linux","password":true,"vac":true,"version":"7961495","steam_id":85568392925397856,"keywords":["cp","nocrits","nodmgspread","uncletopia"],"game_id":440,"stv_port":27066,"stv_name":"Uncletopia | Warsaw | 6 | Community | STV","players":null}]}