{"status":true,"message":"","result":[{"server_id":9,"name":"Uncletopia | Atlanta | 1 | All Maps","name_short":"atl-1","host":"atl-1.us.uncletopia.com","port":27015,"enabled":true,"region":"us-east","cc":"us","latitude":33.753746,"longitude":-84.38633,"reserved":0,"last_update":"0001-01-01T00:00:00Z","name_a2s":"Uncletopia | Atlanta | 1 | All Maps","protocol":17,"map":"pl_coal_event","folder":"tf","game":"Team Fortress","app_id":440,"player_count":20,"max_players":24,"Bots":0,"server_type":"Dedicated","server_os":"Linux","password":true,"vac":true,"version":"7701286","steam_id":85568392924469982,"keywords":["nocrits","nodmgspread","payload","uncletopia"],"game_id":440,"stv_port":27016,"stv_name":"Uncletopia | Atlanta | 1 | All Maps | STV","players":[{"user_id":74,"name":"TRHD_Pharaxer‚Ñ¢","steam_id":76561198051236069,"connected_time":7653000000000,"state":"active","ping":151},{"user_id":117,"name":"8Z","steam_id":76561198027025876,"connected_time":961000000000,"state":"active","ping":96},{"user_id":120,"name":"ATL6 Le4n Nog!!!","steam_id":76561198045522596,"connected_time":84000000000,"state":"active","ping":60},{"user_id":101,"name":"ATL1 | spoonful","steam_id":76561198927517471,"connected_time":3834000000000,"state":"active","ping":48},{"user_id":99,"name":"APACHE","steam_id":76561198089910625,"connected_time":4186000000000,"state":"active","ping":93},{"user_id":119,"name":"Ryde","steam_id":76561198070678662,"connected_time":802000000000,"state":"active","ping":165},{"user_id":111,"name":"gallowsCalibrator","steam_id":76561198404707578,"connected_time":2062000000000,"state":"active","ping":59},{"user_id":36,"name":"--_Cook_--","steam_id":76561198080855748,"connected_time":10915000000000,"state":"active","ping":45},{"user_id":96,"name":"christmastreebee","steam_id":76561199217507591,"connected_time":4215000000000,"state":"active","ping":67},{"user_id":112,"name":"joe lft","steam_id":76561198045781320,"connected_time":1823000000000,"state":"active","ping":70},{"user_id":46,"name":"abomination","steam_id":76561198167974713,"connected_time":9629000000000,"state":"active","ping":57},{"user_id":106,"name":"spunk pap","steam_id":76561198202278895,"connected_time":2893000000000,"state":"active","ping":68},{"user_id":121,"name":"Zeetch","steam_id":76561198110579765,"connected_time":59000000000,"state":"spawning","ping":89},{"user_id":81,"name":"HARRY","steam_id":76561198842067238,"connected_time":6264000000000,"state":"active","ping":60},{"user_id":68,"name":"‚ùÖAlyx‚ùÖ","steam_id":76561198024303978,"connected_time":8415000000000,"state":"active","ping":56},{"user_id":97,"name":"[txc] milk and cookies","steam_id":76561198127457787,"connected_time":4207000000000,"state":"active","ping":72},{"user_id":105,"name":"Heavy Ye (Hitla Suit)","steam_id":76561198176618461,"connected_time":2908000000000,"state":"active","ping":57},{"user_id":43,"name":"C papi","steam_id":76561198027779564,"connected_time":10069000000000,"state":"active","ping":52},{"user_id":109,"name":"JOVA","steam_id":76561198090333536,"connected_time":2678000000000,"state":"active","ping":64},{"user_id":85,"name":"[txc] garf","steam_id":76561198083078030,"connected_time":5134000000000,"state":"active","ping":45}]},{"server_id":400,"name":"Uncletopia | Atlanta | 3 | All Maps","name_short":"atl-3","host":"atl-1.us.uncletopia.com","port":27035,"enabled":true,"region":"us-east","cc":"us","latitude":33.753746,"longitude":-84.38633,"reserved":0,"last_update":"0001-01-01T00:00:00Z","name_a2s":"Uncletopia | Atlanta | 3 | All Maps","protocol":17,"map":"koth_highpass","folder":"tf","game":"Team Fortress","app_id":440,"player_count":0,"max_players":24,"Bots":0,"server_type":"Dedicated","server_os":"Linux","password":true,"vac":true,"version":"7701286","steam_id":85568392924515187,"keywords":["cp","nocrits","nodmgspread","uncletopia"],"game_id":440,"stv_port":0,"stv_name":"","players":null},{"server_id":401,"name":"Uncletopia | Atlanta | 4 | No Payload","name_short":"atl-4","host":"atl-1.us.uncletopia.com","port":27045,"enabled":true,"region":"us-east","cc":"us","latitude":33.753746,"longitude":-84.38633,"reserved":0,"last_update":"0001-01-01T00:00:00Z","name_a2s":"Uncletopia | Atlanta | 4 | No Payload","protocol":17,"map":"koth_sawmill","folder":"tf","game":"Team Fortress","app_id":440,"player_count":2,"max_players":24,"Bots":0,"server_type":"Dedicated","server_os":"Linux","password":true,"vac":true,"version":"7701286","steam_id":85568392924515188,"keywords":["cp","nocrits","nodmgspread","uncletopia"],"game_id":440,"stv_port":27046,"stv_name":"Uncletopia | Atlanta | 4 | No Payload | STV","players":[{"user_id":14,"name":"Panty Sniff Gaming","steam_id":76561198261421420,"connected_time":144000000000,"state":"active","ping":39},{"user_id":11,"name":"Ann","steam_id":76561198933027278,"connected_time":1567000000000,"state":"active","ping":41}]},{"server_id":2,"name":"Uncletopia | Chicago | 1 | All Maps","name_short":"chi-1","host":"chi-1.us.uncletopia.com","port":27015,"enabled":true,"region":"us-central","cc":"us","latitude":41.881832,"longitude":-87.62318,"reserved":0,"last_update":"0001-01-01T00:00:00Z","name_a2s":"Uncletopia | Chicago | 1 | All Maps","protocol":17,"map":"cp_altitude","folder":"tf","game":"Team Fortress","app_id":440,"player_count":24,"max_players":24,"Bots":0,"server_type":"Dedicated","server_os":"Linux","password":true,"vac":true,"version":"7701286","steam_id":85568392924469984,"keywords":["cp","nocrits","nodmgspread","uncletopia"],"game_id":440,"stv_port":27016,"stv_name":"Uncletopia | Chicago | 1 | All Maps | STV","players":[{"user_id":119,"name":"motorized bar of soap","steam_id":76561198882404753,"connected_time":7253000000000,"state":"active","ping":75},{"user_id":196,"name":"BullSocks","steam_id":76561198137299537,"connected_time":573000000000,"state":"active","ping":45},{"user_id":173,"name":"luminen","steam_id":76561198044479631,"connected_time":2138000000000,"state":"active","ping":63},{"user_id":5,"name":"ohton","steam_id":76561199033233448,"connected_time":11114000000000,"state":"active","ping":105},{"user_id":184,"name":"Jaypelt","steam_id":76561198053906849,"connected_time":1731000000000,"state":"active","ping":76},{"user_id":7,"name":"pw","steam_id":76561198087945065,"connected_time":11104000000000,"state":"active","ping":51},{"user_id":185,"name":"Ignalis","steam_id":76561198025662927,"connected_time":1727000000000,"state":"active","ping":56},{"user_id":199,"name":"IZISOO","steam_id":76561198970380577,"connected_time":164000000000,"state":"active","ping":52},{"user_id":187,"name":"Devious Wink","steam_id":76561198043571022,"connected_time":1724000000000,"state":"active","ping":61},{"user_id":200,"name":"Salt_Inventor","steam_id":76561198090433209,"connected_time":154000000000,"state":"active","ping":93},{"user_id":201,"name":"tophatcat","steam_id":76561198152736160,"connected_time":123000000000,"state":"active","ping":52},{"user_id":176,"name":"Capt on PC","steam_id":76561198396814154,"connected_time":1964000000000,"state":"active","ping":126},{"user_id":192,"name":"GuyGoom","steam_id":76561198254522178,"connected_time":928000000000,"state":"active","ping":53},{"user_id":188,"name":"River Rat","steam_id":76561198116383976,"connected_time":1714000000000,"state":"active","ping":110},{"user_id":189,"name":"Ipseiit","steam_id":76561198294670312,"connected_time":1702000000000,"state":"active","ping":72},{"user_id":78,"name":"Ace Chromatica","steam_id":76561198042211131,"connected_time":7992000000000,"state":"active","ping":55},{"user_id":149,"name":"Demonfax04","steam_id":76561198243551652,"connected_time":5218000000000,"state":"active","ping":97},{"user_id":106,"name":"√íw√ì","steam_id":76561197997304387,"connected_time":7529000000000,"state":"active","ping":56},{"user_id":181,"name":"sweaterfan","steam_id":76561199389567214,"connected_time":1765000000000,"state":"active","ping":69},{"user_id":202,"name":"los wigis","steam_id":76561199000786530,"connected_time":84000000000,"state":"active","ping":75},{"user_id":178,"name":"Umbran Fox","steam_id":76561198981815451,"connected_time":1888000000000,"state":"active","ping":121},{"user_id":203,"name":"Chlorm","steam_id":76561198147052737,"connected_time":59000000000,"state":"active","ping":65},{"user_id":204,"name":"Spoicy Fish","steam_id":76561198282764599,"connected_time":37000000000,"state":"active","ping":46},{"user_id":191,"name":"M249 | Spectre","steam_id":76561198118334485,"connected_time":1316000000000,"state":"active","ping":67}]},{"server_id":106,"name":"Uncletopia | Chicago | 2 | All Maps","name_short":"chi-2","host":"chi-1.us.uncletopia.com","port":27025,"enabled":true,"region":"us-central","cc":"us","latitude":41.881832,"longitude":-87.62318,"reserved":0,"last_update":"0001-01-01T00:00:00Z","name_a2s":"Uncletopia | Chicago | 2 | All Maps","protocol":17,"map":"pl_borneo","folder":"tf","game":"Team Fortress","app_id":440,"player_count":24,"max_players":24,"Bots":0,"server_type":"Dedicated","server_os":"Linux","password":true,"vac":true,"version":"7701286","steam_id":85568392924469985,"keywords":["nocrits","nodmgspread","payload","uncletopia"],"game_id":440,"stv_port":27026,"stv_name":"Uncletopia | Chicago | 2 | All Maps | STV","players":[{"user_id":136,"name":"Drizzle","steam_id":76561198152143806,"connected_time":1342000000000,"state":"active","ping":38},{"user_id":137,"name":"money squared","steam_id":76561198046775352,"connected_time":1285000000000,"state":"active","ping":91},{"user_id":138,"name":"Pasta","steam_id":76561198170042173,"connected_time":1278000000000,"state":"active","ping":90},{"user_id":130,"name":"Dragon_Spiced","steam_id":76561198097517957,"connected_time":2553000000000,"state":"active","ping":106},{"user_id":135,"name":"gourmet salad","steam_id":76561198173128765,"connected_time":1406000000000,"state":"active","ping":59},{"user_id":139,"name":"Apollyon","steam_id":76561198149260918,"connected_time":1278000000000,"state":"active","ping":67},{"user_id":140,"name":"Cujo","steam_id":76561198116256581,"connected_time":1257000000000,"state":"active","ping":129},{"user_id":51,"name":"Titty Mousepad User","steam_id":76561198008455368,"connected_time":8049000000000,"state":"active","ping":55},{"user_id":123,"name":"T√ñZI","steam_id":76561198045268695,"connected_time":3091000000000,"state":"active","ping":58},{"user_id":154,"name":"wheat","steam_id":76561197971158435,"connected_time":150000000000,"state":"active","ping":62},{"user_id":148,"name":"Rukks","steam_id":76561197993918954,"connected_time":365000000000,"state":"active","ping":65},{"user_id":99,"name":"ethix","steam_id":76561198072592880,"connected_time":4073000000000,"state":"active","ping":50},{"user_id":100,"name":"floofy","steam_id":76561198389769098,"connected_time":4072000000000,"state":"active","ping":79},{"user_id":155,"name":"Û†Ä°Û†Ä°japan milk","steam_id":76561198115902651,"connected_time":101000000000,"state":"active","ping":68},{"user_id":126,"name":"toq","steam_id":76561198400316620,"connected_time":2934000000000,"state":"active","ping":86},{"user_id":143,"name":"Petey","steam_id":76561198007339151,"connected_time":1225000000000,"state":"active","ping":90},{"user_id":151,"name":"Porkchop","steam_id":76561198047654421,"connected_time":332000000000,"state":"active","ping":91},{"user_id":149,"name":"Dill","steam_id":76561197985091914,"connected_time":361000000000,"state":"active","ping":59},{"user_id":131,"name":"a crazy hobo","steam_id":76561198289650060,"connected_time":2533000000000,"state":"active","ping":87},{"user_id":152,"name":"kevingates25@gmail.com","steam_id":76561198059575962,"connected_time":278000000000,"state":"active","ping":56},{"user_id":146,"name":"Satori Komeiji","steam_id":76561198158211423,"connected_time":1126000000000,"state":"active","ping":85},{"user_id":134,"name":"Ambrosius","steam_id":76561198037451684,"connected_time":2271000000000,"state":"active","ping":64},{"user_id":120,"name":"‚ô° horny femboy ‚ô°","steam_id":76561198248636560,"connected_time":3197000000000,"state":"active","ping":68},{"user_id":153,"name":"Jimmy","steam_id":76561197970838363,"connected_time":222000000000,"state":"active","ping":81}]},{"server_id":402,"name":"Uncletopia | Chicago | 3 | All Maps","name_short":"chi-3","host":"chi-1.us.uncletopia.com","port":27035,"enabled":true,"region":"us-central","cc":"us","latitude":41.881832,"longitude":-87.62318,"reserved":0,"last_update":"0001-01-01T00:00:00Z","name_a2s":"Uncletopia | Chicago | 3 | All Maps","protocol":17,"map":"koth_lakeside_final","folder":"tf","game":"Team Fortress","app_id":440,"player_count":0,"max_players":24,"Bots":0,"server_type":"Dedicated","server_os":"Linux","password":true,"vac":true,"version":"7701286","steam_id":85568392924515191,"keywords":["cp","nocrits","nodmgspread","uncletopia"],"game_id":440,"stv_port":0,"stv_name":"","players":null},{"server_id":403,"name":"Uncletopia | Chicago | 4 | All Maps","name_short":"chi-4","host":"chi-1.us.uncletopia.com","port":27045,"enabled":true,"region":"us-central","cc":"us","latitude":41.881832,"longitude":-87.62318,"reserved":0,"last_update":"0001-01-01T00:00:00Z","name_a2s":"Uncletopia | Chicago | 4 | All Maps","protocol":17,"map":"cp_process_final","folder":"tf","game":"Team Fortress","app_id":440,"player_count":0,"max_players":24,"Bots":0,"server_type":"Dedicated","server_os":"Linux","password":true,"vac":true,"version":"7701286","steam_id":85568392924515193,"keywords":["cp","nocrits","nodmgspread","uncletopia"],"game_id":440,"stv_port":27046,"stv_name":"Uncletopia | Chicago | 4 | All Maps | STV","players":null},{"server_id":36,"name":"Uncletopia | Chicago | 5 | All Maps","name_short":"chi-5","host":"chi-2.us.uncletopia.com","port":27015,"enabled":true,"region":"us-central","cc":"us","latitude":41.881832,"longitude":-87.62318,"reserved":0,"last_update":"0001-01-01T00:00:00Z","name_a2s":"Uncletopia | Chicago | 5 | All Maps","protocol":17,"map":"pl_swiftwater_final1","folder":"tf","game":"Team Fortress","app_id":440,"player_count":0,"max_players":24,"Bots":0,"server_type":"Dedicated","server_os":"Linux","password":true,"vac":true,"version":"7701286","steam_id":85568392924866362,"keywords":["nocrits","nodmgspread","payload","uncletopia"],"game_id":440,"stv_port":27016,"stv_name":"Uncletopia | Chicago | 5 | All Maps | STV","players":null},{"server_id":37,"name":"Uncletopia | Chicago | 6 | All Maps","name_short":"chi-6","host":"chi-2.us.uncletopia.com","port":27025,"enabled":true,"region":"us-central","cc":"us","latitude":41.881832,"longitude":-87.62318,"reserved":0,"last_update":"0001-01-01T00:00:00Z","name_a2s":"Uncletopia | Chicago | 6 | All Maps","protocol":17,"map":"pl_swiftwater_final1","folder":"tf","game":"Team Fortress","app_id":440,"player_count":0,"max_players":24,"Bots":0,"server_type":"Dedicated","server_os":"Linux","password":true,"vac":true,"version":"7701286","steam_id":85568392924866363,"keywords":["nocrits","nodmgspread","payload","uncletopia"],"game_id":440,"stv_port":27026,"stv_name":"Uncletopia | Chicago | 6 | All Maps | STV","players":null},{"server_id":38,"name":"Uncletopia | Chicago | 7 | No Payload","name_short":"chi-7","host":"chi-2.us.uncletopia.com","port":27035,"enabled":true,"region":"us-central","cc":"us","latitude":41.881832,"longitude":-87.62318,"reserved":0,"last_update":"0001-01-01T00:00:00Z","name_a2s":"Uncletopia | Chicago | 7 | No Payload","protocol":17,"map":"cp_snakewater_final1","folder":"tf","game":"Team Fortress","app_id":440,"player_count":0,"max_players":24,"Bots":0,"server_type":"Dedicated","server_os":"Linux","password":true,"vac":true,"version":"7701286","steam_id":85568392924866364,"keywords":["cp","nocrits","nodmgspread","uncletopia"],"game_id":440,"stv_port":0,"stv_name":"","players":null},{"server_id":39,"name":"Uncletopia | Chicago | 8 | Community","name_short":"chi-8","host":"chi-2.us.uncletopia.com","port":27045,"enabled":true,"region":"us-central","cc":"us","latitude":41.881832,"longitude":-87.62318,"reserved":0,"last_update":"0001-01-01T00:00:00Z","name_a2s":"Uncletopia | Chicago | 8 | Community","protocol":17,"map":"workshop/cp_reckoner_rc6.ugc674719999","folder":"tf","game":"Team Fortress","app_id":440,"player_count":23,"max_players":24,"Bots":0,"server_type":"Dedicated","server_os":"Linux","password":true,"vac":true,"version":"7701286","steam_id":85568392924866365,"keywords":["cp","nocrits","nodmgspread","uncletopia"],"game_id":440,"stv_port":27046,"stv_name":"Uncletopia | Chicago | 8 | Community | STV","players":[{"user_id":207,"name":"happy birthday","steam_id":76561198105562651,"connected_time":760000000000,"state":"active","ping":64},{"user_id":159,"name":"sithreis","steam_id":76561198000564263,"connected_time":3137000000000,"state":"active","ping":61},{"user_id":205,"name":"java","steam_id":76561198030276792,"connected_time":766000000000,"state":"active","ping":75},{"user_id":223,"name":"John Smokes","steam_id":76561198865524383,"connected_time":147000000000,"state":"active","ping":75},{"user_id":222,"name":"brae","steam_id":76561198047126327,"connected_time":187000000000,"state":"active","ping":84},{"user_id":144,"name":"gamer in training","steam_id":76561198035375228,"connected_time":3919000000000,"state":"active","ping":89},{"user_id":160,"name":"orbit","steam_id":76561198042584324,"connected_time":3086000000000,"state":"active","ping":60},{"user_id":221,"name":"estruli","steam_id":76561198295690725,"connected_time":356000000000,"state":"active","ping":70},{"user_id":215,"name":"Quietsharp","steam_id":76561198277968438,"connected_time":435000000000,"state":"active","ping":104},{"user_id":208,"name":"King","steam_id":76561198010019214,"connected_time":756000000000,"state":"active","ping":48},{"user_id":209,"name":"bloard","steam_id":76561198083206034,"connected_time":742000000000,"state":"active","ping":48},{"user_id":123,"name":"AlecTheNefarious","steam_id":76561198035291230,"connected_time":5571000000000,"state":"active","ping":60},{"user_id":214,"name":"Convo-B-Gone","steam_id":76561198029527751,"connected_time":546000000000,"state":"active","ping":64},{"user_id":200,"name":"Dallas Payday 2","steam_id":76561198200359787,"connected_time":1127000000000,"state":"active","ping":75},{"user_id":216,"name":"groond","steam_id":76561198309426720,"connected_time":409000000000,"state":"active","ping":64},{"user_id":210,"name":"tame","steam_id":76561198925005855,"connected_time":731000000000,"state":"active","ping":177},{"user_id":219,"name":"SirAdRock","steam_id":76561198087154566,"connected_time":391000000000,"state":"active","ping":70},{"user_id":220,"name":"Ohhh noo","steam_id":76561198092046536,"connected_time":386000000000,"state":"active","ping":50},{"user_id":135,"name":"Colin102004","steam_id":76561198202384334,"connected_time":4583000000000,"state":"active","ping":53},{"user_id":197,"name":"Air Fryer - $39.99 (4 Payments)","steam_id":76561198043572048,"connected_time":1274000000000,"state":"active","ping":63},{"user_id":201,"name":"Dr. Funkenstein","steam_id":76561198042186832,"connected_time":1096000000000,"state":"active","ping":77},{"user_id":202,"name":"Fester Pester","steam_id":76561198124319614,"connected_time":1071000000000,"state":"active","ping":63},{"user_id":171,"name":"lanoc","steam_id":76561198055415367,"connected_time":2738000000000,"state":"active","ping":59}]},{"server_id":8,"name":"Uncletopia | Dallas | 1 | All Maps","name_short":"dal-1","host":"dal-1.us.uncletopia.com","port":27015,"enabled":true,"region":"us-central","cc":"us","latitude":32.779167,"longitude":-96.80889,"reserved":0,"last_update":"0001-01-01T00:00:00Z","name_a2s":"Uncletopia | Dallas | 1 | All Maps","protocol":17,"map":"pl_borneo","folder":"tf","game":"Team Fortress","app_id":440,"player_count":24,"max_players":24,"Bots":0,"server_type":"Dedicated","server_os":"Linux","password":true,"vac":true,"version":"7701286","steam_id":85568392924469986,"keywords":["nocrits","nodmgspread","payload","uncletopia"],"game_id":440,"stv_port":27016,"stv_name":"Uncletopia | Dallas | 1 | All Maps | STV","players":[{"user_id":114,"name":"space","steam_id":76561198353704776,"connected_time":5003000000000,"state":"active","ping":35},{"user_id":160,"name":"Strangelove","steam_id":76561198353773611,"connected_time":1391000000000,"state":"active","ping":127},{"user_id":164,"name":"effy","steam_id":76561198087137066,"connected_time":972000000000,"state":"active","ping":64},{"user_id":169,"name":"_Lusty_","steam_id":76561198876948142,"connected_time":9000000000,"state":"spawning","ping":67},{"user_id":122,"name":"rolt bagger","steam_id":76561198026664629,"connected_time":4685000000000,"state":"active","ping":75},{"user_id":147,"name":"World Famous Skater Sean Pablo","steam_id":76561197999261387,"connected_time":2218000000000,"state":"active","ping":82},{"user_id":143,"name":"Rusty","steam_id":76561198056557928,"connected_time":2345000000000,"state":"active","ping":44},{"user_id":135,"name":"danchen104912","steam_id":76561198210314003,"connected_time":3049000000000,"state":"active","ping":79},{"user_id":163,"name":"Amber","steam_id":76561198071244044,"connected_time":1076000000000,"state":"active","ping":54},{"user_id":161,"name":"Caoticaos","steam_id":76561198114800227,"connected_time":1356000000000,"state":"active","ping":129},{"user_id":152,"name":"Batso","steam_id":76561198106589452,"connected_time":1572000000000,"state":"active","ping":80},{"user_id":144,"name":"Kuyumiester","steam_id":76561198126835302,"connected_time":2343000000000,"state":"active","ping":60},{"user_id":117,"name":"+","steam_id":76561198262422184,"connected_time":4992000000000,"state":"active","ping":51},{"user_id":137,"name":"SaulMan","steam_id":76561198131929494,"connected_time":2882000000000,"state":"active","ping":67},{"user_id":157,"name":"salad Turtle","steam_id":76561198038036122,"connected_time":1445000000000,"state":"active","ping":76},{"user_id":131,"name":"Foam","steam_id":76561198334511480,"connected_time":3264000000000,"state":"active","ping":72},{"user_id":158,"name":"Pessimystic","steam_id":76561199081761364,"connected_time":1444000000000,"state":"active","ping":109},{"user_id":150,"name":"SavHud","steam_id":76561199111713748,"connected_time":1607000000000,"state":"active","ping":84},{"user_id":168,"name":"Amigo de Videojuegos","steam_id":76561198125965363,"connected_time":276000000000,"state":"active","ping":39},{"user_id":138,"name":"able","steam_id":76561198292552182,"connected_time":2759000000000,"state":"active","ping":75},{"user_id":125,"name":"Snakeye3490","steam_id":76561198197060503,"connected_time":4059000000000,"state":"active","ping":54},{"user_id":136,"name":"zzz ms","steam_id":76561198837444917,"connected_time":2963000000000,"state":"active","ping":60},{"user_id":159,"name":"Marv_L","steam_id":76561198035709541,"connected_time":1436000000000,"state":"active","ping":95},{"user_id":166,"name":"jerma but crying and lesbian","steam_id":76561198110661425,"connected_time":930000000000,"state":"active","ping":77}]},{"server_id":108,"name":"Uncletopia | Dallas | 2 | All Maps","name_short":"dal-2","host":"dal-1.us.uncletopia.com","port":27025,"enabled":true,"region":"us-central","cc":"us","latitude":32.779167,"longitude":-96.80889,"reserved":0,"last_update":"0001-01-01T00:00:00Z","name_a2s":"Uncletopia | Dallas | 2 | All Maps","protocol":17,"map":"koth_lakeside_final","folder":"tf","game":"Team Fortress","app_id":440,"player_count":24,"max_players":24,"Bots":0,"server_type":"Dedicated","server_os":"Linux","password":true,"vac":true,"version":"7701286","steam_id":85568392924469988,"keywords":["cp","nocrits","nodmgspread","uncletopia"],"game_id":440,"stv_port":27026,"stv_name":"Uncletopia | Dallas | 2 | All Maps | STV","players":[{"user_id":54,"name":"straight shooter","steam_id":76561199150833796,"connected_time":457000000000,"state":"active","ping":109},{"user_id":34,"name":"Gammaplex","steam_id":76561198981228176,"connected_time":1332000000000,"state":"active","ping":74},{"user_id":57,"name":"Reclipser","steam_id":76561198093697554,"connected_time":361000000000,"state":"active","ping":60},{"user_id":35,"name":"Anguirus","steam_id":76561197973308536,"connected_time":1258000000000,"state":"active","ping":65},{"user_id":36,"name":"GADZOOKS","steam_id":76561198042115783,"connected_time":1252000000000,"state":"active","ping":51},{"user_id":37,"name":"Guwahavel","steam_id":76561198246181902,"connected_time":1135000000000,"state":"active","ping":46},{"user_id":44,"name":"Shock","steam_id":76561198095265842,"connected_time":770000000000,"state":"active","ping":49},{"user_id":40,"name":"Sadizumu","steam_id":76561198203518212,"connected_time":826000000000,"state":"active","ping":66},{"user_id":41,"name":"EXistential","steam_id":76561198407862652,"connected_time":816000000000,"state":"active","ping":93},{"user_id":42,"name":"valosta","steam_id":76561199372405984,"connected_time":812000000000,"state":"active","ping":76},{"user_id":58,"name":"Bromley","steam_id":76561197992298657,"connected_time":270000000000,"state":"active","ping":97},{"user_id":46,"name":"Steves Supple Lips","steam_id":76561198278254798,"connected_time":743000000000,"state":"active","ping":89},{"user_id":47,"name":"eryn üó∫","steam_id":76561198004433070,"connected_time":709000000000,"state":"active","ping":56},{"user_id":48,"name":"hop","steam_id":76561198039914843,"connected_time":640000000000,"state":"active","ping":75},{"user_id":49,"name":"Paulie Walnuts","steam_id":76561198066568730,"connected_time":618000000000,"state":"active","ping":50},{"user_id":50,"name":"badboyblue21","steam_id":76561199138663244,"connected_time":572000000000,"state":"active","ping":81},{"user_id":51,"name":"Goopie","steam_id":76561198169914947,"connected_time":562000000000,"state":"active","ping":64},{"user_id":52,"name":"brick swallower","steam_id":76561199200810546,"connected_time":553000000000,"state":"active","ping":91},{"user_id":53,"name":"jumbert","steam_id":76561198355231658,"connected_time":518000000000,"state":"active","ping":60},{"user_id":55,"name":"Bob the Builder","steam_id":76561199069029812,"connected_time":450000000000,"state":"active","ping":87},{"user_id":56,"name":"BayanTheBear","steam_id":76561198134537476,"connected_time":443000000000,"state":"active","ping":78},{"user_id":59,"name":"Minus","steam_id":76561198037887887,"connected_time":200000000000,"state":"active","ping":64},{"user_id":60,"name":"Alabit","steam_id":76561198065578560,"connected_time":169000000000,"state":"active","ping":74},{"user_id":61,"name":"oct9ber f9rever","steam_id":76561198036283992,"connected_time":161000000000,"state":"active","ping":74}]},{"server_id":5,"name":"Uncletopia | Frankfurt | 1 | All Maps","name_short":"frk-1","host":"frk-1.de.uncletopia.com","port":27015,"enabled":true,"region":"eu","cc":"de","latitude":50.110924,"longitude":8.682127,"reserved":0,"last_update":"0001-01-01T00:00:00Z","name_a2s":"Uncletopia | Frankfurt | 1 | All Maps","protocol":17,"map":"cp_mountainlab","folder":"tf","game":"Team Fortress","app_id":440,"player_count":0,"max_players":24,"Bots":0,"server_type":"Dedicated","server_os":"Linux","password":true,"vac":true,"version":"7701286","steam_id":85568392924469989,"keywords":["cp","nocrits","nodmgspread","uncletopia"],"game_id":440,"stv_port":0,"stv_name":"","players":null},{"server_id":110,"name":"Uncletopia | Frankfurt | 2 | All Maps","name_short":"frk-2","host":"frk-1.de.uncletopia.com","port":27025,"enabled":true,"region":"eu","cc":"de","latitude":50.110924,"longitude":8.682127,"reserved":0,"last_update":"0001-01-01T00:00:00Z","name_a2s":"Uncletopia | Frankfurt | 2 | All Maps","protocol":17,"map":"cp_sunshine","folder":"tf","game":"Team Fortress","app_id":440,"player_count":0,"max_players":24,"Bots":0,"server_type":"Dedicated","server_os":"Linux","password":true,"vac":true,"version":"7701286","steam_id":85568392924469990,"keywords":["cp","nocrits","nodmgspread","uncletopia"],"game_id":440,"stv_port":0,"stv_name":"","players":null},{"server_id":308,"name":"Uncletopia | Frankfurt | 3 | All Maps","name_short":"frk-3","host":"frk-1.de.uncletopia.com","port":27035,"enabled":true,"region":"eu","cc":"de","latitude":50.110924,"longitude":8.682127,"reserved":0,"last_update":"0001-01-01T00:00:00Z","name_a2s":"Uncletopia | Frankfurt | 3 | All Maps","protocol":17,"map":"pl_barnblitz","folder":"tf","game":"Team Fortress","app_id":440,"player_count":0,"max_players":24,"Bots":0,"server_type":"Dedicated","server_os":"Linux","password":true,"vac":true,"version":"7701286","steam_id":85568392924504274,"keywords":["nocrits","nodmgspread","payload","uncletopia"],"game_id":440,"stv_port":0,"stv_name":"","players":null},{"server_id":309,"name":"Uncletopia | Frankfurt | 4 | All Maps","name_short":"frk-4","host":"frk-1.de.uncletopia.com","port":27045,"enabled":true,"region":"eu","cc":"de","latitude":50.110924,"longitude":8.682127,"reserved":0,"last_update":"0001-01-01T00:00:00Z","name_a2s":"Uncletopia | Frankfurt | 4 | All Maps","protocol":17,"map":"cp_sunshine","folder":"tf","game":"Team Fortress","app_id":440,"player_count":0,"max_players":24,"Bots":0,"server_type":"Dedicated","server_os":"Linux","password":true,"vac":true,"version":"7701286","steam_id":85568392924504275,"keywords":["cp","nocrits","nodmgspread","uncletopia"],"game_id":440,"stv_port":0,"stv_name":"","players":null},{"server_id":310,"name":"Uncletopia | Frankfurt | 5 | All Maps","name_short":"frk-5","host":"frk-1.de.uncletopia.com","port":27055,"enabled":true,"region":"eu","cc":"de","latitude":50.110924,"longitude":8.682127,"reserved":0,"last_update":"0001-01-01T00:00:00Z","name_a2s":"Uncletopia | Frankfurt | 5 | All Maps","protocol":17,"map":"koth_viaduct","folder":"tf","game":"Team Fortress","app_id":440,"player_count":0,"max_players":24,"Bots":0,"server_type":"Dedicated","server_os":"Linux","password":true,"vac":true,"version":"7701286","steam_id":85568392924504277,"keywords":["cp","nocrits","nodmgspread","uncletopia"],"game_id":440,"stv_port":0,"stv_name":"","players":null},{"server_id":311,"name":"Uncletopia | Frankfurt | 6 | All Maps","name_short":"frk-6","host":"frk-1.de.uncletopia.com","port":27065,"enabled":true,"region":"eu","cc":"de","latitude":50.110924,"longitude":8.682127,"reserved":0,"last_update":"0001-01-01T00:00:00Z","name_a2s":"Uncletopia | Frankfurt | 6 | All Maps","protocol":17,"map":"koth_lakeside_final","folder":"tf","game":"Team Fortress","app_id":440,"player_count":0,"max_players":24,"Bots":0,"server_type":"Dedicated","server_os":"Linux","password":true,"vac":true,"version":"7701286","steam_id":85568392924504278,"keywords":["cp","nocrits","nodmgspread","uncletopia"],"game_id":440,"stv_port":0,"stv_name":"","players":null},{"server_id":23,"name":"Uncletopia | Frankfurt | 7 | No Payload","name_short":"frk-7","host":"frk-1.de.uncletopia.com","port":27075,"enabled":true,"region":"eu","cc":"de","latitude":50.110924,"longitude":8.682127,"reserved":0,"last_update":"0001-01-01T00:00:00Z","name_a2s":"Uncletopia | Frankfurt | 7 | No Payload","protocol":17,"map":"pl_badwater","folder":"tf","game":"Team Fortress","app_id":440,"player_count":0,"max_players":24,"Bots":0,"server_type":"Dedicated","server_os":"Linux","password":true,"vac":true,"version":"7701286","steam_id":85568392924742827,"keywords":["nocrits","nodmgspread","payload","uncletopia"],"game_id":440,"stv_port":0,"stv_name":"","players":null},{"server_id":24,"name":"Uncletopia | Frankfurt | 8 | Community","name_short":"frk-8","host":"frk-1.de.uncletopia.com","port":27085,"enabled":true,"region":"eu","cc":"de","latitude":50.110924,"longitude":8.682127,"reserved":0,"last_update":"0001-01-01T00:00:00Z","name_a2s":"Uncletopia | Frankfurt | 8 | Community","protocol":17,"map":"pl_barnblitz","folder":"tf","game":"Team Fortress","app_id":440,"player_count":0,"max_players":24,"Bots":0,"server_type":"Dedicated","server_os":"Linux","password":true,"vac":true,"version":"7701286","steam_id":85568392924742828,"keywords":["nocrits","nodmgspread","payload","uncletopia"],"game_id":440,"stv_port":0,"stv_name":"","players":null},{"server_id":202,"name":"Uncletopia | Hong Kong | 1 | All Maps","name_short":"hgk-1","host":"hgk-1.hk.uncletopia.com","port":27015,"enabled":true,"region":"asia","cc":"hk","latitude":22.302711,"longitude":114.177216,"reserved":0,"last_update":"0001-01-01T00:00:00Z","name_a2s":"Uncletopia | Hong Kong | 1 | All Maps","protocol":17,"map":"pl_upward","folder":"tf","game":"Team Fortress","app_id":440,"player_count":24,"max_players":24,"Bots":0,"server_type":"Dedicated","server_os":"Linux","password":true,"vac":true,"version":"7701286","steam_id":85568392924494504,"keywords":["nocrits","nodmgspread","payload","uncletopia"],"game_id":440,"stv_port":27016,"stv_name":"Uncletopia | Hong Kong | 1 | All Maps | STV","players":[{"user_id":8,"name":"Violezine","steam_id":76561199000502615,"connected_time":5893000000000,"state":"active","ping":78},{"user_id":69,"name":"SOlarSTate (SOST)","steam_id":76561198963382881,"connected_time":362000000000,"state":"active","ping":113},{"user_id":14,"name":"iced","steam_id":76561198999114004,"connected_time":5300000000000,"state":"active","ping":98},{"user_id":67,"name":"Feelsbad","steam_id":76561198132207861,"connected_time":743000000000,"state":"active","ping":85},{"user_id":30,"name":"Nimbus","steam_id":76561198877713016,"connected_time":2767000000000,"state":"active","ping":124},{"user_id":70,"name":"Puddin","steam_id":76561198140052918,"connected_time":311000000000,"state":"active","ping":88},{"user_id":62,"name":"Testicle Inspector","steam_id":76561199404958139,"connected_time":1238000000000,"state":"active","ping":134},{"user_id":27,"name":"Piggy","steam_id":76561199293416159,"connected_time":3301000000000,"state":"active","ping":76},{"user_id":31,"name":"üé∂C4ndy_caneÏ∫îÎîî_ÏºÄÏù∏üé∂","steam_id":76561198275465052,"connected_time":2728000000000,"state":"active","ping":78},{"user_id":72,"name":"MR. T","steam_id":76561198847421088,"connected_time":22000000000,"state":"spawning","ping":151},{"user_id":63,"name":"MR. BUTTER","steam_id":76561198329902657,"connected_time":1047000000000,"state":"active","ping":105},{"user_id":34,"name":"ellz","steam_id":76561199216074568,"connected_time":2664000000000,"state":"active","ping":68},{"user_id":35,"name":"S c u m p","steam_id":76561199172582978,"connected_time":2620000000000,"state":"active","ping":146},{"user_id":71,"name":"Ucklir5278","steam_id":76561199087436806,"connected_time":257000000000,"state":"active","ping":84},{"user_id":66,"name":"Cipher(#savetf2)","steam_id":76561198796591492,"connected_time":864000000000,"state":"active","ping":111},{"user_id":38,"name":"im_0ff","steam_id":76561198339346695,"connected_time":2551000000000,"state":"active","ping":123},{"user_id":54,"name":"Dits","steam_id":76561198283833960,"connected_time":1735000000000,"state":"active","ping":36},{"user_id":56,"name":"IZ*","steam_id":76561198834621927,"connected_time":1562000000000,"state":"active","ping":77},{"user_id":68,"name":"Noyour","steam_id":76561198323259830,"connected_time":544000000000,"state":"active","ping":112},{"user_id":57,"name":"zxcvbnm","steam_id":76561198866884809,"connected_time":1542000000000,"state":"active","ping":68},{"user_id":51,"name":"T.","steam_id":76561198337887896,"connected_time":1831000000000,"state":"active","ping":85},{"user_id":60,"name":"√≠–≤√≠n AwŒ±d Œ±l FŒ±ruzŒ±√≠","steam_id":76561198201999740,"connected_time":1349000000000,"state":"active","ping":77},{"user_id":61,"name":"tuxy","steam_id":76561198996816684,"connected_time":1297000000000,"state":"active","ping":64},{"user_id":65,"name":"‡∏∏","steam_id":76561198130085148,"connected_time":1042000000000,"state":"active","ping":83}]},{"server_id":1,"name":"Uncletopia | Los Angeles | 1 | All Maps","name_short":"lax-1","host":"lax-1.us.uncletopia.com","port":27015,"enabled":true,"region":"us-west","cc":"us","latitude":33.94279,"longitude":-118.41004,"reserved":0,"last_update":"0001-01-01T00:00:00Z","name_a2s":"Uncletopia | Los Angeles | 1 | All Maps","protocol":17,"map":"cp_gullywash_final1","folder":"tf","game":"Team Fortress","app_id":440,"player_count":24,"max_players":24,"Bots":0,"server_type":"Dedicated","server_os":"Linux","password":true,"vac":true,"version":"7701286","steam_id":85568392924469991,"keywords":["cp","nocrits","nodmgspread","uncletopia"],"game_id":440,"stv_port":27016,"stv_name":"Uncletopia | Los Angeles | 1 | All Maps | STV","players":[{"user_id":98,"name":"Jax O'Gaytor","steam_id":76561198288922168,"connected_time":6107000000000,"state":"active","ping":65},{"user_id":125,"name":"Marp","steam_id":76561197999988084,"connected_time":2085000000000,"state":"active","ping":51},{"user_id":111,"name":"June","steam_id":76561198141803658,"connected_time":4776000000000,"state":"active","ping":48},{"user_id":168,"name":"Mashallah","steam_id":76561198093229614,"connected_time":155000000000,"state":"active","ping":103},{"user_id":69,"name":"cielael","steam_id":76561198043971956,"connected_time":7485000000000,"state":"active","ping":45},{"user_id":159,"name":"Squid121","steam_id":76561198038832034,"connected_time":760000000000,"state":"active","ping":80},{"user_id":160,"name":"wile","steam_id":76561198125261443,"connected_time":759000000000,"state":"active","ping":85},{"user_id":124,"name":"cookiegenius2398.r2","steam_id":76561198970759258,"connected_time":2973000000000,"state":"active","ping":49},{"user_id":146,"name":"Madvillain","steam_id":76561198037734204,"connected_time":1057000000000,"state":"active","ping":82},{"user_id":116,"name":"ldr","steam_id":76561198151135298,"connected_time":4173000000000,"state":"active","ping":30},{"user_id":167,"name":"Cypress","steam_id":76561198070560915,"connected_time":530000000000,"state":"active","ping":50},{"user_id":161,"name":"Wormy Getting Coal","steam_id":76561198054539200,"connected_time":751000000000,"state":"active","ping":75},{"user_id":162,"name":"Psychromaniac","steam_id":76561198012215214,"connected_time":716000000000,"state":"active","ping":82},{"user_id":149,"name":"oil","steam_id":76561198099980149,"connected_time":1018000000000,"state":"active","ping":46},{"user_id":169,"name":"zinnk","steam_id":76561198092081825,"connected_time":89000000000,"state":"active","ping":60},{"user_id":152,"name":"Chef","steam_id":76561198037041957,"connected_time":931000000000,"state":"active","ping":54},{"user_id":97,"name":"Sun Sugar","steam_id":76561198385085005,"connected_time":6153000000000,"state":"active","ping":56},{"user_id":118,"name":"DaBeatGoOff?","steam_id":76561198106507400,"connected_time":3717000000000,"state":"active","ping":59},{"user_id":163,"name":"The Squid Gamer‚Ñ¢","steam_id":76561198340621517,"connected_time":695000000000,"state":"active","ping":79},{"user_id":143,"name":"luke8538","steam_id":76561198067480563,"connected_time":1469000000000,"state":"active","ping":63},{"user_id":164,"name":"Eros","steam_id":76561198000530934,"connected_time":679000000000,"state":"active","ping":60},{"user_id":165,"name":"Bleebi","steam_id":76561197971264259,"connected_time":670000000000,"state":"active","ping":94},{"user_id":166,"name":"Kuchio","steam_id":76561198161218914,"connected_time":661000000000,"state":"active","ping":49},{"user_id":75,"name":"BIGGS","steam_id":76561198057399996,"connected_time":7345000000000,"state":"active","ping":46}]},{"server_id":112,"name":"Uncletopia | Los Angeles | 2 | All Maps","name_short":"lax-2","host":"lax-1.us.uncletopia.com","port":27025,"enabled":true,"region":"us-west","cc":"us","latitude":33.94279,"longitude":-118.41004,"reserved":0,"last_update":"0001-01-01T00:00:00Z","name_a2s":"Uncletopia | Los Angeles | 2 | All Maps","protocol":17,"map":"koth_highpass","folder":"tf","game":"Team Fortress","app_id":440,"player_count":0,"max_players":24,"Bots":0,"server_type":"Dedicated","server_os":"Linux","password":true,"vac":true,"version":"7701286","steam_id":85568392924469992,"keywords":["cp","nocrits","nodmgspread","uncletopia"],"game_id":440,"stv_port":27026,"stv_name":"Uncletopia | Los Angeles | 2 | All Maps | STV","players":null},{"server_id":324,"name":"Uncletopia | Los Angeles | 3 | All Maps","name_short":"lax-3","host":"lax-1.us.uncletopia.com","port":27035,"enabled":true,"region":"us-west","cc":"us","latitude":33.94279,"longitude":-118.41004,"reserved":0,"last_update":"0001-01-01T00:00:00Z","name_a2s":"Uncletopia | Los Angeles | 3 | All Maps","protocol":17,"map":"cp_process_final","folder":"tf","game":"Team Fortress","app_id":440,"player_count":0,"max_players":24,"Bots":0,"server_type":"Dedicated","server_os":"Linux","password":true,"vac":true,"version":"7701286","steam_id":85568392924510198,"keywords":["cp","nocrits","nodmgspread","uncletopia"],"game_id":440,"stv_port":27036,"stv_name":"Uncletopia | Los Angeles | 3 | All Maps | STV","players":null},{"server_id":25,"name":"Uncletopia | Los Angeles | 4 | No Payload","name_short":"lax-4","host":"lax-1.us.uncletopia.com","port":27045,"enabled":true,"region":"us-west","cc":"us","latitude":33.94279,"longitude":-118.41004,"reserved":0,"last_update":"0001-01-01T00:00:00Z","name_a2s":"Uncletopia | Los Angeles | 4 | No Payload","protocol":17,"map":"cp_vanguard","folder":"tf","game":"Team Fortress","app_id":440,"player_count":0,"max_players":24,"Bots":0,"server_type":"Dedicated","server_os":"Linux","password":true,"vac":true,"version":"7701286","steam_id":85568392924510199,"keywords":["cp","nocrits","nodmgspread","uncletopia"],"game_id":440,"stv_port":27046,"stv_name":"Uncletopia | Los Angeles | 4 | No Payload | STV","players":null},{"server_id":11,"name":"Uncletopia | London | 1 | All Maps","name_short":"lon-1","host":"lon-1.uk.uncletopia.com","port":27015,"enabled":true,"region":"eu","cc":"gb","latitude":51.509865,"longitude":-0.118092,"reserved":0,"last_update":"0001-01-01T00:00:00Z","name_a2s":"Uncletopia | London | 1 | All Maps","protocol":17,"map":"pl_swiftwater_final1","folder":"tf","game":"Team Fortress","app_id":440,"player_count":18,"max_players":24,"Bots":0,"server_type":"Dedicated","server_os":"Linux","password":true,"vac":true,"version":"7701286","steam_id":85568392924367362,"keywords":["nocrits","nodmgspread","payload","uncletopia"],"game_id":440,"stv_port":27016,"stv_name":"Uncletopia | London | 1 | All Maps | STV","players":[{"user_id":190,"name":"Amandus","steam_id":76561198036281079,"connected_time":1419000000000,"state":"active","ping":60},{"user_id":177,"name":"–®–∫–æ–ª–∞ 17","steam_id":76561199440030481,"connected_time":2414000000000,"state":"active","ping":111},{"user_id":203,"name":"The New Bob","steam_id":76561199122072556,"connected_time":320000000000,"state":"active","ping":166},{"user_id":161,"name":"g6","steam_id":76561197994492154,"connected_time":2674000000000,"state":"active","ping":75},{"user_id":193,"name":"dartush","steam_id":76561198067506270,"connected_time":1058000000000,"state":"active","ping":69},{"user_id":144,"name":"schizo gamer moment","steam_id":76561199414716848,"connected_time":4000000000000,"state":"active","ping":75},{"user_id":75,"name":"Kjell Kriminell","steam_id":76561198062075870,"connected_time":7076000000000,"state":"active","ping":63},{"user_id":14,"name":"Logic Not Found","steam_id":76561198273025576,"connected_time":10905000000000,"state":"active","ping":58},{"user_id":204,"name":"Rex Z'Beq","steam_id":76561199300590000,"connected_time":112000000000,"state":"active","ping":78},{"user_id":194,"name":"SynthBox3","steam_id":76561199094075745,"connected_time":921000000000,"state":"active","ping":91},{"user_id":182,"name":"krevetchat1y","steam_id":76561199019941445,"connected_time":2039000000000,"state":"active","ping":145},{"user_id":155,"name":"Peddler Êû™ÁÅ´ÈáçÁîü","steam_id":76561198121260981,"connected_time":3257000000000,"state":"active","ping":44},{"user_id":183,"name":"Cosmetic brain","steam_id":76561198055936410,"connected_time":2030000000000,"state":"active","ping":77},{"user_id":185,"name":"Epi","steam_id":76561198041175008,"connected_time":1675000000000,"state":"active","ping":72},{"user_id":186,"name":"Mad","steam_id":76561198114232642,"connected_time":1673000000000,"state":"active","ping":66},{"user_id":205,"name":"Sarip","steam_id":76561198113330438,"connected_time":55000000000,"state":"active","ping":46},{"user_id":191,"name":"Per√§miehen√§","steam_id":76561197968945306,"connected_time":1410000000000,"state":"active","ping":71},{"user_id":69,"name":"THE MVP","steam_id":76561198060619306,"connected_time":7941000000000,"state":"active","ping":44}]},{"server_id":114,"name":"Uncletopia | London | 2 | All Maps","name_short":"lon-2","host":"lon-1.uk.uncletopia.com","port":27025,"enabled":true,"region":"eu","cc":"gb","latitude":51.509865,"longitude":-0.118092,"reserved":0,"last_update":"0001-01-01T00:00:00Z","name_a2s":"Uncletopia | London | 2 | All Maps","protocol":17,"map":"cp_process_final","folder":"tf","game":"Team Fortress","app_id":440,"player_count":0,"max_players":24,"Bots":0,"server_type":"Dedicated","server_os":"Linux","password":true,"vac":true,"version":"7701286","steam_id":85568392924470941,"keywords":["cp","nocrits","nodmgspread","uncletopia"],"game_id":440,"stv_port":27026,"stv_name":"Uncletopia | London | 2 | All Maps | STV","players":null},{"server_id":320,"name":"Uncletopia | London | 3 | All Maps","name_short":"lon-3","host":"lon-1.uk.uncletopia.com","port":27035,"enabled":true,"region":"eu","cc":"gb","latitude":51.509865,"longitude":-0.118092,"reserved":0,"last_update":"0001-01-01T00:00:00Z","name_a2s":"Uncletopia | London | 3 | All Maps","protocol":17,"map":"pl_swiftwater_final1","folder":"tf","game":"Team Fortress","app_id":440,"player_count":0,"max_players":24,"Bots":0,"server_type":"Dedicated","server_os":"Linux","password":true,"vac":true,"version":"7701286","steam_id":85568392924510192,"keywords":["nocrits","nodmgspread","payload","uncletopia"],"game_id":440,"stv_port":27036,"stv_name":"Uncletopia | London | 3 | All Maps | STV","players":null},{"server_id":321,"name":"Uncletopia | London | 4 | All Maps","name_short":"lon-4","host":"lon-1.uk.uncletopia.com","port":27045,"enabled":true,"region":"eu","cc":"gb","latitude":51.509865,"longitude":-0.118092,"reserved":0,"last_update":"0001-01-01T00:00:00Z","name_a2s":"Uncletopia | London | 4 | All Maps","protocol":17,"map":"koth_viaduct","folder":"tf","game":"Team Fortress","app_id":440,"player_count":0,"max_players":24,"Bots":0,"server_type":"Dedicated","server_os":"Linux","password":true,"vac":true,"version":"7701286","steam_id":85568392924510193,"keywords":["cp","nocrits","nodmgspread","uncletopia"],"game_id":440,"stv_port":0,"stv_name":"","players":null},{"server_id":21,"name":"Uncletopia | London | 5 | All Maps","name_short":"lon-5","host":"lon-1.uk.uncletopia.com","port":27055,"enabled":true,"region":"eu","cc":"gb","latitude":51.509865,"longitude":-0.118092,"reserved":0,"last_update":"0001-01-01T00:00:00Z","name_a2s":"Uncletopia | London | 5 | All Maps","protocol":17,"map":"pl_badwater","folder":"tf","game":"Team Fortress","app_id":440,"player_count":0,"max_players":24,"Bots":0,"server_type":"Dedicated","server_os":"Linux","password":true,"vac":true,"version":"7701286","steam_id":85568392924742829,"keywords":["nocrits","nodmgspread","payload","uncletopia"],"game_id":440,"stv_port":0,"stv_name":"","players":null},{"server_id":22,"name":"Uncletopia | London | 6 | All Maps","name_short":"lon-6","host":"lon-1.uk.uncletopia.com","port":27065,"enabled":true,"region":"eu","cc":"gb","latitude":51.509865,"longitude":-0.118092,"reserved":0,"last_update":"0001-01-01T00:00:00Z","name_a2s":"Uncletopia | London | 6 | All Maps","protocol":17,"map":"koth_highpass","folder":"tf","game":"Team Fortress","app_id":440,"player_count":0,"max_players":24,"Bots":0,"server_type":"Dedicated","server_os":"Linux","password":true,"vac":true,"version":"7701286","steam_id":85568392924742830,"keywords":["cp","nocrits","nodmgspread","uncletopia"],"game_id":440,"stv_port":27066,"stv_name":"Uncletopia | London | 6 | All Maps | STV","players":null},{"server_id":40,"name":"Uncletopia | London | 7 | No Payload","name_short":"lon-7","host":"lon-1.uk.uncletopia.com","port":27075,"enabled":true,"region":"eu","cc":"gb","latitude":51.509865,"longitude":-0.118092,"reserved":0,"last_update":"0001-01-01T00:00:00Z","name_a2s":"Uncletopia | London | 7 | No Payload","protocol":17,"map":"pl_frontier_final","folder":"tf","game":"Team Fortress","app_id":440,"player_count":0,"max_players":24,"Bots":0,"server_type":"Dedicated","server_os":"Linux","password":true,"vac":true,"version":"7701286","steam_id":85568392924964314,"keywords":["nocrits","nodmgspread","payload","uncletopia"],"game_id":440,"stv_port":0,"stv_name":"","players":null},{"server_id":41,"name":"Uncletopia | London | 8 | Community","name_short":"lon-8","host":"lon-1.uk.uncletopia.com","port":27085,"enabled":true,"region":"eu","cc":"gb","latitude":51.509865,"longitude":-0.118092,"reserved":0,"last_update":"0001-01-01T00:00:00Z","name_a2s":"Uncletopia | London | 8 | Community","protocol":17,"map":"pl_pier","folder":"tf","game":"Team Fortress","app_id":440,"player_count":0,"max_players":24,"Bots":0,"server_type":"Dedicated","server_os":"Linux","password":true,"vac":true,"version":"7701286","steam_id":85568392924964315,"keywords":["nocrits","nodmgspread","payload","uncletopia"],"game_id":440,"stv_port":0,"stv_name":"","players":null},{"server_id":300,"name":"Uncletopia | Montr√©al | 1 | All Maps","name_short":"mtl-1","host":"mtl-1.ca.uncletopia.com","port":27015,"enabled":true,"region":"us-east","cc":"ca","latitude":45.50889,"longitude":-73.56167,"reserved":0,"last_update":"0001-01-01T00:00:00Z","name_a2s":"Uncletopia | Montr√©al | 1 | All Maps","protocol":17,"map":"koth_lakeside_final","folder":"tf","game":"Team Fortress","app_id":440,"player_count":0,"max_players":24,"Bots":0,"server_type":"Dedicated","server_os":"Linux","password":true,"vac":true,"version":"7701286","steam_id":85568392924500087,"keywords":["cp","nocrits","nodmgspread","uncletopia"],"game_id":440,"stv_port":0,"stv_name":"","players":null},{"server_id":301,"name":"Uncletopia | Montr√©al | 2 | All Maps","name_short":"mtl-2","host":"mtl-1.ca.uncletopia.com","port":27025,"enabled":true,"region":"us-east","cc":"ca","latitude":45.50889,"longitude":-73.56167,"reserved":0,"last_update":"0001-01-01T00:00:00Z","name_a2s":"Uncletopia | Montr√©al | 2 | All Maps","protocol":17,"map":"koth_cascade","folder":"tf","game":"Team Fortress","app_id":440,"player_count":0,"max_players":24,"Bots":0,"server_type":"Dedicated","server_os":"Linux","password":true,"vac":true,"version":"7701286","steam_id":85568392924500088,"keywords":["cp","nocrits","nodmgspread","uncletopia"],"game_id":440,"stv_port":27026,"stv_name":"Uncletopia | Montr√©al | 2 | All Maps | STV","players":null},{"server_id":302,"name":"Uncletopia | Montr√©al | 3 | All Maps","name_short":"mtl-3","host":"mtl-1.ca.uncletopia.com","port":27035,"enabled":true,"region":"us-east","cc":"ca","latitude":45.50889,"longitude":-73.56167,"reserved":0,"last_update":"0001-01-01T00:00:00Z","name_a2s":"Uncletopia | Montr√©al | 3 | All Maps","protocol":17,"map":"pl_borneo","folder":"tf","game":"Team Fortress","app_id":440,"player_count":0,"max_players":24,"Bots":0,"server_type":"Dedicated","server_os":"Linux","password":true,"vac":true,"version":"7701286","steam_id":85568392924500089,"keywords":["nocrits","nodmgspread","payload","uncletopia"],"game_id":440,"stv_port":27036,"stv_name":"Uncletopia | Montr√©al | 3 | All Maps | STV","players":null},{"server_id":303,"name":"Uncletopia | Montr√©al | 4 | No Payload","name_short":"mtl-4","host":"mtl-1.ca.uncletopia.com","port":27045,"enabled":true,"region":"us-east","cc":"ca","latitude":45.50889,"longitude":-73.56167,"reserved":0,"last_update":"0001-01-01T00:00:00Z","name_a2s":"Uncletopia | Montr√©al | 4 | No Payload","protocol":17,"map":"koth_viaduct","folder":"tf","game":"Team Fortress","app_id":440,"player_count":0,"max_players":24,"Bots":0,"server_type":"Dedicated","server_os":"Linux","password":true,"vac":true,"version":"7701286","steam_id":85568392924500090,"keywords":["cp","nocrits","nodmgspread","uncletopia"],"game_id":440,"stv_port":27046,"stv_name":"Uncletopia | Montr√©al | 4 | No Payload | STV","players":null},{"server_id":13,"name":"Uncletopia | New York City | 1 | All Maps","name_short":"nyc-1","host":"nyc-1.us.uncletopia.com","port":27015,"enabled":true,"region":"us-east","cc":"us","latitude":40.73061,"longitude":-73.93524,"reserved":0,"last_update":"0001-01-01T00:00:00Z","name_a2s":"Uncletopia | New York City | 1 | All Maps","protocol":17,"map":"cp_dustbowl","folder":"tf","game":"Team Fortress","app_id":440,"player_count":24,"max_players":24,"Bots":0,"server_type":"Dedicated","server_os":"Linux","password":true,"vac":true,"version":"7701286","steam_id":85568392924469993,"keywords":["cp","nocrits","nodmgspread","uncletopia"],"game_id":440,"stv_port":27016,"stv_name":"Uncletopia | New York City | 1 | All Maps | STV","players":[{"user_id":152,"name":"Randy \"the Man\" Johnson","steam_id":76561198039124445,"connected_time":1064000000000,"state":"active","ping":116},{"user_id":163,"name":"TYPICAL HUMAN","steam_id":76561198060914982,"connected_time":183000000000,"state":"active","ping":119},{"user_id":150,"name":"hoots","steam_id":76561198015609525,"connected_time":1344000000000,"state":"active","ping":49},{"user_id":156,"name":"joethefool","steam_id":76561199015436319,"connected_time":482000000000,"state":"active","ping":43},{"user_id":102,"name":"Ion{M}","steam_id":76561197993457435,"connected_time":5109000000000,"state":"active","ping":75},{"user_id":138,"name":"Yeshie the Dragon Layer","steam_id":76561198080214214,"connected_time":2118000000000,"state":"active","ping":60},{"user_id":157,"name":"HYSU?","steam_id":76561198098622367,"connected_time":377000000000,"state":"active","ping":121},{"user_id":62,"name":"Amaretto Sour","steam_id":76561198063112844,"connected_time":8597000000000,"state":"active","ping":62},{"user_id":164,"name":"Cement Eater","steam_id":76561198080890217,"connected_time":179000000000,"state":"active","ping":44},{"user_id":125,"name":"Lumen","steam_id":76561197985372319,"connected_time":4150000000000,"state":"active","ping":47},{"user_id":166,"name":"prdxninja","steam_id":76561198170081774,"connected_time":153000000000,"state":"active","ping":60},{"user_id":108,"name":"Fantastic","steam_id":76561198079088978,"connected_time":4891000000000,"state":"active","ping":62},{"user_id":111,"name":"Vulpes","steam_id":76561198038929334,"connected_time":4765000000000,"state":"active","ping":49},{"user_id":158,"name":"werecat","steam_id":76561198005091213,"connected_time":358000000000,"state":"active","ping":44},{"user_id":167,"name":"shinoa","steam_id":76561199180954540,"connected_time":79000000000,"state":"active","ping":53},{"user_id":155,"name":"Glucouse Guardian","steam_id":76561198066933921,"connected_time":675000000000,"state":"active","ping":47},{"user_id":144,"name":"it_do_be_ivy","steam_id":76561198077796736,"connected_time":1669000000000,"state":"active","ping":49},{"user_id":160,"name":"fallin","steam_id":76561198205386960,"connected_time":301000000000,"state":"active","ping":103},{"user_id":124,"name":"VX Ghost","steam_id":76561198072541436,"connected_time":4243000000000,"state":"active","ping":57},{"user_id":112,"name":"Ras","steam_id":76561198123546775,"connected_time":4738000000000,"state":"active","ping":72},{"user_id":161,"name":"hashmap","steam_id":76561198043794014,"connected_time":254000000000,"state":"active","ping":64},{"user_id":154,"name":"Ailyn","steam_id":76561198265072810,"connected_time":850000000000,"state":"active","ping":66},{"user_id":134,"name":"Urbanzpinapple","steam_id":76561198115426938,"connected_time":2773000000000,"state":"active","ping":114},{"user_id":168,"name":"[ESPT] Super Fly","steam_id":76561197980561833,"connected_time":74000000000,"state":"active","ping":92}]},{"server_id":14,"name":"Uncletopia | New York City | 2 | All Maps","name_short":"nyc-2","host":"nyc-1.us.uncletopia.com","port":27025,"enabled":true,"region":"us-east","cc":"us","latitude":40.73061,"longitude":-73.93524,"reserved":0,"last_update":"0001-01-01T00:00:00Z","name_a2s":"Uncletopia | New York City | 2 | All Maps","protocol":17,"map":"pl_frontier_final","folder":"tf","game":"Team Fortress","app_id":440,"player_count":24,"max_players":24,"Bots":0,"server_type":"Dedicated","server_os":"Linux","password":true,"vac":true,"version":"7701286","steam_id":85568392924469994,"keywords":["nocrits","nodmgspread","payload","uncletopia"],"game_id":440,"stv_port":27026,"stv_name":"Uncletopia | New York City | 2 | All Maps | STV","players":[{"user_id":117,"name":"Mikel","steam_id":76561198260708562,"connected_time":2374000000000,"state":"active","ping":64},{"user_id":132,"name":"the senate","steam_id":76561198353542913,"connected_time":733000000000,"state":"active","ping":110},{"user_id":74,"name":"matkaster","steam_id":76561197998546486,"connected_time":6550000000000,"state":"active","ping":72},{"user_id":118,"name":"Redside","steam_id":76561198026564313,"connected_time":2329000000000,"state":"active","ping":59},{"user_id":143,"name":"Bashirider","steam_id":76561198260522253,"connected_time":291000000000,"state":"active","ping":43},{"user_id":133,"name":"4Lukaska","steam_id":76561198083515060,"connected_time":721000000000,"state":"active","ping":47},{"user_id":145,"name":"RhyThm","steam_id":76561198090916616,"connected_time":39000000000,"state":"active","ping":80},{"user_id":61,"name":"PBnJames","steam_id":76561198834000962,"connected_time":7527000000000,"state":"active","ping":49},{"user_id":108,"name":"Christoph Waltz eating a burger","steam_id":76561199215811448,"connected_time":3758000000000,"state":"active","ping":54},{"user_id":110,"name":"Saijax","steam_id":76561198056439274,"connected_time":3651000000000,"state":"active","ping":78},{"user_id":120,"name":"Lord Vile the Impaler","steam_id":76561198040425096,"connected_time":2226000000000,"state":"active","ping":68},{"user_id":121,"name":"IVV4","steam_id":76561198194356583,"connected_time":2220000000000,"state":"active","ping":94},{"user_id":142,"name":"DJ-Whatchya #rEtiReD","steam_id":76561198060355298,"connected_time":502000000000,"state":"active","ping":83},{"user_id":103,"name":"G_Bob","steam_id":76561198098133233,"connected_time":4753000000000,"state":"active","ping":79},{"user_id":135,"name":"sys","steam_id":76561198300912581,"connected_time":711000000000,"state":"active","ping":78},{"user_id":136,"name":"None of that $9.99 bullshit","steam_id":76561198116169903,"connected_time":709000000000,"state":"active","ping":83},{"user_id":139,"name":"Terranfear","steam_id":76561197975409022,"connected_time":688000000000,"state":"active","ping":43},{"user_id":130,"name":"krerdly truther","steam_id":76561198377555279,"connected_time":1142000000000,"state":"active","ping":83},{"user_id":92,"name":"Fever Dreams","steam_id":76561198116614620,"connected_time":5753000000000,"state":"active","ping":74},{"user_id":60,"name":"CoolerK","steam_id":76561197993787252,"connected_time":7549000000000,"state":"active","ping":49},{"user_id":137,"name":"arcade","steam_id":76561198093925622,"connected_time":703000000000,"state":"active","ping":59},{"user_id":138,"name":"Verathragna","steam_id":76561198067215453,"connected_time":700000000000,"state":"active","ping":56},{"user_id":140,"name":"LYTEWERK","steam_id":76561198002819791,"connected_time":672000000000,"state":"active","ping":99},{"user_id":123,"name":"I LOVE MUG","steam_id":76561198048047546,"connected_time":2206000000000,"state":"active","ping":92}]},{"server_id":15,"name":"Uncletopia | New York City | 3 | All Maps","name_short":"nyc-3","host":"nyc-1.us.uncletopia.com","port":27035,"enabled":true,"region":"us-east","cc":"us","latitude":40.73061,"longitude":-73.93524,"reserved":0,"last_update":"0001-01-01T00:00:00Z","name_a2s":"Uncletopia | New York City | 3 | All Maps","protocol":17,"map":"pl_frostcliff","folder":"tf","game":"Team Fortress","app_id":440,"player_count":21,"max_players":24,"Bots":0,"server_type":"Dedicated","server_os":"Linux","password":true,"vac":true,"version":"7701286","steam_id":85568392924742820,"keywords":["nocrits","nodmgspread","payload","uncletopia"],"game_id":440,"stv_port":27036,"stv_name":"Uncletopia | New York City | 3 | All Maps | STV","players":[{"user_id":117,"name":"ethanweegee","steam_id":76561198272400016,"connected_time":3968000000000,"state":"active","ping":66},{"user_id":163,"name":"Cafe Alpha","steam_id":76561197965022076,"connected_time":1057000000000,"state":"active","ping":46},{"user_id":171,"name":"ElephantBlog","steam_id":76561198052905261,"connected_time":217000000000,"state":"active","ping":61},{"user_id":170,"name":"FireQuiz","steam_id":76561198107357249,"connected_time":270000000000,"state":"active","ping":121},{"user_id":172,"name":"MrLeftTurn","steam_id":76561198856743969,"connected_time":193000000000,"state":"active","ping":150},{"user_id":93,"name":"novacheri1","steam_id":76561198345120143,"connected_time":5873000000000,"state":"active","ping":64},{"user_id":173,"name":"LB 8612","steam_id":76561199230009336,"connected_time":163000000000,"state":"active","ping":127},{"user_id":123,"name":"M00NM4DN355 || Buff The Speed","steam_id":76561198082775439,"connected_time":3529000000000,"state":"active","ping":62},{"user_id":146,"name":"QuakAtack","steam_id":76561198870770157,"connected_time":2232000000000,"state":"active","ping":94},{"user_id":168,"name":"Dr. Loubert  [SG]","steam_id":76561198085442522,"connected_time":513000000000,"state":"active","ping":72},{"user_id":139,"name":"Bismarck","steam_id":76561198442873012,"connected_time":2729000000000,"state":"active","ping":52},{"user_id":125,"name":"Stressmelo","steam_id":76561199204445185,"connected_time":3426000000000,"state":"active","ping":80},{"user_id":130,"name":"Soap","steam_id":76561198074619142,"connected_time":3269000000000,"state":"active","ping":75},{"user_id":147,"name":"Mythical Lag","steam_id":76561198347031281,"connected_time":2223000000000,"state":"active","ping":90},{"user_id":143,"name":"-BRH- Tangled up in Bluegrass","steam_id":76561197987181139,"connected_time":2503000000000,"state":"active","ping":91},{"user_id":160,"name":"Professor Peppermint","steam_id":76561198184017082,"connected_time":1270000000000,"state":"active","ping":82},{"user_id":149,"name":"RelativeToZero","steam_id":76561198175875733,"connected_time":2098000000000,"state":"active","ping":116},{"user_id":150,"name":"TYLERTHECREATOR","steam_id":76561198353072928,"connected_time":2089000000000,"state":"active","ping":74},{"user_id":156,"name":"Bear \"Dr.Butt\" Porn MD","steam_id":76561197994425084,"connected_time":1807000000000,"state":"active","ping":112},{"user_id":151,"name":"Brendan","steam_id":76561198041079914,"connected_time":2047000000000,"state":"active","ping":46},{"user_id":115,"name":"Chechens Spotted","steam_id":76561199028910893,"connected_time":4256000000000,"state":"active","ping":97}]},{"server_id":16,"name":"Uncletopia | New York City | 4 | Community","name_short":"nyc-4","host":"nyc-1.us.uncletopia.com","port":27045,"enabled":true,"region":"us-east","cc":"us","latitude":40.73061,"longitude":-73.93524,"reserved":0,"last_update":"0001-01-01T00:00:00Z","name_a2s":"Uncletopia | New York City | 4 | Community","protocol":17,"map":"workshop/rd_asteroid_redux_rc9.ugc2154902912","folder":"tf","game":"Team Fortress","app_id":440,"player_count":0,"max_players":24,"Bots":0,"server_type":"Dedicated","server_os":"Linux","password":true,"vac":true,"version":"7701286","steam_id":85568392924742821,"keywords":["beta","nocrits","nodmgspread","rd","uncletopia"],"game_id":440,"stv_port":27046,"stv_name":"Uncletopia | New York City | 4 | Community | STV","players":null},{"server_id":142,"name":"Uncletopia | S√£o Paulo | 1 | All Maps","name_short":"sao-1","host":"sao-1.br.uncletopia.com","port":27015,"enabled":true,"region":"sa","cc":"br","latitude":-23.533773,"longitude":-46.62529,"reserved":0,"last_update":"0001-01-01T00:00:00Z","name_a2s":"Uncletopia | S√£o Paulo | 1 | All Maps","protocol":17,"map":"pl_pier","folder":"tf","game":"Team Fortress","app_id":440,"player_count":0,"max_players":24,"Bots":0,"server_type":"Dedicated","server_os":"Linux","password":true,"vac":true,"version":"7701286","steam_id":85568392924469996,"keywords":["nocrits","nodmgspread","payload","uncletopia"],"game_id":440,"stv_port":0,"stv_name":"","players":null},{"server_id":143,"name":"Uncletopia | S√£o Paulo | 2 | All Maps","name_short":"sao-2","host":"sao-2.br.uncletopia.com","port":27015,"enabled":true,"region":"sa","cc":"br","latitude":-23.533773,"longitude":-46.62529,"reserved":0,"last_update":"0001-01-01T00:00:00Z","name_a2s":"Uncletopia | S√£o Paulo | 2 | All Maps","protocol":17,"map":"koth_cascade","folder":"tf","game":"Team Fortress","app_id":440,"player_count":1,"max_players":24,"Bots":0,"server_type":"Dedicated","server_os":"Linux","password":true,"vac":true,"version":"7701286","steam_id":85568392924485349,"keywords":["cp","nocrits","nodmgspread","uncletopia"],"game_id":440,"stv_port":0,"stv_name":"","players":[{"user_id":7,"name":"AY| Aparelho de DVD  (BR) . . .","steam_id":76561199215739702,"connected_time":375000000000,"state":"active","ping":68}]},{"server_id":7,"name":"Uncletopia | Seattle | 1 | All Maps","name_short":"sea-1","host":"sea-1.us.uncletopia.com","port":27015,"enabled":true,"region":"us-west","cc":"us","latitude":47.608013,"longitude":-122.33517,"reserved":0,"last_update":"0001-01-01T00:00:00Z","name_a2s":"Uncletopia | Seattle | 1 | All Maps","protocol":17,"map":"pl_thundermountain","folder":"tf","game":"Team Fortress","app_id":440,"player_count":24,"max_players":24,"Bots":0,"server_type":"Dedicated","server_os":"Linux","password":true,"vac":true,"version":"7701286","steam_id":85568392924469997,"keywords":["nocrits","nodmgspread","payload","uncletopia"],"game_id":440,"stv_port":27016,"stv_name":"Uncletopia | Seattle | 1 | All Maps | STV","players":[{"user_id":134,"name":"Common","steam_id":76561198041083863,"connected_time":2662000000000,"state":"active","ping":55},{"user_id":86,"name":"McNamJam","steam_id":76561198028128686,"connected_time":6352000000000,"state":"active","ping":61},{"user_id":147,"name":"T√ºCold","steam_id":76561198111278197,"connected_time":1054000000000,"state":"active","ping":58},{"user_id":135,"name":"Wrench","steam_id":76561198137242573,"connected_time":2151000000000,"state":"active","ping":56},{"user_id":150,"name":"Shifty Louie","steam_id":76561197990872608,"connected_time":541000000000,"state":"active","ping":78},{"user_id":151,"name":"Misclick","steam_id":76561198050855911,"connected_time":431000000000,"state":"active","ping":95},{"user_id":126,"name":"PP_PhD","steam_id":76561198168851111,"connected_time":2771000000000,"state":"active","ping":62},{"user_id":105,"name":"Ahzain","steam_id":76561198035894333,"connected_time":4547000000000,"state":"active","ping":80},{"user_id":137,"name":"Arsonist Goose","steam_id":76561198147441830,"connected_time":2119000000000,"state":"active","ping":73},{"user_id":143,"name":"Super Mighty G","steam_id":76561198020932806,"connected_time":1589000000000,"state":"active","ping":80},{"user_id":121,"name":"spenca","steam_id":76561198025371154,"connected_time":3011000000000,"state":"active","ping":80},{"user_id":140,"name":"hedahman","steam_id":76561198052398134,"connected_time":1648000000000,"state":"active","ping":50},{"user_id":148,"name":"pooping.peter.2009","steam_id":76561198171368867,"connected_time":1032000000000,"state":"active","ping":81},{"user_id":154,"name":"The Mincer","steam_id":76561198209881263,"connected_time":189000000000,"state":"active","ping":81},{"user_id":129,"name":"Stone Toad Steve Austin","steam_id":76561198030622861,"connected_time":2755000000000,"state":"active","ping":134},{"user_id":138,"name":"agent 4 my beloved","steam_id":76561198035698704,"connected_time":2096000000000,"state":"active","ping":69},{"user_id":63,"name":"Amogous Supreme","steam_id":76561198025476774,"connected_time":8778000000000,"state":"active","ping":74},{"user_id":78,"name":"CheeseCake488","steam_id":76561199407617942,"connected_time":6953000000000,"state":"active","ping":114},{"user_id":74,"name":"Krazzle","steam_id":76561198029782412,"connected_time":7921000000000,"state":"active","ping":69},{"user_id":156,"name":"Drive-By-Fish-Guy","steam_id":76561198105513652,"connected_time":125000000000,"state":"active","ping":113},{"user_id":146,"name":"Strength!!","steam_id":76561198001241984,"connected_time":1061000000000,"state":"active","ping":55},{"user_id":108,"name":"Zykio","steam_id":76561198122490182,"connected_time":4408000000000,"state":"active","ping":116},{"user_id":109,"name":"Large Package","steam_id":76561198045403508,"connected_time":4405000000000,"state":"active","ping":83},{"user_id":158,"name":"deomoan","steam_id":76561198979091918,"connected_time":62000000000,"state":"active","ping":115}]},{"server_id":119,"name":"Uncletopia | Seattle | 2 | All Maps","name_short":"sea-2","host":"sea-1.us.uncletopia.com","port":27025,"enabled":true,"region":"us-west","cc":"us","latitude":47.608013,"longitude":-122.33517,"reserved":0,"last_update":"0001-01-01T00:00:00Z","name_a2s":"Uncletopia | Seattle | 2 | All Maps","protocol":17,"map":"pl_swiftwater_final1","folder":"tf","game":"Team Fortress","app_id":440,"player_count":24,"max_players":24,"Bots":0,"server_type":"Dedicated","server_os":"Linux","password":true,"vac":true,"version":"7701286","steam_id":85568392924469998,"keywords":["nocrits","nodmgspread","payload","uncletopia"],"game_id":440,"stv_port":27026,"stv_name":"Uncletopia | Seattle | 2 | All Maps | STV","players":[{"user_id":127,"name":"Some Dood on the Internet","steam_id":76561198054657687,"connected_time":1587000000000,"state":"active","ping":54},{"user_id":136,"name":"requiem","steam_id":76561199380301475,"connected_time":1020000000000,"state":"active","ping":81},{"user_id":91,"name":"Gentlegen","steam_id":76561198257368619,"connected_time":4766000000000,"state":"active","ping":135},{"user_id":137,"name":"Jolly Jon","steam_id":76561198424248616,"connected_time":886000000000,"state":"active","ping":94},{"user_id":85,"name":"2 Point Tom","steam_id":76561198087617008,"connected_time":5406000000000,"state":"active","ping":55},{"user_id":71,"name":"General Fisticuffs","steam_id":76561198255721392,"connected_time":6528000000000,"state":"active","ping":107},{"user_id":148,"name":"weeb","steam_id":76561198106945226,"connected_time":306000000000,"state":"active","ping":119},{"user_id":140,"name":"moe","steam_id":76561198929586245,"connected_time":650000000000,"state":"active","ping":76},{"user_id":99,"name":"OmniXVII","steam_id":76561198027183394,"connected_time":3795000000000,"state":"active","ping":90},{"user_id":144,"name":"Greskrendtregk","steam_id":76561197969553142,"connected_time":403000000000,"state":"active","ping":58},{"user_id":134,"name":"Flowey","steam_id":76561198442304406,"connected_time":1061000000000,"state":"active","ping":57},{"user_id":138,"name":"CrazySpace","steam_id":76561198183980530,"connected_time":698000000000,"state":"active","ping":77},{"user_id":123,"name":"ansoonii","steam_id":76561198092494136,"connected_time":1861000000000,"state":"active","ping":104},{"user_id":145,"name":"A UsedNom","steam_id":76561198402832756,"connected_time":402000000000,"state":"active","ping":66},{"user_id":149,"name":"Peep the Horror","steam_id":76561198126219247,"connected_time":289000000000,"state":"active","ping":78},{"user_id":129,"name":"hypotenuse","steam_id":76561198062479158,"connected_time":1578000000000,"state":"active","ping":58},{"user_id":124,"name":"Goldbug","steam_id":76561198025221202,"connected_time":1848000000000,"state":"active","ping":66},{"user_id":141,"name":"M4 Sherman","steam_id":76561198011096132,"connected_time":571000000000,"state":"active","ping":67},{"user_id":81,"name":"GameGuru the Green Gryphon","steam_id":76561198118495354,"connected_time":5873000000000,"state":"active","ping":59},{"user_id":133,"name":"supcupman","steam_id":76561198051513866,"connected_time":1468000000000,"state":"active","ping":64},{"user_id":146,"name":"Purple","steam_id":76561198313687945,"connected_time":401000000000,"state":"active","ping":65},{"user_id":147,"name":"02vg3","steam_id":76561198404320154,"connected_time":385000000000,"state":"active","ping":92},{"user_id":117,"name":"bappo del taco","steam_id":76561199068510270,"connected_time":2385000000000,"state":"active","ping":63},{"user_id":119,"name":"goldhed","steam_id":76561198051751133,"connected_time":2148000000000,"state":"active","ping":61}]},{"server_id":17,"name":"Uncletopia | San Francisco | 1 | All Maps","name_short":"sfo-1","host":"sfo-1.us.uncletopia.com","port":27015,"enabled":true,"region":"us-west","cc":"us","latitude":37.77397,"longitude":-122.4313,"reserved":0,"last_update":"0001-01-01T00:00:00Z","name_a2s":"Uncletopia | San Francisco | 1 | All Maps","protocol":17,"map":"cp_snakewater_final1","folder":"tf","game":"Team Fortress","app_id":440,"player_count":0,"max_players":24,"Bots":0,"server_type":"Dedicated","server_os":"Linux","password":true,"vac":true,"version":"7701286","steam_id":85568392924469999,"keywords":["cp","nocrits","nodmgspread","uncletopia"],"game_id":440,"stv_port":27016,"stv_name":"Uncletopia | San Francisco | 1 | All Maps | STV","players":null},{"server_id":18,"name":"Uncletopia | San Francisco | 2 | All Maps","name_short":"sfo-2","host":"sfo-1.us.uncletopia.com","port":27025,"enabled":true,"region":"us-west","cc":"us","latitude":37.77397,"longitude":-122.4313,"reserved":0,"last_update":"0001-01-01T00:00:00Z","name_a2s":"Uncletopia | San Francisco | 2 | All Maps","protocol":17,"map":"pl_frontier_final","folder":"tf","game":"Team Fortress","app_id":440,"player_count":10,"max_players":24,"Bots":0,"server_type":"Dedicated","server_os":"Linux","password":true,"vac":true,"version":"7701286","steam_id":85568392924470000,"keywords":["nocrits","nodmgspread","payload","uncletopia"],"game_id":440,"stv_port":27026,"stv_name":"Uncletopia | San Francisco | 2 | All Maps | STV","players":[{"user_id":18,"name":"GrandpappyCripes","steam_id":76561198086994768,"connected_time":4327000000000,"state":"active","ping":46},{"user_id":28,"name":"Facepalm","steam_id":76561198001935226,"connected_time":1417000000000,"state":"active","ping":50},{"user_id":29,"name":"BrightOrangeMango","steam_id":76561198023144607,"connected_time":1325000000000,"state":"active","ping":64},{"user_id":33,"name":"El Doktor","steam_id":76561198413013439,"connected_time":504000000000,"state":"active","ping":45},{"user_id":30,"name":"Arctanis","steam_id":76561198030906125,"connected_time":1162000000000,"state":"active","ping":50},{"user_id":25,"name":"El Monte","steam_id":76561198263562991,"connected_time":2266000000000,"state":"active","ping":45},{"user_id":31,"name":"fulcrum","steam_id":76561198363821364,"connected_time":890000000000,"state":"active","ping":31},{"user_id":32,"name":"Leeroy","steam_id":76561198295198722,"connected_time":840000000000,"state":"active","ping":96},{"user_id":34,"name":"breadBREH","steam_id":76561199260475539,"connected_time":331000000000,"state":"active","ping":63},{"user_id":35,"name":"Nez","steam_id":76561197963109059,"connected_time":65000000000,"state":"active","ping":64}]},{"server_id":19,"name":"Uncletopia | San Francisco | 3 | No Payload","name_short":"sfo-3","host":"sfo-1.us.uncletopia.com","port":27035,"enabled":true,"region":"us-west","cc":"us","latitude":37.77397,"longitude":-122.4313,"reserved":0,"last_update":"0001-01-01T00:00:00Z","name_a2s":"Uncletopia | San Francisco | 3 | No Payload","protocol":17,"map":"cp_vanguard","folder":"tf","game":"Team Fortress","app_id":440,"player_count":2,"max_players":24,"Bots":0,"server_type":"Dedicated","server_os":"Linux","password":true,"vac":true,"version":"7701286","steam_id":85568392924742824,"keywords":["cp","nocrits","nodmgspread","uncletopia"],"game_id":440,"stv_port":27036,"stv_name":"Uncletopia | San Francisco | 3 | No Payload | STV","players":[{"user_id":183,"name":"Champagne Supernova","steam_id":76561198918114562,"connected_time":736000000000,"state":"active","ping":59},{"user_id":163,"name":"DistantJragon","steam_id":76561198117563641,"connected_time":1792000000000,"state":"active","ping":108}]},{"server_id":20,"name":"Uncletopia | San Francisco | 4 | Community","name_short":"sfo-4","host":"sfo-1.us.uncletopia.com","port":27045,"enabled":true,"region":"us-west","cc":"us","latitude":37.77397,"longitude":-122.4313,"reserved":0,"last_update":"0001-01-01T00:00:00Z","name_a2s":"Uncletopia | San Francisco | 4 | Community","protocol":17,"map":"workshop/pl_vigil_rc9.ugc1266210012","folder":"tf","game":"Team Fortress","app_id":440,"player_count":12,"max_players":24,"Bots":0,"server_type":"Dedicated","server_os":"Linux","password":true,"vac":true,"version":"7701286","steam_id":85568392924742826,"keywords":["nocrits","nodmgspread","payload","uncletopia"],"game_id":440,"stv_port":27046,"stv_name":"Uncletopia | San Francisco | 4 | Community | STV","players":[{"user_id":117,"name":"falco is so cool","steam_id":76561198174751517,"connected_time":409000000000,"state":"active","ping":55},{"user_id":119,"name":"Yucho","steam_id":76561198148751724,"connected_time":268000000000,"state":"active","ping":52},{"user_id":66,"name":"Coolio-aid","steam_id":76561198218361691,"connected_time":4668000000000,"state":"active","ping":69},{"user_id":7,"name":"Kick Down Door 6:00AM TUCK‚òÉRO","steam_id":76561197976146738,"connected_time":8309000000000,"state":"active","ping":118},{"user_id":120,"name":"The Assistant Regional Manager","steam_id":76561199221484936,"connected_time":240000000000,"state":"active","ping":61},{"user_id":121,"name":"/\\/\\/\\/\\/\\spiky floor/\\/\\/\\/\\/\\","steam_id":76561197991868141,"connected_time":238000000000,"state":"active","ping":83},{"user_id":122,"name":"Sir Nope (TSS)","steam_id":76561198035935649,"connected_time":181000000000,"state":"active","ping":49},{"user_id":60,"name":"Yarrun","steam_id":76561198046616908,"connected_time":5394000000000,"state":"active","ping":59},{"user_id":102,"name":"Zogovro","steam_id":76561199163618880,"connected_time":1137000000000,"state":"active","ping":57},{"user_id":104,"name":"catman1900","steam_id":76561198052059370,"connected_time":1087000000000,"state":"active","ping":60},{"user_id":44,"name":"aisu","steam_id":76561198043768507,"connected_time":5814000000000,"state":"active","ping":104},{"user_id":70,"name":"SolarusD","steam_id":76561198029279861,"connected_time":4427000000000,"state":"active","ping":49}]},{"server_id":141,"name":"Uncletopia | Sydney | 1 | All Maps","name_short":"syd-1","host":"syd-1.au.uncletopia.com","port":27015,"enabled":true,"region":"au","cc":"au","latitude":-33.865143,"longitude":151.2099,"reserved":0,"last_update":"0001-01-01T00:00:00Z","name_a2s":"Uncletopia | Sydney | 1 | All Maps","protocol":17,"map":"pl_barnblitz","folder":"tf","game":"Team Fortress","app_id":440,"player_count":23,"max_players":24,"Bots":0,"server_type":"Dedicated","server_os":"Linux","password":true,"vac":true,"version":"7701286","steam_id":85568392924470001,"keywords":["nocrits","nodmgspread","payload","uncletopia"],"game_id":440,"stv_port":27016,"stv_name":"Uncletopia | Sydney | 1 | All Maps | STV","players":[{"user_id":135,"name":"Michaelsoft Binbows","steam_id":76561198422847304,"connected_time":5751000000000,"state":"active","ping":58},{"user_id":210,"name":"Phoish","steam_id":76561198442526296,"connected_time":1107000000000,"state":"active","ping":62},{"user_id":150,"name":"Kumbya Kumbya","steam_id":76561198117979249,"connected_time":4570000000000,"state":"active","ping":63},{"user_id":177,"name":"Madison Ivy","steam_id":76561198074674290,"connected_time":2802000000000,"state":"active","ping":68},{"user_id":145,"name":"sweeney","steam_id":76561198164574293,"connected_time":5045000000000,"state":"active","ping":36},{"user_id":198,"name":"War","steam_id":76561198157868917,"connected_time":1970000000000,"state":"active","ping":56},{"user_id":197,"name":"fuschu","steam_id":76561198125648728,"connected_time":2003000000000,"state":"active","ping":40},{"user_id":164,"name":"blicky","steam_id":76561198029829077,"connected_time":3983000000000,"state":"active","ping":90},{"user_id":187,"name":"On My Way to Smooch You, I Am","steam_id":76561198041713339,"connected_time":2725000000000,"state":"active","ping":78},{"user_id":199,"name":"Xael","steam_id":76561198183528818,"connected_time":1970000000000,"state":"active","ping":50},{"user_id":222,"name":"PyroShark","steam_id":76561198199915279,"connected_time":73000000000,"state":"active","ping":124},{"user_id":213,"name":"TooLongName","steam_id":76561198082203205,"connected_time":888000000000,"state":"active","ping":61},{"user_id":192,"name":"toots","steam_id":76561198094589768,"connected_time":2383000000000,"state":"active","ping":70},{"user_id":190,"name":"Big Booty Llama","steam_id":76561198074422721,"connected_time":2534000000000,"state":"active","ping":49},{"user_id":218,"name":"man ahhh","steam_id":76561198129577552,"connected_time":592000000000,"state":"active","ping":78},{"user_id":205,"name":"‚ô• Sharpy \u003e v \u003c","steam_id":76561198091613743,"connected_time":1746000000000,"state":"active","ping":83},{"user_id":216,"name":"DelHasMangoes/yt","steam_id":76561198047183797,"connected_time":792000000000,"state":"active","ping":83},{"user_id":219,"name":"osci","steam_id":76561197995455274,"connected_time":550000000000,"state":"active","ping":50},{"user_id":175,"name":"Macca","steam_id":76561198010207998,"connected_time":3012000000000,"state":"active","ping":45},{"user_id":207,"name":"Gasoline","steam_id":76561198879023728,"connected_time":1590000000000,"state":"active","ping":69},{"user_id":203,"name":"sweet","steam_id":76561198075311236,"connected_time":1819000000000,"state":"active","ping":31},{"user_id":208,"name":"Classic Enjoyer","steam_id":76561198039843013,"connected_time":1537000000000,"state":"active","ping":84},{"user_id":221,"name":"APVC","steam_id":76561199090168813,"connected_time":293000000000,"state":"active","ping":47}]},{"server_id":123,"name":"Uncletopia | Sydney | 2 | All Maps","name_short":"syd-2","host":"syd-1.au.uncletopia.com","port":27025,"enabled":true,"region":"au","cc":"au","latitude":-33.865143,"longitude":151.2099,"reserved":0,"last_update":"0001-01-01T00:00:00Z","name_a2s":"Uncletopia | Sydney | 2 | All Maps","protocol":17,"map":"pl_pier","folder":"tf","game":"Team Fortress","app_id":440,"player_count":21,"max_players":24,"Bots":0,"server_type":"Dedicated","server_os":"Linux","password":true,"vac":true,"version":"7701286","steam_id":85568392924470002,"keywords":["nocrits","nodmgspread","payload","uncletopia"],"game_id":440,"stv_port":27026,"stv_name":"Uncletopia | Sydney | 2 | All Maps | STV","players":[{"user_id":112,"name":"pigeonpumper1991","steam_id":76561197985197292,"connected_time":2525000000000,"state":"active","ping":45},{"user_id":139,"name":"MineSweeper2048","steam_id":76561198338746543,"connected_time":1101000000000,"state":"active","ping":54},{"user_id":153,"name":"ark41","steam_id":76561197960895014,"connected_time":247000000000,"state":"active","ping":63},{"user_id":110,"name":"Editor_Billy","steam_id":76561199165608946,"connected_time":2801000000000,"state":"active","ping":59},{"user_id":148,"name":"BestdogShadow","steam_id":76561199004014342,"connected_time":448000000000,"state":"active","ping":56},{"user_id":141,"name":"A Person That Plays TF2","steam_id":76561199221851578,"connected_time":967000000000,"state":"active","ping":49},{"user_id":121,"name":"SuperNova","steam_id":76561198418441094,"connected_time":1924000000000,"state":"active","ping":52},{"user_id":142,"name":"Painfully Average","steam_id":76561198119409653,"connected_time":942000000000,"state":"active","ping":84},{"user_id":143,"name":"Owl_Snek","steam_id":76561198052737131,"connected_time":867000000000,"state":"active","ping":84},{"user_id":149,"name":"me when i hit that evil blunt","steam_id":76561198865284532,"connected_time":447000000000,"state":"active","ping":43},{"user_id":145,"name":"the huntsman(withbuh)","steam_id":76561198447184425,"connected_time":709000000000,"state":"active","ping":68},{"user_id":146,"name":"[MMM] ReeOne‚Ñ¢","steam_id":76561199172478531,"connected_time":693000000000,"state":"active","ping":76},{"user_id":156,"name":"RedEyes","steam_id":76561197973698135,"connected_time":89000000000,"state":"active","ping":62},{"user_id":152,"name":"Critz Eastwood","steam_id":76561198050094688,"connected_time":336000000000,"state":"active","ping":53},{"user_id":134,"name":"fatheavytf2","steam_id":76561198369296417,"connected_time":1444000000000,"state":"active","ping":56},{"user_id":154,"name":"blackmanblack","steam_id":76561198309279405,"connected_time":229000000000,"state":"active","ping":57},{"user_id":137,"name":"Yegg","steam_id":76561198219898025,"connected_time":1381000000000,"state":"active","ping":63},{"user_id":155,"name":"cbpop","steam_id":76561198992538857,"connected_time":145000000000,"state":"active","ping":53},{"user_id":157,"name":"zen","steam_id":76561198302670452,"connected_time":53000000000,"state":"active","ping":52},{"user_id":158,"name":"Selling Anti-Matter for $543","steam_id":76561198070708382,"connected_time":38000000000,"state":"spawning","ping":51},{"user_id":159,"name":"everybody do the FLOP!!","steam_id":76561198237667940,"connected_time":31000000000,"state":"active","ping":90}]},{"server_id":395,"name":"Uncletopia | Sydney | 3 | All Maps","name_short":"syd-3","host":"syd-1.au.uncletopia.com","port":27035,"enabled":true,"region":"au","cc":"au","latitude":-33.865143,"longitude":151.2099,"reserved":0,"last_update":"0001-01-01T00:00:00Z","name_a2s":"Uncletopia | Sydney | 3 | All Maps","protocol":17,"map":"cp_process_final","folder":"tf","game":"Team Fortress","app_id":440,"player_count":0,"max_players":24,"Bots":0,"server_type":"Dedicated","server_os":"Linux","password":true,"vac":true,"version":"7701286","steam_id":85568392925194467,"keywords":["cp","nocrits","nodmgspread","uncletopia"],"game_id":440,"stv_port":0,"stv_name":"","players":null},{"server_id":396,"name":"Uncletopia | Sydney | 4 | All Maps","name_short":"syd-4","host":"syd-1.au.uncletopia.com","port":27045,"enabled":true,"region":"au","cc":"au","latitude":-33.865143,"longitude":151.2099,"reserved":0,"last_update":"0001-01-01T00:00:00Z","name_a2s":"Uncletopia | Sydney | 4 | All Maps","protocol":17,"map":"koth_highpass","folder":"tf","game":"Team Fortress","app_id":440,"player_count":0,"max_players":24,"Bots":0,"server_type":"Dedicated","server_os":"Linux","password":true,"vac":true,"version":"7701286","steam_id":85568392925397958,"keywords":["cp","nocrits","nodmgspread","uncletopia"],"game_id":440,"stv_port":0,"stv_name":"","players":null},{"server_id":58,"name":"Uncletopia | Sydney | 5 | No Payload","name_short":"syd-5","host":"syd-1.au.uncletopia.com","port":27055,"enabled":true,"region":"au","cc":"au","latitude":-33.865143,"longitude":151.2099,"reserved":0,"last_update":"0001-01-01T00:00:00Z","name_a2s":"Uncletopia | Sydney | 5 | No Payload","protocol":17,"map":"cp_egypt_final","folder":"tf","game":"Team Fortress","app_id":440,"player_count":0,"max_players":24,"Bots":0,"server_type":"Dedicated","server_os":"Linux","password":true,"vac":true,"version":"7701286","steam_id":85568392925397959,"keywords":["cp","nocrits","nodmgspread","uncletopia"],"game_id":440,"stv_port":27056,"stv_name":"Uncletopia | Sydney | 5 | No Payload | STV","players":null},{"server_id":59,"name":"Uncletopia | Sydney | 6 | Community","name_short":"syd-6","host":"syd-1.au.uncletopia.com","port":27065,"enabled":true,"region":"au","cc":"au","latitude":-33.865143,"longitude":151.2099,"reserved":0,"last_update":"0001-01-01T00:00:00Z","name_a2s":"Uncletopia | Sydney | 6 | Community","protocol":17,"map":"workshop/cp_reckoner_rc6.ugc674719999","folder":"tf","game":"Team Fortress","app_id":440,"player_count":0,"max_players":24,"Bots":0,"server_type":"Dedicated","server_os":"Linux","password":true,"vac":true,"version":"7701286","steam_id":85568392925397960,"keywords":["cp","nocrits","nodmgspread","uncletopia"],"game_id":440,"stv_port":27066,"stv_name":"Uncletopia | Sydney | 6 | Community | STV","players":null},{"server_id":49,"name":"Uncletopia | Warsaw | 1 | All Maps","name_short":"waw-1","host":"waw-1.pl.uncletopia.com","port":27015,"enabled":true,"region":"eu","cc":"pl","latitude":52.2297,"longitude":21.017532,"reserved":0,"last_update":"0001-01-01T00:00:00Z","name_a2s":"Uncletopia | Warsaw | 1 | All Maps","protocol":17,"map":"pl_upward","folder":"tf","game":"Team Fortress","app_id":440,"player_count":0,"max_players":24,"Bots":0,"server_type":"Dedicated","server_os":"Linux","password":true,"vac":true,"version":"7701286","steam_id":85568392925397850,"keywords":["nocrits","nodmgspread","payload","uncletopia"],"game_id":440,"stv_port":0,"stv_name":"","players":null},{"server_id":50,"name":"Uncletopia | Warsaw | 2 | All Maps","name_short":"waw-2","host":"waw-1.pl.uncletopia.com","port":27025,"enabled":true,"region":"eu","cc":"pl","latitude":52.2297,"longitude":21.017532,"reserved":0,"last_update":"0001-01-01T00:00:00Z","name_a2s":"Uncletopia | Warsaw | 2 | All Maps","protocol":17,"map":"koth_highpass","folder":"tf","game":"Team Fortress","app_id":440,"player_count":0,"max_players":24,"Bots":0,"server_type":"Dedicated","server_os":"Linux","password":true,"vac":true,"version":"7701286","steam_id":85568392925397851,"keywords":["cp","nocrits","nodmgspread","uncletopia"],"game_id":440,"stv_port":0,"stv_name":"","players":null},{"server_id":51,"name":"Uncletopia | Warsaw | 3 | All Maps","name_short":"waw-3","host":"waw-1.pl.uncletopia.com","port":27035,"enabled":true,"region":"eu","cc":"pl","latitude":52.2297,"longitude":21.017532,"reserved":0,"last_update":"0001-01-01T00:00:00Z","name_a2s":"Uncletopia | Warsaw | 3 | All Maps","protocol":17,"map":"cp_mountainlab","folder":"tf","game":"Team Fortress","app_id":440,"player_count":0,"max_players":24,"Bots":0,"server_type":"Dedicated","server_os":"Linux","password":true,"vac":true,"version":"7701286","steam_id":85568392925397852,"keywords":["cp","nocrits","nodmgspread","uncletopia"],"game_id":440,"stv_port":0,"stv_name":"","players":null},{"server_id":52,"name":"Uncletopia | Warsaw | 4 | All Maps","name_short":"waw-4","host":"waw-1.pl.uncletopia.com","port":27045,"enabled":true,"region":"eu","cc":"pl","latitude":52.2297,"longitude":21.017532,"reserved":0,"last_update":"0001-01-01T00:00:00Z","name_a2s":"Uncletopia | Warsaw | 4 | All Maps","protocol":17,"map":"pl_borneo","folder":"tf","game":"Team Fortress","app_id":440,"player_count":0,"max_players":24,"Bots":0,"server_type":"Dedicated","server_os":"Linux","password":true,"vac":true,"version":"7701286","steam_id":85568392925397853,"keywords":["nocrits","nodmgspread","payload","uncletopia"],"game_id":440,"stv_port":0,"stv_name":"","players":null},{"server_id":53,"name":"Uncletopia | Warsaw | 5 | No Payload","name_short":"waw-5","host":"waw-1.pl.uncletopia.com","port":27055,"enabled":true,"region":"eu","cc":"pl","latitude":52.2297,"longitude":21.017532,"reserved":0,"last_update":"0001-01-01T00:00:00Z","name_a2s":"Uncletopia | Warsaw | 5 | No Payload","protocol":17,"map":"pl_frontier_final","folder":"tf","game":"Team Fortress","app_id":440,"player_count":0,"max_players":24,"Bots":0,"server_type":"Dedicated","server_os":"Linux","password":true,"vac":true,"version":"7701286","steam_id":85568392925397854,"keywords":["nocrits","nodmgspread","payload","uncletopia"],"game_id":440,"stv_port":0,"stv_name":"","players":null},{"server_id":54,"name":"Uncletopia | Warsaw | 6 | Community","name_short":"waw-6","host":"waw-1.pl.uncletopia.com","port":27065,"enabled":true,"region":"eu","cc":"pl","latitude":52.2297,"longitude":21.017532,"reserved":0,"last_update":"0001-01-01T00:00:00Z","name_a2s":"Uncletopia | Warsaw | 6 | Community","protocol":17,"map":"pl_pier","folder":"tf","game":"Team Fortress","app_id":440,"player_count":0,"max_players":24,"Bots":0,"server_type":"Dedicated","server_os":"Linux","password":true,"vac":true,"version":"7701286","steam_id":85568392925397856,"keywords":["nocrits","nodmgspread","payload","uncletopia"],"game_id":440,"stv_port":0,"stv_name":"","players":null}]}