{"status":true,"message":"","result":[{"server_id":9,"name":"Uncletopia | Atlanta | 1 | All Maps","name_short":"atl-1","host":"atl-1.us.uncletopia.com","port":27015,"enabled":true,"region":"us-east","cc":"us","latitude":33.753746,"longitude":-84.38633,"reserved":0,"last_update":"0001-01-01T00:00:00Z","name_a2s":"Uncletopia | Atlanta | 1 | All Maps","protocol":17,"map":"cp_altitude","folder":"tf","game":"Team Fortress","app_id":440,"player_count":21,"max_players":24,"Bots":0,"server_type":"Dedicated","server_os":"Linux","password":true,"vac":true,"version":"7695204","steam_id":85568392924469982,"keywords":["cp","nocrits","nodmgspread","uncletopia"],"game_id":440,"stv_port":27016,"stv_name":"Uncletopia | Atlanta | 1 | All Maps | STV","players":[{"user_id":456,"name":"ATL1 | eish","steam_id":76561198089463603,"connected_time":7569000000000,"state":"active","ping":104},{"user_id":482,"name":"daemon","steam_id":76561198001541433,"connected_time":4598000000000,"state":"active","ping":83},{"user_id":518,"name":"pigswill","steam_id":76561197999081865,"connected_time":450000000000,"state":"active","ping":75},{"user_id":503,"name":"Larry T.G","steam_id":76561198140157079,"connected_time":1798000000000,"state":"active","ping":63},{"user_id":502,"name":"cocksplosion sorcerer","steam_id":76561198089252927,"connected_time":1879000000000,"state":"active","ping":67},{"user_id":457,"name":"stink","steam_id":76561198099318923,"connected_time":7561000000000,"state":"active","ping":90},{"user_id":520,"name":"Aegis","steam_id":76561198272052750,"connected_time":392000000000,"state":"active","ping":72},{"user_id":476,"name":"Vladikr1","steam_id":76561198401495362,"connected_time":5483000000000,"state":"active","ping":71},{"user_id":514,"name":"Hawson","steam_id":76561198053549889,"connected_time":1080000000000,"state":"active","ping":59},{"user_id":512,"name":"mx.TheGreatMagelichopter696969","steam_id":76561198170627647,"connected_time":1141000000000,"state":"active","ping":60},{"user_id":517,"name":"For Mother Russia","steam_id":76561198078311469,"connected_time":959000000000,"state":"active","ping":64},{"user_id":499,"name":"C papi","steam_id":76561198027779564,"connected_time":2542000000000,"state":"active","ping":48},{"user_id":507,"name":"Mightyegg","steam_id":76561198051366738,"connected_time":1667000000000,"state":"active","ping":88},{"user_id":485,"name":"i'm a mercy main i'm scared","steam_id":76561198253134732,"connected_time":3881000000000,"state":"active","ping":133},{"user_id":508,"name":"AOTFB | Vox Vulpera","steam_id":76561198796227041,"connected_time":1600000000000,"state":"active","ping":103},{"user_id":509,"name":"Plague Medic","steam_id":76561198035784649,"connected_time":1543000000000,"state":"active","ping":105},{"user_id":493,"name":"KRELLAH","steam_id":76561198287045069,"connected_time":3205000000000,"state":"active","ping":75},{"user_id":470,"name":"Tannenbaum Trotsky","steam_id":76561199101638460,"connected_time":6418000000000,"state":"active","ping":85},{"user_id":441,"name":"merry mommy","steam_id":76561199230929836,"connected_time":11366000000000,"state":"active","ping":81},{"user_id":515,"name":"Mr.Ukussy-sussychopter696969","steam_id":76561198400517324,"connected_time":1056000000000,"state":"active","ping":95},{"user_id":516,"name":"Steven13527","steam_id":76561198377048317,"connected_time":1039000000000,"state":"active","ping":90}]},{"server_id":400,"name":"Uncletopia | Atlanta | 3 | All Maps","name_short":"atl-3","host":"atl-1.us.uncletopia.com","port":27035,"enabled":true,"region":"us-east","cc":"us","latitude":33.753746,"longitude":-84.38633,"reserved":0,"last_update":"0001-01-01T00:00:00Z","name_a2s":"Uncletopia | Atlanta | 3 | All Maps","protocol":17,"map":"pl_pier","folder":"tf","game":"Team Fortress","app_id":440,"player_count":0,"max_players":24,"Bots":0,"server_type":"Dedicated","server_os":"Linux","password":true,"vac":true,"version":"7695204","steam_id":85568392924515187,"keywords":["nocrits","nodmgspread","payload","uncletopia"],"game_id":440,"stv_port":27036,"stv_name":"Uncletopia | Atlanta | 3 | All Maps | STV","players":null},{"server_id":401,"name":"Uncletopia | Atlanta | 4 | No Payload","name_short":"atl-4","host":"atl-1.us.uncletopia.com","port":27045,"enabled":true,"region":"us-east","cc":"us","latitude":33.753746,"longitude":-84.38633,"reserved":0,"last_update":"0001-01-01T00:00:00Z","name_a2s":"Uncletopia | Atlanta | 4 | No Payload","protocol":17,"map":"koth_sawmill","folder":"tf","game":"Team Fortress","app_id":440,"player_count":0,"max_players":24,"Bots":0,"server_type":"Dedicated","server_os":"Linux","password":true,"vac":true,"version":"7695204","steam_id":85568392924515188,"keywords":["cp","nocrits","nodmgspread","uncletopia"],"game_id":440,"stv_port":27046,"stv_name":"Uncletopia | Atlanta | 4 | No Payload | STV","players":null},{"server_id":2,"name":"Uncletopia | Chicago | 1 | All Maps","name_short":"chi-1","host":"chi-1.us.uncletopia.com","port":27015,"enabled":true,"region":"us-central","cc":"us","latitude":41.881832,"longitude":-87.62318,"reserved":0,"last_update":"0001-01-01T00:00:00Z","name_a2s":"Uncletopia | Chicago | 1 | All Maps","protocol":17,"map":"pl_hoodoo_final","folder":"tf","game":"Team Fortress","app_id":440,"player_count":24,"max_players":24,"Bots":0,"server_type":"Dedicated","server_os":"Linux","password":true,"vac":true,"version":"7695204","steam_id":85568392924469984,"keywords":["nocrits","nodmgspread","payload","uncletopia"],"game_id":440,"stv_port":27016,"stv_name":"Uncletopia | Chicago | 1 | All Maps | STV","players":[{"user_id":677,"name":"Vanhalen420","steam_id":76561198282168287,"connected_time":936000000000,"state":"active","ping":75},{"user_id":680,"name":"Monster","steam_id":76561198031333770,"connected_time":840000000000,"state":"active","ping":96},{"user_id":662,"name":"blockchain culture","steam_id":76561198040996386,"connected_time":1869000000000,"state":"active","ping":85},{"user_id":678,"name":"Rayden Belmont","steam_id":76561198062254329,"connected_time":934000000000,"state":"active","ping":79},{"user_id":646,"name":"John The Defender","steam_id":76561198199817790,"connected_time":3245000000000,"state":"active","ping":59},{"user_id":653,"name":"@rthur","steam_id":76561198010152299,"connected_time":2882000000000,"state":"active","ping":141},{"user_id":669,"name":"Timmy Rigs","steam_id":76561198040743777,"connected_time":1371000000000,"state":"active","ping":57},{"user_id":681,"name":"reni","steam_id":76561199192183787,"connected_time":817000000000,"state":"active","ping":103},{"user_id":656,"name":"NyanHorses","steam_id":76561198161584966,"connected_time":2160000000000,"state":"active","ping":67},{"user_id":657,"name":"ShinyOrion (She/Her)","steam_id":76561198408378321,"connected_time":2159000000000,"state":"active","ping":78},{"user_id":670,"name":"No | S | uS","steam_id":76561199195727551,"connected_time":1358000000000,"state":"active","ping":122},{"user_id":691,"name":"Grill Skills","steam_id":76561198053575147,"connected_time":100000000000,"state":"active","ping":103},{"user_id":666,"name":"Jerry Bondle","steam_id":76561198337512213,"connected_time":1391000000000,"state":"active","ping":60},{"user_id":667,"name":"nukeydog","steam_id":76561197971146482,"connected_time":1390000000000,"state":"active","ping":83},{"user_id":692,"name":"Derpy rabbit","steam_id":76561198128343478,"connected_time":58000000000,"state":"active","ping":101},{"user_id":689,"name":"Mallard","steam_id":76561198877447349,"connected_time":375000000000,"state":"active","ping":76},{"user_id":665,"name":"beeper tucked","steam_id":76561197994789919,"connected_time":1402000000000,"state":"active","ping":107},{"user_id":683,"name":"kasper","steam_id":76561198263271697,"connected_time":793000000000,"state":"active","ping":41},{"user_id":684,"name":"a soul must somehow strive","steam_id":76561198096806703,"connected_time":779000000000,"state":"active","ping":75},{"user_id":654,"name":"ÒwÓ","steam_id":76561197997304387,"connected_time":2271000000000,"state":"active","ping":53},{"user_id":639,"name":"cosmet","steam_id":76561198114899953,"connected_time":3841000000000,"state":"active","ping":112},{"user_id":685,"name":"Randy \"the Man\" Johnson","steam_id":76561198039124445,"connected_time":716000000000,"state":"active","ping":87},{"user_id":664,"name":"CoconutRice","steam_id":76561198114909164,"connected_time":1406000000000,"state":"active","ping":47},{"user_id":624,"name":"Apollo132","steam_id":76561198294392895,"connected_time":4850000000000,"state":"active","ping":89}]},{"server_id":106,"name":"Uncletopia | Chicago | 2 | All Maps","name_short":"chi-2","host":"chi-1.us.uncletopia.com","port":27025,"enabled":true,"region":"us-central","cc":"us","latitude":41.881832,"longitude":-87.62318,"reserved":0,"last_update":"0001-01-01T00:00:00Z","name_a2s":"Uncletopia | Chicago | 2 | All Maps","protocol":17,"map":"pl_pier","folder":"tf","game":"Team Fortress","app_id":440,"player_count":16,"max_players":24,"Bots":0,"server_type":"Dedicated","server_os":"Linux","password":true,"vac":true,"version":"7695204","steam_id":85568392924469985,"keywords":["nocrits","nodmgspread","payload","uncletopia"],"game_id":440,"stv_port":27026,"stv_name":"Uncletopia | Chicago | 2 | All Maps | STV","players":[{"user_id":614,"name":"Minermarcus7","steam_id":76561199099397537,"connected_time":89000000000,"state":"spawning","ping":87},{"user_id":593,"name":"02vg3","steam_id":76561198404320154,"connected_time":1826000000000,"state":"active","ping":110},{"user_id":578,"name":"social_hermit_crab","steam_id":76561198891624827,"connected_time":2632000000000,"state":"active","ping":52},{"user_id":609,"name":"Plugget101","steam_id":76561197992005168,"connected_time":646000000000,"state":"active","ping":45},{"user_id":605,"name":"Zozbieta","steam_id":76561198010336265,"connected_time":1098000000000,"state":"active","ping":82},{"user_id":610,"name":"Candy Sparkles","steam_id":76561198126871264,"connected_time":286000000000,"state":"active","ping":72},{"user_id":583,"name":"Fred","steam_id":76561197983870604,"connected_time":2538000000000,"state":"active","ping":90},{"user_id":613,"name":"HK | KitKat |","steam_id":76561198196793415,"connected_time":132000000000,"state":"active","ping":105},{"user_id":612,"name":"john \"eater of worlds\" smith","steam_id":76561198123878798,"connected_time":158000000000,"state":"active","ping":45},{"user_id":606,"name":"Ninjareaper357","steam_id":76561198103234758,"connected_time":1051000000000,"state":"active","ping":104},{"user_id":575,"name":"Joe","steam_id":76561198271907916,"connected_time":2911000000000,"state":"active","ping":61},{"user_id":563,"name":"Souper Scott","steam_id":76561198045518926,"connected_time":3579000000000,"state":"active","ping":56},{"user_id":568,"name":"Supercle26","steam_id":76561199027147631,"connected_time":3459000000000,"state":"active","ping":123},{"user_id":500,"name":"Sunmist","steam_id":76561198027784824,"connected_time":8565000000000,"state":"active","ping":73},{"user_id":531,"name":"super i am going to beat you to","steam_id":76561199166176718,"connected_time":6419000000000,"state":"active","ping":100},{"user_id":595,"name":"Anxiety","steam_id":76561198365627687,"connected_time":1816000000000,"state":"active","ping":104}]},{"server_id":402,"name":"Uncletopia | Chicago | 3 | All Maps","name_short":"chi-3","host":"chi-1.us.uncletopia.com","port":27035,"enabled":true,"region":"us-central","cc":"us","latitude":41.881832,"longitude":-87.62318,"reserved":0,"last_update":"0001-01-01T00:00:00Z","name_a2s":"Uncletopia | Chicago | 3 | All Maps","protocol":17,"map":"koth_highpass","folder":"tf","game":"Team Fortress","app_id":440,"player_count":0,"max_players":24,"Bots":0,"server_type":"Dedicated","server_os":"Linux","password":true,"vac":true,"version":"7695204","steam_id":85568392924515191,"keywords":["cp","nocrits","nodmgspread","uncletopia"],"game_id":440,"stv_port":27036,"stv_name":"Uncletopia | Chicago | 3 | All Maps | STV","players":null},{"server_id":403,"name":"Uncletopia | Chicago | 4 | All Maps","name_short":"chi-4","host":"chi-1.us.uncletopia.com","port":27045,"enabled":true,"region":"us-central","cc":"us","latitude":41.881832,"longitude":-87.62318,"reserved":0,"last_update":"0001-01-01T00:00:00Z","name_a2s":"Uncletopia | Chicago | 4 | All Maps","protocol":17,"map":"pl_pier","folder":"tf","game":"Team Fortress","app_id":440,"player_count":15,"max_players":24,"Bots":0,"server_type":"Dedicated","server_os":"Linux","password":true,"vac":true,"version":"7695204","steam_id":85568392924515193,"keywords":["nocrits","nodmgspread","payload","uncletopia"],"game_id":440,"stv_port":27046,"stv_name":"Uncletopia | Chicago | 4 | All Maps | STV","players":[{"user_id":554,"name":"Stran","steam_id":76561198143389308,"connected_time":840000000000,"state":"active","ping":102},{"user_id":561,"name":"Pyrite","steam_id":76561198158817820,"connected_time":89000000000,"state":"active","ping":84},{"user_id":555,"name":"Doctor Sex","steam_id":76561198443311488,"connected_time":833000000000,"state":"active","ping":79},{"user_id":527,"name":"King Cotton","steam_id":76561198292444376,"connected_time":2900000000000,"state":"active","ping":70},{"user_id":546,"name":"2 Amps","steam_id":76561198439410410,"connected_time":1801000000000,"state":"active","ping":75},{"user_id":479,"name":"groond","steam_id":76561198309426720,"connected_time":6850000000000,"state":"active","ping":60},{"user_id":528,"name":"Xer","steam_id":76561198201640673,"connected_time":2847000000000,"state":"active","ping":102},{"user_id":529,"name":"Nuren","steam_id":76561198111190489,"connected_time":2795000000000,"state":"active","ping":81},{"user_id":547,"name":"TheKeynesianEconomicsBrony","steam_id":76561198077934343,"connected_time":1745000000000,"state":"active","ping":59},{"user_id":503,"name":"Funky Buttlovin","steam_id":76561198002807702,"connected_time":5343000000000,"state":"active","ping":67},{"user_id":545,"name":"spy","steam_id":76561198129952719,"connected_time":2008000000000,"state":"active","ping":100},{"user_id":488,"name":"Kng","steam_id":76561198993248203,"connected_time":6072000000000,"state":"active","ping":73},{"user_id":558,"name":"Spike","steam_id":76561198141356571,"connected_time":645000000000,"state":"active","ping":49},{"user_id":521,"name":"emctwo","steam_id":76561198095082517,"connected_time":3767000000000,"state":"active","ping":60}]},{"server_id":36,"name":"Uncletopia | Chicago | 5 | All Maps","name_short":"chi-5","host":"chi-2.us.uncletopia.com","port":27015,"enabled":true,"region":"us-central","cc":"us","latitude":41.881832,"longitude":-87.62318,"reserved":0,"last_update":"0001-01-01T00:00:00Z","name_a2s":"Uncletopia | Chicago | 5 | All Maps","protocol":17,"map":"cp_mountainlab","folder":"tf","game":"Team Fortress","app_id":440,"player_count":0,"max_players":24,"Bots":0,"server_type":"Dedicated","server_os":"Linux","password":true,"vac":true,"version":"7695204","steam_id":85568392924866362,"keywords":["cp","nocrits","nodmgspread","uncletopia"],"game_id":440,"stv_port":27016,"stv_name":"Uncletopia | Chicago | 5 | All Maps | STV","players":null},{"server_id":37,"name":"Uncletopia | Chicago | 6 | All Maps","name_short":"chi-6","host":"chi-2.us.uncletopia.com","port":27025,"enabled":true,"region":"us-central","cc":"us","latitude":41.881832,"longitude":-87.62318,"reserved":0,"last_update":"0001-01-01T00:00:00Z","name_a2s":"Uncletopia | Chicago | 6 | All Maps","protocol":17,"map":"pl_frontier_final","folder":"tf","game":"Team Fortress","app_id":440,"player_count":0,"max_players":24,"Bots":0,"server_type":"Dedicated","server_os":"Linux","password":true,"vac":true,"version":"7695204","steam_id":85568392924866363,"keywords":["nocrits","nodmgspread","payload","uncletopia"],"game_id":440,"stv_port":27026,"stv_name":"Uncletopia | Chicago | 6 | All Maps | STV","players":null},{"server_id":38,"name":"Uncletopia | Chicago | 7 | No Payload","name_short":"chi-7","host":"chi-2.us.uncletopia.com","port":27035,"enabled":true,"region":"us-central","cc":"us","latitude":41.881832,"longitude":-87.62318,"reserved":0,"last_update":"0001-01-01T00:00:00Z","name_a2s":"Uncletopia | Chicago | 7 | No Payload","protocol":17,"map":"koth_lakeside_final","folder":"tf","game":"Team Fortress","app_id":440,"player_count":0,"max_players":24,"Bots":0,"server_type":"Dedicated","server_os":"Linux","password":true,"vac":true,"version":"7695204","steam_id":85568392924866364,"keywords":["cp","nocrits","nodmgspread","uncletopia"],"game_id":440,"stv_port":27036,"stv_name":"Uncletopia | Chicago | 7 | No Payload | STV","players":null},{"server_id":39,"name":"Uncletopia | Chicago | 8 | Community","name_short":"chi-8","host":"chi-2.us.uncletopia.com","port":27045,"enabled":true,"region":"us-central","cc":"us","latitude":41.881832,"longitude":-87.62318,"reserved":0,"last_update":"0001-01-01T00:00:00Z","name_a2s":"Uncletopia | Chicago | 8 | Community","protocol":17,"map":"workshop/pl_vigil_rc9.ugc1266210012","folder":"tf","game":"Team Fortress","app_id":440,"player_count":0,"max_players":24,"Bots":0,"server_type":"Dedicated","server_os":"Linux","password":true,"vac":true,"version":"7695204","steam_id":85568392924866365,"keywords":["nocrits","nodmgspread","payload","uncletopia"],"game_id":440,"stv_port":27046,"stv_name":"Uncletopia | Chicago | 8 | Community | STV","players":null},{"server_id":8,"name":"Uncletopia | Dallas | 1 | All Maps","name_short":"dal-1","host":"dal-1.us.uncletopia.com","port":27015,"enabled":true,"region":"us-central","cc":"us","latitude":32.779167,"longitude":-96.80889,"reserved":0,"last_update":"0001-01-01T00:00:00Z","name_a2s":"Uncletopia | Dallas | 1 | All Maps","protocol":17,"map":"pl_barnblitz","folder":"tf","game":"Team Fortress","app_id":440,"player_count":19,"max_players":24,"Bots":0,"server_type":"Dedicated","server_os":"Linux","password":true,"vac":true,"version":"7695204","steam_id":85568392924469986,"keywords":["nocrits","nodmgspread","payload","uncletopia"],"game_id":440,"stv_port":27016,"stv_name":"Uncletopia | Dallas | 1 | All Maps | STV","players":[{"user_id":532,"name":"Master Of Whales","steam_id":76561198349104889,"connected_time":2100000000000,"state":"active","ping":79},{"user_id":538,"name":"shrimp","steam_id":76561198092401427,"connected_time":1969000000000,"state":"active","ping":61},{"user_id":525,"name":"✿Cobalt","steam_id":76561198126982318,"connected_time":2871000000000,"state":"active","ping":50},{"user_id":542,"name":"herp derp ☕","steam_id":76561198047646956,"connected_time":1195000000000,"state":"active","ping":97},{"user_id":526,"name":"jamey431","steam_id":76561198076043961,"connected_time":2724000000000,"state":"active","ping":184},{"user_id":510,"name":"The Caretaker","steam_id":76561198125241411,"connected_time":4552000000000,"state":"active","ping":99},{"user_id":527,"name":"defcon","steam_id":76561198100656328,"connected_time":2627000000000,"state":"active","ping":67},{"user_id":545,"name":"iggybones (girl with balls)","steam_id":76561198101610291,"connected_time":763000000000,"state":"active","ping":75},{"user_id":553,"name":"DeckofDragons","steam_id":76561198057398213,"connected_time":77000000000,"state":"active","ping":61},{"user_id":550,"name":"Kazuhira Leandoer98","steam_id":76561198054697958,"connected_time":380000000000,"state":"active","ping":75},{"user_id":548,"name":"aeop","steam_id":76561198153671643,"connected_time":531000000000,"state":"active","ping":76},{"user_id":549,"name":"B33N_P0IS0N","steam_id":76561199092433962,"connected_time":529000000000,"state":"active","ping":64},{"user_id":517,"name":"Sargeant","steam_id":76561198077066612,"connected_time":4393000000000,"state":"active","ping":93},{"user_id":551,"name":"fist","steam_id":76561198152618810,"connected_time":280000000000,"state":"active","ping":68},{"user_id":554,"name":"Non-Union Mexican Equivalent","steam_id":76561198013399809,"connected_time":28000000000,"state":"active","ping":63},{"user_id":537,"name":"Echo","steam_id":76561198869539401,"connected_time":1989000000000,"state":"active","ping":63},{"user_id":506,"name":"BoddhosDaughter","steam_id":76561198140202317,"connected_time":5110000000000,"state":"active","ping":73},{"user_id":467,"name":"Imrgrim","steam_id":76561198135866481,"connected_time":8871000000000,"state":"active","ping":66},{"user_id":539,"name":"kirbothebrony","steam_id":76561198971911330,"connected_time":1960000000000,"state":"active","ping":63}]},{"server_id":108,"name":"Uncletopia | Dallas | 2 | All Maps","name_short":"dal-2","host":"dal-1.us.uncletopia.com","port":27025,"enabled":true,"region":"us-central","cc":"us","latitude":32.779167,"longitude":-96.80889,"reserved":0,"last_update":"0001-01-01T00:00:00Z","name_a2s":"Uncletopia | Dallas | 2 | All Maps","protocol":17,"map":"cp_dustbowl","folder":"tf","game":"Team Fortress","app_id":440,"player_count":24,"max_players":24,"Bots":0,"server_type":"Dedicated","server_os":"Linux","password":true,"vac":true,"version":"7695204","steam_id":85568392924469988,"keywords":["cp","nocrits","nodmgspread","uncletopia"],"game_id":440,"stv_port":27026,"stv_name":"Uncletopia | Dallas | 2 | All Maps | STV","players":[{"user_id":554,"name":"Cheems-burbgur","steam_id":76561199092023561,"connected_time":243000000000,"state":"active","ping":127},{"user_id":522,"name":"A Can of Arizona Green Tea","steam_id":76561198062481133,"connected_time":2285000000000,"state":"active","ping":71},{"user_id":544,"name":"CarrezGomezGT","steam_id":76561198249478834,"connected_time":665000000000,"state":"active","ping":101},{"user_id":536,"name":"Chalks","steam_id":76561198045978275,"connected_time":1167000000000,"state":"active","ping":90},{"user_id":505,"name":"Magitrex","steam_id":76561199088811754,"connected_time":3249000000000,"state":"active","ping":56},{"user_id":529,"name":"Sad Sapling","steam_id":76561198075612150,"connected_time":1714000000000,"state":"active","ping":81},{"user_id":545,"name":"spike","steam_id":76561198101731651,"connected_time":663000000000,"state":"active","ping":100},{"user_id":538,"name":"solsberyryan","steam_id":76561198856484133,"connected_time":1098000000000,"state":"active","ping":67},{"user_id":457,"name":"MonkyBoo","steam_id":76561198304371716,"connected_time":4993000000000,"state":"active","ping":46},{"user_id":524,"name":"Chesh","steam_id":76561197990316722,"connected_time":1810000000000,"state":"active","ping":81},{"user_id":539,"name":"Zorlovo","steam_id":76561198006443283,"connected_time":1070000000000,"state":"active","ping":74},{"user_id":551,"name":"woosh","steam_id":76561198173020438,"connected_time":468000000000,"state":"active","ping":76},{"user_id":541,"name":"Weegeee","steam_id":76561198049000586,"connected_time":952000000000,"state":"active","ping":60},{"user_id":504,"name":"Prandium","steam_id":76561198081472412,"connected_time":3384000000000,"state":"active","ping":59},{"user_id":552,"name":"Dude With A Gasmask","steam_id":76561198881532241,"connected_time":412000000000,"state":"active","ping":58},{"user_id":434,"name":"Squiliam","steam_id":76561198025278006,"connected_time":6141000000000,"state":"active","ping":43},{"user_id":546,"name":"Kakazone","steam_id":76561199440393068,"connected_time":642000000000,"state":"active","ping":190},{"user_id":490,"name":"Ironwatsas","steam_id":76561197976805685,"connected_time":3858000000000,"state":"active","ping":80},{"user_id":547,"name":"PhloatingMan","steam_id":76561198010056085,"connected_time":642000000000,"state":"active","ping":107},{"user_id":553,"name":"jerico.ruben.devera","steam_id":76561199204449305,"connected_time":369000000000,"state":"active","ping":106},{"user_id":519,"name":"Ifrit","steam_id":76561198044730782,"connected_time":2727000000000,"state":"active","ping":67},{"user_id":374,"name":"snugthebug","steam_id":76561198030964222,"connected_time":11088000000000,"state":"active","ping":89},{"user_id":549,"name":"fentanyl.overdose.ohio.2021","steam_id":76561198133341026,"connected_time":563000000000,"state":"active","ping":179}]},{"server_id":5,"name":"Uncletopia | Frankfurt | 1 | All Maps","name_short":"frk-1","host":"frk-1.de.uncletopia.com","port":27015,"enabled":true,"region":"eu","cc":"de","latitude":50.110924,"longitude":8.682127,"reserved":0,"last_update":"0001-01-01T00:00:00Z","name_a2s":"Uncletopia | Frankfurt | 1 | All Maps","protocol":17,"map":"pl_upward","folder":"tf","game":"Team Fortress","app_id":440,"player_count":3,"max_players":24,"Bots":0,"server_type":"Dedicated","server_os":"Linux","password":true,"vac":true,"version":"7695204","steam_id":85568392924469989,"keywords":["nocrits","nodmgspread","payload","uncletopia"],"game_id":440,"stv_port":27016,"stv_name":"Uncletopia | Frankfurt | 1 | All Maps | STV","players":[{"user_id":6,"name":"Denialman (Muted)","steam_id":76561198309182092,"connected_time":198000000000,"state":"active","ping":61},{"user_id":7,"name":"Red-Kite","steam_id":76561199141255034,"connected_time":147000000000,"state":"active","ping":369},{"user_id":8,"name":"nachtraaf","steam_id":76561197960473205,"connected_time":1000000000,"state":"spawning","ping":42}]},{"server_id":110,"name":"Uncletopia | Frankfurt | 2 | All Maps","name_short":"frk-2","host":"frk-1.de.uncletopia.com","port":27025,"enabled":true,"region":"eu","cc":"de","latitude":50.110924,"longitude":8.682127,"reserved":0,"last_update":"0001-01-01T00:00:00Z","name_a2s":"Uncletopia | Frankfurt | 2 | All Maps","protocol":17,"map":"cp_altitude","folder":"tf","game":"Team Fortress","app_id":440,"player_count":0,"max_players":24,"Bots":0,"server_type":"Dedicated","server_os":"Linux","password":true,"vac":true,"version":"7695204","steam_id":85568392924469990,"keywords":["cp","nocrits","nodmgspread","uncletopia"],"game_id":440,"stv_port":0,"stv_name":"","players":null},{"server_id":308,"name":"Uncletopia | Frankfurt | 3 | All Maps","name_short":"frk-3","host":"frk-1.de.uncletopia.com","port":27035,"enabled":true,"region":"eu","cc":"de","latitude":50.110924,"longitude":8.682127,"reserved":0,"last_update":"0001-01-01T00:00:00Z","name_a2s":"Uncletopia | Frankfurt | 3 | All Maps","protocol":17,"map":"pl_badwater","folder":"tf","game":"Team Fortress","app_id":440,"player_count":0,"max_players":24,"Bots":0,"server_type":"Dedicated","server_os":"Linux","password":true,"vac":true,"version":"7695204","steam_id":85568392924504274,"keywords":["nocrits","nodmgspread","payload","uncletopia"],"game_id":440,"stv_port":0,"stv_name":"","players":null},{"server_id":309,"name":"Uncletopia | Frankfurt | 4 | All Maps","name_short":"frk-4","host":"frk-1.de.uncletopia.com","port":27045,"enabled":true,"region":"eu","cc":"de","latitude":50.110924,"longitude":8.682127,"reserved":0,"last_update":"0001-01-01T00:00:00Z","name_a2s":"Uncletopia | Frankfurt | 4 | All Maps","protocol":17,"map":"koth_highpass","folder":"tf","game":"Team Fortress","app_id":440,"player_count":0,"max_players":24,"Bots":0,"server_type":"Dedicated","server_os":"Linux","password":true,"vac":true,"version":"7695204","steam_id":85568392924504275,"keywords":["cp","nocrits","nodmgspread","uncletopia"],"game_id":440,"stv_port":0,"stv_name":"","players":null},{"server_id":310,"name":"Uncletopia | Frankfurt | 5 | All Maps","name_short":"frk-5","host":"frk-1.de.uncletopia.com","port":27055,"enabled":true,"region":"eu","cc":"de","latitude":50.110924,"longitude":8.682127,"reserved":0,"last_update":"0001-01-01T00:00:00Z","name_a2s":"Uncletopia | Frankfurt | 5 | All Maps","protocol":17,"map":"koth_highpass","folder":"tf","game":"Team Fortress","app_id":440,"player_count":0,"max_players":24,"Bots":0,"server_type":"Dedicated","server_os":"Linux","password":true,"vac":true,"version":"7695204","steam_id":85568392924504277,"keywords":["cp","nocrits","nodmgspread","uncletopia"],"game_id":440,"stv_port":27056,"stv_name":"Uncletopia | Frankfurt | 5 | All Maps | STV","players":null},{"server_id":311,"name":"Uncletopia | Frankfurt | 6 | All Maps","name_short":"frk-6","host":"frk-1.de.uncletopia.com","port":27065,"enabled":true,"region":"eu","cc":"de","latitude":50.110924,"longitude":8.682127,"reserved":0,"last_update":"0001-01-01T00:00:00Z","name_a2s":"Uncletopia | Frankfurt | 6 | All Maps","protocol":17,"map":"pl_barnblitz","folder":"tf","game":"Team Fortress","app_id":440,"player_count":0,"max_players":24,"Bots":0,"server_type":"Dedicated","server_os":"Linux","password":true,"vac":true,"version":"7695204","steam_id":85568392924504278,"keywords":["nocrits","nodmgspread","payload","uncletopia"],"game_id":440,"stv_port":0,"stv_name":"","players":null},{"server_id":23,"name":"Uncletopia | Frankfurt | 7 | No Payload","name_short":"frk-7","host":"frk-1.de.uncletopia.com","port":27075,"enabled":true,"region":"eu","cc":"de","latitude":50.110924,"longitude":8.682127,"reserved":0,"last_update":"0001-01-01T00:00:00Z","name_a2s":"Uncletopia | Frankfurt | 7 | No Payload","protocol":17,"map":"pl_snowycoast","folder":"tf","game":"Team Fortress","app_id":440,"player_count":0,"max_players":24,"Bots":0,"server_type":"Dedicated","server_os":"Linux","password":true,"vac":true,"version":"7695204","steam_id":85568392924742827,"keywords":["nocrits","nodmgspread","payload","uncletopia"],"game_id":440,"stv_port":0,"stv_name":"","players":null},{"server_id":24,"name":"Uncletopia | Frankfurt | 8 | Community","name_short":"frk-8","host":"frk-1.de.uncletopia.com","port":27085,"enabled":true,"region":"eu","cc":"de","latitude":50.110924,"longitude":8.682127,"reserved":0,"last_update":"0001-01-01T00:00:00Z","name_a2s":"Uncletopia | Frankfurt | 8 | Community","protocol":17,"map":"koth_lakeside_final","folder":"tf","game":"Team Fortress","app_id":440,"player_count":0,"max_players":24,"Bots":0,"server_type":"Dedicated","server_os":"Linux","password":true,"vac":true,"version":"7695204","steam_id":85568392924742828,"keywords":["cp","nocrits","nodmgspread","uncletopia"],"game_id":440,"stv_port":0,"stv_name":"","players":null},{"server_id":202,"name":"Uncletopia | Hong Kong | 1 | All Maps","name_short":"hgk-1","host":"hgk-1.hk.uncletopia.com","port":27015,"enabled":true,"region":"asia","cc":"hk","latitude":22.302711,"longitude":114.177216,"reserved":0,"last_update":"0001-01-01T00:00:00Z","name_a2s":"Uncletopia | Hong Kong | 1 | All Maps","protocol":17,"map":"pl_badwater","folder":"tf","game":"Team Fortress","app_id":440,"player_count":24,"max_players":24,"Bots":0,"server_type":"Dedicated","server_os":"Linux","password":true,"vac":true,"version":"7695204","steam_id":85568392924494504,"keywords":["nocrits","nodmgspread","payload","uncletopia"],"game_id":440,"stv_port":27016,"stv_name":"Uncletopia | Hong Kong | 1 | All Maps | STV","players":[{"user_id":305,"name":"DerpApple","steam_id":76561199190641852,"connected_time":1445000000000,"state":"active","ping":57},{"user_id":232,"name":"water tastes good","steam_id":76561199375947670,"connected_time":7592000000000,"state":"active","ping":68},{"user_id":256,"name":"big poo (training arc)","steam_id":76561199104552936,"connected_time":6582000000000,"state":"active","ping":61},{"user_id":288,"name":"aly poe","steam_id":76561198230213828,"connected_time":3594000000000,"state":"active","ping":74},{"user_id":278,"name":"Pillboi","steam_id":76561198011172886,"connected_time":4714000000000,"state":"active","ping":43},{"user_id":249,"name":"iced","steam_id":76561198999114004,"connected_time":6816000000000,"state":"active","ping":98},{"user_id":191,"name":"2232","steam_id":76561198074339034,"connected_time":9932000000000,"state":"active","ping":74},{"user_id":314,"name":"3wfFbdrjEze5d2G","steam_id":76561198435900451,"connected_time":932000000000,"state":"active","ping":63},{"user_id":303,"name":"Gold","steam_id":76561199008543001,"connected_time":1673000000000,"state":"active","ping":58},{"user_id":252,"name":"ProgressorBread24","steam_id":76561199070629046,"connected_time":6677000000000,"state":"active","ping":139},{"user_id":259,"name":"Violezine","steam_id":76561199000502615,"connected_time":6383000000000,"state":"active","ping":79},{"user_id":284,"name":"TomProPlayer","steam_id":76561199223292521,"connected_time":3836000000000,"state":"active","ping":66},{"user_id":316,"name":"Vox","steam_id":76561199092455646,"connected_time":325000000000,"state":"active","ping":84},{"user_id":194,"name":"MS PowerPoint","steam_id":76561198369523192,"connected_time":9781000000000,"state":"active","ping":61},{"user_id":315,"name":"godhood","steam_id":76561198412329672,"connected_time":696000000000,"state":"active","ping":91},{"user_id":304,"name":"KaT","steam_id":76561198261879602,"connected_time":1458000000000,"state":"active","ping":107},{"user_id":287,"name":"Lúd","steam_id":76561198828840546,"connected_time":3609000000000,"state":"active","ping":72},{"user_id":306,"name":"theafrobranch","steam_id":76561198848935787,"connected_time":1409000000000,"state":"active","ping":88},{"user_id":301,"name":"帕","steam_id":76561198439343999,"connected_time":1997000000000,"state":"active","ping":79},{"user_id":282,"name":"yw","steam_id":76561199382726488,"connected_time":4166000000000,"state":"active","ping":43},{"user_id":299,"name":"rat","steam_id":76561198840261854,"connected_time":2544000000000,"state":"active","ping":70},{"user_id":209,"name":"煙海 | Enkai","steam_id":76561198050460825,"connected_time":8983000000000,"state":"active","ping":89},{"user_id":285,"name":"UwU","steam_id":76561198823521095,"connected_time":3616000000000,"state":"active","ping":51},{"user_id":291,"name":"Exclamator","steam_id":76561199065048552,"connected_time":3204000000000,"state":"active","ping":63}]},{"server_id":1,"name":"Uncletopia | Los Angeles | 1 | All Maps","name_short":"lax-1","host":"lax-1.us.uncletopia.com","port":27015,"enabled":true,"region":"us-west","cc":"us","latitude":33.94279,"longitude":-118.41004,"reserved":0,"last_update":"0001-01-01T00:00:00Z","name_a2s":"Uncletopia | Los Angeles | 1 | All Maps","protocol":17,"map":"koth_nucleus","folder":"tf","game":"Team Fortress","app_id":440,"player_count":2,"max_players":24,"Bots":0,"server_type":"Dedicated","server_os":"Linux","password":true,"vac":true,"version":"7695204","steam_id":85568392924469991,"keywords":["cp","nocrits","nodmgspread","uncletopia"],"game_id":440,"stv_port":27016,"stv_name":"Uncletopia | Los Angeles | 1 | All Maps | STV","players":[{"user_id":219,"name":"Werewolfo","steam_id":76561198143597449,"connected_time":4377000000000,"state":"active","ping":59},{"user_id":220,"name":"BlueCinema","steam_id":76561198376605350,"connected_time":4313000000000,"state":"active","ping":111}]},{"server_id":112,"name":"Uncletopia | Los Angeles | 2 | All Maps","name_short":"lax-2","host":"lax-1.us.uncletopia.com","port":27025,"enabled":true,"region":"us-west","cc":"us","latitude":33.94279,"longitude":-118.41004,"reserved":0,"last_update":"0001-01-01T00:00:00Z","name_a2s":"Uncletopia | Los Angeles | 2 | All Maps","protocol":17,"map":"koth_viaduct","folder":"tf","game":"Team Fortress","app_id":440,"player_count":0,"max_players":24,"Bots":0,"server_type":"Dedicated","server_os":"Linux","password":true,"vac":true,"version":"7695204","steam_id":85568392924469992,"keywords":["cp","nocrits","nodmgspread","uncletopia"],"game_id":440,"stv_port":27026,"stv_name":"Uncletopia | Los Angeles | 2 | All Maps | STV","players":null},{"server_id":324,"name":"Uncletopia | Los Angeles | 3 | All Maps","name_short":"lax-3","host":"lax-1.us.uncletopia.com","port":27035,"enabled":true,"region":"us-west","cc":"us","latitude":33.94279,"longitude":-118.41004,"reserved":0,"last_update":"0001-01-01T00:00:00Z","name_a2s":"Uncletopia | Los Angeles | 3 | All Maps","protocol":17,"map":"koth_cascade","folder":"tf","game":"Team Fortress","app_id":440,"player_count":0,"max_players":24,"Bots":0,"server_type":"Dedicated","server_os":"Linux","password":true,"vac":true,"version":"7695204","steam_id":85568392924510198,"keywords":["cp","nocrits","nodmgspread","uncletopia"],"game_id":440,"stv_port":27036,"stv_name":"Uncletopia | Los Angeles | 3 | All Maps | STV","players":null},{"server_id":25,"name":"Uncletopia | Los Angeles | 4 | No Payload","name_short":"lax-4","host":"lax-1.us.uncletopia.com","port":27045,"enabled":true,"region":"us-west","cc":"us","latitude":33.94279,"longitude":-118.41004,"reserved":0,"last_update":"0001-01-01T00:00:00Z","name_a2s":"Uncletopia | Los Angeles | 4 | No Payload","protocol":17,"map":"ctf_doublecross","folder":"tf","game":"Team Fortress","app_id":440,"player_count":0,"max_players":24,"Bots":0,"server_type":"Dedicated","server_os":"Linux","password":true,"vac":true,"version":"7695204","steam_id":85568392924510199,"keywords":["ctf","nocrits","nodmgspread","uncletopia"],"game_id":440,"stv_port":27046,"stv_name":"Uncletopia | Los Angeles | 4 | No Payload | STV","players":null},{"server_id":11,"name":"Uncletopia | London | 1 | All Maps","name_short":"lon-1","host":"lon-1.uk.uncletopia.com","port":27015,"enabled":true,"region":"eu","cc":"gb","latitude":51.509865,"longitude":-0.118092,"reserved":0,"last_update":"0001-01-01T00:00:00Z","name_a2s":"Uncletopia | London | 1 | All Maps","protocol":17,"map":"pl_upward","folder":"tf","game":"Team Fortress","app_id":440,"player_count":0,"max_players":24,"Bots":0,"server_type":"Dedicated","server_os":"Linux","password":true,"vac":true,"version":"7695204","steam_id":85568392924367362,"keywords":["nocrits","nodmgspread","payload","uncletopia"],"game_id":440,"stv_port":0,"stv_name":"","players":null},{"server_id":114,"name":"Uncletopia | London | 2 | All Maps","name_short":"lon-2","host":"lon-1.uk.uncletopia.com","port":27025,"enabled":true,"region":"eu","cc":"gb","latitude":51.509865,"longitude":-0.118092,"reserved":0,"last_update":"0001-01-01T00:00:00Z","name_a2s":"Uncletopia | London | 2 | All Maps","protocol":17,"map":"cp_sunshine","folder":"tf","game":"Team Fortress","app_id":440,"player_count":0,"max_players":24,"Bots":0,"server_type":"Dedicated","server_os":"Linux","password":true,"vac":true,"version":"7695204","steam_id":85568392924470941,"keywords":["cp","nocrits","nodmgspread","uncletopia"],"game_id":440,"stv_port":0,"stv_name":"","players":null},{"server_id":320,"name":"Uncletopia | London | 3 | All Maps","name_short":"lon-3","host":"lon-1.uk.uncletopia.com","port":27035,"enabled":true,"region":"eu","cc":"gb","latitude":51.509865,"longitude":-0.118092,"reserved":0,"last_update":"0001-01-01T00:00:00Z","name_a2s":"Uncletopia | London | 3 | All Maps","protocol":17,"map":"cp_process_final","folder":"tf","game":"Team Fortress","app_id":440,"player_count":0,"max_players":24,"Bots":0,"server_type":"Dedicated","server_os":"Linux","password":true,"vac":true,"version":"7695204","steam_id":85568392924510192,"keywords":["cp","nocrits","nodmgspread","uncletopia"],"game_id":440,"stv_port":0,"stv_name":"","players":null},{"server_id":321,"name":"Uncletopia | London | 4 | All Maps","name_short":"lon-4","host":"lon-1.uk.uncletopia.com","port":27045,"enabled":true,"region":"eu","cc":"gb","latitude":51.509865,"longitude":-0.118092,"reserved":0,"last_update":"0001-01-01T00:00:00Z","name_a2s":"Uncletopia | London | 4 | All Maps","protocol":17,"map":"koth_viaduct","folder":"tf","game":"Team Fortress","app_id":440,"player_count":0,"max_players":24,"Bots":0,"server_type":"Dedicated","server_os":"Linux","password":true,"vac":true,"version":"7695204","steam_id":85568392924510193,"keywords":["cp","nocrits","nodmgspread","uncletopia"],"game_id":440,"stv_port":0,"stv_name":"","players":null},{"server_id":21,"name":"Uncletopia | London | 5 | All Maps","name_short":"lon-5","host":"lon-1.uk.uncletopia.com","port":27055,"enabled":true,"region":"eu","cc":"gb","latitude":51.509865,"longitude":-0.118092,"reserved":0,"last_update":"0001-01-01T00:00:00Z","name_a2s":"Uncletopia | London | 5 | All Maps","protocol":17,"map":"koth_cascade","folder":"tf","game":"Team Fortress","app_id":440,"player_count":0,"max_players":24,"Bots":0,"server_type":"Dedicated","server_os":"Linux","password":true,"vac":true,"version":"7695204","steam_id":85568392924742829,"keywords":["cp","nocrits","nodmgspread","uncletopia"],"game_id":440,"stv_port":0,"stv_name":"","players":null},{"server_id":22,"name":"Uncletopia | London | 6 | All Maps","name_short":"lon-6","host":"lon-1.uk.uncletopia.com","port":27065,"enabled":true,"region":"eu","cc":"gb","latitude":51.509865,"longitude":-0.118092,"reserved":0,"last_update":"0001-01-01T00:00:00Z","name_a2s":"Uncletopia | London | 6 | All Maps","protocol":17,"map":"pl_pier","folder":"tf","game":"Team Fortress","app_id":440,"player_count":0,"max_players":24,"Bots":0,"server_type":"Dedicated","server_os":"Linux","password":true,"vac":true,"version":"7695204","steam_id":85568392924742830,"keywords":["nocrits","nodmgspread","payload","uncletopia"],"game_id":440,"stv_port":0,"stv_name":"","players":null},{"server_id":40,"name":"Uncletopia | London | 7 | No Payload","name_short":"lon-7","host":"lon-1.uk.uncletopia.com","port":27075,"enabled":true,"region":"eu","cc":"gb","latitude":51.509865,"longitude":-0.118092,"reserved":0,"last_update":"0001-01-01T00:00:00Z","name_a2s":"Uncletopia | London | 7 | No Payload","protocol":17,"map":"cp_steel","folder":"tf","game":"Team Fortress","app_id":440,"player_count":0,"max_players":24,"Bots":0,"server_type":"Dedicated","server_os":"Linux","password":true,"vac":true,"version":"7695204","steam_id":85568392924964314,"keywords":["cp","nocrits","nodmgspread","uncletopia"],"game_id":440,"stv_port":27076,"stv_name":"Uncletopia | London | 7 | No Payload | STV","players":null},{"server_id":41,"name":"Uncletopia | London | 8 | Community","name_short":"lon-8","host":"lon-1.uk.uncletopia.com","port":27085,"enabled":true,"region":"eu","cc":"gb","latitude":51.509865,"longitude":-0.118092,"reserved":0,"last_update":"0001-01-01T00:00:00Z","name_a2s":"Uncletopia | London | 8 | Community","protocol":17,"map":"cp_dustbowl","folder":"tf","game":"Team Fortress","app_id":440,"player_count":0,"max_players":24,"Bots":0,"server_type":"Dedicated","server_os":"Linux","password":true,"vac":true,"version":"7695204","steam_id":85568392924964315,"keywords":["cp","nocrits","nodmgspread","uncletopia"],"game_id":440,"stv_port":0,"stv_name":"","players":null},{"server_id":300,"name":"Uncletopia | Montréal | 1 | All Maps","name_short":"mtl-1","host":"mtl-1.ca.uncletopia.com","port":27015,"enabled":true,"region":"us-east","cc":"ca","latitude":45.50889,"longitude":-73.56167,"reserved":0,"last_update":"0001-01-01T00:00:00Z","name_a2s":"Uncletopia | Montréal | 1 | All Maps","protocol":17,"map":"koth_highpass","folder":"tf","game":"Team Fortress","app_id":440,"player_count":0,"max_players":24,"Bots":0,"server_type":"Dedicated","server_os":"Linux","password":true,"vac":true,"version":"7695204","steam_id":85568392924500087,"keywords":["cp","nocrits","nodmgspread","uncletopia"],"game_id":440,"stv_port":27016,"stv_name":"Uncletopia | Montréal | 1 | All Maps | STV","players":null},{"server_id":301,"name":"Uncletopia | Montréal | 2 | All Maps","name_short":"mtl-2","host":"mtl-1.ca.uncletopia.com","port":27025,"enabled":true,"region":"us-east","cc":"ca","latitude":45.50889,"longitude":-73.56167,"reserved":0,"last_update":"0001-01-01T00:00:00Z","name_a2s":"Uncletopia | Montréal | 2 | All Maps","protocol":17,"map":"koth_lakeside_final","folder":"tf","game":"Team Fortress","app_id":440,"player_count":3,"max_players":24,"Bots":0,"server_type":"Dedicated","server_os":"Linux","password":true,"vac":true,"version":"7695204","steam_id":85568392924500088,"keywords":["cp","nocrits","nodmgspread","uncletopia"],"game_id":440,"stv_port":27026,"stv_name":"Uncletopia | Montréal | 2 | All Maps | STV","players":[{"user_id":6,"name":"Bumblegoot","steam_id":76561198353369635,"connected_time":3324000000000,"state":"active","ping":59},{"user_id":7,"name":"Clickle","steam_id":76561198449628030,"connected_time":3303000000000,"state":"active","ping":68},{"user_id":8,"name":"Flamezed246","steam_id":76561198185713322,"connected_time":23000000000,"state":"active","ping":113}]},{"server_id":302,"name":"Uncletopia | Montréal | 3 | All Maps","name_short":"mtl-3","host":"mtl-1.ca.uncletopia.com","port":27035,"enabled":true,"region":"us-east","cc":"ca","latitude":45.50889,"longitude":-73.56167,"reserved":0,"last_update":"0001-01-01T00:00:00Z","name_a2s":"Uncletopia | Montréal | 3 | All Maps","protocol":17,"map":"koth_viaduct","folder":"tf","game":"Team Fortress","app_id":440,"player_count":0,"max_players":24,"Bots":0,"server_type":"Dedicated","server_os":"Linux","password":true,"vac":true,"version":"7695204","steam_id":85568392924500089,"keywords":["cp","nocrits","nodmgspread","uncletopia"],"game_id":440,"stv_port":0,"stv_name":"","players":null},{"server_id":303,"name":"Uncletopia | Montréal | 4 | No Payload","name_short":"mtl-4","host":"mtl-1.ca.uncletopia.com","port":27045,"enabled":true,"region":"us-east","cc":"ca","latitude":45.50889,"longitude":-73.56167,"reserved":0,"last_update":"0001-01-01T00:00:00Z","name_a2s":"Uncletopia | Montréal | 4 | No Payload","protocol":17,"map":"cp_standin_final","folder":"tf","game":"Team Fortress","app_id":440,"player_count":0,"max_players":24,"Bots":0,"server_type":"Dedicated","server_os":"Linux","password":true,"vac":true,"version":"7695204","steam_id":85568392924500090,"keywords":["cp","nocrits","nodmgspread","uncletopia"],"game_id":440,"stv_port":27046,"stv_name":"Uncletopia | Montréal | 4 | No Payload | STV","players":null},{"server_id":13,"name":"Uncletopia | New York City | 1 | All Maps","name_short":"nyc-1","host":"nyc-1.us.uncletopia.com","port":27015,"enabled":true,"region":"us-east","cc":"us","latitude":40.73061,"longitude":-73.93524,"reserved":0,"last_update":"0001-01-01T00:00:00Z","name_a2s":"Uncletopia | New York City | 1 | All Maps","protocol":17,"map":"pl_barnblitz","folder":"tf","game":"Team Fortress","app_id":440,"player_count":23,"max_players":24,"Bots":0,"server_type":"Dedicated","server_os":"Linux","password":true,"vac":true,"version":"7695204","steam_id":85568392924469993,"keywords":["nocrits","nodmgspread","payload","uncletopia"],"game_id":440,"stv_port":27016,"stv_name":"Uncletopia | New York City | 1 | All Maps | STV","players":[{"user_id":557,"name":"Ace Attorney","steam_id":76561198133011705,"connected_time":737000000000,"state":"active","ping":46},{"user_id":535,"name":"Zkmyre","steam_id":76561198107349847,"connected_time":2127000000000,"state":"active","ping":75},{"user_id":540,"name":"Boat_Jerald","steam_id":76561198157124609,"connected_time":1783000000000,"state":"active","ping":48},{"user_id":501,"name":"Marc G","steam_id":76561198062650363,"connected_time":5948000000000,"state":"active","ping":86},{"user_id":536,"name":"Angry Loona","steam_id":76561198282296334,"connected_time":2115000000000,"state":"active","ping":50},{"user_id":515,"name":"Reisen Udongein Inaba","steam_id":76561198051082314,"connected_time":4201000000000,"state":"active","ping":135},{"user_id":558,"name":"RNGOdin_TTV","steam_id":76561198997968399,"connected_time":413000000000,"state":"active","ping":55},{"user_id":534,"name":"Uncle Majic the Hip Hop Magicia","steam_id":76561198107924303,"connected_time":2148000000000,"state":"active","ping":32},{"user_id":561,"name":"Svandar","steam_id":76561198111945101,"connected_time":247000000000,"state":"active","ping":86},{"user_id":506,"name":"4Lukaska","steam_id":76561198083515060,"connected_time":5454000000000,"state":"active","ping":50},{"user_id":531,"name":"Azrazel","steam_id":76561198821691005,"connected_time":2416000000000,"state":"active","ping":65},{"user_id":559,"name":"rlty","steam_id":76561198009395055,"connected_time":376000000000,"state":"active","ping":58},{"user_id":537,"name":"Biskit","steam_id":76561198103168540,"connected_time":2018000000000,"state":"active","ping":44},{"user_id":560,"name":"cow child","steam_id":76561199431003443,"connected_time":353000000000,"state":"active","ping":134},{"user_id":555,"name":"invb","steam_id":76561197998263914,"connected_time":1324000000000,"state":"active","ping":72},{"user_id":550,"name":"Junko","steam_id":76561198146089003,"connected_time":1583000000000,"state":"active","ping":35},{"user_id":554,"name":"Cecil","steam_id":76561199309028776,"connected_time":1337000000000,"state":"active","ping":50},{"user_id":500,"name":"Uhonlapjanteszika","steam_id":76561199431280503,"connected_time":6699000000000,"state":"active","ping":63},{"user_id":547,"name":"Verathragna","steam_id":76561198067215453,"connected_time":1660000000000,"state":"active","ping":54},{"user_id":514,"name":"Periergos","steam_id":76561198062030412,"connected_time":4266000000000,"state":"active","ping":99},{"user_id":485,"name":"flappyflap2","steam_id":76561198285048973,"connected_time":7540000000000,"state":"active","ping":40},{"user_id":488,"name":"Scooter O'Boyl","steam_id":76561197971687069,"connected_time":7396000000000,"state":"active","ping":50},{"user_id":546,"name":"rat performance","steam_id":76561198065854668,"connected_time":1682000000000,"state":"active","ping":116}]},{"server_id":14,"name":"Uncletopia | New York City | 2 | All Maps","name_short":"nyc-2","host":"nyc-1.us.uncletopia.com","port":27025,"enabled":true,"region":"us-east","cc":"us","latitude":40.73061,"longitude":-73.93524,"reserved":0,"last_update":"0001-01-01T00:00:00Z","name_a2s":"Uncletopia | New York City | 2 | All Maps","protocol":17,"map":"cp_snakewater_final1","folder":"tf","game":"Team Fortress","app_id":440,"player_count":15,"max_players":24,"Bots":0,"server_type":"Dedicated","server_os":"Linux","password":true,"vac":true,"version":"7695204","steam_id":85568392924469994,"keywords":["cp","nocrits","nodmgspread","uncletopia"],"game_id":440,"stv_port":27026,"stv_name":"Uncletopia | New York City | 2 | All Maps | STV","players":[{"user_id":606,"name":"Mikeyyy","steam_id":76561198132865260,"connected_time":1666000000000,"state":"active","ping":68},{"user_id":618,"name":"kegulate","steam_id":76561197965022076,"connected_time":770000000000,"state":"active","ping":38},{"user_id":596,"name":"marios12654","steam_id":76561198147116332,"connected_time":2831000000000,"state":"active","ping":105},{"user_id":608,"name":"Moxie","steam_id":76561198092222757,"connected_time":1644000000000,"state":"active","ping":69},{"user_id":550,"name":"BMongrel","steam_id":76561198072166677,"connected_time":4613000000000,"state":"active","ping":78},{"user_id":551,"name":"davidflyswag","steam_id":76561198979060652,"connected_time":4562000000000,"state":"active","ping":60},{"user_id":552,"name":"Big Domino","steam_id":76561198055743516,"connected_time":4554000000000,"state":"active","ping":52},{"user_id":621,"name":"Evolution","steam_id":76561198144767370,"connected_time":404000000000,"state":"active","ping":61},{"user_id":502,"name":"Epi","steam_id":76561198041175008,"connected_time":8600000000000,"state":"active","ping":149},{"user_id":611,"name":"Christmas Spirit","steam_id":76561198410155354,"connected_time":1322000000000,"state":"active","ping":62},{"user_id":622,"name":"Arcadletus","steam_id":76561198976009938,"connected_time":42000000000,"state":"active","ping":109},{"user_id":619,"name":"St. Michael","steam_id":76561198037611052,"connected_time":761000000000,"state":"active","ping":89},{"user_id":613,"name":"awesomelilbuddy","steam_id":76561199104972720,"connected_time":1017000000000,"state":"active","ping":98},{"user_id":614,"name":"Talent","steam_id":76561198153880354,"connected_time":995000000000,"state":"active","ping":155},{"user_id":615,"name":"ChaoticAngel","steam_id":76561198293528217,"connected_time":944000000000,"state":"active","ping":45}]},{"server_id":15,"name":"Uncletopia | New York City | 3 | All Maps","name_short":"nyc-3","host":"nyc-1.us.uncletopia.com","port":27035,"enabled":true,"region":"us-east","cc":"us","latitude":40.73061,"longitude":-73.93524,"reserved":0,"last_update":"0001-01-01T00:00:00Z","name_a2s":"Uncletopia | New York City | 3 | All Maps","protocol":17,"map":"cp_mountainlab","folder":"tf","game":"Team Fortress","app_id":440,"player_count":0,"max_players":24,"Bots":0,"server_type":"Dedicated","server_os":"Linux","password":true,"vac":true,"version":"7695204","steam_id":85568392924742820,"keywords":["cp","nocrits","nodmgspread","uncletopia"],"game_id":440,"stv_port":27036,"stv_name":"Uncletopia | New York City | 3 | All Maps | STV","players":null},{"server_id":16,"name":"Uncletopia | New York City | 4 | Community","name_short":"nyc-4","host":"nyc-1.us.uncletopia.com","port":27045,"enabled":true,"region":"us-east","cc":"us","latitude":40.73061,"longitude":-73.93524,"reserved":0,"last_update":"0001-01-01T00:00:00Z","name_a2s":"Uncletopia | New York City | 4 | Community","protocol":17,"map":"workshop/koth_product_final.ugc454272353","folder":"tf","game":"Team Fortress","app_id":440,"player_count":0,"max_players":24,"Bots":0,"server_type":"Dedicated","server_os":"Linux","password":true,"vac":true,"version":"7695204","steam_id":85568392924742821,"keywords":["cp","nocrits","nodmgspread","uncletopia"],"game_id":440,"stv_port":27046,"stv_name":"Uncletopia | New York City | 4 | Community | STV","players":null},{"server_id":142,"name":"Uncletopia | São Paulo | 1 | All Maps","name_short":"sao-1","host":"sao-1.br.uncletopia.com","port":27015,"enabled":true,"region":"sa","cc":"br","latitude":-23.533773,"longitude":-46.62529,"reserved":0,"last_update":"0001-01-01T00:00:00Z","name_a2s":"Uncletopia | São Paulo | 1 | All Maps","protocol":17,"map":"cp_process_final","folder":"tf","game":"Team Fortress","app_id":440,"player_count":0,"max_players":24,"Bots":0,"server_type":"Dedicated","server_os":"Linux","password":true,"vac":true,"version":"7695204","steam_id":85568392924469996,"keywords":["cp","nocrits","nodmgspread","uncletopia"],"game_id":440,"stv_port":27016,"stv_name":"Uncletopia | São Paulo | 1 | All Maps | STV","players":null},{"server_id":143,"name":"Uncletopia | São Paulo | 2 | All Maps","name_short":"sao-2","host":"sao-2.br.uncletopia.com","port":27015,"enabled":true,"region":"sa","cc":"br","latitude":-23.533773,"longitude":-46.62529,"reserved":0,"last_update":"0001-01-01T00:00:00Z","name_a2s":"Uncletopia | São Paulo | 2 | All Maps","protocol":17,"map":"koth_harvest_final","folder":"tf","game":"Team Fortress","app_id":440,"player_count":0,"max_players":24,"Bots":0,"server_type":"Dedicated","server_os":"Linux","password":true,"vac":true,"version":"7695204","steam_id":85568392924485349,"keywords":["cp","nocrits","nodmgspread","uncletopia"],"game_id":440,"stv_port":27016,"stv_name":"Uncletopia | São Paulo | 2 | All Maps | STV","players":null},{"server_id":7,"name":"Uncletopia | Seattle | 1 | All Maps","name_short":"sea-1","host":"sea-1.us.uncletopia.com","port":27015,"enabled":true,"region":"us-west","cc":"us","latitude":47.608013,"longitude":-122.33517,"reserved":0,"last_update":"0001-01-01T00:00:00Z","name_a2s":"Uncletopia | Seattle | 1 | All Maps","protocol":17,"map":"cp_steel","folder":"tf","game":"Team Fortress","app_id":440,"player_count":11,"max_players":24,"Bots":0,"server_type":"Dedicated","server_os":"Linux","password":true,"vac":true,"version":"7695204","steam_id":85568392924469997,"keywords":["cp","nocrits","nodmgspread","uncletopia"],"game_id":440,"stv_port":27016,"stv_name":"Uncletopia | Seattle | 1 | All Maps | STV","players":[{"user_id":521,"name":"Frank","steam_id":76561198126681511,"connected_time":961000000000,"state":"active","ping":75},{"user_id":515,"name":"PopcornNinja101","steam_id":76561198330680181,"connected_time":1556000000000,"state":"active","ping":45},{"user_id":448,"name":"Lord Hater","steam_id":76561199158148782,"connected_time":7264000000000,"state":"active","ping":64},{"user_id":519,"name":"Skoad","steam_id":76561198104650528,"connected_time":1100000000000,"state":"active","ping":55},{"user_id":480,"name":"soup","steam_id":76561198043209046,"connected_time":3997000000000,"state":"active","ping":69},{"user_id":527,"name":"im banned from skial","steam_id":76561199031775779,"connected_time":647000000000,"state":"active","ping":86},{"user_id":529,"name":"Tazaran","steam_id":76561198044002033,"connected_time":482000000000,"state":"active","ping":108},{"user_id":531,"name":"Afrolion","steam_id":76561198082093480,"connected_time":436000000000,"state":"active","ping":92},{"user_id":487,"name":"Be My Bad Boy AMV (Tony Soprano","steam_id":76561198028381486,"connected_time":3255000000000,"state":"active","ping":92},{"user_id":424,"name":"Sailor","steam_id":76561199081983517,"connected_time":9018000000000,"state":"active","ping":92},{"user_id":488,"name":"StarWither","steam_id":76561198383264295,"connected_time":3249000000000,"state":"active","ping":50}]},{"server_id":119,"name":"Uncletopia | Seattle | 2 | All Maps","name_short":"sea-2","host":"sea-1.us.uncletopia.com","port":27025,"enabled":true,"region":"us-west","cc":"us","latitude":47.608013,"longitude":-122.33517,"reserved":0,"last_update":"0001-01-01T00:00:00Z","name_a2s":"Uncletopia | Seattle | 2 | All Maps","protocol":17,"map":"pl_frontier_final","folder":"tf","game":"Team Fortress","app_id":440,"player_count":24,"max_players":24,"Bots":0,"server_type":"Dedicated","server_os":"Linux","password":true,"vac":true,"version":"7695204","steam_id":85568392924469998,"keywords":["nocrits","nodmgspread","payload","uncletopia"],"game_id":440,"stv_port":27026,"stv_name":"Uncletopia | Seattle | 2 | All Maps | STV","players":[{"user_id":616,"name":"autism","steam_id":76561198133360797,"connected_time":795000000000,"state":"active","ping":78},{"user_id":615,"name":"hotdog every meal","steam_id":76561198392514273,"connected_time":804000000000,"state":"active","ping":49},{"user_id":617,"name":"booch","steam_id":76561198017030029,"connected_time":763000000000,"state":"active","ping":68},{"user_id":589,"name":"cum veteran","steam_id":76561198204169516,"connected_time":2499000000000,"state":"active","ping":49},{"user_id":597,"name":"Pork Belly","steam_id":76561198053003142,"connected_time":1865000000000,"state":"active","ping":65},{"user_id":598,"name":"BackToSchoolAds","steam_id":76561198870281128,"connected_time":1766000000000,"state":"active","ping":96},{"user_id":568,"name":"borzier","steam_id":76561198069190432,"connected_time":4275000000000,"state":"active","ping":130},{"user_id":630,"name":"Justice for Becca","steam_id":76561198169223408,"connected_time":85000000000,"state":"active","ping":56},{"user_id":619,"name":"Deobot","steam_id":76561198243697604,"connected_time":554000000000,"state":"active","ping":51},{"user_id":631,"name":"Sadistic Dentist","steam_id":76561198103189993,"connected_time":83000000000,"state":"active","ping":80},{"user_id":601,"name":"litroolay","steam_id":76561197995226856,"connected_time":1694000000000,"state":"active","ping":33},{"user_id":626,"name":"Ayayahuasca","steam_id":76561199002906056,"connected_time":344000000000,"state":"active","ping":61},{"user_id":621,"name":"Bagaboned","steam_id":76561198043761335,"connected_time":420000000000,"state":"active","ping":40},{"user_id":610,"name":"hypotenuse","steam_id":76561198062479158,"connected_time":1047000000000,"state":"active","ping":47},{"user_id":622,"name":"Frogzilla","steam_id":76561198077657538,"connected_time":418000000000,"state":"active","ping":69},{"user_id":613,"name":"Stew","steam_id":76561198352805460,"connected_time":915000000000,"state":"active","ping":62},{"user_id":614,"name":"Jeddak","steam_id":76561197986568343,"connected_time":862000000000,"state":"active","ping":96},{"user_id":623,"name":"BionicApe","steam_id":76561198154637711,"connected_time":396000000000,"state":"active","ping":42},{"user_id":492,"name":"Pronounced30","steam_id":76561198070127606,"connected_time":11447000000000,"state":"active","ping":131},{"user_id":489,"name":"Gunslinger Rafa","steam_id":76561198070140106,"connected_time":11557000000000,"state":"active","ping":50},{"user_id":624,"name":"trackball gaming","steam_id":76561198057371485,"connected_time":392000000000,"state":"active","ping":83},{"user_id":627,"name":"Odd Life","steam_id":76561198244979998,"connected_time":339000000000,"state":"active","ping":87},{"user_id":628,"name":"CoherentCarpet (ノಠ益ಠ)\ufffd\ufffd","steam_id":76561198045625360,"connected_time":191000000000,"state":"active","ping":79},{"user_id":629,"name":"Large Man","steam_id":76561198880396651,"connected_time":129000000000,"state":"active","ping":127}]},{"server_id":17,"name":"Uncletopia | San Francisco | 1 | All Maps","name_short":"sfo-1","host":"sfo-1.us.uncletopia.com","port":27015,"enabled":true,"region":"us-west","cc":"us","latitude":37.77397,"longitude":-122.4313,"reserved":0,"last_update":"0001-01-01T00:00:00Z","name_a2s":"Uncletopia | San Francisco | 1 | All Maps","protocol":17,"map":"koth_lakeside_final","folder":"tf","game":"Team Fortress","app_id":440,"player_count":0,"max_players":24,"Bots":0,"server_type":"Dedicated","server_os":"Linux","password":true,"vac":true,"version":"7695204","steam_id":85568392924469999,"keywords":["cp","nocrits","nodmgspread","uncletopia"],"game_id":440,"stv_port":27016,"stv_name":"Uncletopia | San Francisco | 1 | All Maps | STV","players":null},{"server_id":18,"name":"Uncletopia | San Francisco | 2 | All Maps","name_short":"sfo-2","host":"sfo-1.us.uncletopia.com","port":27025,"enabled":true,"region":"us-west","cc":"us","latitude":37.77397,"longitude":-122.4313,"reserved":0,"last_update":"0001-01-01T00:00:00Z","name_a2s":"Uncletopia | San Francisco | 2 | All Maps","protocol":17,"map":"pl_barnblitz","folder":"tf","game":"Team Fortress","app_id":440,"player_count":24,"max_players":24,"Bots":0,"server_type":"Dedicated","server_os":"Linux","password":true,"vac":true,"version":"7695204","steam_id":85568392924470000,"keywords":["nocrits","nodmgspread","payload","uncletopia"],"game_id":440,"stv_port":27026,"stv_name":"Uncletopia | San Francisco | 2 | All Maps | STV","players":[{"user_id":626,"name":"NOOT!","steam_id":76561198079435347,"connected_time":688000000000,"state":"active","ping":53},{"user_id":540,"name":"Dmon","steam_id":76561198032702087,"connected_time":11264000000000,"state":"active","ping":44},{"user_id":627,"name":"TimeToPie","steam_id":76561197999411135,"connected_time":684000000000,"state":"active","ping":56},{"user_id":582,"name":"Super Mighty G","steam_id":76561198020932806,"connected_time":4993000000000,"state":"active","ping":60},{"user_id":605,"name":"Professor Cuthbert Calculus","steam_id":76561198003257461,"connected_time":3665000000000,"state":"active","ping":74},{"user_id":615,"name":"LOL","steam_id":76561198081568692,"connected_time":2536000000000,"state":"active","ping":56},{"user_id":622,"name":"Sidekick","steam_id":76561198392740835,"connected_time":1643000000000,"state":"active","ping":51},{"user_id":614,"name":"JJP","steam_id":76561198032914094,"connected_time":2643000000000,"state":"active","ping":46},{"user_id":611,"name":"oil","steam_id":76561198099980149,"connected_time":3335000000000,"state":"active","ping":53},{"user_id":594,"name":"VerSaKa","steam_id":76561198052392540,"connected_time":4050000000000,"state":"active","ping":119},{"user_id":628,"name":"quasar","steam_id":76561198864400935,"connected_time":624000000000,"state":"active","ping":87},{"user_id":603,"name":"floof","steam_id":76561198167756375,"connected_time":3792000000000,"state":"active","ping":51},{"user_id":629,"name":"biggum","steam_id":76561198294281809,"connected_time":616000000000,"state":"active","ping":60},{"user_id":621,"name":"Sinn","steam_id":76561199013434543,"connected_time":1918000000000,"state":"active","ping":58},{"user_id":619,"name":"Purifyz xyz","steam_id":76561199234530805,"connected_time":2294000000000,"state":"active","ping":50},{"user_id":631,"name":"vdelte7","steam_id":76561198080461446,"connected_time":303000000000,"state":"active","ping":116},{"user_id":632,"name":"Killer_Queen.exe","steam_id":76561198065624326,"connected_time":118000000000,"state":"active","ping":47},{"user_id":630,"name":"Flyingcat9000","steam_id":76561198179561797,"connected_time":369000000000,"state":"active","ping":37},{"user_id":460,"name":"MG","steam_id":76561197980131846,"connected_time":17035000000000,"state":"active","ping":52},{"user_id":281,"name":"tweet","steam_id":76561198166515735,"connected_time":29012000000000,"state":"active","ping":49},{"user_id":572,"name":"huiei","steam_id":76561198073763735,"connected_time":6276000000000,"state":"active","ping":61},{"user_id":600,"name":"BadTad","steam_id":76561198947252709,"connected_time":3944000000000,"state":"active","ping":69},{"user_id":623,"name":"Omyxtile","steam_id":76561198268731918,"connected_time":1274000000000,"state":"active","ping":59},{"user_id":625,"name":"Cheff cook","steam_id":76561198451203268,"connected_time":1107000000000,"state":"active","ping":50}]},{"server_id":19,"name":"Uncletopia | San Francisco | 3 | No Payload","name_short":"sfo-3","host":"sfo-1.us.uncletopia.com","port":27035,"enabled":true,"region":"us-west","cc":"us","latitude":37.77397,"longitude":-122.4313,"reserved":0,"last_update":"0001-01-01T00:00:00Z","name_a2s":"Uncletopia | San Francisco | 3 | No Payload","protocol":17,"map":"plr_hightower","folder":"tf","game":"Team Fortress","app_id":440,"player_count":0,"max_players":24,"Bots":0,"server_type":"Dedicated","server_os":"Linux","password":true,"vac":true,"version":"7695204","steam_id":85568392924742824,"keywords":["nocrits","nodmgspread","payload","uncletopia"],"game_id":440,"stv_port":27036,"stv_name":"Uncletopia | San Francisco | 3 | No Payload | STV","players":null},{"server_id":20,"name":"Uncletopia | San Francisco | 4 | Community","name_short":"sfo-4","host":"sfo-1.us.uncletopia.com","port":27045,"enabled":true,"region":"us-west","cc":"us","latitude":37.77397,"longitude":-122.4313,"reserved":0,"last_update":"0001-01-01T00:00:00Z","name_a2s":"Uncletopia | San Francisco | 4 | Community","protocol":17,"map":"workshop/pl_vigil_rc9.ugc1266210012","folder":"tf","game":"Team Fortress","app_id":440,"player_count":16,"max_players":24,"Bots":0,"server_type":"Dedicated","server_os":"Linux","password":true,"vac":true,"version":"7695204","steam_id":85568392924742826,"keywords":["nocrits","nodmgspread","payload","uncletopia"],"game_id":440,"stv_port":27046,"stv_name":"Uncletopia | San Francisco | 4 | Community | STV","players":[{"user_id":47,"name":"Goofball","steam_id":76561198074189084,"connected_time":2273000000000,"state":"active","ping":98},{"user_id":72,"name":"the big pisser","steam_id":76561198143132686,"connected_time":694000000000,"state":"active","ping":74},{"user_id":77,"name":"Elena Manetta","steam_id":76561197998344054,"connected_time":266000000000,"state":"active","ping":91},{"user_id":59,"name":"Naffers","steam_id":76561198195957335,"connected_time":1403000000000,"state":"active","ping":55},{"user_id":78,"name":"puppy","steam_id":76561197964635660,"connected_time":204000000000,"state":"active","ping":112},{"user_id":17,"name":"The Assistant Regional Manager","steam_id":76561199221484936,"connected_time":3921000000000,"state":"active","ping":64},{"user_id":79,"name":"brainfryfrenchfry","steam_id":76561199438777809,"connected_time":24000000000,"state":"active","ping":72},{"user_id":20,"name":"Mom","steam_id":76561198207936000,"connected_time":3466000000000,"state":"active","ping":71},{"user_id":26,"name":"mvpstjames","steam_id":76561199410766625,"connected_time":3129000000000,"state":"active","ping":88},{"user_id":75,"name":"(503) Beelthazus","steam_id":76561198127783432,"connected_time":519000000000,"state":"active","ping":108},{"user_id":49,"name":"SolarusD","steam_id":76561198029279861,"connected_time":2242000000000,"state":"active","ping":46},{"user_id":45,"name":"cofferhead","steam_id":76561199191108449,"connected_time":2420000000000,"state":"active","ping":59},{"user_id":64,"name":"Jessica (16 yo girl) xoxo","steam_id":76561198073699764,"connected_time":1336000000000,"state":"active","ping":62},{"user_id":55,"name":"ZungryWare","steam_id":76561198033158968,"connected_time":1857000000000,"state":"active","ping":43},{"user_id":57,"name":"ducc","steam_id":76561198348118289,"connected_time":1756000000000,"state":"active","ping":47},{"user_id":52,"name":"Michiru Kagemori","steam_id":76561198257241799,"connected_time":2227000000000,"state":"active","ping":78}]},{"server_id":141,"name":"Uncletopia | Sydney | 1 | All Maps","name_short":"syd-1","host":"syd-1.au.uncletopia.com","port":27015,"enabled":true,"region":"au","cc":"au","latitude":-33.865143,"longitude":151.2099,"reserved":0,"last_update":"0001-01-01T00:00:00Z","name_a2s":"Uncletopia | Sydney | 1 | All Maps","protocol":17,"map":"cp_snakewater_final1","folder":"tf","game":"Team Fortress","app_id":440,"player_count":0,"max_players":24,"Bots":0,"server_type":"Dedicated","server_os":"Linux","password":true,"vac":true,"version":"7695204","steam_id":85568392924470001,"keywords":["cp","nocrits","nodmgspread","uncletopia"],"game_id":440,"stv_port":27016,"stv_name":"Uncletopia | Sydney | 1 | All Maps | STV","players":null},{"server_id":123,"name":"Uncletopia | Sydney | 2 | All Maps","name_short":"syd-2","host":"syd-1.au.uncletopia.com","port":27025,"enabled":true,"region":"au","cc":"au","latitude":-33.865143,"longitude":151.2099,"reserved":0,"last_update":"0001-01-01T00:00:00Z","name_a2s":"Uncletopia | Sydney | 2 | All Maps","protocol":17,"map":"pl_thundermountain","folder":"tf","game":"Team Fortress","app_id":440,"player_count":21,"max_players":24,"Bots":0,"server_type":"Dedicated","server_os":"Linux","password":true,"vac":true,"version":"7695204","steam_id":85568392924470002,"keywords":["nocrits","nodmgspread","payload","uncletopia"],"game_id":440,"stv_port":27026,"stv_name":"Uncletopia | Sydney | 2 | All Maps | STV","players":[{"user_id":379,"name":"LightningBlock","steam_id":76561198289997742,"connected_time":4279000000000,"state":"active","ping":41},{"user_id":420,"name":"floop flub","steam_id":76561198418968979,"connected_time":1090000000000,"state":"active","ping":103},{"user_id":375,"name":"Salty Dog","steam_id":76561198038713921,"connected_time":4674000000000,"state":"active","ping":50},{"user_id":370,"name":"ุbifcheg","steam_id":76561198319806610,"connected_time":4901000000000,"state":"active","ping":62},{"user_id":411,"name":"zen","steam_id":76561198302670452,"connected_time":2137000000000,"state":"active","ping":55},{"user_id":368,"name":"Fillip","steam_id":76561198272495932,"connected_time":4939000000000,"state":"active","ping":56},{"user_id":429,"name":"spoiledbanana238","steam_id":76561198054804209,"connected_time":487000000000,"state":"active","ping":90},{"user_id":360,"name":"stevo","steam_id":76561198117749786,"connected_time":5596000000000,"state":"active","ping":82},{"user_id":430,"name":"cbpop","steam_id":76561198992538857,"connected_time":486000000000,"state":"active","ping":77},{"user_id":422,"name":"Volodymyr Zelenskyy","steam_id":76561198114104614,"connected_time":979000000000,"state":"active","ping":53},{"user_id":424,"name":"Rin `","steam_id":76561198061839681,"connected_time":941000000000,"state":"active","ping":138},{"user_id":412,"name":"monkey      .","steam_id":76561198955819855,"connected_time":1836000000000,"state":"active","ping":61},{"user_id":417,"name":"DeezNutz69Gamer","steam_id":76561199221531190,"connected_time":1295000000000,"state":"active","ping":150},{"user_id":395,"name":"Rattlepike","steam_id":76561198001287416,"connected_time":2783000000000,"state":"active","ping":61},{"user_id":425,"name":"Based gamer bread","steam_id":76561199070355019,"connected_time":896000000000,"state":"active","ping":62},{"user_id":431,"name":"Java Runs on 3 Billion Devices","steam_id":76561198076709942,"connected_time":468000000000,"state":"active","ping":50},{"user_id":427,"name":"White Wine Vinegar","steam_id":76561198260148888,"connected_time":725000000000,"state":"active","ping":69},{"user_id":391,"name":"Top Ramen","steam_id":76561198028969833,"connected_time":3396000000000,"state":"active","ping":45},{"user_id":383,"name":"viirv","steam_id":76561198190097862,"connected_time":4092000000000,"state":"active","ping":80},{"user_id":413,"name":"GOD I LOVE FEMBOYS","steam_id":76561198873046068,"connected_time":1699000000000,"state":"active","ping":62},{"user_id":432,"name":"fro","steam_id":76561198174978790,"connected_time":381000000000,"state":"active","ping":50}]},{"server_id":395,"name":"Uncletopia | Sydney | 3 | All Maps","name_short":"syd-3","host":"syd-1.au.uncletopia.com","port":27035,"enabled":true,"region":"au","cc":"au","latitude":-33.865143,"longitude":151.2099,"reserved":0,"last_update":"0001-01-01T00:00:00Z","name_a2s":"Uncletopia | Sydney | 3 | All Maps","protocol":17,"map":"pl_upward","folder":"tf","game":"Team Fortress","app_id":440,"player_count":19,"max_players":24,"Bots":0,"server_type":"Dedicated","server_os":"Linux","password":true,"vac":true,"version":"7695204","steam_id":85568392925194467,"keywords":["nocrits","nodmgspread","payload","uncletopia"],"game_id":440,"stv_port":27036,"stv_name":"Uncletopia | Sydney | 3 | All Maps | STV","players":[{"user_id":230,"name":"pokermaster22","steam_id":76561198042198744,"connected_time":747000000000,"state":"active","ping":39},{"user_id":217,"name":"Pak'n'Save","steam_id":76561199199754055,"connected_time":1717000000000,"state":"active","ping":69},{"user_id":208,"name":"SuperNova","steam_id":76561198418441094,"connected_time":2198000000000,"state":"active","ping":53},{"user_id":209,"name":"Ugly Duckling","steam_id":76561198309747522,"connected_time":2135000000000,"state":"active","ping":57},{"user_id":229,"name":"Kintaro","steam_id":76561199400481258,"connected_time":795000000000,"state":"active","ping":41},{"user_id":233,"name":"i like balls","steam_id":76561199010558927,"connected_time":321000000000,"state":"active","ping":152},{"user_id":203,"name":"canned tuna","steam_id":76561198420727269,"connected_time":2455000000000,"state":"active","ping":46},{"user_id":164,"name":"problade10","steam_id":76561199219056674,"connected_time":4795000000000,"state":"active","ping":75},{"user_id":232,"name":"Squishy","steam_id":76561198985769205,"connected_time":513000000000,"state":"active","ping":43},{"user_id":213,"name":"Jubs","steam_id":76561198095660304,"connected_time":1936000000000,"state":"active","ping":47},{"user_id":186,"name":"MrSnifma","steam_id":76561198128695488,"connected_time":3375000000000,"state":"active","ping":60},{"user_id":234,"name":"The church of bonk","steam_id":76561198431895445,"connected_time":214000000000,"state":"active","ping":75},{"user_id":228,"name":"UglyBarnicle","steam_id":76561198075921599,"connected_time":982000000000,"state":"active","ping":96},{"user_id":222,"name":"Lt Dan","steam_id":76561198040700857,"connected_time":1459000000000,"state":"active","ping":66},{"user_id":235,"name":"T_Maistre","steam_id":76561198245455706,"connected_time":5000000000,"state":"spawning","ping":83},{"user_id":194,"name":"pooarse","steam_id":76561198217959591,"connected_time":2898000000000,"state":"active","ping":73},{"user_id":144,"name":"Worst Sniper","steam_id":76561198025733081,"connected_time":6283000000000,"state":"active","ping":74},{"user_id":145,"name":"KeeperOfBalance","steam_id":76561198028070089,"connected_time":6278000000000,"state":"active","ping":80},{"user_id":225,"name":"Spicy Baguette","steam_id":76561198238030210,"connected_time":1085000000000,"state":"active","ping":65}]},{"server_id":396,"name":"Uncletopia | Sydney | 4 | All Maps","name_short":"syd-4","host":"syd-1.au.uncletopia.com","port":27045,"enabled":true,"region":"au","cc":"au","latitude":-33.865143,"longitude":151.2099,"reserved":0,"last_update":"0001-01-01T00:00:00Z","name_a2s":"Uncletopia | Sydney | 4 | All Maps","protocol":17,"map":"koth_lakeside_final","folder":"tf","game":"Team Fortress","app_id":440,"player_count":0,"max_players":24,"Bots":0,"server_type":"Dedicated","server_os":"Linux","password":true,"vac":true,"version":"7695204","steam_id":85568392925397958,"keywords":["cp","nocrits","nodmgspread","uncletopia"],"game_id":440,"stv_port":27046,"stv_name":"Uncletopia | Sydney | 4 | All Maps | STV","players":null},{"server_id":58,"name":"Uncletopia | Sydney | 5 | No Payload","name_short":"syd-5","host":"syd-1.au.uncletopia.com","port":27055,"enabled":true,"region":"au","cc":"au","latitude":-33.865143,"longitude":151.2099,"reserved":0,"last_update":"0001-01-01T00:00:00Z","name_a2s":"Uncletopia | Sydney | 5 | No Payload","protocol":17,"map":"cp_snakewater_final1","folder":"tf","game":"Team Fortress","app_id":440,"player_count":0,"max_players":24,"Bots":0,"server_type":"Dedicated","server_os":"Linux","password":true,"vac":true,"version":"7695204","steam_id":85568392925397959,"keywords":["cp","nocrits","nodmgspread","uncletopia"],"game_id":440,"stv_port":27056,"stv_name":"Uncletopia | Sydney | 5 | No Payload | STV","players":null},{"server_id":59,"name":"Uncletopia | Sydney | 6 | Community","name_short":"syd-6","host":"syd-1.au.uncletopia.com","port":27065,"enabled":true,"region":"au","cc":"au","latitude":-33.865143,"longitude":151.2099,"reserved":0,"last_update":"0001-01-01T00:00:00Z","name_a2s":"Uncletopia | Sydney | 6 | Community","protocol":17,"map":"workshop/koth_product_final.ugc454272353","folder":"tf","game":"Team Fortress","app_id":440,"player_count":0,"max_players":24,"Bots":0,"server_type":"Dedicated","server_os":"Linux","password":true,"vac":true,"version":"7695204","steam_id":85568392925397960,"keywords":["cp","nocrits","nodmgspread","uncletopia"],"game_id":440,"stv_port":27066,"stv_name":"Uncletopia | Sydney | 6 | Community | STV","players":null},{"server_id":49,"name":"Uncletopia | Warsaw | 1 | All Maps","name_short":"waw-1","host":"waw-1.pl.uncletopia.com","port":27015,"enabled":true,"region":"eu","cc":"pl","latitude":52.2297,"longitude":21.017532,"reserved":0,"last_update":"0001-01-01T00:00:00Z","name_a2s":"Uncletopia | Warsaw | 1 | All Maps","protocol":17,"map":"pl_frontier_final","folder":"tf","game":"Team Fortress","app_id":440,"player_count":0,"max_players":24,"Bots":0,"server_type":"Dedicated","server_os":"Linux","password":true,"vac":true,"version":"7695204","steam_id":85568392925397850,"keywords":["nocrits","nodmgspread","payload","uncletopia"],"game_id":440,"stv_port":0,"stv_name":"","players":null},{"server_id":50,"name":"Uncletopia | Warsaw | 2 | All Maps","name_short":"waw-2","host":"waw-1.pl.uncletopia.com","port":27025,"enabled":true,"region":"eu","cc":"pl","latitude":52.2297,"longitude":21.017532,"reserved":0,"last_update":"0001-01-01T00:00:00Z","name_a2s":"Uncletopia | Warsaw | 2 | All Maps","protocol":17,"map":"cp_sunshine","folder":"tf","game":"Team Fortress","app_id":440,"player_count":5,"max_players":24,"Bots":0,"server_type":"Dedicated","server_os":"Linux","password":true,"vac":true,"version":"7695204","steam_id":85568392925397851,"keywords":["cp","nocrits","nodmgspread","uncletopia"],"game_id":440,"stv_port":27026,"stv_name":"Uncletopia | Warsaw | 2 | All Maps | STV","players":[{"user_id":3,"name":"Spr","steam_id":76561198314316664,"connected_time":2563000000000,"state":"active","ping":159},{"user_id":4,"name":"Chesteruger","steam_id":76561198317737013,"connected_time":2542000000000,"state":"active","ping":215},{"user_id":5,"name":"Bird_Brain","steam_id":76561198403927578,"connected_time":2540000000000,"state":"active","ping":136},{"user_id":12,"name":"no sound sad","steam_id":76561198341520996,"connected_time":169000000000,"state":"active","ping":198},{"user_id":11,"name":"Cheeseman","steam_id":76561199125502884,"connected_time":390000000000,"state":"active","ping":80}]},{"server_id":51,"name":"Uncletopia | Warsaw | 3 | All Maps","name_short":"waw-3","host":"waw-1.pl.uncletopia.com","port":27035,"enabled":true,"region":"eu","cc":"pl","latitude":52.2297,"longitude":21.017532,"reserved":0,"last_update":"0001-01-01T00:00:00Z","name_a2s":"Uncletopia | Warsaw | 3 | All Maps","protocol":17,"map":"pl_barnblitz","folder":"tf","game":"Team Fortress","app_id":440,"player_count":0,"max_players":24,"Bots":0,"server_type":"Dedicated","server_os":"Linux","password":true,"vac":true,"version":"7695204","steam_id":85568392925397852,"keywords":["nocrits","nodmgspread","payload","uncletopia"],"game_id":440,"stv_port":0,"stv_name":"","players":null},{"server_id":52,"name":"Uncletopia | Warsaw | 4 | All Maps","name_short":"waw-4","host":"waw-1.pl.uncletopia.com","port":27045,"enabled":true,"region":"eu","cc":"pl","latitude":52.2297,"longitude":21.017532,"reserved":0,"last_update":"0001-01-01T00:00:00Z","name_a2s":"Uncletopia | Warsaw | 4 | All Maps","protocol":17,"map":"cp_altitude","folder":"tf","game":"Team Fortress","app_id":440,"player_count":0,"max_players":24,"Bots":0,"server_type":"Dedicated","server_os":"Linux","password":true,"vac":true,"version":"7695204","steam_id":85568392925397853,"keywords":["cp","nocrits","nodmgspread","uncletopia"],"game_id":440,"stv_port":0,"stv_name":"","players":null},{"server_id":53,"name":"Uncletopia | Warsaw | 5 | No Payload","name_short":"waw-5","host":"waw-1.pl.uncletopia.com","port":27055,"enabled":true,"region":"eu","cc":"pl","latitude":52.2297,"longitude":21.017532,"reserved":0,"last_update":"0001-01-01T00:00:00Z","name_a2s":"Uncletopia | Warsaw | 5 | No Payload","protocol":17,"map":"pl_badwater","folder":"tf","game":"Team Fortress","app_id":440,"player_count":0,"max_players":24,"Bots":0,"server_type":"Dedicated","server_os":"Linux","password":true,"vac":true,"version":"7695204","steam_id":85568392925397854,"keywords":["nocrits","nodmgspread","payload","uncletopia"],"game_id":440,"stv_port":0,"stv_name":"","players":null},{"server_id":54,"name":"Uncletopia | Warsaw | 6 | Community","name_short":"waw-6","host":"waw-1.pl.uncletopia.com","port":27065,"enabled":true,"region":"eu","cc":"pl","latitude":52.2297,"longitude":21.017532,"reserved":0,"last_update":"0001-01-01T00:00:00Z","name_a2s":"Uncletopia | Warsaw | 6 | Community","protocol":17,"map":"pl_barnblitz","folder":"tf","game":"Team Fortress","app_id":440,"player_count":0,"max_players":24,"Bots":0,"server_type":"Dedicated","server_os":"Linux","password":true,"vac":true,"version":"7695204","steam_id":85568392925397856,"keywords":["nocrits","nodmgspread","payload","uncletopia"],"game_id":440,"stv_port":0,"stv_name":"","players":null}]}