{"status":true,"message":"","result":[{"server_id":9,"name":"Uncletopia | Atlanta | 1 | All Maps","name_short":"atl-1","host":"atl-1.us.uncletopia.com","port":27015,"enabled":true,"region":"us-east","cc":"us","latitude":33.753746,"longitude":-84.38633,"reserved":0,"last_update":"0001-01-01T00:00:00Z","name_a2s":"Uncletopia | Atlanta | 1 | All Maps","protocol":17,"map":"pl_snowycoast","folder":"tf","game":"Team Fortress","app_id":440,"player_count":24,"max_players":24,"Bots":0,"server_type":"Dedicated","server_os":"Linux","password":true,"vac":true,"version":"7757534","steam_id":85568392924469982,"keywords":["nocrits","nodmgspread","payload","uncletopia"],"game_id":440,"stv_port":27016,"stv_name":"Uncletopia | Atlanta | 1 | All Maps | STV","players":[{"user_id":384,"name":"RAT MAN","steam_id":76561198982326306,"connected_time":1292000000000,"state":"active","ping":79},{"user_id":394,"name":"Thotimus Begonimus","steam_id":76561197970275938,"connected_time":1162000000000,"state":"active","ping":44},{"user_id":406,"name":"ferretgamer","steam_id":76561198880523320,"connected_time":399000000000,"state":"active","ping":81},{"user_id":411,"name":"Teleporter  (Entrance, Level 3)","steam_id":76561198316927664,"connected_time":134000000000,"state":"active","ping":74},{"user_id":412,"name":"MELT MY EYEZ SEE YOUR FUTURE","steam_id":76561198397009880,"connected_time":115000000000,"state":"active","ping":46},{"user_id":401,"name":"big fish","steam_id":76561198186479818,"connected_time":612000000000,"state":"active","ping":107},{"user_id":407,"name":"Florist","steam_id":76561198009121060,"connected_time":184000000000,"state":"active","ping":102},{"user_id":380,"name":"Dude bro","steam_id":76561198249916746,"connected_time":1995000000000,"state":"active","ping":60},{"user_id":398,"name":"Fletcher","steam_id":76561198317846538,"connected_time":847000000000,"state":"active","ping":70},{"user_id":405,"name":"Rue","steam_id":76561198013135993,"connected_time":414000000000,"state":"active","ping":70},{"user_id":387,"name":"Heppeh","steam_id":76561198068049507,"connected_time":1247000000000,"state":"active","ping":62},{"user_id":388,"name":"Kaluka","steam_id":76561198036861445,"connected_time":1243000000000,"state":"active","ping":60},{"user_id":400,"name":"GatorAIDS","steam_id":76561198043220092,"connected_time":624000000000,"state":"active","ping":69},{"user_id":389,"name":"REBELLION TRAITOR","steam_id":76561198059500571,"connected_time":1229000000000,"state":"active","ping":61},{"user_id":367,"name":"ZONE","steam_id":76561197988764692,"connected_time":2911000000000,"state":"active","ping":99},{"user_id":402,"name":"Dirt Man Dan","steam_id":76561198071586519,"connected_time":599000000000,"state":"active","ping":97},{"user_id":363,"name":"Silberman","steam_id":76561199061086990,"connected_time":3068000000000,"state":"active","ping":161},{"user_id":395,"name":"Pork Soda","steam_id":76561198119575082,"connected_time":1151000000000,"state":"active","ping":87},{"user_id":364,"name":"i will melt your bone marrow","steam_id":76561198067994868,"connected_time":3022000000000,"state":"active","ping":88},{"user_id":403,"name":"daemon","steam_id":76561198001541433,"connected_time":585000000000,"state":"active","ping":75},{"user_id":393,"name":"mata","steam_id":76561198083884120,"connected_time":1204000000000,"state":"active","ping":70},{"user_id":409,"name":"vindication_ (reformed)","steam_id":76561198036267748,"connected_time":137000000000,"state":"active","ping":80},{"user_id":410,"name":"TheTruthOfTheCessationOfDukkha","steam_id":76561198214370515,"connected_time":136000000000,"state":"active","ping":67},{"user_id":352,"name":"Ashes!","steam_id":76561197998475441,"connected_time":3624000000000,"state":"active","ping":94}]},{"server_id":400,"name":"Uncletopia | Atlanta | 3 | Community","name_short":"atl-3","host":"atl-1.us.uncletopia.com","port":27035,"enabled":true,"region":"us-east","cc":"us","latitude":33.753746,"longitude":-84.38633,"reserved":0,"last_update":"0001-01-01T00:00:00Z","name_a2s":"Uncletopia | Atlanta | 3 | Community","protocol":17,"map":"workshop/cp_kalinka_rc6a.ugc1272700588","folder":"tf","game":"Team Fortress","app_id":440,"player_count":0,"max_players":24,"Bots":0,"server_type":"Dedicated","server_os":"Linux","password":true,"vac":true,"version":"7757534","steam_id":85568392924515187,"keywords":["cp","nocrits","nodmgspread","uncletopia"],"game_id":440,"stv_port":27036,"stv_name":"Uncletopia | Atlanta | 3 | Community | STV","players":null},{"server_id":401,"name":"Uncletopia | Atlanta | 4 | No Payload","name_short":"atl-4","host":"atl-1.us.uncletopia.com","port":27045,"enabled":true,"region":"us-east","cc":"us","latitude":33.753746,"longitude":-84.38633,"reserved":0,"last_update":"0001-01-01T00:00:00Z","name_a2s":"","protocol":0,"map":"","folder":"","game":"","app_id":0,"player_count":0,"max_players":0,"Bots":0,"server_type":"","server_os":"","password":false,"vac":false,"version":"","steam_id":0,"keywords":null,"game_id":0,"stv_port":0,"stv_name":"","players":null},{"server_id":2,"name":"Uncletopia | Chicago | 1 | All Maps","name_short":"chi-1","host":"chi-1.us.uncletopia.com","port":27015,"enabled":true,"region":"us-central","cc":"us","latitude":41.881832,"longitude":-87.62318,"reserved":0,"last_update":"0001-01-01T00:00:00Z","name_a2s":"Uncletopia | Chicago | 1 | All Maps","protocol":17,"map":"cp_egypt_final","folder":"tf","game":"Team Fortress","app_id":440,"player_count":25,"max_players":24,"Bots":0,"server_type":"Dedicated","server_os":"Linux","password":true,"vac":true,"version":"7757534","steam_id":85568392924469984,"keywords":["cp","nocrits","nodmgspread","uncletopia"],"game_id":440,"stv_port":27016,"stv_name":"Uncletopia | Chicago | 1 | All Maps | STV","players":[{"user_id":68,"name":"SwampyLovesU","steam_id":76561198098812883,"connected_time":236000000000,"state":"active","ping":104},{"user_id":22,"name":"Yayifications","steam_id":76561198066227208,"connected_time":2916000000000,"state":"active","ping":60},{"user_id":71,"name":"Mug Moment Gaming","steam_id":76561198233098136,"connected_time":209000000000,"state":"active","ping":70},{"user_id":61,"name":"Bender MF Doom","steam_id":76561198010708247,"connected_time":1057000000000,"state":"active","ping":65},{"user_id":75,"name":"Shark Sandwich","steam_id":76561198025007938,"connected_time":102000000000,"state":"active","ping":134},{"user_id":25,"name":"Printified","steam_id":76561198063534010,"connected_time":2615000000000,"state":"active","ping":70},{"user_id":54,"name":"papa guacamole","steam_id":76561198167665608,"connected_time":1640000000000,"state":"active","ping":57},{"user_id":27,"name":"RaddahRaddah","steam_id":76561198194462829,"connected_time":2575000000000,"state":"active","ping":63},{"user_id":70,"name":"Quansen","steam_id":76561198151594550,"connected_time":229000000000,"state":"active","ping":55},{"user_id":29,"name":"frizzle fried","steam_id":76561198062991744,"connected_time":2552000000000,"state":"active","ping":62},{"user_id":33,"name":"ApertureCity","steam_id":76561198004153607,"connected_time":2367000000000,"state":"active","ping":83},{"user_id":32,"name":"Hsepirn","steam_id":76561198152395431,"connected_time":2372000000000,"state":"active","ping":114},{"user_id":67,"name":"6t26j","steam_id":76561198278282836,"connected_time":674000000000,"state":"active","ping":50},{"user_id":62,"name":"wiiblob","steam_id":76561198109106242,"connected_time":1050000000000,"state":"active","ping":138},{"user_id":64,"name":"2manyman","steam_id":76561198067156972,"connected_time":834000000000,"state":"active","ping":89},{"user_id":66,"name":"Iggy Dogg","steam_id":76561198059602545,"connected_time":699000000000,"state":"active","ping":55},{"user_id":45,"name":"CaptainNuclear","steam_id":76561198297755938,"connected_time":2126000000000,"state":"active","ping":95},{"user_id":72,"name":"◊ú◊ò","steam_id":76561199467013380,"connected_time":188000000000,"state":"active","ping":199},{"user_id":55,"name":"Rec","steam_id":76561198022813906,"connected_time":1639000000000,"state":"active","ping":56},{"user_id":76,"name":"KiltTickled","steam_id":76561198859288002,"connected_time":67000000000,"state":"active","ping":98},{"user_id":69,"name":"tapewyrm","steam_id":76561198072632696,"connected_time":235000000000,"state":"active","ping":78},{"user_id":74,"name":"Candy Sparkles","steam_id":76561198126871264,"connected_time":171000000000,"state":"active","ping":86},{"user_id":48,"name":"Phil Collins","steam_id":76561198068868644,"connected_time":2100000000000,"state":"active","ping":105},{"user_id":77,"name":"MidnightJ","steam_id":76561198011020123,"connected_time":18000000000,"state":"spawning","ping":89},{"user_id":58,"name":"You're*","steam_id":76561198357316376,"connected_time":1531000000000,"state":"active","ping":78}]},{"server_id":106,"name":"Uncletopia | Chicago | 2 | All Maps","name_short":"chi-2","host":"chi-1.us.uncletopia.com","port":27025,"enabled":true,"region":"us-central","cc":"us","latitude":41.881832,"longitude":-87.62318,"reserved":0,"last_update":"0001-01-01T00:00:00Z","name_a2s":"Uncletopia | Chicago | 2 | All Maps","protocol":17,"map":"koth_viaduct","folder":"tf","game":"Team Fortress","app_id":440,"player_count":0,"max_players":24,"Bots":0,"server_type":"Dedicated","server_os":"Linux","password":true,"vac":true,"version":"7757534","steam_id":85568392924469985,"keywords":["cp","nocrits","nodmgspread","uncletopia"],"game_id":440,"stv_port":27026,"stv_name":"Uncletopia | Chicago | 2 | All Maps | STV","players":null},{"server_id":402,"name":"Uncletopia | Chicago | 3 | All Maps","name_short":"chi-3","host":"chi-1.us.uncletopia.com","port":27035,"enabled":true,"region":"us-central","cc":"us","latitude":41.881832,"longitude":-87.62318,"reserved":0,"last_update":"0001-01-01T00:00:00Z","name_a2s":"Uncletopia | Chicago | 3 | All Maps","protocol":17,"map":"koth_lakeside_final","folder":"tf","game":"Team Fortress","app_id":440,"player_count":8,"max_players":24,"Bots":0,"server_type":"Dedicated","server_os":"Linux","password":true,"vac":true,"version":"7757534","steam_id":85568392924515191,"keywords":["cp","nocrits","nodmgspread","uncletopia"],"game_id":440,"stv_port":27036,"stv_name":"Uncletopia | Chicago | 3 | All Maps | STV","players":[{"user_id":5,"name":"GezmeRR TF2","steam_id":76561198043814532,"connected_time":229000000000,"state":"active","ping":131},{"user_id":6,"name":"Lord Commissar Drac","steam_id":76561198030371218,"connected_time":210000000000,"state":"active","ping":145},{"user_id":7,"name":"DragonXneoN","steam_id":76561198005974781,"connected_time":208000000000,"state":"active","ping":173},{"user_id":8,"name":"[hoodie]","steam_id":76561198105408624,"connected_time":206000000000,"state":"active","ping":99},{"user_id":9,"name":"Danse","steam_id":76561198065545203,"connected_time":204000000000,"state":"active","ping":162},{"user_id":10,"name":"Thorpho","steam_id":76561198157173867,"connected_time":186000000000,"state":"active","ping":128},{"user_id":11,"name":"Lord","steam_id":76561198065021271,"connected_time":124000000000,"state":"active","ping":140},{"user_id":12,"name":"Roll9898","steam_id":76561198066939657,"connected_time":17000000000,"state":"spawning","ping":77}]},{"server_id":403,"name":"Uncletopia | Chicago | 4 | All Maps","name_short":"chi-4","host":"chi-1.us.uncletopia.com","port":27045,"enabled":true,"region":"us-central","cc":"us","latitude":41.881832,"longitude":-87.62318,"reserved":0,"last_update":"0001-01-01T00:00:00Z","name_a2s":"Uncletopia | Chicago | 4 | All Maps","protocol":17,"map":"cp_snakewater_final1","folder":"tf","game":"Team Fortress","app_id":440,"player_count":23,"max_players":24,"Bots":0,"server_type":"Dedicated","server_os":"Linux","password":true,"vac":true,"version":"7757534","steam_id":85568392924515193,"keywords":["cp","nocrits","nodmgspread","uncletopia"],"game_id":440,"stv_port":27046,"stv_name":"Uncletopia | Chicago | 4 | All Maps | STV","players":[{"user_id":170,"name":"John the Rebel","steam_id":76561198107084871,"connected_time":339000000000,"state":"active","ping":73},{"user_id":160,"name":"Toastie","steam_id":76561198246760934,"connected_time":784000000000,"state":"active","ping":55},{"user_id":166,"name":"Tlaloc","steam_id":76561198375215983,"connected_time":625000000000,"state":"active","ping":119},{"user_id":167,"name":"Canpake","steam_id":76561198106446161,"connected_time":517000000000,"state":"active","ping":47},{"user_id":171,"name":"Stock Medic","steam_id":76561198065479730,"connected_time":324000000000,"state":"active","ping":44},{"user_id":150,"name":"Cusven","steam_id":76561198319658526,"connected_time":1210000000000,"state":"active","ping":65},{"user_id":151,"name":"sevanial","steam_id":76561198071532126,"connected_time":1166000000000,"state":"active","ping":61},{"user_id":126,"name":"rage","steam_id":76561198208213491,"connected_time":3316000000000,"state":"active","ping":56},{"user_id":145,"name":"Nespreco","steam_id":76561198252035336,"connected_time":1662000000000,"state":"active","ping":94},{"user_id":146,"name":"Mr. Morrow","steam_id":76561198011333701,"connected_time":1545000000000,"state":"active","ping":84},{"user_id":141,"name":"Bozanimal","steam_id":76561198044096897,"connected_time":1732000000000,"state":"active","ping":63},{"user_id":128,"name":"Dennis Tight Pants (Hypertight)","steam_id":76561198023306720,"connected_time":3298000000000,"state":"active","ping":80},{"user_id":175,"name":"Vem","steam_id":76561198117273112,"connected_time":71000000000,"state":"active","ping":70},{"user_id":88,"name":"paul blart","steam_id":76561198068558572,"connected_time":5709000000000,"state":"active","ping":80},{"user_id":156,"name":"bunkin bonuts","steam_id":76561198006836530,"connected_time":891000000000,"state":"active","ping":85},{"user_id":163,"name":"lukamine","steam_id":76561198166827208,"connected_time":740000000000,"state":"active","ping":105},{"user_id":173,"name":"Coup de Grass","steam_id":76561198011643226,"connected_time":196000000000,"state":"active","ping":60},{"user_id":105,"name":"[UHS] K24A4 2.4","steam_id":76561199072970627,"connected_time":5140000000000,"state":"active","ping":45},{"user_id":157,"name":"Can we get much dumber?(jack)","steam_id":76561198044762365,"connected_time":887000000000,"state":"active","ping":49},{"user_id":169,"name":"Moonflower ‚ú¶","steam_id":76561198191782483,"connected_time":345000000000,"state":"active","ping":84},{"user_id":96,"name":"goblino","steam_id":76561198068260422,"connected_time":5208000000000,"state":"active","ping":48},{"user_id":158,"name":"Password is Taco","steam_id":76561198026092945,"connected_time":845000000000,"state":"active","ping":91},{"user_id":174,"name":"La Chancla","steam_id":76561198971528917,"connected_time":130000000000,"state":"active","ping":66}]},{"server_id":36,"name":"Uncletopia | Chicago | 5 | All Maps","name_short":"chi-5","host":"chi-2.us.uncletopia.com","port":27015,"enabled":true,"region":"us-central","cc":"us","latitude":41.881832,"longitude":-87.62318,"reserved":0,"last_update":"0001-01-01T00:00:00Z","name_a2s":"Uncletopia | Chicago | 5 | All Maps","protocol":17,"map":"koth_cascade","folder":"tf","game":"Team Fortress","app_id":440,"player_count":0,"max_players":24,"Bots":0,"server_type":"Dedicated","server_os":"Linux","password":true,"vac":true,"version":"7757534","steam_id":85568392924866362,"keywords":["cp","nocrits","nodmgspread","uncletopia"],"game_id":440,"stv_port":27016,"stv_name":"Uncletopia | Chicago | 5 | All Maps | STV","players":null},{"server_id":37,"name":"Uncletopia | Chicago | 6 | All Maps","name_short":"chi-6","host":"chi-2.us.uncletopia.com","port":27025,"enabled":true,"region":"us-central","cc":"us","latitude":41.881832,"longitude":-87.62318,"reserved":0,"last_update":"0001-01-01T00:00:00Z","name_a2s":"Uncletopia | Chicago | 6 | All Maps","protocol":17,"map":"koth_cascade","folder":"tf","game":"Team Fortress","app_id":440,"player_count":0,"max_players":24,"Bots":0,"server_type":"Dedicated","server_os":"Linux","password":true,"vac":true,"version":"7757534","steam_id":85568392924866363,"keywords":["cp","nocrits","nodmgspread","uncletopia"],"game_id":440,"stv_port":27026,"stv_name":"Uncletopia | Chicago | 6 | All Maps | STV","players":null},{"server_id":38,"name":"Uncletopia | Chicago | 7 | Stopwatch Beta","name_short":"chi-7","host":"chi-2.us.uncletopia.com","port":27035,"enabled":true,"region":"us-central","cc":"us","latitude":41.881832,"longitude":-87.62318,"reserved":0,"last_update":"0001-01-01T00:00:00Z","name_a2s":"Uncletopia | Chicago | 7 | Stopwatch Beta","protocol":17,"map":"pl_upward","folder":"tf","game":"Team Fortress","app_id":440,"player_count":0,"max_players":24,"Bots":0,"server_type":"Dedicated","server_os":"Linux","password":true,"vac":true,"version":"7757534","steam_id":85568392924866364,"keywords":["nocrits","nodmgspread","payload","uncletopia"],"game_id":440,"stv_port":27036,"stv_name":"Uncletopia | Chicago | 7 | Stopwatch Beta | STV","players":null},{"server_id":39,"name":"Uncletopia | Chicago | 8 | Community","name_short":"chi-8","host":"chi-2.us.uncletopia.com","port":27045,"enabled":true,"region":"us-central","cc":"us","latitude":41.881832,"longitude":-87.62318,"reserved":0,"last_update":"0001-01-01T00:00:00Z","name_a2s":"Uncletopia | Chicago | 8 | Community","protocol":17,"map":"pl_barnblitz","folder":"tf","game":"Team Fortress","app_id":440,"player_count":0,"max_players":24,"Bots":0,"server_type":"Dedicated","server_os":"Linux","password":true,"vac":true,"version":"7757534","steam_id":85568392924866365,"keywords":["nocrits","nodmgspread","payload","uncletopia"],"game_id":440,"stv_port":27046,"stv_name":"Uncletopia | Chicago | 8 | Community | STV","players":null},{"server_id":8,"name":"Uncletopia | Dallas | 1 | All Maps","name_short":"dal-1","host":"dal-1.us.uncletopia.com","port":27015,"enabled":true,"region":"us-central","cc":"us","latitude":32.779167,"longitude":-96.80889,"reserved":0,"last_update":"0001-01-01T00:00:00Z","name_a2s":"Uncletopia | Dallas | 1 | All Maps","protocol":17,"map":"koth_cascade","folder":"tf","game":"Team Fortress","app_id":440,"player_count":0,"max_players":24,"Bots":0,"server_type":"Dedicated","server_os":"Linux","password":true,"vac":true,"version":"7757534","steam_id":85568392924469986,"keywords":["cp","nocrits","nodmgspread","uncletopia"],"game_id":440,"stv_port":27016,"stv_name":"Uncletopia | Dallas | 1 | All Maps | STV","players":null},{"server_id":108,"name":"Uncletopia | Dallas | 2 | All Maps","name_short":"dal-2","host":"dal-1.us.uncletopia.com","port":27025,"enabled":true,"region":"us-central","cc":"us","latitude":32.779167,"longitude":-96.80889,"reserved":0,"last_update":"0001-01-01T00:00:00Z","name_a2s":"Uncletopia | Dallas | 2 | All Maps","protocol":17,"map":"koth_highpass","folder":"tf","game":"Team Fortress","app_id":440,"player_count":0,"max_players":24,"Bots":0,"server_type":"Dedicated","server_os":"Linux","password":true,"vac":true,"version":"7757534","steam_id":85568392924469988,"keywords":["cp","nocrits","nodmgspread","uncletopia"],"game_id":440,"stv_port":27026,"stv_name":"Uncletopia | Dallas | 2 | All Maps | STV","players":null},{"server_id":5,"name":"Uncletopia | Frankfurt | 1 | All Maps","name_short":"frk-1","host":"frk-1.de.uncletopia.com","port":27015,"enabled":true,"region":"eu","cc":"de","latitude":50.110924,"longitude":8.682127,"reserved":0,"last_update":"0001-01-01T00:00:00Z","name_a2s":"Uncletopia | Frankfurt | 1 | All Maps","protocol":17,"map":"pl_borneo","folder":"tf","game":"Team Fortress","app_id":440,"player_count":22,"max_players":24,"Bots":0,"server_type":"Dedicated","server_os":"Linux","password":true,"vac":true,"version":"7757534","steam_id":85568392924469989,"keywords":["nocrits","nodmgspread","payload","uncletopia"],"game_id":440,"stv_port":27016,"stv_name":"Uncletopia | Frankfurt | 1 | All Maps | STV","players":[{"user_id":470,"name":"„Äå‚óÜRaku‚Ä¢ „Äç","steam_id":76561198059283183,"connected_time":4492000000000,"state":"active","ping":76},{"user_id":474,"name":"Yatsuzume","steam_id":76561198059762108,"connected_time":3977000000000,"state":"active","ping":53},{"user_id":497,"name":"Swedish Vegan","steam_id":76561198042775020,"connected_time":912000000000,"state":"active","ping":84},{"user_id":494,"name":"Carrot Arc","steam_id":76561198164957006,"connected_time":1308000000000,"state":"active","ping":86},{"user_id":512,"name":"Moss","steam_id":76561199084162765,"connected_time":534000000000,"state":"active","ping":69},{"user_id":513,"name":"Pico","steam_id":76561198063552545,"connected_time":398000000000,"state":"active","ping":99},{"user_id":509,"name":"Chambersite","steam_id":76561198197022399,"connected_time":675000000000,"state":"active","ping":68},{"user_id":467,"name":"Carry Krypl","steam_id":76561198136938121,"connected_time":4509000000000,"state":"active","ping":56},{"user_id":510,"name":"redindy","steam_id":76561198070154445,"connected_time":634000000000,"state":"active","ping":163},{"user_id":501,"name":"Rlen","steam_id":76561198132139920,"connected_time":857000000000,"state":"active","ping":89},{"user_id":503,"name":"After8","steam_id":76561198090750865,"connected_time":786000000000,"state":"active","ping":61},{"user_id":447,"name":"Ham Man","steam_id":76561198888755969,"connected_time":5830000000000,"state":"active","ping":78},{"user_id":504,"name":"Ged","steam_id":76561198079288943,"connected_time":783000000000,"state":"active","ping":116},{"user_id":505,"name":"MateMO","steam_id":76561198146180114,"connected_time":763000000000,"state":"active","ping":98},{"user_id":514,"name":"Cathedra","steam_id":76561198430227030,"connected_time":208000000000,"state":"active","ping":53},{"user_id":506,"name":"Aoshi","steam_id":76561198043868358,"connected_time":748000000000,"state":"active","ping":63},{"user_id":492,"name":"Diamhair","steam_id":76561198109020178,"connected_time":1451000000000,"state":"active","ping":79},{"user_id":507,"name":"SGI_Loxley","steam_id":76561198103774249,"connected_time":747000000000,"state":"active","ping":62},{"user_id":484,"name":"Jeeworth","steam_id":76561198797972504,"connected_time":2345000000000,"state":"active","ping":76},{"user_id":508,"name":"usagi","steam_id":76561198083867904,"connected_time":722000000000,"state":"active","ping":61},{"user_id":495,"name":"Temporon","steam_id":76561198035031928,"connected_time":1251000000000,"state":"active","ping":61},{"user_id":511,"name":"Ederbiener","steam_id":76561198201899018,"connected_time":623000000000,"state":"active","ping":66}]},{"server_id":110,"name":"Uncletopia | Frankfurt | 2 | All Maps","name_short":"frk-2","host":"frk-1.de.uncletopia.com","port":27025,"enabled":true,"region":"eu","cc":"de","latitude":50.110924,"longitude":8.682127,"reserved":0,"last_update":"0001-01-01T00:00:00Z","name_a2s":"Uncletopia | Frankfurt | 2 | All Maps","protocol":17,"map":"pl_badwater","folder":"tf","game":"Team Fortress","app_id":440,"player_count":24,"max_players":24,"Bots":0,"server_type":"Dedicated","server_os":"Linux","password":true,"vac":true,"version":"7757534","steam_id":85568392924469990,"keywords":["nocrits","nodmgspread","payload","uncletopia"],"game_id":440,"stv_port":27026,"stv_name":"Uncletopia | Frankfurt | 2 | All Maps | STV","players":[{"user_id":102,"name":"BING CHILLING","steam_id":76561198065438030,"connected_time":765000000000,"state":"active","ping":122},{"user_id":89,"name":"Suetolog","steam_id":76561199053090212,"connected_time":1966000000000,"state":"active","ping":55},{"user_id":114,"name":"Udinese Dion","steam_id":76561198067931573,"connected_time":466000000000,"state":"active","ping":46},{"user_id":26,"name":"beurgeur","steam_id":76561198872426314,"connected_time":4991000000000,"state":"active","ping":44},{"user_id":100,"name":"plugwalk‚Ñ¢","steam_id":76561198048250715,"connected_time":987000000000,"state":"active","ping":48},{"user_id":17,"name":"Balls","steam_id":76561198086400484,"connected_time":7436000000000,"state":"active","ping":85},{"user_id":98,"name":"pizzi","steam_id":76561198133085347,"connected_time":1400000000000,"state":"active","ping":59},{"user_id":83,"name":"spada dell'islam","steam_id":76561198038748489,"connected_time":2423000000000,"state":"active","ping":60},{"user_id":120,"name":"Innuendo","steam_id":76561199233152274,"connected_time":127000000000,"state":"active","ping":108},{"user_id":34,"name":"Mr.Schnittlauch","steam_id":76561198295868113,"connected_time":4541000000000,"state":"active","ping":64},{"user_id":101,"name":"pip boy","steam_id":76561197960530280,"connected_time":787000000000,"state":"active","ping":60},{"user_id":78,"name":"Kokas","steam_id":76561197996786353,"connected_time":2455000000000,"state":"active","ping":58},{"user_id":119,"name":"Metta","steam_id":76561199129903286,"connected_time":158000000000,"state":"active","ping":63},{"user_id":117,"name":"Spageti","steam_id":76561198074122906,"connected_time":168000000000,"state":"active","ping":77},{"user_id":113,"name":"Pronton","steam_id":76561198082502910,"connected_time":492000000000,"state":"active","ping":49},{"user_id":123,"name":"Tre3","steam_id":76561198054795379,"connected_time":34000000000,"state":"active","ping":56},{"user_id":104,"name":"alex.difoux","steam_id":76561198370369778,"connected_time":721000000000,"state":"active","ping":70},{"user_id":116,"name":"Fat Pigeon","steam_id":76561198817940142,"connected_time":221000000000,"state":"active","ping":59},{"user_id":106,"name":"mt","steam_id":76561197961319303,"connected_time":689000000000,"state":"active","ping":51},{"user_id":122,"name":"AwterSix","steam_id":76561198042561678,"connected_time":94000000000,"state":"active","ping":60},{"user_id":96,"name":"B√®.√©S","steam_id":76561198045752247,"connected_time":1584000000000,"state":"active","ping":58},{"user_id":77,"name":"Gjs√∂ekakeurhdkfisgjchjateyvxsr","steam_id":76561198220571256,"connected_time":2467000000000,"state":"active","ping":59},{"user_id":110,"name":"R3inis","steam_id":76561199030393569,"connected_time":591000000000,"state":"active","ping":77},{"user_id":82,"name":"Adrenaline","steam_id":76561197970852048,"connected_time":2442000000000,"state":"active","ping":61}]},{"server_id":308,"name":"Uncletopia | Frankfurt | 3 | All Maps","name_short":"frk-3","host":"frk-1.de.uncletopia.com","port":27035,"enabled":true,"region":"eu","cc":"de","latitude":50.110924,"longitude":8.682127,"reserved":0,"last_update":"0001-01-01T00:00:00Z","name_a2s":"Uncletopia | Frankfurt | 3 | All Maps","protocol":17,"map":"koth_highpass","folder":"tf","game":"Team Fortress","app_id":440,"player_count":13,"max_players":24,"Bots":0,"server_type":"Dedicated","server_os":"Linux","password":true,"vac":true,"version":"7757534","steam_id":85568392924504274,"keywords":["cp","nocrits","nodmgspread","uncletopia"],"game_id":440,"stv_port":27036,"stv_name":"Uncletopia | Frankfurt | 3 | All Maps | STV","players":[{"user_id":288,"name":"Old Beavis","steam_id":76561198065951617,"connected_time":804000000000,"state":"active","ping":65},{"user_id":292,"name":"Moyai gaming","steam_id":76561198071207848,"connected_time":249000000000,"state":"active","ping":60},{"user_id":293,"name":"Zippo","steam_id":76561198056773656,"connected_time":233000000000,"state":"active","ping":60},{"user_id":182,"name":"Arcader","steam_id":76561198109860110,"connected_time":7740000000000,"state":"active","ping":51},{"user_id":297,"name":"CrabboStabbo","steam_id":76561198105660937,"connected_time":13000000000,"state":"active","ping":85},{"user_id":294,"name":"balkerk","steam_id":76561198215315428,"connected_time":140000000000,"state":"active","ping":111},{"user_id":295,"name":"Mr. Dick‚Ñ¢","steam_id":76561198047309044,"connected_time":74000000000,"state":"active","ping":148},{"user_id":275,"name":"scantron","steam_id":76561199103959197,"connected_time":1610000000000,"state":"active","ping":87},{"user_id":296,"name":"santi","steam_id":76561199074895719,"connected_time":60000000000,"state":"active","ping":90},{"user_id":278,"name":"mattyczeml","steam_id":76561198173558878,"connected_time":1230000000000,"state":"active","ping":58},{"user_id":287,"name":"sisto majesto","steam_id":76561198073532776,"connected_time":817000000000,"state":"active","ping":89},{"user_id":291,"name":"loveless","steam_id":76561198142256651,"connected_time":651000000000,"state":"active","ping":81},{"user_id":216,"name":"Not Friends","steam_id":76561198043775605,"connected_time":5803000000000,"state":"active","ping":79}]},{"server_id":309,"name":"Uncletopia | Frankfurt | 4 | All Maps","name_short":"frk-4","host":"frk-1.de.uncletopia.com","port":27045,"enabled":true,"region":"eu","cc":"de","latitude":50.110924,"longitude":8.682127,"reserved":0,"last_update":"0001-01-01T00:00:00Z","name_a2s":"Uncletopia | Frankfurt | 4 | All Maps","protocol":17,"map":"pl_snowycoast","folder":"tf","game":"Team Fortress","app_id":440,"player_count":18,"max_players":24,"Bots":0,"server_type":"Dedicated","server_os":"Linux","password":true,"vac":true,"version":"7757534","steam_id":85568392924504275,"keywords":["nocrits","nodmgspread","payload","uncletopia"],"game_id":440,"stv_port":27046,"stv_name":"Uncletopia | Frankfurt | 4 | All Maps | STV","players":[{"user_id":168,"name":"roblan11","steam_id":76561198066839258,"connected_time":997000000000,"state":"active","ping":40},{"user_id":134,"name":"Magiccomplex","steam_id":76561199203555188,"connected_time":2958000000000,"state":"active","ping":48},{"user_id":165,"name":"khamba","steam_id":76561198054783240,"connected_time":1030000000000,"state":"active","ping":115},{"user_id":172,"name":"chronic bhop syndrome","steam_id":76561198193357946,"connected_time":533000000000,"state":"active","ping":107},{"user_id":171,"name":"Mondocane","steam_id":76561199233979726,"connected_time":596000000000,"state":"active","ping":78},{"user_id":166,"name":"Radegast the Brown","steam_id":76561198075489505,"connected_time":1018000000000,"state":"active","ping":60},{"user_id":176,"name":"Jaked2002","steam_id":76561198130947980,"connected_time":268000000000,"state":"active","ping":83},{"user_id":174,"name":"Azurh","steam_id":76561199330143102,"connected_time":461000000000,"state":"active","ping":63},{"user_id":177,"name":"lvl. 50 honkler","steam_id":76561198061688660,"connected_time":160000000000,"state":"active","ping":100},{"user_id":175,"name":"scuM--","steam_id":76561198273679047,"connected_time":392000000000,"state":"active","ping":52},{"user_id":119,"name":"ike","steam_id":76561198039573338,"connected_time":3867000000000,"state":"active","ping":88},{"user_id":158,"name":"Labracababrador","steam_id":76561198255280285,"connected_time":1278000000000,"state":"active","ping":86},{"user_id":178,"name":"Leituga","steam_id":76561198051127598,"connected_time":133000000000,"state":"active","ping":97},{"user_id":139,"name":"multiflex","steam_id":76561198049639319,"connected_time":2789000000000,"state":"active","ping":67},{"user_id":88,"name":"‰∫∫ √ò–ê–ê–ê√ò‰∫∫","steam_id":76561198944032480,"connected_time":6005000000000,"state":"active","ping":89},{"user_id":154,"name":"RadialMount","steam_id":76561198063002562,"connected_time":1684000000000,"state":"active","ping":54},{"user_id":149,"name":"LxZurk","steam_id":76561198114054978,"connected_time":1936000000000,"state":"active","ping":57},{"user_id":162,"name":"euww","steam_id":76561198061179194,"connected_time":1175000000000,"state":"active","ping":75}]},{"server_id":310,"name":"Uncletopia | Frankfurt | 5 | All Maps","name_short":"frk-5","host":"frk-1.de.uncletopia.com","port":27055,"enabled":true,"region":"eu","cc":"de","latitude":50.110924,"longitude":8.682127,"reserved":0,"last_update":"0001-01-01T00:00:00Z","name_a2s":"Uncletopia | Frankfurt | 5 | All Maps","protocol":17,"map":"pl_swiftwater_final1","folder":"tf","game":"Team Fortress","app_id":440,"player_count":23,"max_players":24,"Bots":0,"server_type":"Dedicated","server_os":"Linux","password":true,"vac":true,"version":"7757534","steam_id":85568392924504277,"keywords":["nocrits","nodmgspread","payload","uncletopia"],"game_id":440,"stv_port":27056,"stv_name":"Uncletopia | Frankfurt | 5 | All Maps | STV","players":[{"user_id":100,"name":"TSx* Dante","steam_id":76561198139309331,"connected_time":2287000000000,"state":"active","ping":64},{"user_id":14,"name":"TSx* Osa__PL","steam_id":76561198027016799,"connected_time":6790000000000,"state":"active","ping":74},{"user_id":108,"name":"TonTon","steam_id":76561198145468895,"connected_time":1848000000000,"state":"active","ping":51},{"user_id":63,"name":"Jedi Knight","steam_id":76561198039030709,"connected_time":4173000000000,"state":"active","ping":81},{"user_id":128,"name":"morco3420","steam_id":76561199360257938,"connected_time":128000000000,"state":"active","ping":84},{"user_id":35,"name":"i always miss","steam_id":76561199379233899,"connected_time":5587000000000,"state":"active","ping":79},{"user_id":102,"name":"Saneper","steam_id":76561198046043298,"connected_time":2227000000000,"state":"active","ping":58},{"user_id":118,"name":"dddd","steam_id":76561198120894372,"connected_time":1095000000000,"state":"active","ping":106},{"user_id":47,"name":"antlionguard","steam_id":76561198072747143,"connected_time":5124000000000,"state":"active","ping":96},{"user_id":103,"name":"HwK!","steam_id":76561198287835588,"connected_time":2118000000000,"state":"active","ping":86},{"user_id":99,"name":"bigwish | bmod.tf","steam_id":76561197997859723,"connected_time":2303000000000,"state":"active","ping":77},{"user_id":121,"name":"James","steam_id":76561198138558005,"connected_time":858000000000,"state":"active","ping":68},{"user_id":119,"name":"Dominic Toretto","steam_id":76561198223768544,"connected_time":1090000000000,"state":"active","ping":100},{"user_id":127,"name":"poliakov.noam","steam_id":76561199259322961,"connected_time":412000000000,"state":"active","ping":114},{"user_id":126,"name":"üåº HugeE","steam_id":76561198245495152,"connected_time":585000000000,"state":"active","ping":63},{"user_id":115,"name":"—Å–µ—Ä–≥–µ–π (sir gay)","steam_id":76561198808819694,"connected_time":1235000000000,"state":"active","ping":50},{"user_id":98,"name":"alphareroooo","steam_id":76561198380799823,"connected_time":2353000000000,"state":"active","ping":78},{"user_id":111,"name":"Bloody","steam_id":76561198005754592,"connected_time":1561000000000,"state":"active","ping":74},{"user_id":114,"name":"Edge","steam_id":76561198223956388,"connected_time":1520000000000,"state":"active","ping":83},{"user_id":122,"name":"BRUCE BEE","steam_id":76561198083063005,"connected_time":776000000000,"state":"active","ping":52},{"user_id":85,"name":"TSx* Naxer","steam_id":76561198011986779,"connected_time":3091000000000,"state":"active","ping":70},{"user_id":83,"name":".quickfast.","steam_id":76561199438900919,"connected_time":3430000000000,"state":"active","ping":62},{"user_id":113,"name":"Oxitocin","steam_id":76561198119542899,"connected_time":1542000000000,"state":"active","ping":76}]},{"server_id":311,"name":"Uncletopia | Frankfurt | 6 | All Maps","name_short":"frk-6","host":"frk-1.de.uncletopia.com","port":27065,"enabled":true,"region":"eu","cc":"de","latitude":50.110924,"longitude":8.682127,"reserved":0,"last_update":"0001-01-01T00:00:00Z","name_a2s":"Uncletopia | Frankfurt | 6 | All Maps","protocol":17,"map":"pl_badwater","folder":"tf","game":"Team Fortress","app_id":440,"player_count":23,"max_players":24,"Bots":0,"server_type":"Dedicated","server_os":"Linux","password":true,"vac":true,"version":"7757534","steam_id":85568392924504278,"keywords":["nocrits","nodmgspread","payload","uncletopia"],"game_id":440,"stv_port":27066,"stv_name":"Uncletopia | Frankfurt | 6 | All Maps | STV","players":[{"user_id":312,"name":"Tarkus","steam_id":76561198115938777,"connected_time":2984000000000,"state":"active","ping":116},{"user_id":328,"name":"FlameTheGame","steam_id":76561198841108519,"connected_time":1621000000000,"state":"active","ping":90},{"user_id":329,"name":"Rodia","steam_id":76561197968293161,"connected_time":1237000000000,"state":"active","ping":60},{"user_id":330,"name":"whatever","steam_id":76561198095943461,"connected_time":1143000000000,"state":"active","ping":62},{"user_id":276,"name":"Paintbrush","steam_id":76561198119987705,"connected_time":4594000000000,"state":"active","ping":46},{"user_id":347,"name":"Sin-T Gaming","steam_id":76561199105173837,"connected_time":360000000000,"state":"active","ping":69},{"user_id":298,"name":"Welder","steam_id":76561198355300561,"connected_time":3630000000000,"state":"active","ping":65},{"user_id":344,"name":"Deckard","steam_id":76561198004704647,"connected_time":473000000000,"state":"active","ping":78},{"user_id":295,"name":"vik vaughn","steam_id":76561198059782462,"connected_time":3720000000000,"state":"active","ping":59},{"user_id":342,"name":"76561193786316845","steam_id":76561198081284141,"connected_time":977000000000,"state":"active","ping":63},{"user_id":305,"name":"Paul B√§umer","steam_id":76561198308302932,"connected_time":3150000000000,"state":"active","ping":90},{"user_id":348,"name":"alexander","steam_id":76561198257069012,"connected_time":299000000000,"state":"active","ping":94},{"user_id":353,"name":"the joy of recycling","steam_id":76561198415564349,"connected_time":44000000000,"state":"active","ping":61},{"user_id":352,"name":"Chimera","steam_id":76561198079575986,"connected_time":223000000000,"state":"active","ping":61},{"user_id":346,"name":"gjhkgfkjfh","steam_id":76561198031181349,"connected_time":392000000000,"state":"active","ping":88},{"user_id":339,"name":"ÊÇ™","steam_id":76561198095879087,"connected_time":1041000000000,"state":"active","ping":73},{"user_id":350,"name":"Caribou Companion","steam_id":76561198293333305,"connected_time":235000000000,"state":"active","ping":79},{"user_id":336,"name":"Samlikekristaps","steam_id":76561198888033938,"connected_time":1081000000000,"state":"active","ping":72},{"user_id":274,"name":"TJ1212","steam_id":76561199013575313,"connected_time":4694000000000,"state":"active","ping":78},{"user_id":337,"name":"desnot","steam_id":76561198862581894,"connected_time":1075000000000,"state":"active","ping":77},{"user_id":315,"name":"meriones","steam_id":76561198034234373,"connected_time":2873000000000,"state":"active","ping":59},{"user_id":323,"name":"COLD EXPOSURE ENTHUSIAST","steam_id":76561198119392756,"connected_time":2143000000000,"state":"active","ping":87},{"user_id":341,"name":"Eternally Blazed Banana","steam_id":76561198069703284,"connected_time":996000000000,"state":"active","ping":71}]},{"server_id":23,"name":"Uncletopia | Frankfurt | 7 | Stopwatch Beta","name_short":"frk-7","host":"frk-1.de.uncletopia.com","port":27075,"enabled":true,"region":"eu","cc":"de","latitude":50.110924,"longitude":8.682127,"reserved":0,"last_update":"0001-01-01T00:00:00Z","name_a2s":"Uncletopia | Frankfurt | 7 | Stopwatch Beta","protocol":17,"map":"workshop/koth_product_final.ugc454272353","folder":"tf","game":"Team Fortress","app_id":440,"player_count":0,"max_players":24,"Bots":0,"server_type":"Dedicated","server_os":"Linux","password":true,"vac":true,"version":"7757534","steam_id":85568392924742827,"keywords":["cp","nocrits","nodmgspread","uncletopia"],"game_id":440,"stv_port":27076,"stv_name":"Uncletopia | Frankfurt | 7 | Stopwatch Beta | STV","players":null},{"server_id":24,"name":"Uncletopia | Frankfurt | 8 | Community","name_short":"frk-8","host":"frk-1.de.uncletopia.com","port":27085,"enabled":true,"region":"eu","cc":"de","latitude":50.110924,"longitude":8.682127,"reserved":0,"last_update":"0001-01-01T00:00:00Z","name_a2s":"Uncletopia | Frankfurt | 8 | Community","protocol":17,"map":"workshop/cp_caldera_rc2.ugc2834196889","folder":"tf","game":"Team Fortress","app_id":440,"player_count":0,"max_players":24,"Bots":0,"server_type":"Dedicated","server_os":"Linux","password":true,"vac":true,"version":"7757534","steam_id":85568392924742828,"keywords":["cp","nocrits","nodmgspread","uncletopia"],"game_id":440,"stv_port":27086,"stv_name":"Uncletopia | Frankfurt | 8 | Community | STV","players":null},{"server_id":202,"name":"Uncletopia | Hong Kong | 1 | All Maps","name_short":"hgk-1","host":"hgk-1.hk.uncletopia.com","port":27015,"enabled":true,"region":"asia","cc":"hk","latitude":22.302711,"longitude":114.177216,"reserved":0,"last_update":"0001-01-01T00:00:00Z","name_a2s":"Uncletopia | Hong Kong | 1 | All Maps","protocol":17,"map":"koth_viaduct","folder":"tf","game":"Team Fortress","app_id":440,"player_count":0,"max_players":24,"Bots":0,"server_type":"Dedicated","server_os":"Linux","password":true,"vac":true,"version":"7757534","steam_id":85568392924494504,"keywords":["cp","nocrits","nodmgspread","uncletopia"],"game_id":440,"stv_port":27016,"stv_name":"Uncletopia | Hong Kong | 1 | All Maps | STV","players":null},{"server_id":1,"name":"Uncletopia | Los Angeles | 1 | All Maps","name_short":"lax-1","host":"lax-1.us.uncletopia.com","port":27015,"enabled":true,"region":"us-west","cc":"us","latitude":33.94279,"longitude":-118.41004,"reserved":0,"last_update":"0001-01-01T00:00:00Z","name_a2s":"Uncletopia | Los Angeles | 1 | All Maps","protocol":17,"map":"koth_lakeside_final","folder":"tf","game":"Team Fortress","app_id":440,"player_count":0,"max_players":24,"Bots":0,"server_type":"Dedicated","server_os":"Linux","password":true,"vac":true,"version":"7757534","steam_id":85568392924469991,"keywords":["cp","nocrits","nodmgspread","uncletopia"],"game_id":440,"stv_port":27016,"stv_name":"Uncletopia | Los Angeles | 1 | All Maps | STV","players":null},{"server_id":112,"name":"Uncletopia | Los Angeles | 2 | All Maps","name_short":"lax-2","host":"lax-1.us.uncletopia.com","port":27025,"enabled":true,"region":"us-west","cc":"us","latitude":33.94279,"longitude":-118.41004,"reserved":0,"last_update":"0001-01-01T00:00:00Z","name_a2s":"Uncletopia | Los Angeles | 2 | All Maps","protocol":17,"map":"koth_cascade","folder":"tf","game":"Team Fortress","app_id":440,"player_count":0,"max_players":24,"Bots":0,"server_type":"Dedicated","server_os":"Linux","password":true,"vac":true,"version":"7757534","steam_id":85568392924469992,"keywords":["cp","nocrits","nodmgspread","uncletopia"],"game_id":440,"stv_port":27026,"stv_name":"Uncletopia | Los Angeles | 2 | All Maps | STV","players":null},{"server_id":324,"name":"Uncletopia | Los Angeles | 3 | All Maps","name_short":"lax-3","host":"lax-1.us.uncletopia.com","port":27035,"enabled":true,"region":"us-west","cc":"us","latitude":33.94279,"longitude":-118.41004,"reserved":0,"last_update":"0001-01-01T00:00:00Z","name_a2s":"Uncletopia | Los Angeles | 3 | All Maps","protocol":17,"map":"pl_snowycoast","folder":"tf","game":"Team Fortress","app_id":440,"player_count":0,"max_players":24,"Bots":0,"server_type":"Dedicated","server_os":"Linux","password":true,"vac":true,"version":"7757534","steam_id":85568392924510198,"keywords":["nocrits","nodmgspread","payload","uncletopia"],"game_id":440,"stv_port":27036,"stv_name":"Uncletopia | Los Angeles | 3 | All Maps | STV","players":null},{"server_id":25,"name":"Uncletopia | Los Angeles | 4 | Stopwatch Beta","name_short":"lax-4","host":"lax-1.us.uncletopia.com","port":27045,"enabled":true,"region":"us-west","cc":"us","latitude":33.94279,"longitude":-118.41004,"reserved":0,"last_update":"0001-01-01T00:00:00Z","name_a2s":"Uncletopia | Los Angeles | 4 | Stopwatch Beta","protocol":17,"map":"pl_frontier_final","folder":"tf","game":"Team Fortress","app_id":440,"player_count":0,"max_players":24,"Bots":0,"server_type":"Dedicated","server_os":"Linux","password":true,"vac":true,"version":"7757534","steam_id":85568392924510199,"keywords":["nocrits","nodmgspread","payload","uncletopia"],"game_id":440,"stv_port":27046,"stv_name":"Uncletopia | Los Angeles | 4 | Stopwatch Beta | STV","players":null},{"server_id":11,"name":"Uncletopia | London | 1 | All Maps","name_short":"lon-1","host":"lon-1.uk.uncletopia.com","port":27015,"enabled":true,"region":"eu","cc":"gb","latitude":51.509865,"longitude":-0.118092,"reserved":0,"last_update":"0001-01-01T00:00:00Z","name_a2s":"Uncletopia | London | 1 | All Maps","protocol":17,"map":"pl_frontier_final","folder":"tf","game":"Team Fortress","app_id":440,"player_count":22,"max_players":24,"Bots":0,"server_type":"Dedicated","server_os":"Linux","password":true,"vac":true,"version":"7757534","steam_id":85568392924367362,"keywords":["nocrits","nodmgspread","payload","uncletopia"],"game_id":440,"stv_port":27016,"stv_name":"Uncletopia | London | 1 | All Maps | STV","players":[{"user_id":506,"name":"get crunk or whatever","steam_id":76561198239265962,"connected_time":2742000000000,"state":"active","ping":61},{"user_id":525,"name":"PASTAMANIA!","steam_id":76561197967858558,"connected_time":1587000000000,"state":"active","ping":45},{"user_id":526,"name":"smell_my_cheese","steam_id":76561198008517427,"connected_time":1535000000000,"state":"active","ping":53},{"user_id":536,"name":"Moja jaja ≈°lajdraju","steam_id":76561198280390098,"connected_time":252000000000,"state":"active","ping":78},{"user_id":533,"name":"Purps","steam_id":76561198053886680,"connected_time":1292000000000,"state":"active","ping":42},{"user_id":507,"name":"Travis Bickle","steam_id":76561198116072862,"connected_time":2720000000000,"state":"active","ping":60},{"user_id":465,"name":"British Disapproval","steam_id":76561198001375260,"connected_time":4293000000000,"state":"active","ping":53},{"user_id":528,"name":"Farmercy","steam_id":76561198000038039,"connected_time":1509000000000,"state":"active","ping":61},{"user_id":520,"name":"Silent Person","steam_id":76561198107763537,"connected_time":2208000000000,"state":"active","ping":76},{"user_id":532,"name":"FL 11 Parametric EQ","steam_id":76561198256811438,"connected_time":1392000000000,"state":"active","ping":128},{"user_id":485,"name":"Oak","steam_id":76561198067315672,"connected_time":3370000000000,"state":"active","ping":38},{"user_id":504,"name":"GEP Gun","steam_id":76561197981821003,"connected_time":2839000000000,"state":"active","ping":54},{"user_id":426,"name":"Penis Contortionist","steam_id":76561198073663784,"connected_time":6875000000000,"state":"active","ping":34},{"user_id":537,"name":"Major","steam_id":76561198086483282,"connected_time":59000000000,"state":"active","ping":56},{"user_id":534,"name":"JohnarasGamer1","steam_id":76561198365929872,"connected_time":846000000000,"state":"active","ping":91},{"user_id":478,"name":"Ane≈•√°k","steam_id":76561198159294906,"connected_time":3725000000000,"state":"active","ping":61},{"user_id":495,"name":"Quack","steam_id":76561198048712219,"connected_time":3092000000000,"state":"active","ping":49},{"user_id":535,"name":"Funny mann with a shootgun","steam_id":76561199017872113,"connected_time":783000000000,"state":"active","ping":60},{"user_id":531,"name":"really hot pocket","steam_id":76561198239297686,"connected_time":1492000000000,"state":"active","ping":158},{"user_id":518,"name":"PrivatePengu","steam_id":76561198100112667,"connected_time":2485000000000,"state":"active","ping":49},{"user_id":407,"name":"Wario","steam_id":76561198356089255,"connected_time":8378000000000,"state":"active","ping":52},{"user_id":519,"name":"blazeeight","steam_id":76561198159456502,"connected_time":2472000000000,"state":"active","ping":53}]},{"server_id":114,"name":"Uncletopia | London | 2 | All Maps","name_short":"lon-2","host":"lon-1.uk.uncletopia.com","port":27025,"enabled":true,"region":"eu","cc":"gb","latitude":51.509865,"longitude":-0.118092,"reserved":0,"last_update":"0001-01-01T00:00:00Z","name_a2s":"Uncletopia | London | 2 | All Maps","protocol":17,"map":"pl_badwater","folder":"tf","game":"Team Fortress","app_id":440,"player_count":24,"max_players":24,"Bots":0,"server_type":"Dedicated","server_os":"Linux","password":true,"vac":true,"version":"7757534","steam_id":85568392924470941,"keywords":["nocrits","nodmgspread","payload","uncletopia"],"game_id":440,"stv_port":27026,"stv_name":"Uncletopia | London | 2 | All Maps | STV","players":[{"user_id":207,"name":"VES_Typh00n","steam_id":76561198120826847,"connected_time":774000000000,"state":"active","ping":40},{"user_id":208,"name":"John Dungus (the real one)","steam_id":76561198049191027,"connected_time":764000000000,"state":"active","ping":159},{"user_id":157,"name":"ketoky frychiken","steam_id":76561198190583242,"connected_time":3841000000000,"state":"active","ping":79},{"user_id":204,"name":"moser23","steam_id":76561197960543171,"connected_time":1141000000000,"state":"active","ping":61},{"user_id":180,"name":"‚ú™ m_br3","steam_id":76561198044981990,"connected_time":2639000000000,"state":"active","ping":75},{"user_id":209,"name":"Firearms","steam_id":76561197989867612,"connected_time":652000000000,"state":"active","ping":44},{"user_id":182,"name":"New","steam_id":76561198402195911,"connected_time":2535000000000,"state":"active","ping":122},{"user_id":213,"name":"Giovine Killjoy","steam_id":76561198059375315,"connected_time":187000000000,"state":"active","ping":73},{"user_id":186,"name":"duster cat","steam_id":76561198832231975,"connected_time":2263000000000,"state":"active","ping":94},{"user_id":195,"name":"wasto-/-‚Ñ¢","steam_id":76561198102888038,"connected_time":1847000000000,"state":"active","ping":58},{"user_id":211,"name":"JESUSis myDRUG","steam_id":76561198064847881,"connected_time":624000000000,"state":"active","ping":56},{"user_id":147,"name":"Bloofred","steam_id":76561198111778052,"connected_time":4193000000000,"state":"active","ping":60},{"user_id":214,"name":"s3rg_","steam_id":76561198024043213,"connected_time":42000000000,"state":"active","ping":74},{"user_id":205,"name":"Tlad2","steam_id":76561198854897667,"connected_time":1050000000000,"state":"active","ping":71},{"user_id":189,"name":"ANEY‚òÜ The Music Man","steam_id":76561198074404564,"connected_time":2021000000000,"state":"active","ping":60},{"user_id":109,"name":"Lyra","steam_id":76561198043601838,"connected_time":7036000000000,"state":"active","ping":74},{"user_id":206,"name":"KhorneBread Ô∏ª„Éá ‰∏Ä","steam_id":76561198097069958,"connected_time":1020000000000,"state":"active","ping":132},{"user_id":212,"name":"grif","steam_id":76561198272333800,"connected_time":623000000000,"state":"active","ping":134},{"user_id":192,"name":"Kn√∂sta","steam_id":76561198143422139,"connected_time":1950000000000,"state":"active","ping":109},{"user_id":188,"name":"Nobaddy","steam_id":76561198037871007,"connected_time":2151000000000,"state":"active","ping":70},{"user_id":215,"name":"lanzer","steam_id":76561198049983016,"connected_time":22000000000,"state":"active","ping":97},{"user_id":216,"name":"Harpenden, Harpenden, Harpenden","steam_id":76561198118138546,"connected_time":18000000000,"state":"active","ping":46},{"user_id":199,"name":"dunduu","steam_id":76561198875240717,"connected_time":1411000000000,"state":"active","ping":80},{"user_id":202,"name":"Jabussy","steam_id":76561198111148719,"connected_time":1321000000000,"state":"active","ping":72}]},{"server_id":320,"name":"Uncletopia | London | 3 | All Maps","name_short":"lon-3","host":"lon-1.uk.uncletopia.com","port":27035,"enabled":true,"region":"eu","cc":"gb","latitude":51.509865,"longitude":-0.118092,"reserved":0,"last_update":"0001-01-01T00:00:00Z","name_a2s":"Uncletopia | London | 3 | All Maps","protocol":17,"map":"pl_upward","folder":"tf","game":"Team Fortress","app_id":440,"player_count":24,"max_players":24,"Bots":0,"server_type":"Dedicated","server_os":"Linux","password":true,"vac":true,"version":"7757534","steam_id":85568392924510192,"keywords":["nocrits","nodmgspread","payload","uncletopia"],"game_id":440,"stv_port":27036,"stv_name":"Uncletopia | London | 3 | All Maps | STV","players":[{"user_id":596,"name":"Pomson collector guy","steam_id":76561198990438917,"connected_time":1475000000000,"state":"active","ping":67},{"user_id":577,"name":"kbbq","steam_id":76561198346638308,"connected_time":1811000000000,"state":"active","ping":59},{"user_id":578,"name":"JohnTraveltime","steam_id":76561199244281754,"connected_time":1765000000000,"state":"active","ping":63},{"user_id":579,"name":"Cosmetic brain","steam_id":76561198055936410,"connected_time":1764000000000,"state":"active","ping":83},{"user_id":607,"name":"playing while wearing crocs.","steam_id":76561198139404261,"connected_time":217000000000,"state":"active","ping":42},{"user_id":580,"name":"Talkkari","steam_id":76561198025327723,"connected_time":1738000000000,"state":"active","ping":72},{"user_id":581,"name":"KLAMA  ‚ù§","steam_id":76561198351549661,"connected_time":1738000000000,"state":"active","ping":79},{"user_id":594,"name":"TheEventGuy","steam_id":76561197972797744,"connected_time":1505000000000,"state":"active","ping":74},{"user_id":604,"name":"Jeg","steam_id":76561198405291408,"connected_time":371000000000,"state":"active","ping":70},{"user_id":603,"name":"Eny","steam_id":76561198125030281,"connected_time":384000000000,"state":"active","ping":61},{"user_id":605,"name":"LurkkiBoy","steam_id":76561198049936676,"connected_time":371000000000,"state":"active","ping":125},{"user_id":592,"name":"CrowbarWarrior","steam_id":76561198044077015,"connected_time":1535000000000,"state":"active","ping":73},{"user_id":597,"name":"Dodoshka","steam_id":76561198093464840,"connected_time":1418000000000,"state":"active","ping":102},{"user_id":584,"name":"Remcos","steam_id":76561198143972906,"connected_time":1676000000000,"state":"active","ping":78},{"user_id":593,"name":"Velma","steam_id":76561198047359132,"connected_time":1519000000000,"state":"active","ping":74},{"user_id":608,"name":"Deva Path","steam_id":76561198085763542,"connected_time":41000000000,"state":"spawning","ping":74},{"user_id":595,"name":"Ducc","steam_id":76561198030677425,"connected_time":1493000000000,"state":"active","ping":60},{"user_id":609,"name":"Matella","steam_id":76561198097427947,"connected_time":15000000000,"state":"spawning","ping":201},{"user_id":601,"name":"MorVill","steam_id":76561198809859945,"connected_time":652000000000,"state":"active","ping":54},{"user_id":588,"name":"j0rgos fatass","steam_id":76561198305820017,"connected_time":1614000000000,"state":"active","ping":84},{"user_id":598,"name":"Equinox","steam_id":76561199055592635,"connected_time":1388000000000,"state":"active","ping":53},{"user_id":575,"name":"Dolcelatte","steam_id":76561198038501770,"connected_time":2866000000000,"state":"active","ping":61},{"user_id":591,"name":"ch4os","steam_id":76561198344195209,"connected_time":1578000000000,"state":"active","ping":99},{"user_id":544,"name":"NiKoRo","steam_id":76561197963686614,"connected_time":4871000000000,"state":"active","ping":84}]},{"server_id":321,"name":"Uncletopia | London | 4 | All Maps","name_short":"lon-4","host":"lon-1.uk.uncletopia.com","port":27045,"enabled":true,"region":"eu","cc":"gb","latitude":51.509865,"longitude":-0.118092,"reserved":0,"last_update":"0001-01-01T00:00:00Z","name_a2s":"Uncletopia | London | 4 | All Maps","protocol":17,"map":"koth_viaduct","folder":"tf","game":"Team Fortress","app_id":440,"player_count":18,"max_players":24,"Bots":0,"server_type":"Dedicated","server_os":"Linux","password":true,"vac":true,"version":"7757534","steam_id":85568392924510193,"keywords":["cp","nocrits","nodmgspread","uncletopia"],"game_id":440,"stv_port":27046,"stv_name":"Uncletopia | London | 4 | All Maps | STV","players":[{"user_id":43,"name":"Tomato188","steam_id":76561198292926885,"connected_time":260000000000,"state":"active","ping":58},{"user_id":44,"name":"Derp","steam_id":76561198197901062,"connected_time":258000000000,"state":"active","ping":79},{"user_id":45,"name":"dotdotdot","steam_id":76561198057628751,"connected_time":166000000000,"state":"active","ping":63},{"user_id":41,"name":"The_Jaystone","steam_id":76561198126280691,"connected_time":321000000000,"state":"active","ping":32},{"user_id":20,"name":"Laax","steam_id":76561198938409558,"connected_time":1225000000000,"state":"active","ping":100},{"user_id":22,"name":"Von Leining","steam_id":76561198859983504,"connected_time":777000000000,"state":"active","ping":64},{"user_id":23,"name":"Lucoa Enjoyer","steam_id":76561198842622419,"connected_time":718000000000,"state":"active","ping":93},{"user_id":24,"name":"The Bean Man","steam_id":76561198046932811,"connected_time":713000000000,"state":"active","ping":55},{"user_id":28,"name":"johncenx","steam_id":76561198366703672,"connected_time":627000000000,"state":"active","ping":72},{"user_id":29,"name":"xristosblin","steam_id":76561199043074852,"connected_time":577000000000,"state":"active","ping":92},{"user_id":31,"name":"Owl","steam_id":76561198248266580,"connected_time":570000000000,"state":"active","ping":65},{"user_id":32,"name":"Max","steam_id":76561198029412126,"connected_time":545000000000,"state":"active","ping":69},{"user_id":33,"name":"isha","steam_id":76561199041566425,"connected_time":538000000000,"state":"active","ping":60},{"user_id":34,"name":"d u k k i","steam_id":76561198071807437,"connected_time":491000000000,"state":"active","ping":84},{"user_id":42,"name":"milikicz","steam_id":76561198050626103,"connected_time":311000000000,"state":"active","ping":62},{"user_id":37,"name":"silicon based life form","steam_id":76561199127121346,"connected_time":435000000000,"state":"active","ping":56},{"user_id":38,"name":"Sketchthekiller91","steam_id":76561197972578692,"connected_time":419000000000,"state":"active","ping":43},{"user_id":40,"name":"Walter Griffin","steam_id":76561199415989636,"connected_time":381000000000,"state":"active","ping":95}]},{"server_id":21,"name":"Uncletopia | London | 5 | All Maps","name_short":"lon-5","host":"lon-1.uk.uncletopia.com","port":27055,"enabled":true,"region":"eu","cc":"gb","latitude":51.509865,"longitude":-0.118092,"reserved":0,"last_update":"0001-01-01T00:00:00Z","name_a2s":"Uncletopia | London | 5 | All Maps","protocol":17,"map":"pl_upward","folder":"tf","game":"Team Fortress","app_id":440,"player_count":19,"max_players":24,"Bots":0,"server_type":"Dedicated","server_os":"Linux","password":true,"vac":true,"version":"7757534","steam_id":85568392924742829,"keywords":["nocrits","nodmgspread","payload","uncletopia"],"game_id":440,"stv_port":27056,"stv_name":"Uncletopia | London | 5 | All Maps | STV","players":[{"user_id":256,"name":"Brick","steam_id":76561197993202139,"connected_time":217000000000,"state":"active","ping":42},{"user_id":253,"name":"Bat in a thousand","steam_id":76561198320506848,"connected_time":297000000000,"state":"active","ping":42},{"user_id":235,"name":"KFC Enjoyer","steam_id":76561198840259819,"connected_time":997000000000,"state":"active","ping":53},{"user_id":252,"name":"decriminalise goblins","steam_id":76561198048257605,"connected_time":311000000000,"state":"active","ping":53},{"user_id":194,"name":"Parapluie","steam_id":76561197971640301,"connected_time":3343000000000,"state":"active","ping":41},{"user_id":250,"name":"Zevaka","steam_id":76561199387667409,"connected_time":434000000000,"state":"active","ping":87},{"user_id":251,"name":"toust","steam_id":76561199103417422,"connected_time":326000000000,"state":"active","ping":60},{"user_id":224,"name":"Enxivty","steam_id":76561199465468399,"connected_time":1993000000000,"state":"active","ping":110},{"user_id":184,"name":"Duke Fishlord","steam_id":76561198079928327,"connected_time":4336000000000,"state":"active","ping":76},{"user_id":200,"name":"DemoRobo FR-0","steam_id":76561198220732252,"connected_time":2809000000000,"state":"active","ping":56},{"user_id":257,"name":"eelkir","steam_id":76561198024922946,"connected_time":185000000000,"state":"active","ping":49},{"user_id":249,"name":"Titar Industries","steam_id":76561198143078476,"connected_time":530000000000,"state":"active","ping":130},{"user_id":254,"name":"weaselmeister","steam_id":76561199059841173,"connected_time":292000000000,"state":"active","ping":47},{"user_id":255,"name":"franco","steam_id":76561198113693551,"connected_time":290000000000,"state":"active","ping":111},{"user_id":212,"name":"Crumpet Enthusiast","steam_id":76561198262991113,"connected_time":2236000000000,"state":"active","ping":56},{"user_id":248,"name":"Toon","steam_id":76561198065421595,"connected_time":571000000000,"state":"active","ping":67},{"user_id":229,"name":"Krokinet","steam_id":76561198985877252,"connected_time":1718000000000,"state":"active","ping":90},{"user_id":237,"name":"Danube501","steam_id":76561198143222686,"connected_time":942000000000,"state":"active","ping":105},{"user_id":243,"name":"_Context_","steam_id":76561199163359312,"connected_time":684000000000,"state":"active","ping":61}]},{"server_id":22,"name":"Uncletopia | London | 6 | All Maps","name_short":"lon-6","host":"lon-1.uk.uncletopia.com","port":27065,"enabled":true,"region":"eu","cc":"gb","latitude":51.509865,"longitude":-0.118092,"reserved":0,"last_update":"0001-01-01T00:00:00Z","name_a2s":"Uncletopia | London | 6 | All Maps","protocol":17,"map":"pl_snowycoast","folder":"tf","game":"Team Fortress","app_id":440,"player_count":24,"max_players":24,"Bots":0,"server_type":"Dedicated","server_os":"Linux","password":true,"vac":true,"version":"7757534","steam_id":85568392924742830,"keywords":["nocrits","nodmgspread","payload","uncletopia"],"game_id":440,"stv_port":27066,"stv_name":"Uncletopia | London | 6 | All Maps | STV","players":[{"user_id":53,"name":"John FluidmasterBallwasher doe","steam_id":76561199006462039,"connected_time":1782000000000,"state":"active","ping":76},{"user_id":81,"name":"Camo Leaf","steam_id":76561197999456575,"connected_time":321000000000,"state":"active","ping":54},{"user_id":45,"name":"Waterorange","steam_id":76561199467995794,"connected_time":3033000000000,"state":"active","ping":79},{"user_id":82,"name":"AGamer75","steam_id":76561199045267748,"connected_time":310000000000,"state":"active","ping":95},{"user_id":78,"name":"vikiny14","steam_id":76561198857376180,"connected_time":646000000000,"state":"active","ping":72},{"user_id":79,"name":"kedar834","steam_id":76561199000549399,"connected_time":641000000000,"state":"active","ping":97},{"user_id":83,"name":"Lukanorizer","steam_id":76561198969857029,"connected_time":107000000000,"state":"active","ping":78},{"user_id":68,"name":"Criductive","steam_id":76561198980102679,"connected_time":1176000000000,"state":"active","ping":97},{"user_id":59,"name":"kinglive05","steam_id":76561199072038567,"connected_time":1459000000000,"state":"active","ping":69},{"user_id":60,"name":"Viktornator","steam_id":76561199004870930,"connected_time":1438000000000,"state":"active","ping":92},{"user_id":61,"name":"Hexagon","steam_id":76561198151205758,"connected_time":1352000000000,"state":"active","ping":61},{"user_id":62,"name":"Mr. Mundy","steam_id":76561198132008918,"connected_time":1348000000000,"state":"active","ping":86},{"user_id":84,"name":"DarthPaul8181","steam_id":76561198373050455,"connected_time":51000000000,"state":"active","ping":45},{"user_id":64,"name":"Dr. Piss","steam_id":76561199170203468,"connected_time":1315000000000,"state":"active","ping":150},{"user_id":65,"name":"PrinceGrotle","steam_id":76561198206131603,"connected_time":1306000000000,"state":"active","ping":132},{"user_id":80,"name":"cult","steam_id":76561198188647690,"connected_time":591000000000,"state":"active","ping":76},{"user_id":67,"name":"Svilar","steam_id":76561198828348612,"connected_time":1239000000000,"state":"active","ping":87},{"user_id":69,"name":"Shlongulator","steam_id":76561198149779201,"connected_time":1159000000000,"state":"active","ping":55},{"user_id":71,"name":"YourDoom","steam_id":76561198080790857,"connected_time":1106000000000,"state":"active","ping":37},{"user_id":72,"name":"Dwevy","steam_id":76561198090379437,"connected_time":1072000000000,"state":"active","ping":51},{"user_id":73,"name":"Getrkod","steam_id":76561198986560793,"connected_time":974000000000,"state":"active","ping":55},{"user_id":74,"name":"cirlo","steam_id":76561198041836298,"connected_time":913000000000,"state":"active","ping":55},{"user_id":75,"name":"SausageRoll","steam_id":76561197994072622,"connected_time":905000000000,"state":"active","ping":50},{"user_id":77,"name":"Loggex","steam_id":76561198840511702,"connected_time":754000000000,"state":"active","ping":83}]},{"server_id":40,"name":"Uncletopia | London | 7 | No Payload","name_short":"lon-7","host":"lon-1.uk.uncletopia.com","port":27075,"enabled":true,"region":"eu","cc":"gb","latitude":51.509865,"longitude":-0.118092,"reserved":0,"last_update":"0001-01-01T00:00:00Z","name_a2s":"Uncletopia | London | 7 | No Payload","protocol":17,"map":"koth_badlands","folder":"tf","game":"Team Fortress","app_id":440,"player_count":0,"max_players":24,"Bots":0,"server_type":"Dedicated","server_os":"Linux","password":true,"vac":true,"version":"7757534","steam_id":85568392924964314,"keywords":["cp","nocrits","nodmgspread","uncletopia"],"game_id":440,"stv_port":27076,"stv_name":"Uncletopia | London | 7 | No Payload | STV","players":null},{"server_id":41,"name":"Uncletopia | London | 8 | Community","name_short":"lon-8","host":"lon-1.uk.uncletopia.com","port":27085,"enabled":true,"region":"eu","cc":"gb","latitude":51.509865,"longitude":-0.118092,"reserved":0,"last_update":"0001-01-01T00:00:00Z","name_a2s":"Uncletopia | London | 8 | Community","protocol":17,"map":"workshop/koth_slaughter_rc1.ugc1712845210","folder":"tf","game":"Team Fortress","app_id":440,"player_count":4,"max_players":24,"Bots":0,"server_type":"Dedicated","server_os":"Linux","password":true,"vac":true,"version":"7757534","steam_id":85568392924964315,"keywords":["cp","nocrits","nodmgspread","uncletopia"],"game_id":440,"stv_port":27086,"stv_name":"Uncletopia | London | 8 | Community | STV","players":[{"user_id":9,"name":"–í–û–ô–¢–ê","steam_id":76561198375100393,"connected_time":501000000000,"state":"active","ping":74},{"user_id":10,"name":"public agent","steam_id":76561199067841257,"connected_time":489000000000,"state":"active","ping":84},{"user_id":11,"name":"Zkurvenej RASISTA","steam_id":76561198990785908,"connected_time":454000000000,"state":"active","ping":96},{"user_id":12,"name":"Heisenberg","steam_id":76561199191971228,"connected_time":56000000000,"state":"spawning","ping":455}]},{"server_id":300,"name":"Uncletopia | Montr√©al | 1 | All Maps","name_short":"mtl-1","host":"mtl-1.ca.uncletopia.com","port":27015,"enabled":true,"region":"us-east","cc":"ca","latitude":45.50889,"longitude":-73.56167,"reserved":0,"last_update":"0001-01-01T00:00:00Z","name_a2s":"Uncletopia | Montr√©al | 1 | All Maps","protocol":17,"map":"pl_upward","folder":"tf","game":"Team Fortress","app_id":440,"player_count":0,"max_players":24,"Bots":0,"server_type":"Dedicated","server_os":"Linux","password":true,"vac":true,"version":"7757534","steam_id":85568392924500087,"keywords":["nocrits","nodmgspread","payload","uncletopia"],"game_id":440,"stv_port":27016,"stv_name":"Uncletopia | Montr√©al | 1 | All Maps | STV","players":null},{"server_id":301,"name":"Uncletopia | Montr√©al | 2 | All Maps","name_short":"mtl-2","host":"mtl-1.ca.uncletopia.com","port":27025,"enabled":true,"region":"us-east","cc":"ca","latitude":45.50889,"longitude":-73.56167,"reserved":0,"last_update":"0001-01-01T00:00:00Z","name_a2s":"Uncletopia | Montr√©al | 2 | All Maps","protocol":17,"map":"pl_snowycoast","folder":"tf","game":"Team Fortress","app_id":440,"player_count":0,"max_players":24,"Bots":0,"server_type":"Dedicated","server_os":"Linux","password":true,"vac":true,"version":"7757534","steam_id":85568392924500088,"keywords":["nocrits","nodmgspread","payload","uncletopia"],"game_id":440,"stv_port":27026,"stv_name":"Uncletopia | Montr√©al | 2 | All Maps | STV","players":null},{"server_id":302,"name":"Uncletopia | Montr√©al | 3 | All Maps","name_short":"mtl-3","host":"mtl-1.ca.uncletopia.com","port":27035,"enabled":true,"region":"us-east","cc":"ca","latitude":45.50889,"longitude":-73.56167,"reserved":0,"last_update":"0001-01-01T00:00:00Z","name_a2s":"Uncletopia | Montr√©al | 3 | All Maps","protocol":17,"map":"cp_process_final","folder":"tf","game":"Team Fortress","app_id":440,"player_count":0,"max_players":24,"Bots":0,"server_type":"Dedicated","server_os":"Linux","password":true,"vac":true,"version":"7757534","steam_id":85568392924500089,"keywords":["cp","nocrits","nodmgspread","uncletopia"],"game_id":440,"stv_port":27036,"stv_name":"Uncletopia | Montr√©al | 3 | All Maps | STV","players":null},{"server_id":303,"name":"Uncletopia | Montr√©al | 4 | No Payload","name_short":"mtl-4","host":"mtl-1.ca.uncletopia.com","port":27045,"enabled":true,"region":"us-east","cc":"ca","latitude":45.50889,"longitude":-73.56167,"reserved":0,"last_update":"0001-01-01T00:00:00Z","name_a2s":"Uncletopia | Montr√©al | 4 | No Payload","protocol":17,"map":"pl_borneo","folder":"tf","game":"Team Fortress","app_id":440,"player_count":0,"max_players":24,"Bots":0,"server_type":"Dedicated","server_os":"Linux","password":true,"vac":true,"version":"7757534","steam_id":85568392924500090,"keywords":["nocrits","nodmgspread","payload","uncletopia"],"game_id":440,"stv_port":27046,"stv_name":"Uncletopia | Montr√©al | 4 | No Payload | STV","players":null},{"server_id":13,"name":"Uncletopia | New York City | 1 | All Maps","name_short":"nyc-1","host":"nyc-1.us.uncletopia.com","port":27015,"enabled":true,"region":"us-east","cc":"us","latitude":40.73061,"longitude":-73.93524,"reserved":0,"last_update":"0001-01-01T00:00:00Z","name_a2s":"Uncletopia | New York City | 1 | All Maps","protocol":17,"map":"pl_badwater","folder":"tf","game":"Team Fortress","app_id":440,"player_count":19,"max_players":24,"Bots":0,"server_type":"Dedicated","server_os":"Linux","password":true,"vac":true,"version":"7757534","steam_id":85568392924469993,"keywords":["nocrits","nodmgspread","payload","uncletopia"],"game_id":440,"stv_port":27016,"stv_name":"Uncletopia | New York City | 1 | All Maps | STV","players":[{"user_id":273,"name":"Sanamsam1","steam_id":76561198051890899,"connected_time":551000000000,"state":"active","ping":50},{"user_id":184,"name":"localization files","steam_id":76561197997139225,"connected_time":6678000000000,"state":"active","ping":44},{"user_id":254,"name":"The Rambler","steam_id":76561198109648603,"connected_time":2321000000000,"state":"active","ping":89},{"user_id":260,"name":"JelloMotion","steam_id":76561198045892038,"connected_time":2023000000000,"state":"active","ping":80},{"user_id":258,"name":"Kritzburgh","steam_id":76561198149466938,"connected_time":2143000000000,"state":"active","ping":46},{"user_id":230,"name":"Bocchi the Rock","steam_id":76561198025668771,"connected_time":4300000000000,"state":"active","ping":135},{"user_id":266,"name":"FellowGamer","steam_id":76561198089600392,"connected_time":1386000000000,"state":"active","ping":65},{"user_id":228,"name":"offensive rick and morty memes","steam_id":76561198367019006,"connected_time":4325000000000,"state":"active","ping":55},{"user_id":274,"name":"Aqua","steam_id":76561198136989701,"connected_time":536000000000,"state":"active","ping":54},{"user_id":279,"name":"squid game","steam_id":76561199248960166,"connected_time":17000000000,"state":"active","ping":116},{"user_id":277,"name":"Ghost","steam_id":76561198110914180,"connected_time":108000000000,"state":"active","ping":158},{"user_id":276,"name":"Spirit","steam_id":76561199069322627,"connected_time":194000000000,"state":"active","ping":57},{"user_id":252,"name":"Coffee with a Stranger","steam_id":76561198307422313,"connected_time":2551000000000,"state":"active","ping":50},{"user_id":280,"name":"MangaTiddies","steam_id":76561198880438872,"connected_time":10000000000,"state":"spawning","ping":117},{"user_id":278,"name":"Schizophrenic with explosives","steam_id":76561198002964332,"connected_time":105000000000,"state":"active","ping":81},{"user_id":251,"name":"Hunto","steam_id":76561198328052562,"connected_time":2661000000000,"state":"active","ping":84},{"user_id":269,"name":"The Heavy from TF2 (real)","steam_id":76561199023562280,"connected_time":1136000000000,"state":"active","ping":46},{"user_id":267,"name":"willferrellfan117","steam_id":76561198331027373,"connected_time":1373000000000,"state":"active","ping":90},{"user_id":272,"name":"4 Itchy Tasty","steam_id":76561198009869383,"connected_time":988000000000,"state":"active","ping":74}]},{"server_id":14,"name":"Uncletopia | New York City | 2 | All Maps","name_short":"nyc-2","host":"nyc-1.us.uncletopia.com","port":27025,"enabled":true,"region":"us-east","cc":"us","latitude":40.73061,"longitude":-73.93524,"reserved":0,"last_update":"0001-01-01T00:00:00Z","name_a2s":"Uncletopia | New York City | 2 | All Maps","protocol":17,"map":"koth_viaduct","folder":"tf","game":"Team Fortress","app_id":440,"player_count":14,"max_players":24,"Bots":0,"server_type":"Dedicated","server_os":"Linux","password":true,"vac":true,"version":"7757534","steam_id":85568392924469994,"keywords":["cp","nocrits","nodmgspread","uncletopia"],"game_id":440,"stv_port":27026,"stv_name":"Uncletopia | New York City | 2 | All Maps | STV","players":[{"user_id":15,"name":"Marshall","steam_id":76561198042570322,"connected_time":812000000000,"state":"active","ping":75},{"user_id":34,"name":"Mr. Call You Back","steam_id":76561198025172811,"connected_time":88000000000,"state":"active","ping":38},{"user_id":11,"name":"steelborg","steam_id":76561198427292802,"connected_time":1186000000000,"state":"active","ping":115},{"user_id":21,"name":"Clomker tf2","steam_id":76561199080609910,"connected_time":517000000000,"state":"active","ping":37},{"user_id":13,"name":"themankeys","steam_id":76561198149339536,"connected_time":994000000000,"state":"active","ping":79},{"user_id":23,"name":"El_Jackso","steam_id":76561198126121555,"connected_time":478000000000,"state":"active","ping":64},{"user_id":26,"name":"Ceiling Man","steam_id":76561198003959902,"connected_time":414000000000,"state":"active","ping":36},{"user_id":24,"name":"Sickmind33","steam_id":76561198036248611,"connected_time":473000000000,"state":"active","ping":70},{"user_id":29,"name":"Bunkachunko","steam_id":76561198320604061,"connected_time":376000000000,"state":"active","ping":86},{"user_id":30,"name":"Mask","steam_id":76561198877649728,"connected_time":247000000000,"state":"active","ping":172},{"user_id":31,"name":"jeremimi","steam_id":76561198818225102,"connected_time":239000000000,"state":"active","ping":130},{"user_id":33,"name":"otimoprime","steam_id":76561198804013135,"connected_time":145000000000,"state":"active","ping":186},{"user_id":32,"name":"Pepsiman","steam_id":76561198436946165,"connected_time":197000000000,"state":"active","ping":74},{"user_id":35,"name":"maArk","steam_id":76561198200380143,"connected_time":31000000000,"state":"spawning","ping":140}]},{"server_id":15,"name":"Uncletopia | New York City | 3 | Stopwatch Beta","name_short":"nyc-3","host":"nyc-1.us.uncletopia.com","port":27035,"enabled":true,"region":"us-east","cc":"us","latitude":40.73061,"longitude":-73.93524,"reserved":0,"last_update":"0001-01-01T00:00:00Z","name_a2s":"Uncletopia | New York City | 3 | Stopwatch Beta","protocol":17,"map":"cp_mountainlab","folder":"tf","game":"Team Fortress","app_id":440,"player_count":0,"max_players":24,"Bots":0,"server_type":"Dedicated","server_os":"Linux","password":true,"vac":true,"version":"7757534","steam_id":85568392924742820,"keywords":["cp","nocrits","nodmgspread","uncletopia"],"game_id":440,"stv_port":27036,"stv_name":"Uncletopia | New York City | 3 | Stopwatch Beta | STV","players":null},{"server_id":16,"name":"Uncletopia | New York City | 4 | Community","name_short":"nyc-4","host":"nyc-1.us.uncletopia.com","port":27045,"enabled":true,"region":"us-east","cc":"us","latitude":40.73061,"longitude":-73.93524,"reserved":0,"last_update":"0001-01-01T00:00:00Z","name_a2s":"Uncletopia | New York City | 4 | Community","protocol":17,"map":"workshop/pl_corrode_rc2.ugc546577989","folder":"tf","game":"Team Fortress","app_id":440,"player_count":0,"max_players":24,"Bots":0,"server_type":"Dedicated","server_os":"Linux","password":true,"vac":true,"version":"7757534","steam_id":85568392924742821,"keywords":["nocrits","nodmgspread","payload","uncletopia"],"game_id":440,"stv_port":27046,"stv_name":"Uncletopia | New York City | 4 | Community | STV","players":null},{"server_id":142,"name":"Uncletopia | S√£o Paulo | 1 | All Maps","name_short":"sao-1","host":"sao-1.br.uncletopia.com","port":27015,"enabled":true,"region":"sa","cc":"br","latitude":-23.533773,"longitude":-46.62529,"reserved":0,"last_update":"0001-01-01T00:00:00Z","name_a2s":"Uncletopia | S√£o Paulo | 1 | All Maps","protocol":17,"map":"koth_lakeside_final","folder":"tf","game":"Team Fortress","app_id":440,"player_count":0,"max_players":24,"Bots":0,"server_type":"Dedicated","server_os":"Linux","password":true,"vac":true,"version":"7757534","steam_id":85568392924469996,"keywords":["cp","nocrits","nodmgspread","uncletopia"],"game_id":440,"stv_port":27016,"stv_name":"Uncletopia | S√£o Paulo | 1 | All Maps | STV","players":null},{"server_id":143,"name":"Uncletopia | S√£o Paulo | 2 | All Maps","name_short":"sao-2","host":"sao-2.br.uncletopia.com","port":27015,"enabled":true,"region":"sa","cc":"br","latitude":-23.533773,"longitude":-46.62529,"reserved":0,"last_update":"0001-01-01T00:00:00Z","name_a2s":"Uncletopia | S√£o Paulo | 2 | All Maps","protocol":17,"map":"cp_sunshine","folder":"tf","game":"Team Fortress","app_id":440,"player_count":0,"max_players":24,"Bots":0,"server_type":"Dedicated","server_os":"Linux","password":true,"vac":true,"version":"7757534","steam_id":85568392924485349,"keywords":["cp","nocrits","nodmgspread","uncletopia"],"game_id":440,"stv_port":27016,"stv_name":"Uncletopia | S√£o Paulo | 2 | All Maps | STV","players":null},{"server_id":7,"name":"Uncletopia | Seattle | 1 | All Maps","name_short":"sea-1","host":"sea-1.us.uncletopia.com","port":27015,"enabled":true,"region":"us-west","cc":"us","latitude":47.608013,"longitude":-122.33517,"reserved":0,"last_update":"0001-01-01T00:00:00Z","name_a2s":"Uncletopia | Seattle | 1 | All Maps","protocol":17,"map":"pl_upward","folder":"tf","game":"Team Fortress","app_id":440,"player_count":24,"max_players":24,"Bots":0,"server_type":"Dedicated","server_os":"Linux","password":true,"vac":true,"version":"7757534","steam_id":85568392924469997,"keywords":["nocrits","nodmgspread","payload","uncletopia"],"game_id":440,"stv_port":27016,"stv_name":"Uncletopia | Seattle | 1 | All Maps | STV","players":[{"user_id":227,"name":"dP | I'm in a Wookie Suit","steam_id":76561198083307644,"connected_time":5107000000000,"state":"active","ping":58},{"user_id":303,"name":"Mr.Indian Jokar","steam_id":76561198381343086,"connected_time":728000000000,"state":"active","ping":82},{"user_id":228,"name":"Mignyanne :3","steam_id":76561198048754056,"connected_time":5107000000000,"state":"active","ping":61},{"user_id":277,"name":"COOL master_9","steam_id":76561198073041151,"connected_time":2104000000000,"state":"active","ping":102},{"user_id":275,"name":"Strikerbolt","steam_id":76561199095622897,"connected_time":2148000000000,"state":"active","ping":76},{"user_id":280,"name":"thunderous prophet","steam_id":76561198131166135,"connected_time":1978000000000,"state":"active","ping":41},{"user_id":238,"name":"yup","steam_id":76561199190800520,"connected_time":4884000000000,"state":"active","ping":41},{"user_id":304,"name":"compulsive","steam_id":76561198212421513,"connected_time":561000000000,"state":"active","ping":75},{"user_id":296,"name":"FedSmoker","steam_id":76561198255854081,"connected_time":1226000000000,"state":"active","ping":62},{"user_id":282,"name":"Seru","steam_id":76561199219827214,"connected_time":1921000000000,"state":"active","ping":126},{"user_id":297,"name":"Matte :)","steam_id":76561198070631073,"connected_time":1081000000000,"state":"active","ping":64},{"user_id":283,"name":"times table","steam_id":76561198341452558,"connected_time":1916000000000,"state":"active","ping":88},{"user_id":284,"name":"sauce cup","steam_id":76561198332989410,"connected_time":1885000000000,"state":"active","ping":86},{"user_id":258,"name":"phoonwax","steam_id":76561198433114405,"connected_time":3951000000000,"state":"active","ping":71},{"user_id":259,"name":"Local","steam_id":76561198069537437,"connected_time":3753000000000,"state":"active","ping":95},{"user_id":294,"name":"aon135","steam_id":76561197966931637,"connected_time":1376000000000,"state":"active","ping":59},{"user_id":312,"name":"„Ä£dust„Ä£ -she/her-","steam_id":76561198045218909,"connected_time":333000000000,"state":"active","ping":39},{"user_id":286,"name":"we did it mate","steam_id":76561199471434875,"connected_time":1878000000000,"state":"active","ping":45},{"user_id":287,"name":"The Lonely Croc","steam_id":76561198123241396,"connected_time":1878000000000,"state":"active","ping":85},{"user_id":261,"name":"Daz","steam_id":76561198041431938,"connected_time":3515000000000,"state":"active","ping":119},{"user_id":301,"name":"‚ù§To Lazy‚ù§","steam_id":76561198164211904,"connected_time":836000000000,"state":"active","ping":94},{"user_id":235,"name":"The strongest ‚ë® ball","steam_id":76561198126760743,"connected_time":5040000000000,"state":"active","ping":61},{"user_id":267,"name":"BoX_hEaD101","steam_id":76561198200875467,"connected_time":3247000000000,"state":"active","ping":93},{"user_id":300,"name":"LX-24","steam_id":76561198016168993,"connected_time":924000000000,"state":"active","ping":114}]},{"server_id":119,"name":"Uncletopia | Seattle | 2 | All Maps","name_short":"sea-2","host":"sea-1.us.uncletopia.com","port":27025,"enabled":true,"region":"us-west","cc":"us","latitude":47.608013,"longitude":-122.33517,"reserved":0,"last_update":"0001-01-01T00:00:00Z","name_a2s":"Uncletopia | Seattle | 2 | All Maps","protocol":17,"map":"pl_snowycoast","folder":"tf","game":"Team Fortress","app_id":440,"player_count":0,"max_players":24,"Bots":0,"server_type":"Dedicated","server_os":"Linux","password":true,"vac":true,"version":"7757534","steam_id":85568392924469998,"keywords":["nocrits","nodmgspread","payload","uncletopia"],"game_id":440,"stv_port":27026,"stv_name":"Uncletopia | Seattle | 2 | All Maps | STV","players":null},{"server_id":406,"name":"Uncletopia | Seattle | 3 | Stopwatch Beta","name_short":"sea-3","host":"sea-1.us.uncletopia.com","port":27035,"enabled":true,"region":"us-west","cc":"us","latitude":47.608013,"longitude":-122.33517,"reserved":0,"last_update":"0001-01-01T00:00:00Z","name_a2s":"Uncletopia | Seattle | 3 | Stopwatch Beta","protocol":17,"map":"pl_barnblitz","folder":"tf","game":"Team Fortress","app_id":440,"player_count":0,"max_players":24,"Bots":0,"server_type":"Dedicated","server_os":"Linux","password":true,"vac":true,"version":"7757534","steam_id":85568392924515217,"keywords":["nocrits","nodmgspread","payload","uncletopia"],"game_id":440,"stv_port":27036,"stv_name":"Uncletopia | Seattle | 3 | Stopwatch Beta | STV","players":null},{"server_id":17,"name":"Uncletopia | San Francisco | 1 | All Maps","name_short":"sfo-1","host":"sfo-1.us.uncletopia.com","port":27015,"enabled":true,"region":"us-west","cc":"us","latitude":37.77397,"longitude":-122.4313,"reserved":0,"last_update":"0001-01-01T00:00:00Z","name_a2s":"Uncletopia | San Francisco | 1 | All Maps","protocol":17,"map":"pl_badwater","folder":"tf","game":"Team Fortress","app_id":440,"player_count":24,"max_players":24,"Bots":0,"server_type":"Dedicated","server_os":"Linux","password":true,"vac":true,"version":"7757534","steam_id":85568392924469999,"keywords":["nocrits","nodmgspread","payload","uncletopia"],"game_id":440,"stv_port":27016,"stv_name":"Uncletopia | San Francisco | 1 | All Maps | STV","players":[{"user_id":116,"name":"A Man Named Pancho","steam_id":76561197984895522,"connected_time":1371000000000,"state":"active","ping":51},{"user_id":127,"name":"‚ùÑ Alice ‚ô•","steam_id":76561198869945051,"connected_time":437000000000,"state":"active","ping":106},{"user_id":128,"name":"Sykes10","steam_id":76561198279623105,"connected_time":431000000000,"state":"active","ping":57},{"user_id":129,"name":"mumbles","steam_id":76561197994528974,"connected_time":413000000000,"state":"active","ping":99},{"user_id":100,"name":"Buswolley","steam_id":76561197995205571,"connected_time":2021000000000,"state":"active","ping":48},{"user_id":88,"name":"AlvWhispery","steam_id":76561198850017423,"connected_time":2807000000000,"state":"active","ping":118},{"user_id":131,"name":"Gull","steam_id":76561198161560332,"connected_time":384000000000,"state":"active","ping":77},{"user_id":103,"name":"I hate gamers","steam_id":76561198288743767,"connected_time":1854000000000,"state":"active","ping":60},{"user_id":98,"name":"Fewseb","steam_id":76561198104808456,"connected_time":2433000000000,"state":"active","ping":111},{"user_id":137,"name":"Mr. Mystical Perfection","steam_id":76561198036444997,"connected_time":279000000000,"state":"active","ping":67},{"user_id":136,"name":"APOTATO","steam_id":76561198118199858,"connected_time":295000000000,"state":"active","ping":71},{"user_id":54,"name":"Cheeeeeeeen","steam_id":76561198986388085,"connected_time":5688000000000,"state":"active","ping":81},{"user_id":93,"name":"Triforce141","steam_id":76561198063896776,"connected_time":2627000000000,"state":"active","ping":87},{"user_id":134,"name":"resh420","steam_id":76561198066619792,"connected_time":329000000000,"state":"active","ping":75},{"user_id":139,"name":"Paul","steam_id":76561197996285195,"connected_time":193000000000,"state":"active","ping":69},{"user_id":107,"name":"Goldbug","steam_id":76561198025221202,"connected_time":1660000000000,"state":"active","ping":50},{"user_id":117,"name":"JoBesity","steam_id":76561198036504161,"connected_time":1359000000000,"state":"active","ping":172},{"user_id":142,"name":"toodles","steam_id":76561198025463883,"connected_time":43000000000,"state":"active","ping":70},{"user_id":140,"name":"potty trained","steam_id":76561198141557766,"connected_time":171000000000,"state":"active","ping":120},{"user_id":124,"name":"ahazz","steam_id":76561198138161605,"connected_time":966000000000,"state":"active","ping":63},{"user_id":126,"name":"GGN","steam_id":76561198233603808,"connected_time":451000000000,"state":"active","ping":61},{"user_id":114,"name":"Grizzly","steam_id":76561198176174371,"connected_time":1500000000000,"state":"active","ping":60},{"user_id":138,"name":"And","steam_id":76561198366997281,"connected_time":273000000000,"state":"active","ping":118},{"user_id":73,"name":"jinkies","steam_id":76561198199950729,"connected_time":4359000000000,"state":"active","ping":158}]},{"server_id":18,"name":"Uncletopia | San Francisco | 2 | All Maps","name_short":"sfo-2","host":"sfo-1.us.uncletopia.com","port":27025,"enabled":true,"region":"us-west","cc":"us","latitude":37.77397,"longitude":-122.4313,"reserved":0,"last_update":"0001-01-01T00:00:00Z","name_a2s":"Uncletopia | San Francisco | 2 | All Maps","protocol":17,"map":"pl_borneo","folder":"tf","game":"Team Fortress","app_id":440,"player_count":0,"max_players":24,"Bots":0,"server_type":"Dedicated","server_os":"Linux","password":true,"vac":true,"version":"7757534","steam_id":85568392924470000,"keywords":["nocrits","nodmgspread","payload","uncletopia"],"game_id":440,"stv_port":27026,"stv_name":"Uncletopia | San Francisco | 2 | All Maps | STV","players":null},{"server_id":19,"name":"Uncletopia | San Francisco | 3 | Stopwatch Beta","name_short":"sfo-3","host":"sfo-1.us.uncletopia.com","port":27035,"enabled":true,"region":"us-west","cc":"us","latitude":37.77397,"longitude":-122.4313,"reserved":0,"last_update":"0001-01-01T00:00:00Z","name_a2s":"Uncletopia | San Francisco | 3 | Stopwatch Beta","protocol":17,"map":"pl_borneo","folder":"tf","game":"Team Fortress","app_id":440,"player_count":0,"max_players":24,"Bots":0,"server_type":"Dedicated","server_os":"Linux","password":true,"vac":true,"version":"7757534","steam_id":85568392924742824,"keywords":["nocrits","nodmgspread","payload","uncletopia"],"game_id":440,"stv_port":27036,"stv_name":"Uncletopia | San Francisco | 3 | Stopwatch Beta | STV","players":null},{"server_id":20,"name":"Uncletopia | San Francisco | 4 | Community","name_short":"sfo-4","host":"sfo-1.us.uncletopia.com","port":27045,"enabled":true,"region":"us-west","cc":"us","latitude":37.77397,"longitude":-122.4313,"reserved":0,"last_update":"0001-01-01T00:00:00Z","name_a2s":"Uncletopia | San Francisco | 4 | Community","protocol":17,"map":"koth_highpass","folder":"tf","game":"Team Fortress","app_id":440,"player_count":0,"max_players":24,"Bots":0,"server_type":"Dedicated","server_os":"Linux","password":true,"vac":true,"version":"7757534","steam_id":85568392924742826,"keywords":["cp","nocrits","nodmgspread","uncletopia"],"game_id":440,"stv_port":27046,"stv_name":"Uncletopia | San Francisco | 4 | Community | STV","players":null},{"server_id":141,"name":"Uncletopia | Sydney | 1 | All Maps","name_short":"syd-1","host":"syd-1.au.uncletopia.com","port":27015,"enabled":true,"region":"au","cc":"au","latitude":-33.865143,"longitude":151.2099,"reserved":0,"last_update":"0001-01-01T00:00:00Z","name_a2s":"Uncletopia | Sydney | 1 | All Maps","protocol":17,"map":"cp_process_final","folder":"tf","game":"Team Fortress","app_id":440,"player_count":0,"max_players":24,"Bots":0,"server_type":"Dedicated","server_os":"Linux","password":true,"vac":true,"version":"7757534","steam_id":85568392924470001,"keywords":["cp","nocrits","nodmgspread","uncletopia"],"game_id":440,"stv_port":27016,"stv_name":"Uncletopia | Sydney | 1 | All Maps | STV","players":null},{"server_id":123,"name":"Uncletopia | Sydney | 2 | All Maps","name_short":"syd-2","host":"syd-1.au.uncletopia.com","port":27025,"enabled":true,"region":"au","cc":"au","latitude":-33.865143,"longitude":151.2099,"reserved":0,"last_update":"0001-01-01T00:00:00Z","name_a2s":"Uncletopia | Sydney | 2 | All Maps","protocol":17,"map":"koth_viaduct","folder":"tf","game":"Team Fortress","app_id":440,"player_count":0,"max_players":24,"Bots":0,"server_type":"Dedicated","server_os":"Linux","password":true,"vac":true,"version":"7757534","steam_id":85568392924470002,"keywords":["cp","nocrits","nodmgspread","uncletopia"],"game_id":440,"stv_port":27026,"stv_name":"Uncletopia | Sydney | 2 | All Maps | STV","players":null},{"server_id":395,"name":"Uncletopia | Sydney | 3 | All Maps","name_short":"syd-3","host":"syd-1.au.uncletopia.com","port":27035,"enabled":true,"region":"au","cc":"au","latitude":-33.865143,"longitude":151.2099,"reserved":0,"last_update":"0001-01-01T00:00:00Z","name_a2s":"Uncletopia | Sydney | 3 | All Maps","protocol":17,"map":"pl_upward","folder":"tf","game":"Team Fortress","app_id":440,"player_count":0,"max_players":24,"Bots":0,"server_type":"Dedicated","server_os":"Linux","password":true,"vac":true,"version":"7757534","steam_id":85568392925194467,"keywords":["nocrits","nodmgspread","payload","uncletopia"],"game_id":440,"stv_port":27036,"stv_name":"Uncletopia | Sydney | 3 | All Maps | STV","players":null},{"server_id":396,"name":"Uncletopia | Sydney | 4 | All Maps","name_short":"syd-4","host":"syd-1.au.uncletopia.com","port":27045,"enabled":true,"region":"au","cc":"au","latitude":-33.865143,"longitude":151.2099,"reserved":0,"last_update":"0001-01-01T00:00:00Z","name_a2s":"Uncletopia | Sydney | 4 | All Maps","protocol":17,"map":"koth_lakeside_final","folder":"tf","game":"Team Fortress","app_id":440,"player_count":0,"max_players":24,"Bots":0,"server_type":"Dedicated","server_os":"Linux","password":true,"vac":true,"version":"7757534","steam_id":85568392925397958,"keywords":["cp","nocrits","nodmgspread","uncletopia"],"game_id":440,"stv_port":27046,"stv_name":"Uncletopia | Sydney | 4 | All Maps | STV","players":null},{"server_id":58,"name":"Uncletopia | Sydney | 5 | Stopwatch Beta","name_short":"syd-5","host":"syd-1.au.uncletopia.com","port":27055,"enabled":true,"region":"au","cc":"au","latitude":-33.865143,"longitude":151.2099,"reserved":0,"last_update":"0001-01-01T00:00:00Z","name_a2s":"Uncletopia | Sydney | 5 | Stopwatch Beta","protocol":17,"map":"koth_highpass","folder":"tf","game":"Team Fortress","app_id":440,"player_count":0,"max_players":24,"Bots":0,"server_type":"Dedicated","server_os":"Linux","password":true,"vac":true,"version":"7757534","steam_id":85568392925397959,"keywords":["cp","nocrits","nodmgspread","uncletopia"],"game_id":440,"stv_port":27056,"stv_name":"Uncletopia | Sydney | 5 | Stopwatch Beta | STV","players":null},{"server_id":59,"name":"Uncletopia | Sydney | 6 | Community","name_short":"syd-6","host":"syd-1.au.uncletopia.com","port":27065,"enabled":true,"region":"au","cc":"au","latitude":-33.865143,"longitude":151.2099,"reserved":0,"last_update":"0001-01-01T00:00:00Z","name_a2s":"Uncletopia | Sydney | 6 | Community","protocol":17,"map":"cp_sunshine","folder":"tf","game":"Team Fortress","app_id":440,"player_count":0,"max_players":24,"Bots":0,"server_type":"Dedicated","server_os":"Linux","password":true,"vac":true,"version":"7757534","steam_id":85568392925397960,"keywords":["cp","nocrits","nodmgspread","uncletopia"],"game_id":440,"stv_port":27066,"stv_name":"Uncletopia | Sydney | 6 | Community | STV","players":null},{"server_id":49,"name":"Uncletopia | Warsaw | 1 | All Maps","name_short":"waw-1","host":"waw-1.pl.uncletopia.com","port":27015,"enabled":true,"region":"eu","cc":"pl","latitude":52.2297,"longitude":21.017532,"reserved":0,"last_update":"0001-01-01T00:00:00Z","name_a2s":"","protocol":0,"map":"","folder":"","game":"","app_id":0,"player_count":0,"max_players":0,"Bots":0,"server_type":"","server_os":"","password":false,"vac":false,"version":"","steam_id":0,"keywords":null,"game_id":0,"stv_port":0,"stv_name":"","players":null},{"server_id":50,"name":"Uncletopia | Warsaw | 2 | All Maps","name_short":"waw-2","host":"waw-1.pl.uncletopia.com","port":27025,"enabled":true,"region":"eu","cc":"pl","latitude":52.2297,"longitude":21.017532,"reserved":0,"last_update":"0001-01-01T00:00:00Z","name_a2s":"Uncletopia | Warsaw | 2 | All Maps","protocol":17,"map":"cp_sunshine","folder":"tf","game":"Team Fortress","app_id":440,"player_count":0,"max_players":24,"Bots":0,"server_type":"Dedicated","server_os":"Linux","password":true,"vac":true,"version":"7757534","steam_id":85568392925397851,"keywords":["cp","nocrits","nodmgspread","uncletopia"],"game_id":440,"stv_port":27026,"stv_name":"Uncletopia | Warsaw | 2 | All Maps | STV","players":null},{"server_id":51,"name":"Uncletopia | Warsaw | 3 | All Maps","name_short":"waw-3","host":"waw-1.pl.uncletopia.com","port":27035,"enabled":true,"region":"eu","cc":"pl","latitude":52.2297,"longitude":21.017532,"reserved":0,"last_update":"0001-01-01T00:00:00Z","name_a2s":"Uncletopia | Warsaw | 3 | All Maps","protocol":17,"map":"pl_barnblitz","folder":"tf","game":"Team Fortress","app_id":440,"player_count":2,"max_players":24,"Bots":0,"server_type":"Dedicated","server_os":"Linux","password":true,"vac":true,"version":"7757534","steam_id":85568392925397852,"keywords":["nocrits","nodmgspread","payload","uncletopia"],"game_id":440,"stv_port":27036,"stv_name":"Uncletopia | Warsaw | 3 | All Maps | STV","players":[{"user_id":4,"name":"Knoxxen","steam_id":76561198071114510,"connected_time":234000000000,"state":"active","ping":76},{"user_id":5,"name":"Elon","steam_id":76561198140751130,"connected_time":230000000000,"state":"active","ping":83}]},{"server_id":52,"name":"Uncletopia | Warsaw | 4 | All Maps","name_short":"waw-4","host":"waw-1.pl.uncletopia.com","port":27045,"enabled":true,"region":"eu","cc":"pl","latitude":52.2297,"longitude":21.017532,"reserved":0,"last_update":"0001-01-01T00:00:00Z","name_a2s":"Uncletopia | Warsaw | 4 | All Maps","protocol":17,"map":"pl_snowycoast","folder":"tf","game":"Team Fortress","app_id":440,"player_count":0,"max_players":24,"Bots":0,"server_type":"Dedicated","server_os":"Linux","password":true,"vac":true,"version":"7757534","steam_id":85568392925397853,"keywords":["nocrits","nodmgspread","payload","uncletopia"],"game_id":440,"stv_port":27046,"stv_name":"Uncletopia | Warsaw | 4 | All Maps | STV","players":null},{"server_id":53,"name":"Uncletopia | Warsaw | 5 | Stopwatch Beta","name_short":"waw-5","host":"waw-1.pl.uncletopia.com","port":27055,"enabled":true,"region":"eu","cc":"pl","latitude":52.2297,"longitude":21.017532,"reserved":0,"last_update":"0001-01-01T00:00:00Z","name_a2s":"Uncletopia | Warsaw | 5 | Stopwatch Beta","protocol":17,"map":"pl_barnblitz","folder":"tf","game":"Team Fortress","app_id":440,"player_count":0,"max_players":24,"Bots":0,"server_type":"Dedicated","server_os":"Linux","password":true,"vac":true,"version":"7757534","steam_id":85568392925397854,"keywords":["nocrits","nodmgspread","payload","uncletopia"],"game_id":440,"stv_port":27056,"stv_name":"Uncletopia | Warsaw | 5 | Stopwatch Beta | STV","players":null},{"server_id":54,"name":"Uncletopia | Warsaw | 6 | Community","name_short":"waw-6","host":"waw-1.pl.uncletopia.com","port":27065,"enabled":true,"region":"eu","cc":"pl","latitude":52.2297,"longitude":21.017532,"reserved":0,"last_update":"0001-01-01T00:00:00Z","name_a2s":"Uncletopia | Warsaw | 6 | Community","protocol":17,"map":"workshop/cp_bruhstbowl_b5.ugc2878604990","folder":"tf","game":"Team Fortress","app_id":440,"player_count":0,"max_players":24,"Bots":0,"server_type":"Dedicated","server_os":"Linux","password":true,"vac":true,"version":"7757534","steam_id":85568392925397856,"keywords":["cp","nocrits","nodmgspread","uncletopia"],"game_id":440,"stv_port":27066,"stv_name":"Uncletopia | Warsaw | 6 | Community | STV","players":null}]}