{"status":true,"message":"","result":[{"server_id":9,"name":"Uncletopia | Atlanta | 1 | All Maps","name_short":"atl-1","host":"atl-1.us.uncletopia.com","port":27015,"enabled":true,"region":"us-east","cc":"us","latitude":33.753746,"longitude":-84.38633,"reserved":0,"last_update":"0001-01-01T00:00:00Z","name_a2s":"Uncletopia | Atlanta | 1 | All Maps","protocol":17,"map":"pl_swiftwater_final1","folder":"tf","game":"Team Fortress","app_id":440,"player_count":24,"max_players":24,"Bots":0,"server_type":"Dedicated","server_os":"Linux","password":true,"vac":true,"version":"7961495","steam_id":85568392924469982,"keywords":["nocrits","nodmgspread","payload","uncletopia"],"game_id":440,"stv_port":27016,"stv_name":"Uncletopia | Atlanta | 1 | All Maps | STV","players":[{"user_id":249,"name":"AttackCommander","steam_id":76561198111522679,"connected_time":106000000000,"state":"active","ping":71},{"user_id":200,"name":"ash","steam_id":76561198127890645,"connected_time":4492000000000,"state":"active","ping":67},{"user_id":250,"name":"Vlad","steam_id":76561198150626637,"connected_time":104000000000,"state":"active","ping":56},{"user_id":212,"name":"DuckMann","steam_id":76561198197058638,"connected_time":3285000000000,"state":"active","ping":46},{"user_id":247,"name":"CrazyCow","steam_id":76561198097431272,"connected_time":650000000000,"state":"active","ping":81},{"user_id":137,"name":"lil hog","steam_id":76561199230929836,"connected_time":8307000000000,"state":"active","ping":105},{"user_id":252,"name":"double stack biggie bag","steam_id":76561198188967430,"connected_time":82000000000,"state":"active","ping":74},{"user_id":136,"name":"lynt","steam_id":76561198988333976,"connected_time":8309000000000,"state":"active","ping":45},{"user_id":225,"name":"DeezNoodlez","steam_id":76561198246700372,"connected_time":2549000000000,"state":"active","ping":56},{"user_id":205,"name":"My Tummy Hurts :(","steam_id":76561198168976029,"connected_time":3687000000000,"state":"active","ping":93},{"user_id":177,"name":"RoJ","steam_id":76561198063959574,"connected_time":5953000000000,"state":"active","ping":86},{"user_id":193,"name":"Ashes!","steam_id":76561197998475441,"connected_time":5106000000000,"state":"active","ping":76},{"user_id":234,"name":"squaggles!","steam_id":76561197994995011,"connected_time":1922000000000,"state":"active","ping":38},{"user_id":245,"name":"techdeck","steam_id":76561199022751661,"connected_time":709000000000,"state":"active","ping":67},{"user_id":235,"name":"what","steam_id":76561198082336619,"connected_time":1920000000000,"state":"active","ping":75},{"user_id":248,"name":"Sloppy Hoes","steam_id":76561198114922735,"connected_time":622000000000,"state":"active","ping":61},{"user_id":132,"name":"marguerite","steam_id":76561198170873495,"connected_time":8338000000000,"state":"active","ping":60},{"user_id":216,"name":"kite","steam_id":76561198346516392,"connected_time":3030000000000,"state":"active","ping":89},{"user_id":241,"name":"Night time Dan","steam_id":76561199022178492,"connected_time":1341000000000,"state":"active","ping":49},{"user_id":230,"name":"Oxygen User","steam_id":76561199111975528,"connected_time":2338000000000,"state":"active","ping":73},{"user_id":246,"name":"Rusty Gamer","steam_id":76561198315631796,"connected_time":695000000000,"state":"active","ping":74},{"user_id":251,"name":"shaderoses","steam_id":76561198070800500,"connected_time":103000000000,"state":"active","ping":68},{"user_id":243,"name":"Albino Jellyfish","steam_id":76561198208561097,"connected_time":1293000000000,"state":"active","ping":60},{"user_id":253,"name":"Flankstick","steam_id":76561199086925544,"connected_time":62000000000,"state":"active","ping":81}]},{"server_id":104,"name":"Uncletopia | Atlanta | 2 | All Maps","name_short":"atl-2","host":"atl-1.us.uncletopia.com","port":27025,"enabled":true,"region":"us-east","cc":"us","latitude":33.753746,"longitude":-84.38633,"reserved":0,"last_update":"0001-01-01T00:00:00Z","name_a2s":"Uncletopia | Atlanta | 2 | All Maps","protocol":17,"map":"cp_dustbowl","folder":"tf","game":"Team Fortress","app_id":440,"player_count":0,"max_players":24,"Bots":0,"server_type":"Dedicated","server_os":"Linux","password":true,"vac":true,"version":"7961495","steam_id":85568392924469983,"keywords":["cp","nocrits","nodmgspread","uncletopia"],"game_id":440,"stv_port":27026,"stv_name":"Uncletopia | Atlanta | 2 | All Maps | STV","players":null},{"server_id":400,"name":"Uncletopia | Atlanta | 3 | Stopwatch","name_short":"atl-3","host":"atl-1.us.uncletopia.com","port":27035,"enabled":true,"region":"us-east","cc":"us","latitude":33.753746,"longitude":-84.38633,"reserved":0,"last_update":"0001-01-01T00:00:00Z","name_a2s":"Uncletopia | Atlanta | 3 | Stopwatch","protocol":17,"map":"workshop/cp_process_f12.ugc2302948105","folder":"tf","game":"Team Fortress","app_id":440,"player_count":24,"max_players":24,"Bots":0,"server_type":"Dedicated","server_os":"Linux","password":true,"vac":true,"version":"7961495","steam_id":85568392924515187,"keywords":["cp","nocrits","nodmgspread","uncletopia"],"game_id":440,"stv_port":27036,"stv_name":"Uncletopia | Atlanta | 3 | Stopwatch | STV","players":[{"user_id":123,"name":"Iron Argus","steam_id":76561198181088245,"connected_time":1410000000000,"state":"active","ping":89},{"user_id":124,"name":"Marsk","steam_id":76561198417568196,"connected_time":1274000000000,"state":"active","ping":101},{"user_id":74,"name":"ＥｎｄｅｒＮｅｃｒｏ","steam_id":76561198044304293,"connected_time":4059000000000,"state":"active","ping":167},{"user_id":125,"name":"Wife Enjoyer","steam_id":76561198044109761,"connected_time":1255000000000,"state":"active","ping":62},{"user_id":138,"name":"Charlotte","steam_id":76561199084344266,"connected_time":357000000000,"state":"active","ping":83},{"user_id":130,"name":"Ferguson","steam_id":76561198121349387,"connected_time":1000000000000,"state":"active","ping":69},{"user_id":110,"name":"Congcrab","steam_id":76561198078687685,"connected_time":2324000000000,"state":"active","ping":67},{"user_id":101,"name":"Drunken Tuscan","steam_id":76561198244203066,"connected_time":2593000000000,"state":"active","ping":54},{"user_id":106,"name":"Ruskie Business","steam_id":76561198121787673,"connected_time":2438000000000,"state":"active","ping":51},{"user_id":103,"name":"Rin \"Hindwing\" Redtail","steam_id":76561199074865638,"connected_time":2572000000000,"state":"active","ping":61},{"user_id":80,"name":"Man On Night Mode","steam_id":76561198012469076,"connected_time":3857000000000,"state":"active","ping":88},{"user_id":126,"name":"Evil little man","steam_id":76561198311053471,"connected_time":1237000000000,"state":"active","ping":70},{"user_id":139,"name":"Ranger","steam_id":76561198064096654,"connected_time":30000000000,"state":"active","ping":53},{"user_id":94,"name":"TwitchyEyes","steam_id":76561199087750592,"connected_time":3166000000000,"state":"active","ping":70},{"user_id":127,"name":"BlueSceptile","steam_id":76561198303151606,"connected_time":1190000000000,"state":"active","ping":65},{"user_id":116,"name":"Crow","steam_id":76561198064799398,"connected_time":1688000000000,"state":"active","ping":70},{"user_id":117,"name":"AFunkyPigeon","steam_id":76561199350099870,"connected_time":1681000000000,"state":"active","ping":92},{"user_id":118,"name":"Ne ᵇula","steam_id":76561198064920144,"connected_time":1588000000000,"state":"active","ping":97},{"user_id":131,"name":"prankenstin the 2nd","steam_id":76561199015833436,"connected_time":976000000000,"state":"active","ping":142},{"user_id":137,"name":"hayes","steam_id":76561198057101042,"connected_time":760000000000,"state":"active","ping":75},{"user_id":122,"name":"Helmet Hands","steam_id":76561197961141994,"connected_time":1458000000000,"state":"active","ping":105},{"user_id":133,"name":"Skellz","steam_id":76561198314587051,"connected_time":913000000000,"state":"active","ping":95},{"user_id":134,"name":"slosh","steam_id":76561198060546760,"connected_time":907000000000,"state":"active","ping":144},{"user_id":135,"name":"havesomepizza","steam_id":76561198030051048,"connected_time":881000000000,"state":"active","ping":74}]},{"server_id":401,"name":"Uncletopia | Atlanta | 4 | Community","name_short":"atl-4","host":"atl-1.us.uncletopia.com","port":27045,"enabled":true,"region":"us-east","cc":"us","latitude":33.753746,"longitude":-84.38633,"reserved":0,"last_update":"0001-01-01T00:00:00Z","name_a2s":"Uncletopia | Atlanta | 4 | Community","protocol":17,"map":"workshop/pl_phoenix_b4a.ugc2969509359","folder":"tf","game":"Team Fortress","app_id":440,"player_count":0,"max_players":24,"Bots":0,"server_type":"Dedicated","server_os":"Linux","password":true,"vac":true,"version":"7961495","steam_id":85568392924515188,"keywords":["nocrits","nodmgspread","payload","uncletopia"],"game_id":440,"stv_port":27046,"stv_name":"Uncletopia | Atlanta | 4 | Community | STV","players":null},{"server_id":2,"name":"Uncletopia | Chicago | 1 | All Maps","name_short":"chi-1","host":"chi-1.us.uncletopia.com","port":27015,"enabled":true,"region":"us-central","cc":"us","latitude":41.881832,"longitude":-87.62318,"reserved":0,"last_update":"0001-01-01T00:00:00Z","name_a2s":"Uncletopia | Chicago | 1 | All Maps","protocol":17,"map":"pl_badwater","folder":"tf","game":"Team Fortress","app_id":440,"player_count":24,"max_players":24,"Bots":0,"server_type":"Dedicated","server_os":"Linux","password":true,"vac":true,"version":"7961495","steam_id":85568392924469984,"keywords":["nocrits","nodmgspread","payload","uncletopia"],"game_id":440,"stv_port":27016,"stv_name":"Uncletopia | Chicago | 1 | All Maps | STV","players":[{"user_id":110,"name":"Az","steam_id":76561198045643267,"connected_time":79000000000,"state":"active","ping":61},{"user_id":68,"name":"Wooden E","steam_id":76561198020308956,"connected_time":3235000000000,"state":"active","ping":61},{"user_id":106,"name":"ImmenseWraith","steam_id":76561198963757884,"connected_time":164000000000,"state":"active","ping":83},{"user_id":96,"name":"GLG.Liz","steam_id":76561198021957956,"connected_time":1491000000000,"state":"active","ping":75},{"user_id":111,"name":"AstronautPug","steam_id":76561198162372709,"connected_time":52000000000,"state":"active","ping":57},{"user_id":107,"name":"LexxyLooLoo","steam_id":76561198958811555,"connected_time":163000000000,"state":"active","ping":66},{"user_id":72,"name":"Headshots Se7en","steam_id":76561198020464802,"connected_time":2954000000000,"state":"active","ping":52},{"user_id":91,"name":"LVL 4 Dispenser Gaming","steam_id":76561198044244547,"connected_time":2033000000000,"state":"active","ping":75},{"user_id":73,"name":"Seagull","steam_id":76561199201235759,"connected_time":2876000000000,"state":"active","ping":49},{"user_id":109,"name":"Looge","steam_id":76561198155483586,"connected_time":102000000000,"state":"active","ping":59},{"user_id":80,"name":"red isnt ready","steam_id":76561199229918142,"connected_time":2702000000000,"state":"active","ping":81},{"user_id":112,"name":"SuperEvilPasta","steam_id":76561198078258907,"connected_time":51000000000,"state":"active","ping":90},{"user_id":86,"name":"Death Crab","steam_id":76561198064805271,"connected_time":2436000000000,"state":"active","ping":51},{"user_id":98,"name":"man of the hour","steam_id":76561198264601809,"connected_time":1167000000000,"state":"active","ping":70},{"user_id":82,"name":"Bronotos","steam_id":76561198035935672,"connected_time":2659000000000,"state":"active","ping":45},{"user_id":53,"name":"GoldtoothFour","steam_id":76561198055529332,"connected_time":5078000000000,"state":"active","ping":52},{"user_id":89,"name":"Toxic Mercenary","steam_id":76561197988501611,"connected_time":2149000000000,"state":"active","ping":76},{"user_id":103,"name":"HAT-WEARING™ Maggot Gamer Cat","steam_id":76561197973992705,"connected_time":872000000000,"state":"active","ping":102},{"user_id":81,"name":"pafijohn","steam_id":76561198002535190,"connected_time":2673000000000,"state":"active","ping":94},{"user_id":100,"name":"AKconner","steam_id":76561198312569787,"connected_time":1143000000000,"state":"active","ping":71},{"user_id":85,"name":"beep","steam_id":76561199096448766,"connected_time":2514000000000,"state":"active","ping":69},{"user_id":97,"name":"Milkmur","steam_id":76561198210043821,"connected_time":1473000000000,"state":"active","ping":63},{"user_id":84,"name":"Toast","steam_id":76561199207957224,"connected_time":2606000000000,"state":"active","ping":67},{"user_id":105,"name":"Morgster","steam_id":76561198131697761,"connected_time":182000000000,"state":"active","ping":72}]},{"server_id":106,"name":"Uncletopia | Chicago | 2 | All Maps","name_short":"chi-2","host":"chi-1.us.uncletopia.com","port":27025,"enabled":true,"region":"us-central","cc":"us","latitude":41.881832,"longitude":-87.62318,"reserved":0,"last_update":"0001-01-01T00:00:00Z","name_a2s":"Uncletopia | Chicago | 2 | All Maps","protocol":17,"map":"pl_upward","folder":"tf","game":"Team Fortress","app_id":440,"player_count":24,"max_players":24,"Bots":0,"server_type":"Dedicated","server_os":"Linux","password":true,"vac":true,"version":"7961495","steam_id":85568392924469985,"keywords":["nocrits","nodmgspread","payload","uncletopia"],"game_id":440,"stv_port":27026,"stv_name":"Uncletopia | Chicago | 2 | All Maps | STV","players":[{"user_id":141,"name":"Magnet Dood","steam_id":76561198364178746,"connected_time":784000000000,"state":"active","ping":60},{"user_id":114,"name":"jstn","steam_id":76561198845283665,"connected_time":2548000000000,"state":"active","ping":62},{"user_id":143,"name":"Harpua","steam_id":76561197988020228,"connected_time":493000000000,"state":"active","ping":60},{"user_id":126,"name":"Null","steam_id":76561198062791227,"connected_time":1571000000000,"state":"active","ping":48},{"user_id":120,"name":"OH BOY","steam_id":76561199052273428,"connected_time":2360000000000,"state":"active","ping":52},{"user_id":139,"name":"hideyochest","steam_id":76561198090366059,"connected_time":835000000000,"state":"active","ping":63},{"user_id":83,"name":"stultus3","steam_id":76561198099104939,"connected_time":5450000000000,"state":"active","ping":65},{"user_id":155,"name":"rawburt","steam_id":76561197993860970,"connected_time":53000000000,"state":"active","ping":64},{"user_id":115,"name":"pineApple Zoo","steam_id":76561198013732450,"connected_time":2541000000000,"state":"active","ping":51},{"user_id":140,"name":"MERS","steam_id":76561198059303718,"connected_time":806000000000,"state":"active","ping":111},{"user_id":80,"name":"Rornir","steam_id":76561198081829615,"connected_time":5726000000000,"state":"active","ping":33},{"user_id":116,"name":"Mr. Chicken nipples","steam_id":76561198040907706,"connected_time":2522000000000,"state":"active","ping":81},{"user_id":131,"name":"Bon Gripper","steam_id":76561198090074621,"connected_time":1386000000000,"state":"active","ping":43},{"user_id":150,"name":"The Odyssey Had A Purpose","steam_id":76561198408747483,"connected_time":110000000000,"state":"active","ping":75},{"user_id":117,"name":"Trog!","steam_id":76561198122061323,"connected_time":2488000000000,"state":"active","ping":61},{"user_id":135,"name":"Larry Cañonga","steam_id":76561198081053203,"connected_time":991000000000,"state":"active","ping":126},{"user_id":129,"name":"canakblasteran","steam_id":76561199472518822,"connected_time":1434000000000,"state":"active","ping":100},{"user_id":154,"name":"Theaudacity","steam_id":76561198104001760,"connected_time":68000000000,"state":"active","ping":160},{"user_id":152,"name":"kate-e♡","steam_id":76561198138087644,"connected_time":84000000000,"state":"active","ping":106},{"user_id":153,"name":"Potet","steam_id":76561198167547789,"connected_time":83000000000,"state":"active","ping":68},{"user_id":95,"name":"jeromk611","steam_id":76561198864666859,"connected_time":4378000000000,"state":"active","ping":92},{"user_id":151,"name":"Cobalt-60","steam_id":76561199121908507,"connected_time":107000000000,"state":"active","ping":71},{"user_id":132,"name":"TheoLynwood","steam_id":76561198079596878,"connected_time":1167000000000,"state":"active","ping":75},{"user_id":145,"name":"THOTDADDY","steam_id":76561198069868942,"connected_time":256000000000,"state":"active","ping":62}]},{"server_id":402,"name":"Uncletopia | Chicago | 3 | All Maps","name_short":"chi-3","host":"chi-1.us.uncletopia.com","port":27035,"enabled":true,"region":"us-central","cc":"us","latitude":41.881832,"longitude":-87.62318,"reserved":0,"last_update":"0001-01-01T00:00:00Z","name_a2s":"Uncletopia | Chicago | 3 | All Maps","protocol":17,"map":"koth_cascade","folder":"tf","game":"Team Fortress","app_id":440,"player_count":0,"max_players":24,"Bots":0,"server_type":"Dedicated","server_os":"Linux","password":true,"vac":true,"version":"7961495","steam_id":85568392924515191,"keywords":["cp","nocrits","nodmgspread","uncletopia"],"game_id":440,"stv_port":27036,"stv_name":"Uncletopia | Chicago | 3 | All Maps | STV","players":null},{"server_id":403,"name":"Uncletopia | Chicago | 4 | All Maps","name_short":"chi-4","host":"chi-1.us.uncletopia.com","port":27045,"enabled":true,"region":"us-central","cc":"us","latitude":41.881832,"longitude":-87.62318,"reserved":0,"last_update":"0001-01-01T00:00:00Z","name_a2s":"Uncletopia | Chicago | 4 | All Maps","protocol":17,"map":"pl_snowycoast","folder":"tf","game":"Team Fortress","app_id":440,"player_count":24,"max_players":24,"Bots":0,"server_type":"Dedicated","server_os":"Linux","password":true,"vac":true,"version":"7961495","steam_id":85568392924515193,"keywords":["nocrits","nodmgspread","payload","uncletopia"],"game_id":440,"stv_port":27046,"stv_name":"Uncletopia | Chicago | 4 | All Maps | STV","players":[{"user_id":238,"name":"Jnachopp","steam_id":76561198151746404,"connected_time":584000000000,"state":"active","ping":82},{"user_id":239,"name":"DocValentyne (Dr. Coomer)","steam_id":76561199217303810,"connected_time":571000000000,"state":"active","ping":112},{"user_id":194,"name":"Xavibite","steam_id":76561198209380493,"connected_time":4336000000000,"state":"active","ping":61},{"user_id":250,"name":"C Sharp Minor","steam_id":76561199185191710,"connected_time":164000000000,"state":"active","ping":176},{"user_id":215,"name":"TATTATARATATATARARARARARANANANA","steam_id":76561199496108326,"connected_time":2171000000000,"state":"active","ping":165},{"user_id":251,"name":"ther","steam_id":76561199191376935,"connected_time":76000000000,"state":"active","ping":77},{"user_id":201,"name":"OdysseyTen","steam_id":76561198133082665,"connected_time":3470000000000,"state":"active","ping":125},{"user_id":244,"name":"Severeburrito16","steam_id":76561198353155991,"connected_time":451000000000,"state":"active","ping":68},{"user_id":216,"name":"IsleBound","steam_id":76561198278451717,"connected_time":2157000000000,"state":"active","ping":56},{"user_id":242,"name":"The Potato Romancer","steam_id":76561198204197648,"connected_time":494000000000,"state":"active","ping":99},{"user_id":218,"name":"jello","steam_id":76561199274158922,"connected_time":2146000000000,"state":"active","ping":101},{"user_id":220,"name":"1-800-GHOST-DANCE","steam_id":76561198835430429,"connected_time":2075000000000,"state":"active","ping":90},{"user_id":249,"name":"Octomal800","steam_id":76561199453595616,"connected_time":180000000000,"state":"active","ping":77},{"user_id":222,"name":"mkl","steam_id":76561197986401685,"connected_time":2030000000000,"state":"active","ping":83},{"user_id":231,"name":"Space Lizard","steam_id":76561198056798193,"connected_time":1172000000000,"state":"active","ping":67},{"user_id":211,"name":"pee pee poo poo","steam_id":76561198930017260,"connected_time":2690000000000,"state":"active","ping":55},{"user_id":243,"name":"barry steakfries","steam_id":76561199472218520,"connected_time":491000000000,"state":"active","ping":70},{"user_id":246,"name":"Oopsie Daisy ❋","steam_id":76561198042144492,"connected_time":431000000000,"state":"active","ping":75},{"user_id":247,"name":"Pancakedestroyer","steam_id":76561199188609622,"connected_time":406000000000,"state":"active","ping":73},{"user_id":232,"name":"Sam","steam_id":76561198012364798,"connected_time":1131000000000,"state":"active","ping":54},{"user_id":202,"name":"ThatGamingKiwi","steam_id":76561199170522237,"connected_time":3439000000000,"state":"active","ping":82},{"user_id":234,"name":"Macandchess","steam_id":76561198255783176,"connected_time":714000000000,"state":"active","ping":73},{"user_id":227,"name":"Smartchicken","steam_id":76561198037744517,"connected_time":1897000000000,"state":"active","ping":65},{"user_id":237,"name":"losing","steam_id":76561198003206947,"connected_time":626000000000,"state":"active","ping":65}]},{"server_id":36,"name":"Uncletopia | Chicago | 5 | All Maps","name_short":"chi-5","host":"chi-2.us.uncletopia.com","port":27015,"enabled":true,"region":"us-central","cc":"us","latitude":41.881832,"longitude":-87.62318,"reserved":0,"last_update":"0001-01-01T00:00:00Z","name_a2s":"Uncletopia | Chicago | 5 | All Maps","protocol":17,"map":"cp_altitude","folder":"tf","game":"Team Fortress","app_id":440,"player_count":0,"max_players":24,"Bots":0,"server_type":"Dedicated","server_os":"Linux","password":true,"vac":true,"version":"7961495","steam_id":85568392924866362,"keywords":["cp","nocrits","nodmgspread","uncletopia"],"game_id":440,"stv_port":27016,"stv_name":"Uncletopia | Chicago | 5 | All Maps | STV","players":null},{"server_id":37,"name":"Uncletopia | Chicago | 6 | All Maps","name_short":"chi-6","host":"chi-2.us.uncletopia.com","port":27025,"enabled":true,"region":"us-central","cc":"us","latitude":41.881832,"longitude":-87.62318,"reserved":0,"last_update":"0001-01-01T00:00:00Z","name_a2s":"Uncletopia | Chicago | 6 | All Maps","protocol":17,"map":"cp_gorge","folder":"tf","game":"Team Fortress","app_id":440,"player_count":24,"max_players":24,"Bots":0,"server_type":"Dedicated","server_os":"Linux","password":true,"vac":true,"version":"7961495","steam_id":85568392924866363,"keywords":["cp","nocrits","nodmgspread","uncletopia"],"game_id":440,"stv_port":27026,"stv_name":"Uncletopia | Chicago | 6 | All Maps | STV","players":[{"user_id":324,"name":"BOTH | Kiso","steam_id":76561198141026844,"connected_time":1469000000000,"state":"active","ping":132},{"user_id":321,"name":"Toxic-Fluid","steam_id":76561198115530353,"connected_time":1676000000000,"state":"active","ping":61},{"user_id":328,"name":"BOTH | BERSERKER","steam_id":76561198303464488,"connected_time":1127000000000,"state":"active","ping":60},{"user_id":316,"name":"Jango","steam_id":76561198084589742,"connected_time":2232000000000,"state":"active","ping":75},{"user_id":322,"name":"bleach65","steam_id":76561198115270571,"connected_time":1652000000000,"state":"active","ping":80},{"user_id":341,"name":"battle clown","steam_id":76561198045788371,"connected_time":58000000000,"state":"active","ping":69},{"user_id":340,"name":"bogus","steam_id":76561198377555279,"connected_time":81000000000,"state":"active","ping":78},{"user_id":323,"name":"SenTreats","steam_id":76561198085835841,"connected_time":1633000000000,"state":"active","ping":111},{"user_id":309,"name":"Pinky","steam_id":76561199019483777,"connected_time":2966000000000,"state":"active","ping":84},{"user_id":313,"name":"Drachma","steam_id":76561198007310514,"connected_time":2511000000000,"state":"active","ping":66},{"user_id":342,"name":"cheddar baked ruffles","steam_id":76561198799404824,"connected_time":47000000000,"state":"active","ping":73},{"user_id":343,"name":"Smoky Haus","steam_id":76561199040586542,"connected_time":42000000000,"state":"active","ping":63},{"user_id":317,"name":"your local dipshit","steam_id":76561198291984726,"connected_time":2225000000000,"state":"active","ping":103},{"user_id":344,"name":"Mariachi Samurai","steam_id":76561198083535106,"connected_time":37000000000,"state":"spawning","ping":93},{"user_id":306,"name":"Entar","steam_id":76561197968661166,"connected_time":3007000000000,"state":"active","ping":58},{"user_id":318,"name":"zoinks","steam_id":76561198127238003,"connected_time":2179000000000,"state":"active","ping":90},{"user_id":332,"name":"catnip","steam_id":76561198000831161,"connected_time":881000000000,"state":"active","ping":71},{"user_id":302,"name":"Docthenotable","steam_id":76561199389114520,"connected_time":3617000000000,"state":"active","ping":63},{"user_id":308,"name":"The World's Softest Sandwich","steam_id":76561198015577707,"connected_time":2996000000000,"state":"active","ping":82},{"user_id":334,"name":"chickenenthusiast427","steam_id":76561198909415646,"connected_time":694000000000,"state":"active","ping":80},{"user_id":271,"name":"Lennu","steam_id":76561198060730154,"connected_time":6224000000000,"state":"active","ping":70},{"user_id":336,"name":"BOTH | Sunshine","steam_id":76561198885528098,"connected_time":471000000000,"state":"active","ping":71},{"user_id":339,"name":"Rummy the Blargh-gineer","steam_id":76561197997192800,"connected_time":97000000000,"state":"active","ping":84},{"user_id":338,"name":"PBxJAY","steam_id":76561198402471788,"connected_time":168000000000,"state":"active","ping":108}]},{"server_id":38,"name":"Uncletopia | Chicago | 7 | Stopwatch","name_short":"chi-7","host":"chi-2.us.uncletopia.com","port":27035,"enabled":true,"region":"us-central","cc":"us","latitude":41.881832,"longitude":-87.62318,"reserved":0,"last_update":"0001-01-01T00:00:00Z","name_a2s":"Uncletopia | Chicago | 7 | Stopwatch","protocol":17,"map":"cp_granary","folder":"tf","game":"Team Fortress","app_id":440,"player_count":0,"max_players":24,"Bots":0,"server_type":"Dedicated","server_os":"Linux","password":true,"vac":true,"version":"7961495","steam_id":85568392924866364,"keywords":["cp","nocrits","nodmgspread","uncletopia"],"game_id":440,"stv_port":27036,"stv_name":"Uncletopia | Chicago | 7 | Stopwatch | STV","players":null},{"server_id":39,"name":"Uncletopia | Chicago | 8 | Community","name_short":"chi-8","host":"chi-2.us.uncletopia.com","port":27045,"enabled":true,"region":"us-central","cc":"us","latitude":41.881832,"longitude":-87.62318,"reserved":0,"last_update":"0001-01-01T00:00:00Z","name_a2s":"Uncletopia | Chicago | 8 | Community","protocol":17,"map":"workshop/cp_caldera_rc3.ugc2834196889","folder":"tf","game":"Team Fortress","app_id":440,"player_count":0,"max_players":24,"Bots":0,"server_type":"Dedicated","server_os":"Linux","password":true,"vac":true,"version":"7961495","steam_id":85568392924866365,"keywords":["cp","nocrits","nodmgspread","uncletopia"],"game_id":440,"stv_port":27046,"stv_name":"Uncletopia | Chicago | 8 | Community | STV","players":null},{"server_id":8,"name":"Uncletopia | Dallas | 1 | All Maps","name_short":"dal-1","host":"dal-1.us.uncletopia.com","port":27015,"enabled":true,"region":"us-central","cc":"us","latitude":32.779167,"longitude":-96.80889,"reserved":0,"last_update":"0001-01-01T00:00:00Z","name_a2s":"Uncletopia | Dallas | 1 | All Maps","protocol":17,"map":"koth_highpass","folder":"tf","game":"Team Fortress","app_id":440,"player_count":0,"max_players":24,"Bots":0,"server_type":"Dedicated","server_os":"Linux","password":true,"vac":true,"version":"7961495","steam_id":85568392924469986,"keywords":["cp","nocrits","nodmgspread","uncletopia"],"game_id":440,"stv_port":27016,"stv_name":"Uncletopia | Dallas | 1 | All Maps | STV","players":null},{"server_id":108,"name":"Uncletopia | Dallas | 2 | All Maps","name_short":"dal-2","host":"dal-1.us.uncletopia.com","port":27025,"enabled":true,"region":"us-central","cc":"us","latitude":32.779167,"longitude":-96.80889,"reserved":0,"last_update":"0001-01-01T00:00:00Z","name_a2s":"Uncletopia | Dallas | 2 | All Maps","protocol":17,"map":"pl_upward","folder":"tf","game":"Team Fortress","app_id":440,"player_count":24,"max_players":24,"Bots":0,"server_type":"Dedicated","server_os":"Linux","password":true,"vac":true,"version":"7961495","steam_id":85568392924469988,"keywords":["nocrits","nodmgspread","payload","uncletopia"],"game_id":440,"stv_port":27026,"stv_name":"Uncletopia | Dallas | 2 | All Maps | STV","players":[{"user_id":14,"name":"Wooperisboss","steam_id":76561199386100211,"connected_time":3803000000000,"state":"active","ping":97},{"user_id":12,"name":"ttv/daws__","steam_id":76561198283322034,"connected_time":3823000000000,"state":"active","ping":83},{"user_id":45,"name":"uncletopia dallas 2 player","steam_id":76561198412786186,"connected_time":2286000000000,"state":"active","ping":48},{"user_id":67,"name":"pyroclastic flow","steam_id":76561198095121758,"connected_time":772000000000,"state":"active","ping":94},{"user_id":16,"name":"SmorzGamez","steam_id":76561199165493751,"connected_time":3785000000000,"state":"active","ping":95},{"user_id":17,"name":"Baconator","steam_id":76561198941700660,"connected_time":3774000000000,"state":"active","ping":105},{"user_id":18,"name":"FreddysFoods","steam_id":76561199387245099,"connected_time":3758000000000,"state":"active","ping":84},{"user_id":65,"name":"An00bis","steam_id":76561198044084508,"connected_time":834000000000,"state":"active","ping":74},{"user_id":20,"name":"Kuyumiester","steam_id":76561198126835302,"connected_time":3714000000000,"state":"active","ping":62},{"user_id":72,"name":"30-50 feral hogs","steam_id":76561198073587145,"connected_time":32000000000,"state":"active","ping":85},{"user_id":22,"name":"lil_blu_elephant","steam_id":76561198272955552,"connected_time":3642000000000,"state":"active","ping":123},{"user_id":57,"name":"elcarlos1010","steam_id":76561198201986832,"connected_time":1214000000000,"state":"active","ping":58},{"user_id":24,"name":"Aztea","steam_id":76561198982089893,"connected_time":3424000000000,"state":"active","ping":79},{"user_id":41,"name":"Speedy","steam_id":76561198873086850,"connected_time":2818000000000,"state":"active","ping":93},{"user_id":63,"name":"BatMatt","steam_id":76561198045910433,"connected_time":958000000000,"state":"active","ping":57},{"user_id":66,"name":"Sleepy","steam_id":76561198978688451,"connected_time":824000000000,"state":"active","ping":76},{"user_id":62,"name":"K.O. Stradivarius","steam_id":76561198974913245,"connected_time":1028000000000,"state":"active","ping":92},{"user_id":64,"name":"ParchedPigeon9","steam_id":76561198257204226,"connected_time":861000000000,"state":"active","ping":52},{"user_id":49,"name":"✧.*Remzy✧.*","steam_id":76561199239412094,"connected_time":1987000000000,"state":"active","ping":163},{"user_id":38,"name":"Your Local Jester","steam_id":76561199120223717,"connected_time":3023000000000,"state":"active","ping":80},{"user_id":52,"name":"Magitrex","steam_id":76561199088811754,"connected_time":1790000000000,"state":"active","ping":56},{"user_id":68,"name":"Ichibanprofen","steam_id":76561199192132061,"connected_time":614000000000,"state":"active","ping":77},{"user_id":48,"name":"jdm","steam_id":76561199497603020,"connected_time":2186000000000,"state":"active","ping":85},{"user_id":71,"name":"locked cathode tube","steam_id":76561198085044565,"connected_time":566000000000,"state":"active","ping":90}]},{"server_id":404,"name":"Uncletopia | Dallas | 3 | All Maps","name_short":"dal-3","host":"dal-1.us.uncletopia.com","port":27035,"enabled":true,"region":"us-central","cc":"us","latitude":32.779167,"longitude":-96.80889,"reserved":0,"last_update":"0001-01-01T00:00:00Z","name_a2s":"Uncletopia | Dallas | 3 | All Maps","protocol":17,"map":"koth_viaduct","folder":"tf","game":"Team Fortress","app_id":440,"player_count":0,"max_players":24,"Bots":0,"server_type":"Dedicated","server_os":"Linux","password":true,"vac":true,"version":"7961495","steam_id":85568392924515219,"keywords":["cp","nocrits","nodmgspread","uncletopia"],"game_id":440,"stv_port":27036,"stv_name":"Uncletopia | Dallas | 3 | All Maps | STV","players":null},{"server_id":405,"name":"Uncletopia | Dallas | 4 | Community","name_short":"dal-4","host":"dal-1.us.uncletopia.com","port":27045,"enabled":true,"region":"us-central","cc":"us","latitude":32.779167,"longitude":-96.80889,"reserved":0,"last_update":"0001-01-01T00:00:00Z","name_a2s":"Uncletopia | Dallas | 4 | Community","protocol":17,"map":"workshop/cp_croissant_final.ugc458840209","folder":"tf","game":"Team Fortress","app_id":440,"player_count":0,"max_players":24,"Bots":0,"server_type":"Dedicated","server_os":"Linux","password":true,"vac":true,"version":"7961495","steam_id":85568392924515220,"keywords":["cp","nocrits","nodmgspread","uncletopia"],"game_id":440,"stv_port":27046,"stv_name":"Uncletopia | Dallas | 4 | Community | STV","players":null},{"server_id":5,"name":"Uncletopia | Frankfurt | 1 | All Maps","name_short":"frk-1","host":"frk-1.de.uncletopia.com","port":27015,"enabled":true,"region":"eu","cc":"de","latitude":50.110924,"longitude":8.682127,"reserved":0,"last_update":"0001-01-01T00:00:00Z","name_a2s":"Uncletopia | Frankfurt | 1 | All Maps","protocol":17,"map":"pl_borneo","folder":"tf","game":"Team Fortress","app_id":440,"player_count":24,"max_players":24,"Bots":0,"server_type":"Dedicated","server_os":"Linux","password":true,"vac":true,"version":"7961495","steam_id":85568392924469989,"keywords":["nocrits","nodmgspread","payload","uncletopia"],"game_id":440,"stv_port":27016,"stv_name":"Uncletopia | Frankfurt | 1 | All Maps | STV","players":[{"user_id":557,"name":"cheriberry","steam_id":76561198093577036,"connected_time":851000000000,"state":"active","ping":56},{"user_id":559,"name":"MateuszRTS","steam_id":76561198014491925,"connected_time":758000000000,"state":"active","ping":77},{"user_id":552,"name":"Proper Noun","steam_id":76561198055264269,"connected_time":1416000000000,"state":"active","ping":77},{"user_id":507,"name":"jeff","steam_id":76561198272815746,"connected_time":4331000000000,"state":"active","ping":52},{"user_id":566,"name":"えななん","steam_id":76561199427679148,"connected_time":59000000000,"state":"active","ping":60},{"user_id":561,"name":"Enderman6","steam_id":76561198439747202,"connected_time":647000000000,"state":"active","ping":130},{"user_id":549,"name":"MR BUBBLES","steam_id":76561198019005259,"connected_time":1531000000000,"state":"active","ping":100},{"user_id":531,"name":"david zaydullin (Charles McGill","steam_id":76561198965191846,"connected_time":2693000000000,"state":"active","ping":78},{"user_id":476,"name":"Hollownick","steam_id":76561198449261973,"connected_time":5920000000000,"state":"active","ping":69},{"user_id":537,"name":"chewBAKA","steam_id":76561198278889109,"connected_time":1948000000000,"state":"active","ping":47},{"user_id":539,"name":"r06u3","steam_id":76561198254099253,"connected_time":1925000000000,"state":"active","ping":168},{"user_id":528,"name":"antihuman","steam_id":76561198116027948,"connected_time":3030000000000,"state":"active","ping":77},{"user_id":563,"name":"Mr Muffin","steam_id":76561198091713066,"connected_time":464000000000,"state":"active","ping":63},{"user_id":544,"name":"Gravel Mercenary","steam_id":76561199019412162,"connected_time":1765000000000,"state":"active","ping":63},{"user_id":565,"name":"Godjan","steam_id":76561198077554447,"connected_time":160000000000,"state":"active","ping":136},{"user_id":567,"name":"Noodle","steam_id":76561198306486695,"connected_time":5000000000,"state":"spawning","ping":36},{"user_id":551,"name":"S@wKa","steam_id":76561198200160028,"connected_time":1497000000000,"state":"active","ping":73},{"user_id":540,"name":"zzz","steam_id":76561199167288279,"connected_time":1916000000000,"state":"active","ping":76},{"user_id":501,"name":"DarkMelody","steam_id":76561198063225937,"connected_time":4714000000000,"state":"active","ping":115},{"user_id":560,"name":"Mega Man Legends 3","steam_id":76561198014110199,"connected_time":698000000000,"state":"active","ping":57},{"user_id":553,"name":"keygenhannah","steam_id":76561198334730750,"connected_time":1396000000000,"state":"active","ping":139},{"user_id":538,"name":"jmp","steam_id":76561198168283286,"connected_time":1939000000000,"state":"active","ping":61},{"user_id":555,"name":"Carl","steam_id":76561198045638738,"connected_time":1258000000000,"state":"active","ping":76},{"user_id":554,"name":"Bojangles Hoseman","steam_id":76561198425974325,"connected_time":1348000000000,"state":"active","ping":66}]},{"server_id":110,"name":"Uncletopia | Frankfurt | 2 | All Maps","name_short":"frk-2","host":"frk-1.de.uncletopia.com","port":27025,"enabled":true,"region":"eu","cc":"de","latitude":50.110924,"longitude":8.682127,"reserved":0,"last_update":"0001-01-01T00:00:00Z","name_a2s":"Uncletopia | Frankfurt | 2 | All Maps","protocol":17,"map":"koth_king","folder":"tf","game":"Team Fortress","app_id":440,"player_count":24,"max_players":24,"Bots":0,"server_type":"Dedicated","server_os":"Linux","password":true,"vac":true,"version":"7961495","steam_id":85568392924469990,"keywords":["cp","nocrits","nodmgspread","uncletopia"],"game_id":440,"stv_port":27026,"stv_name":"Uncletopia | Frankfurt | 2 | All Maps | STV","players":[{"user_id":435,"name":"free game","steam_id":76561198884788980,"connected_time":2631000000000,"state":"active","ping":95},{"user_id":439,"name":"★poyo★","steam_id":76561198150078959,"connected_time":2562000000000,"state":"active","ping":67},{"user_id":440,"name":"men snus","steam_id":76561198311864757,"connected_time":2531000000000,"state":"active","ping":72},{"user_id":453,"name":"Mr. Mundy","steam_id":76561198132008918,"connected_time":1698000000000,"state":"active","ping":79},{"user_id":448,"name":"Nick","steam_id":76561198036109469,"connected_time":2158000000000,"state":"active","ping":90},{"user_id":473,"name":"Poodle","steam_id":76561198015483504,"connected_time":277000000000,"state":"active","ping":81},{"user_id":411,"name":"0","steam_id":76561199293036742,"connected_time":4423000000000,"state":"active","ping":51},{"user_id":450,"name":"PENGUN","steam_id":76561199015156956,"connected_time":1779000000000,"state":"active","ping":101},{"user_id":464,"name":"Rock..","steam_id":76561198004641963,"connected_time":1090000000000,"state":"active","ping":76},{"user_id":419,"name":"ber.","steam_id":76561197993892057,"connected_time":4040000000000,"state":"active","ping":90},{"user_id":449,"name":"housing crisis#savetf2","steam_id":76561198119984382,"connected_time":2033000000000,"state":"active","ping":56},{"user_id":467,"name":"Michael","steam_id":76561198003146906,"connected_time":643000000000,"state":"active","ping":60},{"user_id":351,"name":"Edsuedi","steam_id":76561198074722832,"connected_time":9297000000000,"state":"active","ping":57},{"user_id":472,"name":"Warrior555MainsGanon","steam_id":76561198388627786,"connected_time":313000000000,"state":"active","ping":62},{"user_id":452,"name":"Bobirulez","steam_id":76561198009125458,"connected_time":1755000000000,"state":"active","ping":60},{"user_id":466,"name":"The legendery balls","steam_id":76561199139344747,"connected_time":1035000000000,"state":"active","ping":98},{"user_id":445,"name":"Shlyk","steam_id":76561198333387103,"connected_time":2409000000000,"state":"active","ping":98},{"user_id":392,"name":"sareena","steam_id":76561198810194062,"connected_time":6187000000000,"state":"active","ping":76},{"user_id":462,"name":"Excessive Clownery","steam_id":76561198130404188,"connected_time":1191000000000,"state":"active","ping":60},{"user_id":474,"name":"misterwondo","steam_id":76561198187934110,"connected_time":183000000000,"state":"active","ping":63},{"user_id":394,"name":"Javier dorsaless","steam_id":76561198179324075,"connected_time":6156000000000,"state":"active","ping":71},{"user_id":469,"name":"Kw3nk","steam_id":76561198101332116,"connected_time":540000000000,"state":"active","ping":48},{"user_id":460,"name":"Doruk Küçükduman","steam_id":76561198399815628,"connected_time":1317000000000,"state":"active","ping":87},{"user_id":475,"name":"Mayor Wank from Wanker Town","steam_id":76561197998253588,"connected_time":177000000000,"state":"active","ping":45}]},{"server_id":308,"name":"Uncletopia | Frankfurt | 3 | All Maps","name_short":"frk-3","host":"frk-1.de.uncletopia.com","port":27035,"enabled":true,"region":"eu","cc":"de","latitude":50.110924,"longitude":8.682127,"reserved":0,"last_update":"0001-01-01T00:00:00Z","name_a2s":"Uncletopia | Frankfurt | 3 | All Maps","protocol":17,"map":"pl_snowycoast","folder":"tf","game":"Team Fortress","app_id":440,"player_count":24,"max_players":24,"Bots":0,"server_type":"Dedicated","server_os":"Linux","password":true,"vac":true,"version":"7961495","steam_id":85568392924504274,"keywords":["nocrits","nodmgspread","payload","uncletopia"],"game_id":440,"stv_port":27036,"stv_name":"Uncletopia | Frankfurt | 3 | All Maps | STV","players":[{"user_id":244,"name":"Waluigi","steam_id":76561199070474380,"connected_time":983000000000,"state":"active","ping":84},{"user_id":259,"name":"quesoengineer","steam_id":76561199371985209,"connected_time":13000000000,"state":"active","ping":201},{"user_id":221,"name":"Pabs :D","steam_id":76561198000016962,"connected_time":2418000000000,"state":"active","ping":59},{"user_id":236,"name":"Soerlssoelssöen","steam_id":76561197993060585,"connected_time":1635000000000,"state":"active","ping":69},{"user_id":213,"name":"Zulik92","steam_id":76561198152442373,"connected_time":3204000000000,"state":"active","ping":55},{"user_id":225,"name":"Blar","steam_id":76561198042438229,"connected_time":2296000000000,"state":"active","ping":106},{"user_id":238,"name":"L.Ron Hoyabembe","steam_id":76561198009887251,"connected_time":1250000000000,"state":"active","ping":74},{"user_id":249,"name":"Tzogi","steam_id":76561198026713260,"connected_time":821000000000,"state":"active","ping":55},{"user_id":256,"name":"tallen","steam_id":76561198061708595,"connected_time":106000000000,"state":"active","ping":81},{"user_id":257,"name":"Xenavemanciehinanez","steam_id":76561199162995117,"connected_time":84000000000,"state":"active","ping":105},{"user_id":242,"name":"btw I use Gentoo","steam_id":76561198208463645,"connected_time":1160000000000,"state":"active","ping":105},{"user_id":255,"name":"Hamst123","steam_id":76561198957312452,"connected_time":337000000000,"state":"active","ping":45},{"user_id":245,"name":"Storm's Foreshadow","steam_id":76561198098462526,"connected_time":931000000000,"state":"active","ping":64},{"user_id":220,"name":"Windows Vista Cruiser","steam_id":76561198064102233,"connected_time":2540000000000,"state":"active","ping":51},{"user_id":207,"name":"laker brady","steam_id":76561198890409949,"connected_time":3404000000000,"state":"active","ping":90},{"user_id":246,"name":"abra-kablam","steam_id":76561198195857751,"connected_time":916000000000,"state":"active","ping":70},{"user_id":223,"name":"тукку ирма","steam_id":76561197998715016,"connected_time":2408000000000,"state":"active","ping":60},{"user_id":247,"name":"oGod","steam_id":76561198971536843,"connected_time":869000000000,"state":"active","ping":71},{"user_id":248,"name":"w","steam_id":76561198037136870,"connected_time":862000000000,"state":"active","ping":71},{"user_id":227,"name":"wheelie bin","steam_id":76561198040040328,"connected_time":2212000000000,"state":"active","ping":60},{"user_id":254,"name":"Nymph","steam_id":76561198042801329,"connected_time":393000000000,"state":"active","ping":54},{"user_id":253,"name":"Warboss Gaming","steam_id":76561198122388262,"connected_time":434000000000,"state":"active","ping":80},{"user_id":258,"name":"LOBZIK","steam_id":76561198114830120,"connected_time":40000000000,"state":"active","ping":81},{"user_id":241,"name":"papa Sloath","steam_id":76561198046382160,"connected_time":1197000000000,"state":"active","ping":62}]},{"server_id":309,"name":"Uncletopia | Frankfurt | 4 | All Maps","name_short":"frk-4","host":"frk-1.de.uncletopia.com","port":27045,"enabled":true,"region":"eu","cc":"de","latitude":50.110924,"longitude":8.682127,"reserved":0,"last_update":"0001-01-01T00:00:00Z","name_a2s":"Uncletopia | Frankfurt | 4 | All Maps","protocol":17,"map":"pl_borneo","folder":"tf","game":"Team Fortress","app_id":440,"player_count":23,"max_players":24,"Bots":0,"server_type":"Dedicated","server_os":"Linux","password":true,"vac":true,"version":"7961495","steam_id":85568392924504275,"keywords":["nocrits","nodmgspread","payload","uncletopia"],"game_id":440,"stv_port":27046,"stv_name":"Uncletopia | Frankfurt | 4 | All Maps | STV","players":[{"user_id":271,"name":"Zoro (Hun)","steam_id":76561199367182571,"connected_time":2822000000000,"state":"active","ping":58},{"user_id":272,"name":"Hyperwizard of Space Conquest","steam_id":76561198953210459,"connected_time":2405000000000,"state":"active","ping":87},{"user_id":319,"name":"pepsimus_maximus (pepsi/max)","steam_id":76561198062425104,"connected_time":564000000000,"state":"active","ping":78},{"user_id":305,"name":"=OKB= P4NTH3R","steam_id":76561197999204603,"connected_time":938000000000,"state":"active","ping":62},{"user_id":264,"name":"krafno-lomac2006","steam_id":76561198808332971,"connected_time":4872000000000,"state":"active","ping":60},{"user_id":322,"name":"Oddpoint","steam_id":76561198068283117,"connected_time":314000000000,"state":"active","ping":96},{"user_id":285,"name":"Out of Touch","steam_id":76561199175959277,"connected_time":1622000000000,"state":"active","ping":107},{"user_id":309,"name":"gio123wgio","steam_id":76561199114382953,"connected_time":722000000000,"state":"active","ping":92},{"user_id":308,"name":"Koli","steam_id":76561197992428783,"connected_time":782000000000,"state":"active","ping":59},{"user_id":288,"name":"Par9000","steam_id":76561198210682553,"connected_time":1468000000000,"state":"active","ping":90},{"user_id":290,"name":"Ink in veins","steam_id":76561199082262091,"connected_time":1344000000000,"state":"active","ping":68},{"user_id":291,"name":"SirVitek","steam_id":76561198142961758,"connected_time":1326000000000,"state":"active","ping":62},{"user_id":325,"name":"joebot","steam_id":76561197975606100,"connected_time":132000000000,"state":"active","ping":142},{"user_id":310,"name":"Josh","steam_id":76561198274546904,"connected_time":692000000000,"state":"active","ping":139},{"user_id":294,"name":"Rocket.Blade","steam_id":76561198063104145,"connected_time":1291000000000,"state":"active","ping":56},{"user_id":314,"name":"Ultra-Mage of Doom","steam_id":76561199071478345,"connected_time":641000000000,"state":"active","ping":63},{"user_id":312,"name":"hubert's mistake","steam_id":76561198057722639,"connected_time":671000000000,"state":"active","ping":64},{"user_id":324,"name":"install gentoo","steam_id":76561198185257982,"connected_time":185000000000,"state":"active","ping":79},{"user_id":315,"name":"Veemo","steam_id":76561198180932842,"connected_time":638000000000,"state":"active","ping":63},{"user_id":300,"name":"baconeggncheez","steam_id":76561198049312442,"connected_time":1183000000000,"state":"active","ping":62},{"user_id":316,"name":"Garoseth","steam_id":76561197961387454,"connected_time":629000000000,"state":"active","ping":60},{"user_id":317,"name":"Kamanie","steam_id":76561198135448255,"connected_time":622000000000,"state":"active","ping":54},{"user_id":321,"name":"☁ Lou1smeister ☁","steam_id":76561198004032968,"connected_time":394000000000,"state":"active","ping":75}]},{"server_id":310,"name":"Uncletopia | Frankfurt | 5 | All Maps","name_short":"frk-5","host":"frk-1.de.uncletopia.com","port":27055,"enabled":true,"region":"eu","cc":"de","latitude":50.110924,"longitude":8.682127,"reserved":0,"last_update":"0001-01-01T00:00:00Z","name_a2s":"Uncletopia | Frankfurt | 5 | All Maps","protocol":17,"map":"cp_dustbowl","folder":"tf","game":"Team Fortress","app_id":440,"player_count":24,"max_players":24,"Bots":0,"server_type":"Dedicated","server_os":"Linux","password":true,"vac":true,"version":"7961495","steam_id":85568392924504277,"keywords":["cp","nocrits","nodmgspread","uncletopia"],"game_id":440,"stv_port":27056,"stv_name":"Uncletopia | Frankfurt | 5 | All Maps | STV","players":[{"user_id":481,"name":"Shogg","steam_id":76561198056382237,"connected_time":2399000000000,"state":"active","ping":71},{"user_id":509,"name":"HopeDaGamer","steam_id":76561199487262348,"connected_time":293000000000,"state":"active","ping":101},{"user_id":372,"name":"Dr Birb","steam_id":76561198133765958,"connected_time":7481000000000,"state":"active","ping":57},{"user_id":491,"name":"Cepakas","steam_id":76561198878369698,"connected_time":1480000000000,"state":"active","ping":83},{"user_id":513,"name":"Pumpnik","steam_id":76561199083796274,"connected_time":213000000000,"state":"active","ping":73},{"user_id":486,"name":"Maya #transrights","steam_id":76561198290614621,"connected_time":1927000000000,"state":"active","ping":70},{"user_id":517,"name":"BOLAXA","steam_id":76561198228406008,"connected_time":64000000000,"state":"active","ping":80},{"user_id":515,"name":"Johnson","steam_id":76561199382978934,"connected_time":174000000000,"state":"active","ping":89},{"user_id":506,"name":"Vlad","steam_id":76561198048605526,"connected_time":646000000000,"state":"active","ping":87},{"user_id":454,"name":"tombouctou","steam_id":76561198065132197,"connected_time":2922000000000,"state":"active","ping":113},{"user_id":464,"name":"Carry Krypl","steam_id":76561198136938121,"connected_time":2699000000000,"state":"active","ping":59},{"user_id":507,"name":"emkoç","steam_id":76561198846782346,"connected_time":646000000000,"state":"active","ping":112},{"user_id":490,"name":"Absolute_clamp","steam_id":76561198958563865,"connected_time":1840000000000,"state":"active","ping":47},{"user_id":483,"name":"Benito Mussolini","steam_id":76561198362801147,"connected_time":2112000000000,"state":"active","ping":88},{"user_id":516,"name":"fernandobmwm355555","steam_id":76561198086609447,"connected_time":146000000000,"state":"active","ping":48},{"user_id":518,"name":"Katnor","steam_id":76561199141290973,"connected_time":20000000000,"state":"spawning","ping":72},{"user_id":511,"name":"bottomest g","steam_id":76561198138928548,"connected_time":262000000000,"state":"active","ping":59},{"user_id":449,"name":"yush","steam_id":76561198121688934,"connected_time":3458000000000,"state":"active","ping":73},{"user_id":472,"name":"hoho","steam_id":76561198237378014,"connected_time":2600000000000,"state":"active","ping":72},{"user_id":484,"name":"Recheio","steam_id":76561198058673837,"connected_time":2100000000000,"state":"active","ping":81},{"user_id":494,"name":"DepressedGuy","steam_id":76561199468429686,"connected_time":1362000000000,"state":"active","ping":246},{"user_id":504,"name":"please do not the cat","steam_id":76561198089003514,"connected_time":1031000000000,"state":"active","ping":44},{"user_id":512,"name":"specimen","steam_id":76561199008480793,"connected_time":245000000000,"state":"active","ping":54},{"user_id":514,"name":"Frostlight","steam_id":76561198016360449,"connected_time":212000000000,"state":"active","ping":77}]},{"server_id":311,"name":"Uncletopia | Frankfurt | 6 | All Maps","name_short":"frk-6","host":"frk-1.de.uncletopia.com","port":27065,"enabled":true,"region":"eu","cc":"de","latitude":50.110924,"longitude":8.682127,"reserved":0,"last_update":"0001-01-01T00:00:00Z","name_a2s":"Uncletopia | Frankfurt | 6 | All Maps","protocol":17,"map":"ctf_turbine","folder":"tf","game":"Team Fortress","app_id":440,"player_count":18,"max_players":24,"Bots":0,"server_type":"Dedicated","server_os":"Linux","password":true,"vac":true,"version":"7961495","steam_id":85568392924504278,"keywords":["ctf","nocrits","nodmgspread","uncletopia"],"game_id":440,"stv_port":27066,"stv_name":"Uncletopia | Frankfurt | 6 | All Maps | STV","players":[{"user_id":328,"name":"Rejdory","steam_id":76561198416604100,"connected_time":23000000000,"state":"active","ping":63},{"user_id":304,"name":"Delere","steam_id":76561198061309755,"connected_time":1180000000000,"state":"active","ping":124},{"user_id":288,"name":"Random Bagel","steam_id":76561198047213821,"connected_time":2771000000000,"state":"active","ping":68},{"user_id":295,"name":"Echo","steam_id":76561199165491231,"connected_time":2165000000000,"state":"active","ping":159},{"user_id":326,"name":"yeldad","steam_id":76561198447264153,"connected_time":74000000000,"state":"active","ping":142},{"user_id":318,"name":"Elkman Steve Returns","steam_id":76561198861519418,"connected_time":302000000000,"state":"active","ping":83},{"user_id":249,"name":"pavel_mkd","steam_id":76561199088118112,"connected_time":4994000000000,"state":"active","ping":86},{"user_id":315,"name":"Deez nuts","steam_id":76561199429562693,"connected_time":376000000000,"state":"active","ping":77},{"user_id":281,"name":"BurningJoke","steam_id":76561199014358707,"connected_time":2992000000000,"state":"active","ping":46},{"user_id":247,"name":"Gabeyboy321","steam_id":76561199379213615,"connected_time":5035000000000,"state":"active","ping":182},{"user_id":312,"name":"HI (:","steam_id":76561199491364015,"connected_time":514000000000,"state":"active","ping":55},{"user_id":313,"name":"tslayer","steam_id":76561199166156147,"connected_time":449000000000,"state":"active","ping":45},{"user_id":316,"name":"donatofina","steam_id":76561198353497885,"connected_time":354000000000,"state":"active","ping":95},{"user_id":320,"name":"Purrplehaze","steam_id":76561198297604298,"connected_time":224000000000,"state":"active","ping":60},{"user_id":323,"name":"Zaka","steam_id":76561198148434957,"connected_time":142000000000,"state":"active","ping":64},{"user_id":324,"name":"TheNop","steam_id":76561199012520290,"connected_time":141000000000,"state":"active","ping":153},{"user_id":329,"name":"FIRST TF2 GAME","steam_id":76561198112587264,"connected_time":3000000000,"state":"spawning","ping":44},{"user_id":327,"name":"pyrofightermag","steam_id":76561198089228732,"connected_time":69000000000,"state":"active","ping":59}]},{"server_id":23,"name":"Uncletopia | Frankfurt | 7 | Stopwatch","name_short":"frk-7","host":"frk-1.de.uncletopia.com","port":27075,"enabled":true,"region":"eu","cc":"de","latitude":50.110924,"longitude":8.682127,"reserved":0,"last_update":"0001-01-01T00:00:00Z","name_a2s":"Uncletopia | Frankfurt | 7 | Stopwatch","protocol":17,"map":"workshop/koth_ashville_final.ugc2130459942","folder":"tf","game":"Team Fortress","app_id":440,"player_count":0,"max_players":24,"Bots":0,"server_type":"Dedicated","server_os":"Linux","password":true,"vac":true,"version":"7961495","steam_id":85568392924742827,"keywords":["cp","nocrits","nodmgspread","uncletopia"],"game_id":440,"stv_port":27076,"stv_name":"Uncletopia | Frankfurt | 7 | Stopwatch | STV","players":null},{"server_id":24,"name":"Uncletopia | Frankfurt | 8 | Community","name_short":"frk-8","host":"frk-1.de.uncletopia.com","port":27085,"enabled":true,"region":"eu","cc":"de","latitude":50.110924,"longitude":8.682127,"reserved":0,"last_update":"0001-01-01T00:00:00Z","name_a2s":"Uncletopia | Frankfurt | 8 | Community","protocol":17,"map":"workshop/cp_glassworks_rc7a.ugc454118349","folder":"tf","game":"Team Fortress","app_id":440,"player_count":0,"max_players":24,"Bots":0,"server_type":"Dedicated","server_os":"Linux","password":true,"vac":true,"version":"7961495","steam_id":85568392924742828,"keywords":["cp","nocrits","nodmgspread","uncletopia"],"game_id":440,"stv_port":27086,"stv_name":"Uncletopia | Frankfurt | 8 | Community | STV","players":null},{"server_id":202,"name":"Uncletopia | Hong Kong | 1 | All Maps","name_short":"hgk-1","host":"hgk-1.hk.uncletopia.com","port":27015,"enabled":true,"region":"asia","cc":"hk","latitude":22.302711,"longitude":114.177216,"reserved":0,"last_update":"0001-01-01T00:00:00Z","name_a2s":"Uncletopia | Hong Kong | 1 | All Maps","protocol":17,"map":"koth_viaduct","folder":"tf","game":"Team Fortress","app_id":440,"player_count":0,"max_players":24,"Bots":0,"server_type":"Dedicated","server_os":"Linux","password":true,"vac":true,"version":"7961495","steam_id":85568392924494504,"keywords":["cp","nocrits","nodmgspread","uncletopia"],"game_id":440,"stv_port":27016,"stv_name":"Uncletopia | Hong Kong | 1 | All Maps | STV","players":null},{"server_id":1,"name":"Uncletopia | Los Angeles | 1 | All Maps","name_short":"lax-1","host":"lax-1.us.uncletopia.com","port":27015,"enabled":true,"region":"us-west","cc":"us","latitude":33.94279,"longitude":-118.41004,"reserved":0,"last_update":"0001-01-01T00:00:00Z","name_a2s":"Uncletopia | Los Angeles | 1 | All Maps","protocol":17,"map":"koth_lakeside_final","folder":"tf","game":"Team Fortress","app_id":440,"player_count":0,"max_players":24,"Bots":0,"server_type":"Dedicated","server_os":"Linux","password":true,"vac":true,"version":"7961495","steam_id":85568392924469991,"keywords":["cp","nocrits","nodmgspread","uncletopia"],"game_id":440,"stv_port":27016,"stv_name":"Uncletopia | Los Angeles | 1 | All Maps | STV","players":null},{"server_id":112,"name":"Uncletopia | Los Angeles | 2 | All Maps","name_short":"lax-2","host":"lax-1.us.uncletopia.com","port":27025,"enabled":true,"region":"us-west","cc":"us","latitude":33.94279,"longitude":-118.41004,"reserved":0,"last_update":"0001-01-01T00:00:00Z","name_a2s":"Uncletopia | Los Angeles | 2 | All Maps","protocol":17,"map":"koth_lazarus","folder":"tf","game":"Team Fortress","app_id":440,"player_count":0,"max_players":24,"Bots":0,"server_type":"Dedicated","server_os":"Linux","password":true,"vac":true,"version":"7961495","steam_id":85568392924469992,"keywords":["cp","nocrits","nodmgspread","uncletopia"],"game_id":440,"stv_port":27026,"stv_name":"Uncletopia | Los Angeles | 2 | All Maps | STV","players":null},{"server_id":324,"name":"Uncletopia | Los Angeles | 3 | All Maps","name_short":"lax-3","host":"lax-1.us.uncletopia.com","port":27035,"enabled":true,"region":"us-west","cc":"us","latitude":33.94279,"longitude":-118.41004,"reserved":0,"last_update":"0001-01-01T00:00:00Z","name_a2s":"Uncletopia | Los Angeles | 3 | All Maps","protocol":17,"map":"cp_sunshine","folder":"tf","game":"Team Fortress","app_id":440,"player_count":0,"max_players":24,"Bots":0,"server_type":"Dedicated","server_os":"Linux","password":true,"vac":true,"version":"7961495","steam_id":85568392924510198,"keywords":["cp","nocrits","nodmgspread","uncletopia"],"game_id":440,"stv_port":27036,"stv_name":"Uncletopia | Los Angeles | 3 | All Maps | STV","players":null},{"server_id":25,"name":"Uncletopia | Los Angeles | 4 | Stopwatch","name_short":"lax-4","host":"lax-1.us.uncletopia.com","port":27045,"enabled":true,"region":"us-west","cc":"us","latitude":33.94279,"longitude":-118.41004,"reserved":0,"last_update":"0001-01-01T00:00:00Z","name_a2s":"Uncletopia | Los Angeles | 4 | Stopwatch","protocol":17,"map":"pl_upward","folder":"tf","game":"Team Fortress","app_id":440,"player_count":0,"max_players":24,"Bots":0,"server_type":"Dedicated","server_os":"Linux","password":true,"vac":true,"version":"7961495","steam_id":85568392924510199,"keywords":["nocrits","nodmgspread","payload","uncletopia"],"game_id":440,"stv_port":27046,"stv_name":"Uncletopia | Los Angeles | 4 | Stopwatch | STV","players":null},{"server_id":11,"name":"Uncletopia | London | 1 | All Maps","name_short":"lon-1","host":"lon-1.uk.uncletopia.com","port":27015,"enabled":true,"region":"eu","cc":"gb","latitude":51.509865,"longitude":-0.118092,"reserved":0,"last_update":"0001-01-01T00:00:00Z","name_a2s":"Uncletopia | London | 1 | All Maps","protocol":17,"map":"pl_badwater","folder":"tf","game":"Team Fortress","app_id":440,"player_count":24,"max_players":24,"Bots":0,"server_type":"Dedicated","server_os":"Linux","password":true,"vac":true,"version":"7961495","steam_id":85568392924367362,"keywords":["nocrits","nodmgspread","payload","uncletopia"],"game_id":440,"stv_port":27016,"stv_name":"Uncletopia | London | 1 | All Maps | STV","players":[{"user_id":620,"name":"Spawn","steam_id":76561199119237023,"connected_time":505000000000,"state":"active","ping":71},{"user_id":589,"name":"Healix","steam_id":76561198130270161,"connected_time":3544000000000,"state":"active","ping":59},{"user_id":616,"name":"hitbox criminal","steam_id":76561198079277466,"connected_time":739000000000,"state":"active","ping":74},{"user_id":625,"name":"Bupster","steam_id":76561199077027065,"connected_time":312000000000,"state":"active","ping":79},{"user_id":631,"name":"17","steam_id":76561198241530712,"connected_time":50000000000,"state":"active","ping":244},{"user_id":615,"name":"bapab","steam_id":76561198307556377,"connected_time":766000000000,"state":"active","ping":47},{"user_id":609,"name":"callthecounselortonight","steam_id":76561198236015392,"connected_time":1610000000000,"state":"active","ping":120},{"user_id":595,"name":"bolsonaro","steam_id":76561198074917015,"connected_time":3005000000000,"state":"active","ping":81},{"user_id":602,"name":"itransition UKRAINE","steam_id":76561198080912087,"connected_time":2364000000000,"state":"active","ping":74},{"user_id":576,"name":"billions must braaap","steam_id":76561198190583242,"connected_time":4394000000000,"state":"active","ping":76},{"user_id":628,"name":"Thinkpad X220","steam_id":76561198830840410,"connected_time":150000000000,"state":"active","ping":90},{"user_id":599,"name":"Femboy Butt","steam_id":76561198115496457,"connected_time":2483000000000,"state":"active","ping":42},{"user_id":600,"name":"doktor spiele","steam_id":76561199057953617,"connected_time":2477000000000,"state":"active","ping":68},{"user_id":605,"name":"4Hero","steam_id":76561198310095220,"connected_time":2238000000000,"state":"active","ping":35},{"user_id":603,"name":"⸸aura⸸","steam_id":76561198066258544,"connected_time":2353000000000,"state":"active","ping":61},{"user_id":558,"name":"Snake-chan","steam_id":76561199044755854,"connected_time":5258000000000,"state":"active","ping":89},{"user_id":534,"name":"Hermitcrack","steam_id":76561198149216441,"connected_time":7686000000000,"state":"active","ping":74},{"user_id":560,"name":"Lyra","steam_id":76561198043601838,"connected_time":5213000000000,"state":"active","ping":60},{"user_id":565,"name":"wk ohw","steam_id":76561198106049954,"connected_time":4877000000000,"state":"active","ping":77},{"user_id":598,"name":"Purps","steam_id":76561198053886680,"connected_time":2622000000000,"state":"active","ping":45},{"user_id":606,"name":"Sang","steam_id":76561198008510868,"connected_time":2134000000000,"state":"active","ping":75},{"user_id":452,"name":"clunk","steam_id":76561198836460767,"connected_time":13497000000000,"state":"active","ping":73},{"user_id":568,"name":"Charlie Brown","steam_id":76561199378865926,"connected_time":4722000000000,"state":"active","ping":80},{"user_id":516,"name":"Jam","steam_id":76561198090409013,"connected_time":8800000000000,"state":"active","ping":83}]},{"server_id":114,"name":"Uncletopia | London | 2 | All Maps","name_short":"lon-2","host":"lon-1.uk.uncletopia.com","port":27025,"enabled":true,"region":"eu","cc":"gb","latitude":51.509865,"longitude":-0.118092,"reserved":0,"last_update":"0001-01-01T00:00:00Z","name_a2s":"Uncletopia | London | 2 | All Maps","protocol":17,"map":"cp_snakewater_final1","folder":"tf","game":"Team Fortress","app_id":440,"player_count":0,"max_players":24,"Bots":0,"server_type":"Dedicated","server_os":"Linux","password":true,"vac":true,"version":"7961495","steam_id":85568392924470941,"keywords":["cp","nocrits","nodmgspread","uncletopia"],"game_id":440,"stv_port":27026,"stv_name":"Uncletopia | London | 2 | All Maps | STV","players":null},{"server_id":320,"name":"Uncletopia | London | 3 | All Maps","name_short":"lon-3","host":"lon-1.uk.uncletopia.com","port":27035,"enabled":true,"region":"eu","cc":"gb","latitude":51.509865,"longitude":-0.118092,"reserved":0,"last_update":"0001-01-01T00:00:00Z","name_a2s":"Uncletopia | London | 3 | All Maps","protocol":17,"map":"cp_sunshine","folder":"tf","game":"Team Fortress","app_id":440,"player_count":0,"max_players":24,"Bots":0,"server_type":"Dedicated","server_os":"Linux","password":true,"vac":true,"version":"7961495","steam_id":85568392924510192,"keywords":["cp","nocrits","nodmgspread","uncletopia"],"game_id":440,"stv_port":27036,"stv_name":"Uncletopia | London | 3 | All Maps | STV","players":null},{"server_id":321,"name":"Uncletopia | London | 4 | All Maps","name_short":"lon-4","host":"lon-1.uk.uncletopia.com","port":27045,"enabled":true,"region":"eu","cc":"gb","latitude":51.509865,"longitude":-0.118092,"reserved":0,"last_update":"0001-01-01T00:00:00Z","name_a2s":"Uncletopia | London | 4 | All Maps","protocol":17,"map":"pl_barnblitz","folder":"tf","game":"Team Fortress","app_id":440,"player_count":24,"max_players":24,"Bots":0,"server_type":"Dedicated","server_os":"Linux","password":true,"vac":true,"version":"7961495","steam_id":85568392924510193,"keywords":["nocrits","nodmgspread","payload","uncletopia"],"game_id":440,"stv_port":27046,"stv_name":"Uncletopia | London | 4 | All Maps | STV","players":[{"user_id":192,"name":"Haakon","steam_id":76561198063008231,"connected_time":282000000000,"state":"active","ping":70},{"user_id":166,"name":"George W Bush","steam_id":76561198846784757,"connected_time":2088000000000,"state":"active","ping":56},{"user_id":199,"name":"Tort","steam_id":76561198329646769,"connected_time":98000000000,"state":"active","ping":52},{"user_id":203,"name":"Grimprr","steam_id":76561198275816797,"connected_time":10000000000,"state":"spawning","ping":133},{"user_id":204,"name":"iforwood.if","steam_id":76561198314347332,"connected_time":9000000000,"state":"spawning","ping":44},{"user_id":191,"name":"çodar","steam_id":76561198235518444,"connected_time":379000000000,"state":"active","ping":36},{"user_id":180,"name":"GarlicRodent","steam_id":76561198252853460,"connected_time":1062000000000,"state":"active","ping":48},{"user_id":202,"name":"(M.G)reg","steam_id":76561198063153881,"connected_time":35000000000,"state":"active","ping":103},{"user_id":194,"name":"RandomName","steam_id":76561198055552108,"connected_time":268000000000,"state":"active","ping":56},{"user_id":195,"name":"Neeeiks","steam_id":76561198009156801,"connected_time":266000000000,"state":"active","ping":78},{"user_id":187,"name":"Mr. Bep","steam_id":76561198170026349,"connected_time":917000000000,"state":"active","ping":46},{"user_id":197,"name":"ashdu0j","steam_id":76561198410955546,"connected_time":109000000000,"state":"active","ping":62},{"user_id":158,"name":"starke le beau","steam_id":76561199375305230,"connected_time":2479000000000,"state":"active","ping":53},{"user_id":123,"name":"spy among us","steam_id":76561197972287320,"connected_time":6032000000000,"state":"active","ping":106},{"user_id":159,"name":"Laysketchup","steam_id":76561198798891390,"connected_time":2475000000000,"state":"active","ping":53},{"user_id":160,"name":"Fishlover30","steam_id":76561199197436568,"connected_time":2427000000000,"state":"active","ping":89},{"user_id":198,"name":"generic alias","steam_id":76561198271607226,"connected_time":104000000000,"state":"active","ping":87},{"user_id":122,"name":"Miss Asstickles","steam_id":76561198030286622,"connected_time":6098000000000,"state":"active","ping":46},{"user_id":172,"name":"hasky","steam_id":76561197986052798,"connected_time":1669000000000,"state":"active","ping":64},{"user_id":188,"name":"Garfield","steam_id":76561199251237007,"connected_time":836000000000,"state":"active","ping":151},{"user_id":179,"name":"Aspartus","steam_id":76561198101385763,"connected_time":1232000000000,"state":"active","ping":102},{"user_id":200,"name":"hoizil","steam_id":76561198800688436,"connected_time":82000000000,"state":"active","ping":66},{"user_id":201,"name":"MeBandae","steam_id":76561198910770432,"connected_time":73000000000,"state":"active","ping":60},{"user_id":170,"name":"Drix","steam_id":76561198056810212,"connected_time":1828000000000,"state":"active","ping":79}]},{"server_id":21,"name":"Uncletopia | London | 5 | All Maps","name_short":"lon-5","host":"lon-1.uk.uncletopia.com","port":27055,"enabled":true,"region":"eu","cc":"gb","latitude":51.509865,"longitude":-0.118092,"reserved":0,"last_update":"0001-01-01T00:00:00Z","name_a2s":"Uncletopia | London | 5 | All Maps","protocol":17,"map":"pl_borneo","folder":"tf","game":"Team Fortress","app_id":440,"player_count":23,"max_players":24,"Bots":0,"server_type":"Dedicated","server_os":"Linux","password":true,"vac":true,"version":"7961495","steam_id":85568392924742829,"keywords":["nocrits","nodmgspread","payload","uncletopia"],"game_id":440,"stv_port":27056,"stv_name":"Uncletopia | London | 5 | All Maps | STV","players":[{"user_id":507,"name":"Hetmanych","steam_id":76561198870926865,"connected_time":2092000000000,"state":"spawning","ping":120},{"user_id":533,"name":"literallyjasonx","steam_id":76561198835895387,"connected_time":513000000000,"state":"spawning","ping":77},{"user_id":536,"name":"mülleimer überhitzene","steam_id":76561198174135981,"connected_time":458000000000,"state":"active","ping":65},{"user_id":508,"name":"tired","steam_id":76561198046838168,"connected_time":2090000000000,"state":"active","ping":80},{"user_id":520,"name":"Akira","steam_id":76561198323636432,"connected_time":1274000000000,"state":"active","ping":58},{"user_id":542,"name":"CerealKiller154","steam_id":76561198831177630,"connected_time":23000000000,"state":"active","ping":83},{"user_id":509,"name":"lugi","steam_id":76561198026903673,"connected_time":2084000000000,"state":"active","ping":85},{"user_id":497,"name":"Kurt Beyber","steam_id":76561198047207247,"connected_time":2825000000000,"state":"active","ping":64},{"user_id":537,"name":"Supercoxylac","steam_id":76561198376300138,"connected_time":291000000000,"state":"active","ping":59},{"user_id":519,"name":"TeZ","steam_id":76561198151910084,"connected_time":1375000000000,"state":"active","ping":58},{"user_id":522,"name":"Honda Accord Enthusiast","steam_id":76561198374962795,"connected_time":990000000000,"state":"active","ping":68},{"user_id":518,"name":"Gubbly Bubbins","steam_id":76561198101451654,"connected_time":1444000000000,"state":"active","ping":234},{"user_id":514,"name":"Dr. Funkenstein","steam_id":76561197977816210,"connected_time":1958000000000,"state":"active","ping":64},{"user_id":454,"name":"Indomitable Truck-sama","steam_id":76561198826861582,"connected_time":5298000000000,"state":"active","ping":66},{"user_id":505,"name":"Bonduelle#Savetf2","steam_id":76561199041992422,"connected_time":2390000000000,"state":"active","ping":173},{"user_id":487,"name":"DiscoTraveler","steam_id":76561199240168088,"connected_time":3139000000000,"state":"active","ping":132},{"user_id":498,"name":"baobab","steam_id":76561199141037141,"connected_time":2779000000000,"state":"spawning","ping":99},{"user_id":540,"name":"jojobinks613","steam_id":76561198841293111,"connected_time":82000000000,"state":"spawning","ping":138},{"user_id":541,"name":"McAtka","steam_id":76561198019759329,"connected_time":39000000000,"state":"connecting","ping":51},{"user_id":473,"name":"Reimu","steam_id":76561198101532240,"connected_time":4049000000000,"state":"active","ping":53},{"user_id":404,"name":"s a i","steam_id":76561197970379754,"connected_time":8389000000000,"state":"active","ping":89},{"user_id":538,"name":"silicon based life form","steam_id":76561199127121346,"connected_time":207000000000,"state":"active","ping":130}]},{"server_id":22,"name":"Uncletopia | London | 6 | All Maps","name_short":"lon-6","host":"lon-1.uk.uncletopia.com","port":27065,"enabled":true,"region":"eu","cc":"gb","latitude":51.509865,"longitude":-0.118092,"reserved":0,"last_update":"0001-01-01T00:00:00Z","name_a2s":"Uncletopia | London | 6 | All Maps","protocol":17,"map":"pl_frontier_final","folder":"tf","game":"Team Fortress","app_id":440,"player_count":22,"max_players":24,"Bots":0,"server_type":"Dedicated","server_os":"Linux","password":true,"vac":true,"version":"7961495","steam_id":85568392924742830,"keywords":["nocrits","nodmgspread","payload","uncletopia"],"game_id":440,"stv_port":27066,"stv_name":"Uncletopia | London | 6 | All Maps | STV","players":[{"user_id":162,"name":"Cooki","steam_id":76561198051705314,"connected_time":3151000000000,"state":"active","ping":142},{"user_id":180,"name":"Fofenho","steam_id":76561198436817109,"connected_time":2269000000000,"state":"active","ping":48},{"user_id":165,"name":"wee bit depresso","steam_id":76561198097507847,"connected_time":2991000000000,"state":"active","ping":81},{"user_id":164,"name":"magnets, how do they work","steam_id":76561198170609049,"connected_time":3029000000000,"state":"active","ping":61},{"user_id":199,"name":"LeonCactus","steam_id":76561198102360825,"connected_time":1071000000000,"state":"active","ping":55},{"user_id":200,"name":"Zyned","steam_id":76561198308711585,"connected_time":1011000000000,"state":"active","ping":90},{"user_id":211,"name":"Oak","steam_id":76561198067315672,"connected_time":74000000000,"state":"active","ping":44},{"user_id":208,"name":"Олексій | UA","steam_id":76561198802594676,"connected_time":447000000000,"state":"active","ping":65},{"user_id":178,"name":"xqc","steam_id":76561198047359132,"connected_time":2647000000000,"state":"active","ping":75},{"user_id":209,"name":"FiuffyDaisy!","steam_id":76561198241732704,"connected_time":365000000000,"state":"active","ping":37},{"user_id":169,"name":"Cheshireycat","steam_id":76561198067204908,"connected_time":2838000000000,"state":"active","ping":57},{"user_id":182,"name":"RAT BASTARD","steam_id":76561199195985387,"connected_time":2093000000000,"state":"active","ping":95},{"user_id":170,"name":"That hamster has been dead for ","steam_id":76561198346638308,"connected_time":2828000000000,"state":"active","ping":46},{"user_id":183,"name":"Cuffeps Apprentice","steam_id":76561199080320963,"connected_time":2090000000000,"state":"active","ping":47},{"user_id":122,"name":"theVad333","steam_id":76561199273469746,"connected_time":6398000000000,"state":"active","ping":69},{"user_id":194,"name":"TheEventGuy","steam_id":76561197972797744,"connected_time":1533000000000,"state":"active","ping":68},{"user_id":179,"name":"Seal","steam_id":76561198244988552,"connected_time":2624000000000,"state":"active","ping":74},{"user_id":152,"name":"sethlington14","steam_id":76561199438357690,"connected_time":4251000000000,"state":"active","ping":61},{"user_id":108,"name":"РеДаНоВеЦ ^_^","steam_id":76561199032612973,"connected_time":7336000000000,"state":"active","ping":76},{"user_id":175,"name":"Skelet (zooted)","steam_id":76561198051685232,"connected_time":2759000000000,"state":"active","ping":45},{"user_id":202,"name":"Bruh","steam_id":76561198269997109,"connected_time":988000000000,"state":"active","ping":90},{"user_id":198,"name":"chiyonii.","steam_id":76561198021854431,"connected_time":1238000000000,"state":"active","ping":70}]},{"server_id":40,"name":"Uncletopia | London | 7 | Stopwatch","name_short":"lon-7","host":"lon-1.uk.uncletopia.com","port":27075,"enabled":true,"region":"eu","cc":"gb","latitude":51.509865,"longitude":-0.118092,"reserved":0,"last_update":"0001-01-01T00:00:00Z","name_a2s":"Uncletopia | London | 7 | Stopwatch","protocol":17,"map":"workshop/koth_clearcut_b15.ugc2107050255","folder":"tf","game":"Team Fortress","app_id":440,"player_count":0,"max_players":24,"Bots":0,"server_type":"Dedicated","server_os":"Linux","password":true,"vac":true,"version":"7961495","steam_id":85568392924964314,"keywords":["cp","nocrits","nodmgspread","uncletopia"],"game_id":440,"stv_port":27076,"stv_name":"Uncletopia | London | 7 | Stopwatch | STV","players":null},{"server_id":41,"name":"Uncletopia | London | 8 | Community","name_short":"lon-8","host":"lon-1.uk.uncletopia.com","port":27085,"enabled":true,"region":"eu","cc":"gb","latitude":51.509865,"longitude":-0.118092,"reserved":0,"last_update":"0001-01-01T00:00:00Z","name_a2s":"Uncletopia | London | 8 | Community","protocol":17,"map":"workshop/koth_kemptown_rc1.ugc767410655","folder":"tf","game":"Team Fortress","app_id":440,"player_count":0,"max_players":24,"Bots":0,"server_type":"Dedicated","server_os":"Linux","password":true,"vac":true,"version":"7961495","steam_id":85568392924964315,"keywords":["cp","nocrits","nodmgspread","uncletopia"],"game_id":440,"stv_port":27086,"stv_name":"Uncletopia | London | 8 | Community | STV","players":null},{"server_id":300,"name":"Uncletopia | Montréal | 1 | One Thousand Uncles","name_short":"mtl-1","host":"mtl-1.ca.uncletopia.com","port":27015,"enabled":true,"region":"us-east","cc":"ca","latitude":45.50889,"longitude":-73.56167,"reserved":0,"last_update":"0001-01-01T00:00:00Z","name_a2s":"Uncletopia | Montréal | 1 | One Thousand Uncles","protocol":17,"map":"pl_hoodoo_final","folder":"tf","game":"Team Fortress","app_id":440,"player_count":24,"max_players":32,"Bots":20,"server_type":"Dedicated","server_os":"Linux","password":true,"vac":true,"version":"7961495","steam_id":85568392924500087,"keywords":["alltalk","bots","danepve","increased_maxplayers","norespawntime","payload","uncletopia"],"game_id":440,"stv_port":0,"stv_name":"","players":[{"user_id":68,"name":"Ata","steam_id":76561198349085545,"connected_time":99000000000,"state":"active","ping":110},{"user_id":64,"name":"repairman","steam_id":76561199229761680,"connected_time":1653000000000,"state":"active","ping":153},{"user_id":65,"name":"Bloodreaper07","steam_id":76561198382652294,"connected_time":1543000000000,"state":"active","ping":184},{"user_id":66,"name":"Pie Eater 9000","steam_id":76561198003791564,"connected_time":1231000000000,"state":"active","ping":74}]},{"server_id":301,"name":"Uncletopia | Montréal | 2 | One Thousand Uncles","name_short":"mtl-2","host":"mtl-1.ca.uncletopia.com","port":27025,"enabled":true,"region":"us-east","cc":"ca","latitude":45.50889,"longitude":-73.56167,"reserved":0,"last_update":"0001-01-01T00:00:00Z","name_a2s":"Uncletopia | Montréal | 2 | One Thousand Uncles","protocol":17,"map":"cp_mossrock","folder":"tf","game":"Team Fortress","app_id":440,"player_count":22,"max_players":32,"Bots":20,"server_type":"Dedicated","server_os":"Linux","password":true,"vac":true,"version":"7961495","steam_id":85568392924500088,"keywords":["alltalk","bots","cp","danepve","increased_maxplayers","norespawntime","uncletopia"],"game_id":440,"stv_port":0,"stv_name":"","players":[{"user_id":2,"name":"goobiestgoober","steam_id":76561199487899460,"connected_time":2186000000000,"state":"active","ping":320},{"user_id":23,"name":"barbecuesteve","steam_id":76561198048819671,"connected_time":1494000000000,"state":"active","ping":72}]},{"server_id":302,"name":"Uncletopia | Montréal | 3 | One Thousand Uncles","name_short":"mtl-3","host":"mtl-1.ca.uncletopia.com","port":27035,"enabled":true,"region":"us-east","cc":"ca","latitude":45.50889,"longitude":-73.56167,"reserved":0,"last_update":"0001-01-01T00:00:00Z","name_a2s":"Uncletopia | Montréal | 3 | One Thousand Uncles","protocol":17,"map":"pl_swiftwater_final1","folder":"tf","game":"Team Fortress","app_id":440,"player_count":0,"max_players":32,"Bots":0,"server_type":"Dedicated","server_os":"Linux","password":true,"vac":true,"version":"7961495","steam_id":85568392924500089,"keywords":["alltalk","danepve","increased_maxplayers","norespawntime","payload","uncletopia"],"game_id":440,"stv_port":0,"stv_name":"","players":null},{"server_id":13,"name":"Uncletopia | New York City | 1 | All Maps","name_short":"nyc-1","host":"nyc-1.us.uncletopia.com","port":27015,"enabled":true,"region":"us-east","cc":"us","latitude":40.73061,"longitude":-73.93524,"reserved":0,"last_update":"0001-01-01T00:00:00Z","name_a2s":"Uncletopia | New York City | 1 | All Maps","protocol":17,"map":"cp_dustbowl","folder":"tf","game":"Team Fortress","app_id":440,"player_count":24,"max_players":24,"Bots":0,"server_type":"Dedicated","server_os":"Linux","password":true,"vac":true,"version":"7961495","steam_id":85568392924469993,"keywords":["cp","nocrits","nodmgspread","uncletopia"],"game_id":440,"stv_port":27016,"stv_name":"Uncletopia | New York City | 1 | All Maps | STV","players":[{"user_id":225,"name":"SPELLSDISASTER","steam_id":76561197995620232,"connected_time":2574000000000,"state":"active","ping":33},{"user_id":263,"name":"MR KRABS","steam_id":76561199152814629,"connected_time":198000000000,"state":"active","ping":159},{"user_id":247,"name":"CynnyminRoll","steam_id":76561198209253427,"connected_time":688000000000,"state":"active","ping":54},{"user_id":265,"name":"Sergeant Snowflake","steam_id":76561198041474489,"connected_time":99000000000,"state":"active","ping":82},{"user_id":260,"name":"Grunt420","steam_id":76561199407313140,"connected_time":255000000000,"state":"active","ping":175},{"user_id":208,"name":"PadrePockets","steam_id":76561197993251606,"connected_time":3701000000000,"state":"active","ping":54},{"user_id":266,"name":"milk","steam_id":76561198813251405,"connected_time":68000000000,"state":"active","ping":53},{"user_id":254,"name":"GroundSloth","steam_id":76561199471466750,"connected_time":490000000000,"state":"active","ping":65},{"user_id":251,"name":"TechLegion","steam_id":76561198951606276,"connected_time":553000000000,"state":"active","ping":66},{"user_id":207,"name":"GummybearKillr","steam_id":76561198031235750,"connected_time":3806000000000,"state":"active","ping":54},{"user_id":252,"name":"Straight White Man \u003che/him\u003e","steam_id":76561199500876333,"connected_time":547000000000,"state":"active","ping":61},{"user_id":253,"name":"Windup Monkey in a Human Suit","steam_id":76561198119501444,"connected_time":506000000000,"state":"active","ping":77},{"user_id":210,"name":"Propaniac Gaming ☑","steam_id":76561198133963270,"connected_time":3587000000000,"state":"active","ping":59},{"user_id":204,"name":"CrustyCapybara","steam_id":76561199450398030,"connected_time":4205000000000,"state":"active","ping":66},{"user_id":255,"name":"Old No. 7","steam_id":76561199496914117,"connected_time":471000000000,"state":"active","ping":72},{"user_id":231,"name":"cavemanDv","steam_id":76561198111927196,"connected_time":2198000000000,"state":"active","ping":62},{"user_id":264,"name":"gone ham","steam_id":76561199446367874,"connected_time":143000000000,"state":"active","ping":77},{"user_id":239,"name":"Chadmander","steam_id":76561197974136337,"connected_time":1348000000000,"state":"active","ping":59},{"user_id":117,"name":"CDBeans","steam_id":76561198046990367,"connected_time":9925000000000,"state":"active","ping":85},{"user_id":234,"name":"Peepster","steam_id":76561198297854733,"connected_time":2052000000000,"state":"active","ping":77},{"user_id":236,"name":"󠁳 ⁧fortnite56K(Nick/Ger)","steam_id":76561198404564240,"connected_time":1962000000000,"state":"active","ping":57},{"user_id":257,"name":"Favery","steam_id":76561198049639107,"connected_time":431000000000,"state":"active","ping":142},{"user_id":262,"name":"sagekiss","steam_id":76561198038831240,"connected_time":249000000000,"state":"active","ping":124},{"user_id":224,"name":"chrisd149","steam_id":76561198018710480,"connected_time":2744000000000,"state":"active","ping":89}]},{"server_id":14,"name":"Uncletopia | New York City | 2 | All Maps","name_short":"nyc-2","host":"nyc-1.us.uncletopia.com","port":27025,"enabled":true,"region":"us-east","cc":"us","latitude":40.73061,"longitude":-73.93524,"reserved":0,"last_update":"0001-01-01T00:00:00Z","name_a2s":"Uncletopia | New York City | 2 | All Maps","protocol":17,"map":"pl_snowycoast","folder":"tf","game":"Team Fortress","app_id":440,"player_count":24,"max_players":24,"Bots":0,"server_type":"Dedicated","server_os":"Linux","password":true,"vac":true,"version":"7961495","steam_id":85568392924469994,"keywords":["nocrits","nodmgspread","payload","uncletopia"],"game_id":440,"stv_port":27026,"stv_name":"Uncletopia | New York City | 2 | All Maps | STV","players":[{"user_id":332,"name":"♥ Tomboy ♥","steam_id":76561198069881436,"connected_time":1156000000000,"state":"active","ping":78},{"user_id":288,"name":"non_ai","steam_id":76561198270951938,"connected_time":3302000000000,"state":"active","ping":46},{"user_id":314,"name":"I Have Huge Guts","steam_id":76561198103496593,"connected_time":2257000000000,"state":"active","ping":63},{"user_id":331,"name":"SnareString","steam_id":76561199082119457,"connected_time":1254000000000,"state":"active","ping":127},{"user_id":18,"name":"Seasoned Shrimp","steam_id":76561198405863627,"connected_time":21835000000000,"state":"active","ping":119},{"user_id":326,"name":"ุ","steam_id":76561198355935693,"connected_time":1813000000000,"state":"active","ping":61},{"user_id":335,"name":"King","steam_id":76561198039763676,"connected_time":1085000000000,"state":"active","ping":70},{"user_id":329,"name":"Porvolt","steam_id":76561198101366567,"connected_time":1297000000000,"state":"active","ping":67},{"user_id":333,"name":"cellogamer","steam_id":76561198016937098,"connected_time":1141000000000,"state":"active","ping":51},{"user_id":340,"name":"Mr. Fluffy Penguins","steam_id":76561198172538149,"connected_time":1024000000000,"state":"active","ping":92},{"user_id":307,"name":"[MOM] Preening Champion","steam_id":76561198055855534,"connected_time":2829000000000,"state":"active","ping":60},{"user_id":321,"name":"bakkhertz","steam_id":76561198046745579,"connected_time":1972000000000,"state":"active","ping":100},{"user_id":334,"name":"RRoyal66","steam_id":76561198005982913,"connected_time":1128000000000,"state":"active","ping":70},{"user_id":213,"name":"your very own pocket medic","steam_id":76561199489320369,"connected_time":7093000000000,"state":"active","ping":63},{"user_id":255,"name":"Baron von Whoopsie","steam_id":76561197996691013,"connected_time":4013000000000,"state":"active","ping":61},{"user_id":342,"name":"Your Local Subway Employee","steam_id":76561198811130843,"connected_time":596000000000,"state":"active","ping":79},{"user_id":344,"name":"baguette","steam_id":76561198209813328,"connected_time":171000000000,"state":"active","ping":80},{"user_id":343,"name":"jokie1024","steam_id":76561199052355302,"connected_time":578000000000,"state":"active","ping":45},{"user_id":325,"name":"Bartholomew","steam_id":76561199097771720,"connected_time":1848000000000,"state":"active","ping":71},{"user_id":286,"name":"reis","steam_id":76561199232952016,"connected_time":3380000000000,"state":"active","ping":173},{"user_id":327,"name":"Frankus McSpankus","steam_id":76561198945408096,"connected_time":1742000000000,"state":"active","ping":62},{"user_id":337,"name":"airballer","steam_id":76561198165899125,"connected_time":1070000000000,"state":"active","ping":46},{"user_id":338,"name":"Dr. Enforcicle (real)","steam_id":76561198964471859,"connected_time":1052000000000,"state":"active","ping":85},{"user_id":339,"name":"kliki jumbaloi","steam_id":76561198843305999,"connected_time":1036000000000,"state":"active","ping":67}]},{"server_id":15,"name":"Uncletopia | New York City | 3 | Stopwatch","name_short":"nyc-3","host":"nyc-1.us.uncletopia.com","port":27035,"enabled":true,"region":"us-east","cc":"us","latitude":40.73061,"longitude":-73.93524,"reserved":0,"last_update":"0001-01-01T00:00:00Z","name_a2s":"Uncletopia | New York City | 3 | Stopwatch","protocol":17,"map":"pl_borneo","folder":"tf","game":"Team Fortress","app_id":440,"player_count":24,"max_players":24,"Bots":0,"server_type":"Dedicated","server_os":"Linux","password":true,"vac":true,"version":"7961495","steam_id":85568392924742820,"keywords":["nocrits","nodmgspread","payload","uncletopia"],"game_id":440,"stv_port":27036,"stv_name":"Uncletopia | New York City | 3 | Stopwatch | STV","players":[{"user_id":112,"name":"the fox","steam_id":76561199030607136,"connected_time":1464000000000,"state":"active","ping":62},{"user_id":107,"name":"Wubs","steam_id":76561198100722286,"connected_time":1546000000000,"state":"active","ping":43},{"user_id":108,"name":"Aeon","steam_id":76561198068654532,"connected_time":1514000000000,"state":"active","ping":62},{"user_id":100,"name":"Arty","steam_id":76561198860181179,"connected_time":1831000000000,"state":"active","ping":121},{"user_id":72,"name":"patronshito","steam_id":76561198266063209,"connected_time":3532000000000,"state":"active","ping":111},{"user_id":120,"name":"beast from the east","steam_id":76561198267624034,"connected_time":783000000000,"state":"active","ping":67},{"user_id":109,"name":"Captain YumYum","steam_id":76561198085075100,"connected_time":1507000000000,"state":"active","ping":91},{"user_id":117,"name":"Pizza sheriff","steam_id":76561198162829889,"connected_time":1211000000000,"state":"active","ping":49},{"user_id":110,"name":"Cr1mTw0","steam_id":76561198347636906,"connected_time":1492000000000,"state":"active","ping":148},{"user_id":118,"name":"The Scringler","steam_id":76561199016537311,"connected_time":1151000000000,"state":"active","ping":62},{"user_id":76,"name":"KIKI CURBSTOMP","steam_id":76561198262064871,"connected_time":3446000000000,"state":"active","ping":38},{"user_id":121,"name":"Spooki boi","steam_id":76561198076090567,"connected_time":777000000000,"state":"active","ping":47},{"user_id":122,"name":"Rated_C","steam_id":76561199226478414,"connected_time":760000000000,"state":"active","ping":82},{"user_id":86,"name":"Sussin'","steam_id":76561198059813696,"connected_time":2730000000000,"state":"active","ping":61},{"user_id":98,"name":"Coke Himmy","steam_id":76561198397459211,"connected_time":2036000000000,"state":"active","ping":65},{"user_id":61,"name":"gerge","steam_id":76561198092238353,"connected_time":4224000000000,"state":"active","ping":85},{"user_id":103,"name":"Simmons","steam_id":76561198024778135,"connected_time":1789000000000,"state":"active","ping":53},{"user_id":104,"name":"Droptavious Le Quantavious","steam_id":76561198995972200,"connected_time":1729000000000,"state":"active","ping":174},{"user_id":113,"name":"Hertz","steam_id":76561198245322982,"connected_time":1441000000000,"state":"active","ping":61},{"user_id":87,"name":"rocky","steam_id":76561198162392569,"connected_time":2693000000000,"state":"active","ping":107},{"user_id":124,"name":"Maenei","steam_id":76561197998189320,"connected_time":396000000000,"state":"active","ping":169},{"user_id":88,"name":"Ginger Jesus","steam_id":76561198052386458,"connected_time":2687000000000,"state":"active","ping":47},{"user_id":123,"name":"Buttons :)","steam_id":76561198139478534,"connected_time":743000000000,"state":"active","ping":108},{"user_id":126,"name":"QuackRick","steam_id":76561198005514341,"connected_time":339000000000,"state":"active","ping":61}]},{"server_id":16,"name":"Uncletopia | New York City | 4 | Community","name_short":"nyc-4","host":"nyc-1.us.uncletopia.com","port":27045,"enabled":true,"region":"us-east","cc":"us","latitude":40.73061,"longitude":-73.93524,"reserved":0,"last_update":"0001-01-01T00:00:00Z","name_a2s":"Uncletopia | New York City | 4 | Community","protocol":17,"map":"workshop/cp_reckoner_rc6.ugc674719999","folder":"tf","game":"Team Fortress","app_id":440,"player_count":0,"max_players":24,"Bots":0,"server_type":"Dedicated","server_os":"Linux","password":true,"vac":true,"version":"7961495","steam_id":85568392924742821,"keywords":["cp","nocrits","nodmgspread","uncletopia"],"game_id":440,"stv_port":27046,"stv_name":"Uncletopia | New York City | 4 | Community | STV","players":null},{"server_id":142,"name":"Uncletopia | São Paulo | 1 | All Maps","name_short":"sao-1","host":"sao-1.br.uncletopia.com","port":27015,"enabled":true,"region":"sa","cc":"br","latitude":-23.533773,"longitude":-46.62529,"reserved":0,"last_update":"0001-01-01T00:00:00Z","name_a2s":"Uncletopia | São Paulo | 1 | All Maps","protocol":17,"map":"pl_borneo","folder":"tf","game":"Team Fortress","app_id":440,"player_count":0,"max_players":24,"Bots":0,"server_type":"Dedicated","server_os":"Linux","password":true,"vac":true,"version":"7961495","steam_id":85568392924469996,"keywords":["nocrits","nodmgspread","payload","uncletopia"],"game_id":440,"stv_port":27016,"stv_name":"Uncletopia | São Paulo | 1 | All Maps | STV","players":null},{"server_id":143,"name":"Uncletopia | São Paulo | 2 | Community","name_short":"sao-2","host":"sao-2.br.uncletopia.com","port":27015,"enabled":true,"region":"sa","cc":"br","latitude":-23.533773,"longitude":-46.62529,"reserved":0,"last_update":"0001-01-01T00:00:00Z","name_a2s":"Uncletopia | São Paulo | 2 | Community","protocol":17,"map":"workshop/koth_slaughter_rc1.ugc1712845210","folder":"tf","game":"Team Fortress","app_id":440,"player_count":0,"max_players":24,"Bots":0,"server_type":"Dedicated","server_os":"Linux","password":true,"vac":true,"version":"7961495","steam_id":85568392924485349,"keywords":["cp","nocrits","nodmgspread","uncletopia"],"game_id":440,"stv_port":27016,"stv_name":"Uncletopia | São Paulo | 2 | Community | STV","players":null},{"server_id":7,"name":"Uncletopia | Seattle | 1 | All Maps","name_short":"sea-1","host":"sea-1.us.uncletopia.com","port":27015,"enabled":true,"region":"us-west","cc":"us","latitude":47.608013,"longitude":-122.33517,"reserved":0,"last_update":"0001-01-01T00:00:00Z","name_a2s":"Uncletopia | Seattle | 1 | All Maps","protocol":17,"map":"koth_viaduct","folder":"tf","game":"Team Fortress","app_id":440,"player_count":24,"max_players":24,"Bots":0,"server_type":"Dedicated","server_os":"Linux","password":true,"vac":true,"version":"7961495","steam_id":85568392924469997,"keywords":["cp","nocrits","nodmgspread","uncletopia"],"game_id":440,"stv_port":27016,"stv_name":"Uncletopia | Seattle | 1 | All Maps | STV","players":[{"user_id":131,"name":"Green Bean","steam_id":76561198959874732,"connected_time":508000000000,"state":"active","ping":163},{"user_id":114,"name":"SO RETRO","steam_id":76561198846344452,"connected_time":2702000000000,"state":"active","ping":75},{"user_id":124,"name":"Kylar","steam_id":76561198196979431,"connected_time":1431000000000,"state":"active","ping":78},{"user_id":18,"name":"★CaseyGlows★","steam_id":76561198113616168,"connected_time":10096000000000,"state":"spawning","ping":131},{"user_id":125,"name":"SOGGY DOGGY","steam_id":76561199158847498,"connected_time":1418000000000,"state":"spawning","ping":60},{"user_id":109,"name":"Yackaboi","steam_id":76561199444911765,"connected_time":3456000000000,"state":"active","ping":89},{"user_id":91,"name":"Francine A. Jiggle","steam_id":76561198441916331,"connected_time":5241000000000,"state":"active","ping":123},{"user_id":70,"name":"dust | it/she [no mic]","steam_id":76561198045218909,"connected_time":6714000000000,"state":"active","ping":57},{"user_id":107,"name":"oo","steam_id":76561198119626492,"connected_time":3693000000000,"state":"active","ping":132},{"user_id":92,"name":"YOU WHAT?!","steam_id":76561198418679471,"connected_time":5231000000000,"state":"active","ping":153},{"user_id":113,"name":"coco","steam_id":76561199488457138,"connected_time":2784000000000,"state":"active","ping":58},{"user_id":126,"name":"kiwibli","steam_id":76561198285334776,"connected_time":1392000000000,"state":"spawning","ping":71},{"user_id":117,"name":"Lower Class Saiyan","steam_id":76561198288743767,"connected_time":2387000000000,"state":"spawning","ping":66},{"user_id":136,"name":"you just got dyked on","steam_id":76561198018977723,"connected_time":32000000000,"state":"active","ping":44},{"user_id":134,"name":"Spooks","steam_id":76561198360959776,"connected_time":328000000000,"state":"active","ping":73},{"user_id":130,"name":"pretty fly for a swatter","steam_id":76561198116023052,"connected_time":1012000000000,"state":"active","ping":98},{"user_id":137,"name":"Imitation Caucasian","steam_id":76561198320536166,"connected_time":28000000000,"state":"active","ping":87},{"user_id":110,"name":"soda","steam_id":76561198105924953,"connected_time":3257000000000,"state":"active","ping":98},{"user_id":138,"name":"Hazel The Maid Girl :3","steam_id":76561199247095754,"connected_time":16000000000,"state":"connecting","ping":61},{"user_id":139,"name":"Mortal Man","steam_id":76561198007499380,"connected_time":16000000000,"state":"spawning","ping":62},{"user_id":120,"name":"Stimming","steam_id":76561199127423378,"connected_time":2299000000000,"state":"active","ping":71},{"user_id":96,"name":"Preston","steam_id":76561198255721392,"connected_time":4994000000000,"state":"active","ping":111},{"user_id":129,"name":"AAAAAAAAAAAAAAAAAAAAAAAAAAAAAAA","steam_id":76561198125467937,"connected_time":1328000000000,"state":"active","ping":77},{"user_id":103,"name":"Barack Obama Gaming","steam_id":76561198129242016,"connected_time":3923000000000,"state":"spawning","ping":41}]},{"server_id":119,"name":"Uncletopia | Seattle | 2 | All Maps","name_short":"sea-2","host":"sea-1.us.uncletopia.com","port":27025,"enabled":true,"region":"us-west","cc":"us","latitude":47.608013,"longitude":-122.33517,"reserved":0,"last_update":"0001-01-01T00:00:00Z","name_a2s":"Uncletopia | Seattle | 2 | All Maps","protocol":17,"map":"cp_mountainlab","folder":"tf","game":"Team Fortress","app_id":440,"player_count":0,"max_players":24,"Bots":0,"server_type":"Dedicated","server_os":"Linux","password":true,"vac":true,"version":"7961495","steam_id":85568392924469998,"keywords":["cp","nocrits","nodmgspread","uncletopia"],"game_id":440,"stv_port":27026,"stv_name":"Uncletopia | Seattle | 2 | All Maps | STV","players":null},{"server_id":406,"name":"Uncletopia | Seattle | 3 | Stopwatch","name_short":"sea-3","host":"sea-1.us.uncletopia.com","port":27035,"enabled":true,"region":"us-west","cc":"us","latitude":47.608013,"longitude":-122.33517,"reserved":0,"last_update":"0001-01-01T00:00:00Z","name_a2s":"Uncletopia | Seattle | 3 | Stopwatch","protocol":17,"map":"cp_gullywash_final1","folder":"tf","game":"Team Fortress","app_id":440,"player_count":0,"max_players":24,"Bots":0,"server_type":"Dedicated","server_os":"Linux","password":true,"vac":true,"version":"7961495","steam_id":85568392924515217,"keywords":["cp","nocrits","nodmgspread","uncletopia"],"game_id":440,"stv_port":27036,"stv_name":"Uncletopia | Seattle | 3 | Stopwatch | STV","players":null},{"server_id":17,"name":"Uncletopia | San Francisco | 1 | All Maps","name_short":"sfo-1","host":"sfo-1.us.uncletopia.com","port":27015,"enabled":true,"region":"us-west","cc":"us","latitude":37.77397,"longitude":-122.4313,"reserved":0,"last_update":"0001-01-01T00:00:00Z","name_a2s":"Uncletopia | San Francisco | 1 | All Maps","protocol":17,"map":"cp_gorge","folder":"tf","game":"Team Fortress","app_id":440,"player_count":1,"max_players":24,"Bots":0,"server_type":"Dedicated","server_os":"Linux","password":true,"vac":true,"version":"7961495","steam_id":85568392924469999,"keywords":["cp","nocrits","nodmgspread","uncletopia"],"game_id":440,"stv_port":27016,"stv_name":"Uncletopia | San Francisco | 1 | All Maps | STV","players":[{"user_id":5,"name":"keybored13","steam_id":76561199124583416,"connected_time":40000000000,"state":"spawning","ping":73}]},{"server_id":18,"name":"Uncletopia | San Francisco | 2 | All Maps","name_short":"sfo-2","host":"sfo-1.us.uncletopia.com","port":27025,"enabled":true,"region":"us-west","cc":"us","latitude":37.77397,"longitude":-122.4313,"reserved":0,"last_update":"0001-01-01T00:00:00Z","name_a2s":"Uncletopia | San Francisco | 2 | All Maps","protocol":17,"map":"pl_hoodoo_final","folder":"tf","game":"Team Fortress","app_id":440,"player_count":0,"max_players":24,"Bots":0,"server_type":"Dedicated","server_os":"Linux","password":true,"vac":true,"version":"7961495","steam_id":85568392924470000,"keywords":["nocrits","nodmgspread","payload","uncletopia"],"game_id":440,"stv_port":27026,"stv_name":"Uncletopia | San Francisco | 2 | All Maps | STV","players":null},{"server_id":19,"name":"Uncletopia | San Francisco | 3 | Stopwatch","name_short":"sfo-3","host":"sfo-1.us.uncletopia.com","port":27035,"enabled":true,"region":"us-west","cc":"us","latitude":37.77397,"longitude":-122.4313,"reserved":0,"last_update":"0001-01-01T00:00:00Z","name_a2s":"Uncletopia | San Francisco | 3 | Stopwatch","protocol":17,"map":"workshop/koth_clearcut_b15.ugc2107050255","folder":"tf","game":"Team Fortress","app_id":440,"player_count":0,"max_players":24,"Bots":0,"server_type":"Dedicated","server_os":"Linux","password":true,"vac":true,"version":"7961495","steam_id":85568392924742824,"keywords":["cp","nocrits","nodmgspread","uncletopia"],"game_id":440,"stv_port":27036,"stv_name":"Uncletopia | San Francisco | 3 | Stopwatch | STV","players":null},{"server_id":20,"name":"Uncletopia | San Francisco | 4 | Community","name_short":"sfo-4","host":"sfo-1.us.uncletopia.com","port":27045,"enabled":true,"region":"us-west","cc":"us","latitude":37.77397,"longitude":-122.4313,"reserved":0,"last_update":"0001-01-01T00:00:00Z","name_a2s":"Uncletopia | San Francisco | 4 | Community","protocol":17,"map":"workshop/cp_reckoner_rc6.ugc674719999","folder":"tf","game":"Team Fortress","app_id":440,"player_count":0,"max_players":24,"Bots":0,"server_type":"Dedicated","server_os":"Linux","password":true,"vac":true,"version":"7961495","steam_id":85568392924742826,"keywords":["cp","nocrits","nodmgspread","uncletopia"],"game_id":440,"stv_port":27046,"stv_name":"Uncletopia | San Francisco | 4 | Community | STV","players":null},{"server_id":141,"name":"Uncletopia | Sydney | 1 | All Maps","name_short":"syd-1","host":"syd-1.au.uncletopia.com","port":27015,"enabled":true,"region":"au","cc":"au","latitude":-33.865143,"longitude":151.2099,"reserved":0,"last_update":"0001-01-01T00:00:00Z","name_a2s":"Uncletopia | Sydney | 1 | All Maps","protocol":17,"map":"cp_process_final","folder":"tf","game":"Team Fortress","app_id":440,"player_count":0,"max_players":24,"Bots":0,"server_type":"Dedicated","server_os":"Linux","password":true,"vac":true,"version":"7961495","steam_id":85568392924470001,"keywords":["cp","nocrits","nodmgspread","uncletopia"],"game_id":440,"stv_port":27016,"stv_name":"Uncletopia | Sydney | 1 | All Maps | STV","players":null},{"server_id":123,"name":"Uncletopia | Sydney | 2 | All Maps","name_short":"syd-2","host":"syd-1.au.uncletopia.com","port":27025,"enabled":true,"region":"au","cc":"au","latitude":-33.865143,"longitude":151.2099,"reserved":0,"last_update":"0001-01-01T00:00:00Z","name_a2s":"Uncletopia | Sydney | 2 | All Maps","protocol":17,"map":"koth_viaduct","folder":"tf","game":"Team Fortress","app_id":440,"player_count":0,"max_players":24,"Bots":0,"server_type":"Dedicated","server_os":"Linux","password":true,"vac":true,"version":"7961495","steam_id":85568392924470002,"keywords":["cp","nocrits","nodmgspread","uncletopia"],"game_id":440,"stv_port":27026,"stv_name":"Uncletopia | Sydney | 2 | All Maps | STV","players":null},{"server_id":395,"name":"Uncletopia | Sydney | 3 | All Maps","name_short":"syd-3","host":"syd-1.au.uncletopia.com","port":27035,"enabled":true,"region":"au","cc":"au","latitude":-33.865143,"longitude":151.2099,"reserved":0,"last_update":"0001-01-01T00:00:00Z","name_a2s":"Uncletopia | Sydney | 3 | All Maps","protocol":17,"map":"koth_lakeside_final","folder":"tf","game":"Team Fortress","app_id":440,"player_count":0,"max_players":24,"Bots":0,"server_type":"Dedicated","server_os":"Linux","password":true,"vac":true,"version":"7961495","steam_id":85568392925194467,"keywords":["cp","nocrits","nodmgspread","uncletopia"],"game_id":440,"stv_port":27036,"stv_name":"Uncletopia | Sydney | 3 | All Maps | STV","players":null},{"server_id":396,"name":"Uncletopia | Sydney | 4 | All Maps","name_short":"syd-4","host":"syd-1.au.uncletopia.com","port":27045,"enabled":true,"region":"au","cc":"au","latitude":-33.865143,"longitude":151.2099,"reserved":0,"last_update":"0001-01-01T00:00:00Z","name_a2s":"Uncletopia | Sydney | 4 | All Maps","protocol":17,"map":"cp_snakewater_final1","folder":"tf","game":"Team Fortress","app_id":440,"player_count":0,"max_players":24,"Bots":0,"server_type":"Dedicated","server_os":"Linux","password":true,"vac":true,"version":"7961495","steam_id":85568392925397958,"keywords":["cp","nocrits","nodmgspread","uncletopia"],"game_id":440,"stv_port":27046,"stv_name":"Uncletopia | Sydney | 4 | All Maps | STV","players":null},{"server_id":58,"name":"Uncletopia | Sydney | 5 | Stopwatch","name_short":"syd-5","host":"syd-1.au.uncletopia.com","port":27055,"enabled":true,"region":"au","cc":"au","latitude":-33.865143,"longitude":151.2099,"reserved":0,"last_update":"0001-01-01T00:00:00Z","name_a2s":"Uncletopia | Sydney | 5 | Stopwatch","protocol":17,"map":"workshop/pl_summercoast_rc8e.ugc1761528829","folder":"tf","game":"Team Fortress","app_id":440,"player_count":0,"max_players":24,"Bots":0,"server_type":"Dedicated","server_os":"Linux","password":true,"vac":true,"version":"7961495","steam_id":85568392925397959,"keywords":["nocrits","nodmgspread","payload","uncletopia"],"game_id":440,"stv_port":27056,"stv_name":"Uncletopia | Sydney | 5 | Stopwatch | STV","players":null},{"server_id":59,"name":"Uncletopia | Sydney | 6 | Community","name_short":"syd-6","host":"syd-1.au.uncletopia.com","port":27065,"enabled":true,"region":"au","cc":"au","latitude":-33.865143,"longitude":151.2099,"reserved":0,"last_update":"0001-01-01T00:00:00Z","name_a2s":"Uncletopia | Sydney | 6 | Community","protocol":17,"map":"workshop/koth_soot_final1.ugc2969540689","folder":"tf","game":"Team Fortress","app_id":440,"player_count":0,"max_players":24,"Bots":0,"server_type":"Dedicated","server_os":"Linux","password":true,"vac":true,"version":"7961495","steam_id":85568392925397960,"keywords":["cp","nocrits","nodmgspread","uncletopia"],"game_id":440,"stv_port":27066,"stv_name":"Uncletopia | Sydney | 6 | Community | STV","players":null},{"server_id":49,"name":"Uncletopia | Warsaw | 1 | One Thousand Uncles","name_short":"waw-1","host":"waw-1.pl.uncletopia.com","port":27015,"enabled":true,"region":"eu","cc":"pl","latitude":52.2297,"longitude":21.017532,"reserved":0,"last_update":"0001-01-01T00:00:00Z","name_a2s":"Uncletopia | Warsaw | 1 | One Thousand Uncles","protocol":17,"map":"cp_mossrock","folder":"tf","game":"Team Fortress","app_id":440,"player_count":31,"max_players":32,"Bots":20,"server_type":"Dedicated","server_os":"Linux","password":true,"vac":true,"version":"7961495","steam_id":85568392925397850,"keywords":["alltalk","bots","cp","danepve","increased_maxplayers","norespawntime","uncletopia"],"game_id":440,"stv_port":0,"stv_name":"","players":[{"user_id":39,"name":"PuPuruPuruPumPu","steam_id":76561198391950490,"connected_time":3769000000000,"state":"active","ping":104},{"user_id":80,"name":"Dr.Orange","steam_id":76561199502989575,"connected_time":2296000000000,"state":"active","ping":62},{"user_id":92,"name":"facetious dog","steam_id":76561198095289436,"connected_time":1162000000000,"state":"active","ping":61},{"user_id":87,"name":"ślimak z zadania 14","steam_id":76561199084680369,"connected_time":1323000000000,"state":"active","ping":39},{"user_id":89,"name":"kilany","steam_id":76561198322366556,"connected_time":1301000000000,"state":"active","ping":129},{"user_id":90,"name":"APGE","steam_id":76561198037063136,"connected_time":1295000000000,"state":"active","ping":80},{"user_id":100,"name":"use_a_gun();else use_more_gun()","steam_id":76561198055512527,"connected_time":377000000000,"state":"active","ping":76},{"user_id":95,"name":"didi_gaga","steam_id":76561198797688627,"connected_time":494000000000,"state":"active","ping":55},{"user_id":96,"name":"Womanticore","steam_id":76561199235582031,"connected_time":482000000000,"state":"active","ping":264},{"user_id":98,"name":"Claw","steam_id":76561198060985181,"connected_time":430000000000,"state":"active","ping":81},{"user_id":121,"name":"OutOfDucks","steam_id":76561198166376227,"connected_time":259000000000,"state":"active","ping":86}]},{"server_id":50,"name":"Uncletopia | Warsaw | 2 | One Thousand Uncles","name_short":"waw-2","host":"waw-1.pl.uncletopia.com","port":27025,"enabled":true,"region":"eu","cc":"pl","latitude":52.2297,"longitude":21.017532,"reserved":0,"last_update":"0001-01-01T00:00:00Z","name_a2s":"Uncletopia | Warsaw | 2 | One Thousand Uncles","protocol":17,"map":"cp_dustbowl","folder":"tf","game":"Team Fortress","app_id":440,"player_count":32,"max_players":32,"Bots":20,"server_type":"Dedicated","server_os":"Linux","password":true,"vac":true,"version":"7961495","steam_id":85568392925397851,"keywords":["alltalk","bots","cp","danepve","increased_maxplayers","norespawntime","uncletopia"],"game_id":440,"stv_port":0,"stv_name":"","players":[{"user_id":468,"name":"ErevOuder#saveTF2","steam_id":76561198842604384,"connected_time":120000000000,"state":"active","ping":89},{"user_id":466,"name":"Stefan012","steam_id":76561198351832492,"connected_time":355000000000,"state":"active","ping":109},{"user_id":450,"name":"BFG 8=====Э","steam_id":76561198019254889,"connected_time":3686000000000,"state":"active","ping":69},{"user_id":463,"name":"krembergs","steam_id":76561198329728890,"connected_time":840000000000,"state":"active","ping":81},{"user_id":454,"name":"judasz","steam_id":76561198057378108,"connected_time":3154000000000,"state":"active","ping":71},{"user_id":455,"name":"Spxndrej","steam_id":76561199426583978,"connected_time":3131000000000,"state":"active","ping":59},{"user_id":456,"name":"Kotlet schabowy","steam_id":76561198048983509,"connected_time":2826000000000,"state":"active","ping":54},{"user_id":467,"name":"R3D01","steam_id":76561199222100771,"connected_time":349000000000,"state":"active","ping":112},{"user_id":458,"name":"adv6","steam_id":76561198029789989,"connected_time":2710000000000,"state":"active","ping":77},{"user_id":459,"name":"Sir Ax-elot","steam_id":76561198048832733,"connected_time":2708000000000,"state":"active","ping":42},{"user_id":464,"name":"John Noob","steam_id":76561197999170026,"connected_time":654000000000,"state":"active","ping":199},{"user_id":462,"name":"deflox","steam_id":76561198087450635,"connected_time":1794000000000,"state":"active","ping":59}]},{"server_id":51,"name":"Uncletopia | Warsaw | 3 | All Maps","name_short":"waw-3","host":"waw-1.pl.uncletopia.com","port":27035,"enabled":true,"region":"eu","cc":"pl","latitude":52.2297,"longitude":21.017532,"reserved":0,"last_update":"0001-01-01T00:00:00Z","name_a2s":"Uncletopia | Warsaw | 3 | All Maps","protocol":17,"map":"cp_dustbowl","folder":"tf","game":"Team Fortress","app_id":440,"player_count":0,"max_players":24,"Bots":0,"server_type":"Dedicated","server_os":"Linux","password":true,"vac":true,"version":"7961495","steam_id":85568392925397852,"keywords":["cp","nocrits","nodmgspread","uncletopia"],"game_id":440,"stv_port":27036,"stv_name":"Uncletopia | Warsaw | 3 | All Maps | STV","players":null},{"server_id":52,"name":"Uncletopia | Warsaw | 4 | All Maps","name_short":"waw-4","host":"waw-1.pl.uncletopia.com","port":27045,"enabled":true,"region":"eu","cc":"pl","latitude":52.2297,"longitude":21.017532,"reserved":0,"last_update":"0001-01-01T00:00:00Z","name_a2s":"Uncletopia | Warsaw | 4 | All Maps","protocol":17,"map":"koth_viaduct","folder":"tf","game":"Team Fortress","app_id":440,"player_count":0,"max_players":24,"Bots":0,"server_type":"Dedicated","server_os":"Linux","password":true,"vac":true,"version":"7961495","steam_id":85568392925397853,"keywords":["cp","nocrits","nodmgspread","uncletopia"],"game_id":440,"stv_port":27046,"stv_name":"Uncletopia | Warsaw | 4 | All Maps | STV","players":null},{"server_id":53,"name":"Uncletopia | Warsaw | 5 | Stopwatch","name_short":"waw-5","host":"waw-1.pl.uncletopia.com","port":27055,"enabled":true,"region":"eu","cc":"pl","latitude":52.2297,"longitude":21.017532,"reserved":0,"last_update":"0001-01-01T00:00:00Z","name_a2s":"Uncletopia | Warsaw | 5 | Stopwatch","protocol":17,"map":"workshop/koth_clearcut_b15.ugc2107050255","folder":"tf","game":"Team Fortress","app_id":440,"player_count":0,"max_players":24,"Bots":0,"server_type":"Dedicated","server_os":"Linux","password":true,"vac":true,"version":"7961495","steam_id":85568392925397854,"keywords":["cp","nocrits","nodmgspread","uncletopia"],"game_id":440,"stv_port":27056,"stv_name":"Uncletopia | Warsaw | 5 | Stopwatch | STV","players":null},{"server_id":54,"name":"Uncletopia | Warsaw | 6 | Community","name_short":"waw-6","host":"waw-1.pl.uncletopia.com","port":27065,"enabled":true,"region":"eu","cc":"pl","latitude":52.2297,"longitude":21.017532,"reserved":0,"last_update":"0001-01-01T00:00:00Z","name_a2s":"Uncletopia | Warsaw | 6 | Community","protocol":17,"map":"workshop/pl_boundary_final1.ugc456799153","folder":"tf","game":"Team Fortress","app_id":440,"player_count":0,"max_players":24,"Bots":0,"server_type":"Dedicated","server_os":"Linux","password":true,"vac":true,"version":"7961495","steam_id":85568392925397856,"keywords":["nocrits","nodmgspread","payload","uncletopia"],"game_id":440,"stv_port":27066,"stv_name":"Uncletopia | Warsaw | 6 | Community | STV","players":null}]}