{"status":true,"message":"","result":[{"server_id":9,"name":"Uncletopia | Atlanta | 1 | All Maps","name_short":"atl-1","host":"atl-1.us.uncletopia.com","port":27015,"enabled":true,"region":"us-east","cc":"us","latitude":33.753746,"longitude":-84.38633,"reserved":0,"last_update":"0001-01-01T00:00:00Z","name_a2s":"Uncletopia | Atlanta | 1 | All Maps","protocol":17,"map":"pl_frontier_final","folder":"tf","game":"Team Fortress","app_id":440,"player_count":0,"max_players":24,"Bots":0,"server_type":"Dedicated","server_os":"Linux","password":true,"vac":true,"version":"7961495","steam_id":85568392924469982,"keywords":["nocrits","nodmgspread","payload","uncletopia"],"game_id":440,"stv_port":27016,"stv_name":"Uncletopia | Atlanta | 1 | All Maps | STV","players":null},{"server_id":104,"name":"Uncletopia | Atlanta | 2 | All Maps","name_short":"atl-2","host":"atl-1.us.uncletopia.com","port":27025,"enabled":true,"region":"us-east","cc":"us","latitude":33.753746,"longitude":-84.38633,"reserved":0,"last_update":"0001-01-01T00:00:00Z","name_a2s":"Uncletopia | Atlanta | 2 | All Maps","protocol":17,"map":"cp_mountainlab","folder":"tf","game":"Team Fortress","app_id":440,"player_count":0,"max_players":24,"Bots":0,"server_type":"Dedicated","server_os":"Linux","password":true,"vac":true,"version":"7961495","steam_id":85568392924469983,"keywords":["cp","nocrits","nodmgspread","uncletopia"],"game_id":440,"stv_port":27026,"stv_name":"Uncletopia | Atlanta | 2 | All Maps | STV","players":null},{"server_id":400,"name":"Uncletopia | Atlanta | 3 | Stopwatch","name_short":"atl-3","host":"atl-1.us.uncletopia.com","port":27035,"enabled":true,"region":"us-east","cc":"us","latitude":33.753746,"longitude":-84.38633,"reserved":0,"last_update":"0001-01-01T00:00:00Z","name_a2s":"Uncletopia | Atlanta | 3 | Stopwatch","protocol":17,"map":"workshop/koth_jamram_rc1a.ugc2964065613","folder":"tf","game":"Team Fortress","app_id":440,"player_count":0,"max_players":24,"Bots":0,"server_type":"Dedicated","server_os":"Linux","password":true,"vac":true,"version":"7961495","steam_id":85568392924515187,"keywords":["cp","nocrits","nodmgspread","uncletopia"],"game_id":440,"stv_port":27036,"stv_name":"Uncletopia | Atlanta | 3 | Stopwatch | STV","players":null},{"server_id":401,"name":"Uncletopia | Atlanta | 4 | Community","name_short":"atl-4","host":"atl-1.us.uncletopia.com","port":27045,"enabled":true,"region":"us-east","cc":"us","latitude":33.753746,"longitude":-84.38633,"reserved":0,"last_update":"0001-01-01T00:00:00Z","name_a2s":"Uncletopia | Atlanta | 4 | Community","protocol":17,"map":"workshop/cp_glassworks_rc7a.ugc454118349","folder":"tf","game":"Team Fortress","app_id":440,"player_count":0,"max_players":24,"Bots":0,"server_type":"Dedicated","server_os":"Linux","password":true,"vac":true,"version":"7961495","steam_id":85568392924515188,"keywords":["cp","nocrits","nodmgspread","uncletopia"],"game_id":440,"stv_port":27046,"stv_name":"Uncletopia | Atlanta | 4 | Community | STV","players":null},{"server_id":2,"name":"Uncletopia | Chicago | 1 | All Maps","name_short":"chi-1","host":"chi-1.us.uncletopia.com","port":27015,"enabled":true,"region":"us-central","cc":"us","latitude":41.881832,"longitude":-87.62318,"reserved":0,"last_update":"0001-01-01T00:00:00Z","name_a2s":"Uncletopia | Chicago | 1 | All Maps","protocol":17,"map":"koth_lakeside_final","folder":"tf","game":"Team Fortress","app_id":440,"player_count":0,"max_players":24,"Bots":0,"server_type":"Dedicated","server_os":"Linux","password":true,"vac":true,"version":"7961495","steam_id":85568392924469984,"keywords":["cp","nocrits","nodmgspread","uncletopia"],"game_id":440,"stv_port":27016,"stv_name":"Uncletopia | Chicago | 1 | All Maps | STV","players":null},{"server_id":106,"name":"Uncletopia | Chicago | 2 | All Maps","name_short":"chi-2","host":"chi-1.us.uncletopia.com","port":27025,"enabled":true,"region":"us-central","cc":"us","latitude":41.881832,"longitude":-87.62318,"reserved":0,"last_update":"0001-01-01T00:00:00Z","name_a2s":"Uncletopia | Chicago | 2 | All Maps","protocol":17,"map":"cp_mountainlab","folder":"tf","game":"Team Fortress","app_id":440,"player_count":0,"max_players":24,"Bots":0,"server_type":"Dedicated","server_os":"Linux","password":true,"vac":true,"version":"7961495","steam_id":85568392924469985,"keywords":["cp","nocrits","nodmgspread","uncletopia"],"game_id":440,"stv_port":27026,"stv_name":"Uncletopia | Chicago | 2 | All Maps | STV","players":null},{"server_id":402,"name":"Uncletopia | Chicago | 3 | All Maps","name_short":"chi-3","host":"chi-1.us.uncletopia.com","port":27035,"enabled":true,"region":"us-central","cc":"us","latitude":41.881832,"longitude":-87.62318,"reserved":0,"last_update":"0001-01-01T00:00:00Z","name_a2s":"Uncletopia | Chicago | 3 | All Maps","protocol":17,"map":"pl_borneo","folder":"tf","game":"Team Fortress","app_id":440,"player_count":0,"max_players":24,"Bots":0,"server_type":"Dedicated","server_os":"Linux","password":true,"vac":true,"version":"7961495","steam_id":85568392924515191,"keywords":["nocrits","nodmgspread","payload","uncletopia"],"game_id":440,"stv_port":27036,"stv_name":"Uncletopia | Chicago | 3 | All Maps | STV","players":null},{"server_id":403,"name":"Uncletopia | Chicago | 4 | All Maps","name_short":"chi-4","host":"chi-1.us.uncletopia.com","port":27045,"enabled":true,"region":"us-central","cc":"us","latitude":41.881832,"longitude":-87.62318,"reserved":0,"last_update":"0001-01-01T00:00:00Z","name_a2s":"Uncletopia | Chicago | 4 | All Maps","protocol":17,"map":"koth_harvest_final","folder":"tf","game":"Team Fortress","app_id":440,"player_count":0,"max_players":24,"Bots":0,"server_type":"Dedicated","server_os":"Linux","password":true,"vac":true,"version":"7961495","steam_id":85568392924515193,"keywords":["cp","nocrits","nodmgspread","uncletopia"],"game_id":440,"stv_port":27046,"stv_name":"Uncletopia | Chicago | 4 | All Maps | STV","players":null},{"server_id":36,"name":"Uncletopia | Chicago | 5 | All Maps","name_short":"chi-5","host":"chi-2.us.uncletopia.com","port":27015,"enabled":true,"region":"us-central","cc":"us","latitude":41.881832,"longitude":-87.62318,"reserved":0,"last_update":"0001-01-01T00:00:00Z","name_a2s":"Uncletopia | Chicago | 5 | All Maps","protocol":17,"map":"pl_upward","folder":"tf","game":"Team Fortress","app_id":440,"player_count":24,"max_players":24,"Bots":0,"server_type":"Dedicated","server_os":"Linux","password":true,"vac":true,"version":"7961495","steam_id":85568392924866362,"keywords":["nocrits","nodmgspread","payload","uncletopia"],"game_id":440,"stv_port":27016,"stv_name":"Uncletopia | Chicago | 5 | All Maps | STV","players":[{"user_id":284,"name":"venom","steam_id":76561198107361608,"connected_time":4236000000000,"state":"active","ping":116},{"user_id":236,"name":"‚úß.*Remzy‚úß.*","steam_id":76561199239412094,"connected_time":7854000000000,"state":"active","ping":148},{"user_id":289,"name":"Biotox","steam_id":76561198341335332,"connected_time":4001000000000,"state":"active","ping":100},{"user_id":296,"name":"Rainbeon","steam_id":76561198046150531,"connected_time":3147000000000,"state":"active","ping":130},{"user_id":317,"name":"Galactamarx","steam_id":76561198028065755,"connected_time":1137000000000,"state":"active","ping":103},{"user_id":326,"name":"bladees realest, saddest verse","steam_id":76561198098099826,"connected_time":523000000000,"state":"active","ping":95},{"user_id":324,"name":"‚∏∏ gaige ‚õß","steam_id":76561198090576796,"connected_time":831000000000,"state":"active","ping":49},{"user_id":286,"name":"lalman","steam_id":76561198196605887,"connected_time":4207000000000,"state":"active","ping":65},{"user_id":305,"name":"Oingo Boingo","steam_id":76561199350870177,"connected_time":2137000000000,"state":"active","ping":60},{"user_id":280,"name":"yesoko","steam_id":76561198072917024,"connected_time":5112000000000,"state":"active","ping":54},{"user_id":216,"name":"zaag","steam_id":76561198156386184,"connected_time":10512000000000,"state":"active","ping":90},{"user_id":320,"name":"M E M E  M A N","steam_id":76561198103179061,"connected_time":1001000000000,"state":"active","ping":63},{"user_id":230,"name":"Lennu","steam_id":76561198060730154,"connected_time":8310000000000,"state":"active","ping":73},{"user_id":285,"name":"substance","steam_id":76561198050103868,"connected_time":4218000000000,"state":"active","ping":91},{"user_id":325,"name":"jan Emili","steam_id":76561198061455664,"connected_time":657000000000,"state":"active","ping":72},{"user_id":327,"name":"chrisd149","steam_id":76561198018710480,"connected_time":452000000000,"state":"active","ping":93},{"user_id":205,"name":"Scarecrow","steam_id":76561198045870511,"connected_time":11854000000000,"state":"active","ping":61},{"user_id":328,"name":"dzcreeper","steam_id":76561198072250723,"connected_time":422000000000,"state":"active","ping":69},{"user_id":330,"name":"holl","steam_id":76561199212388215,"connected_time":212000000000,"state":"active","ping":68},{"user_id":268,"name":"Kros","steam_id":76561198803159222,"connected_time":6183000000000,"state":"active","ping":66},{"user_id":311,"name":"I. C. Wiener","steam_id":76561198062777610,"connected_time":1930000000000,"state":"active","ping":101},{"user_id":329,"name":"Anstorner","steam_id":76561198274026015,"connected_time":387000000000,"state":"active","ping":98},{"user_id":323,"name":"frank","steam_id":76561198137777483,"connected_time":942000000000,"state":"active","ping":65},{"user_id":316,"name":"G!B","steam_id":76561199508468914,"connected_time":1589000000000,"state":"active","ping":91}]},{"server_id":37,"name":"Uncletopia | Chicago | 6 | All Maps","name_short":"chi-6","host":"chi-2.us.uncletopia.com","port":27025,"enabled":true,"region":"us-central","cc":"us","latitude":41.881832,"longitude":-87.62318,"reserved":0,"last_update":"0001-01-01T00:00:00Z","name_a2s":"Uncletopia | Chicago | 6 | All Maps","protocol":17,"map":"koth_cascade","folder":"tf","game":"Team Fortress","app_id":440,"player_count":0,"max_players":24,"Bots":0,"server_type":"Dedicated","server_os":"Linux","password":true,"vac":true,"version":"7961495","steam_id":85568392924866363,"keywords":["cp","nocrits","nodmgspread","uncletopia"],"game_id":440,"stv_port":27026,"stv_name":"Uncletopia | Chicago | 6 | All Maps | STV","players":null},{"server_id":38,"name":"Uncletopia | Chicago | 7 | Stopwatch","name_short":"chi-7","host":"chi-2.us.uncletopia.com","port":27035,"enabled":true,"region":"us-central","cc":"us","latitude":41.881832,"longitude":-87.62318,"reserved":0,"last_update":"0001-01-01T00:00:00Z","name_a2s":"Uncletopia | Chicago | 7 | Stopwatch","protocol":17,"map":"workshop/cp_reckoner_rc6.ugc674719999","folder":"tf","game":"Team Fortress","app_id":440,"player_count":0,"max_players":24,"Bots":0,"server_type":"Dedicated","server_os":"Linux","password":true,"vac":true,"version":"7961495","steam_id":85568392924866364,"keywords":["cp","nocrits","nodmgspread","uncletopia"],"game_id":440,"stv_port":27036,"stv_name":"Uncletopia | Chicago | 7 | Stopwatch | STV","players":null},{"server_id":39,"name":"Uncletopia | Chicago | 8 | Community","name_short":"chi-8","host":"chi-2.us.uncletopia.com","port":27045,"enabled":true,"region":"us-central","cc":"us","latitude":41.881832,"longitude":-87.62318,"reserved":0,"last_update":"0001-01-01T00:00:00Z","name_a2s":"Uncletopia | Chicago | 8 | Community","protocol":17,"map":"workshop/koth_logwash_rc4.ugc2968862976","folder":"tf","game":"Team Fortress","app_id":440,"player_count":0,"max_players":24,"Bots":0,"server_type":"Dedicated","server_os":"Linux","password":true,"vac":true,"version":"7961495","steam_id":85568392924866365,"keywords":["cp","nocrits","nodmgspread","uncletopia"],"game_id":440,"stv_port":27046,"stv_name":"Uncletopia | Chicago | 8 | Community | STV","players":null},{"server_id":8,"name":"Uncletopia | Dallas | 1 | All Maps","name_short":"dal-1","host":"dal-1.us.uncletopia.com","port":27015,"enabled":true,"region":"us-central","cc":"us","latitude":32.779167,"longitude":-96.80889,"reserved":0,"last_update":"0001-01-01T00:00:00Z","name_a2s":"Uncletopia | Dallas | 1 | All Maps","protocol":17,"map":"pl_badwater","folder":"tf","game":"Team Fortress","app_id":440,"player_count":19,"max_players":24,"Bots":0,"server_type":"Dedicated","server_os":"Linux","password":true,"vac":true,"version":"7961495","steam_id":85568392924469986,"keywords":["nocrits","nodmgspread","payload","uncletopia"],"game_id":440,"stv_port":27016,"stv_name":"Uncletopia | Dallas | 1 | All Maps | STV","players":[{"user_id":626,"name":"DSM-IVCE","steam_id":76561199438515797,"connected_time":2534000000000,"state":"spawning","ping":226},{"user_id":633,"name":"8o8","steam_id":76561198996923332,"connected_time":1890000000000,"state":"spawning","ping":110},{"user_id":586,"name":"Bro D. Foxx","steam_id":76561198859557921,"connected_time":5834000000000,"state":"spawning","ping":146},{"user_id":482,"name":"Byan","steam_id":76561198319090131,"connected_time":14049000000000,"state":"spawning","ping":157},{"user_id":483,"name":"Dynamic","steam_id":76561198204547960,"connected_time":14023000000000,"state":"spawning","ping":134},{"user_id":627,"name":"RollingCow","steam_id":76561198067114237,"connected_time":2401000000000,"state":"spawning","ping":139},{"user_id":655,"name":"I Plow Tomboys","steam_id":76561198429474619,"connected_time":582000000000,"state":"spawning","ping":120},{"user_id":640,"name":"no vc no c","steam_id":76561197989503095,"connected_time":1466000000000,"state":"spawning","ping":265},{"user_id":642,"name":"Real","steam_id":76561198405830028,"connected_time":1171000000000,"state":"spawning","ping":168},{"user_id":653,"name":"Trigger","steam_id":76561198220120368,"connected_time":667000000000,"state":"spawning","ping":144},{"user_id":657,"name":"motherfucker 2.0","steam_id":76561198141189209,"connected_time":523000000000,"state":"spawning","ping":74},{"user_id":638,"name":"Russell","steam_id":76561198024159373,"connected_time":1652000000000,"state":"spawning","ping":203},{"user_id":647,"name":"Epsilon","steam_id":76561198185023111,"connected_time":899000000000,"state":"spawning","ping":126},{"user_id":611,"name":"DrScotthew","steam_id":76561198250558482,"connected_time":3547000000000,"state":"spawning","ping":161},{"user_id":660,"name":"blademiss","steam_id":76561198062083019,"connected_time":429000000000,"state":"spawning","ping":159},{"user_id":661,"name":"AAAAAAAAAAAAAAAAAAAAAAAAAAAAAAA","steam_id":76561198054974562,"connected_time":376000000000,"state":"spawning","ping":166},{"user_id":662,"name":"Deimos","steam_id":76561198254665780,"connected_time":258000000000,"state":"spawning","ping":205},{"user_id":663,"name":"Gasly The Red","steam_id":76561198397898297,"connected_time":189000000000,"state":"spawning","ping":247},{"user_id":635,"name":"Alias","steam_id":76561198103515747,"connected_time":1807000000000,"state":"spawning","ping":178}]},{"server_id":108,"name":"Uncletopia | Dallas | 2 | All Maps","name_short":"dal-2","host":"dal-1.us.uncletopia.com","port":27025,"enabled":true,"region":"us-central","cc":"us","latitude":32.779167,"longitude":-96.80889,"reserved":0,"last_update":"0001-01-01T00:00:00Z","name_a2s":"Uncletopia | Dallas | 2 | All Maps","protocol":17,"map":"cp_powerhouse","folder":"tf","game":"Team Fortress","app_id":440,"player_count":24,"max_players":24,"Bots":0,"server_type":"Dedicated","server_os":"Linux","password":true,"vac":true,"version":"7961495","steam_id":85568392924469988,"keywords":["cp","nocrits","nodmgspread","uncletopia"],"game_id":440,"stv_port":27026,"stv_name":"Uncletopia | Dallas | 2 | All Maps | STV","players":[{"user_id":659,"name":"BigassBusdriver","steam_id":76561197987042458,"connected_time":5756000000000,"state":"active","ping":102},{"user_id":676,"name":"Zomb3Red","steam_id":76561198075677894,"connected_time":4435000000000,"state":"active","ping":81},{"user_id":722,"name":"PONTIFEX MAXIMUS","steam_id":76561198074758287,"connected_time":1242000000000,"state":"active","ping":85},{"user_id":717,"name":"_Pai","steam_id":76561198108196753,"connected_time":1438000000000,"state":"active","ping":75},{"user_id":725,"name":"Sniper Player (Derogatory)","steam_id":76561198046526036,"connected_time":299000000000,"state":"active","ping":75},{"user_id":677,"name":"J2daakob","steam_id":76561198177499289,"connected_time":4435000000000,"state":"active","ping":76},{"user_id":713,"name":"Derp Ravener","steam_id":76561197976580884,"connected_time":1822000000000,"state":"active","ping":105},{"user_id":714,"name":"PageBoiSkull","steam_id":76561198237353578,"connected_time":1721000000000,"state":"active","ping":92},{"user_id":724,"name":"MoonWolf","steam_id":76561198095735033,"connected_time":693000000000,"state":"active","ping":70},{"user_id":672,"name":"5ft Powerhouse","steam_id":76561198078040365,"connected_time":4671000000000,"state":"active","ping":59},{"user_id":678,"name":"SpaceCrow8260 - TTV -","steam_id":76561198156879117,"connected_time":4415000000000,"state":"active","ping":52},{"user_id":679,"name":"SgT_Spam","steam_id":76561198275753768,"connected_time":4413000000000,"state":"active","ping":54},{"user_id":701,"name":"Rock Kickass","steam_id":76561198450510841,"connected_time":2822000000000,"state":"active","ping":87},{"user_id":719,"name":"Team Fartpiss Poo","steam_id":76561199163591880,"connected_time":1344000000000,"state":"active","ping":89},{"user_id":704,"name":"fly","steam_id":76561199003715735,"connected_time":2477000000000,"state":"active","ping":80},{"user_id":715,"name":"Klip","steam_id":76561198316254429,"connected_time":1555000000000,"state":"active","ping":53},{"user_id":723,"name":"Pound","steam_id":76561198046727292,"connected_time":1159000000000,"state":"active","ping":164},{"user_id":711,"name":"canadian birds","steam_id":76561198059466588,"connected_time":2064000000000,"state":"active","ping":83},{"user_id":726,"name":"Skudge Sister","steam_id":76561198041766766,"connected_time":236000000000,"state":"active","ping":107},{"user_id":684,"name":"redalpha00","steam_id":76561198054197545,"connected_time":4295000000000,"state":"active","ping":81},{"user_id":594,"name":"The Anime Protagonist","steam_id":76561198131400543,"connected_time":10397000000000,"state":"active","ping":69},{"user_id":685,"name":"CeLeb144","steam_id":76561199089907740,"connected_time":4286000000000,"state":"active","ping":68},{"user_id":721,"name":"NERV","steam_id":76561198111023744,"connected_time":1293000000000,"state":"active","ping":97},{"user_id":669,"name":"üê∫-Iwky-ü¶ä","steam_id":76561198185616311,"connected_time":4829000000000,"state":"active","ping":68}]},{"server_id":404,"name":"Uncletopia | Dallas | 3 | All Maps","name_short":"dal-3","host":"dal-1.us.uncletopia.com","port":27035,"enabled":true,"region":"us-central","cc":"us","latitude":32.779167,"longitude":-96.80889,"reserved":0,"last_update":"0001-01-01T00:00:00Z","name_a2s":"Uncletopia | Dallas | 3 | All Maps","protocol":17,"map":"pl_upward","folder":"tf","game":"Team Fortress","app_id":440,"player_count":0,"max_players":24,"Bots":0,"server_type":"Dedicated","server_os":"Linux","password":true,"vac":true,"version":"7961495","steam_id":85568392924515219,"keywords":["nocrits","nodmgspread","payload","uncletopia"],"game_id":440,"stv_port":27036,"stv_name":"Uncletopia | Dallas | 3 | All Maps | STV","players":null},{"server_id":405,"name":"Uncletopia | Dallas | 4 | Community","name_short":"dal-4","host":"dal-1.us.uncletopia.com","port":27045,"enabled":true,"region":"us-central","cc":"us","latitude":32.779167,"longitude":-96.80889,"reserved":0,"last_update":"0001-01-01T00:00:00Z","name_a2s":"Uncletopia | Dallas | 4 | Community","protocol":17,"map":"workshop/koth_rotunda_rc10w.ugc2964421291","folder":"tf","game":"Team Fortress","app_id":440,"player_count":0,"max_players":24,"Bots":0,"server_type":"Dedicated","server_os":"Linux","password":true,"vac":true,"version":"7961495","steam_id":85568392924515220,"keywords":["cp","nocrits","nodmgspread","uncletopia"],"game_id":440,"stv_port":27046,"stv_name":"Uncletopia | Dallas | 4 | Community | STV","players":null},{"server_id":5,"name":"Uncletopia | Frankfurt | 1 | All Maps","name_short":"frk-1","host":"frk-1.de.uncletopia.com","port":27015,"enabled":true,"region":"eu","cc":"de","latitude":50.110924,"longitude":8.682127,"reserved":0,"last_update":"0001-01-01T00:00:00Z","name_a2s":"Uncletopia | Frankfurt | 1 | All Maps","protocol":17,"map":"pl_frontier_final","folder":"tf","game":"Team Fortress","app_id":440,"player_count":0,"max_players":24,"Bots":0,"server_type":"Dedicated","server_os":"Linux","password":true,"vac":true,"version":"7961495","steam_id":85568392924469989,"keywords":["nocrits","nodmgspread","payload","uncletopia"],"game_id":440,"stv_port":27016,"stv_name":"Uncletopia | Frankfurt | 1 | All Maps | STV","players":null},{"server_id":110,"name":"Uncletopia | Frankfurt | 2 | All Maps","name_short":"frk-2","host":"frk-1.de.uncletopia.com","port":27025,"enabled":true,"region":"eu","cc":"de","latitude":50.110924,"longitude":8.682127,"reserved":0,"last_update":"0001-01-01T00:00:00Z","name_a2s":"Uncletopia | Frankfurt | 2 | All Maps","protocol":17,"map":"pl_swiftwater_final1","folder":"tf","game":"Team Fortress","app_id":440,"player_count":24,"max_players":24,"Bots":0,"server_type":"Dedicated","server_os":"Linux","password":true,"vac":true,"version":"7961495","steam_id":85568392924469990,"keywords":["nocrits","nodmgspread","payload","uncletopia"],"game_id":440,"stv_port":27026,"stv_name":"Uncletopia | Frankfurt | 2 | All Maps | STV","players":[{"user_id":135,"name":"Zorutan","steam_id":76561198166758127,"connected_time":62000000000,"state":"active","ping":71},{"user_id":4,"name":"large and in charge","steam_id":76561199179040672,"connected_time":13221000000000,"state":"active","ping":66},{"user_id":123,"name":"Krokinet","steam_id":76561198985877252,"connected_time":1313000000000,"state":"active","ping":95},{"user_id":127,"name":"Fus in Boots","steam_id":76561198053897722,"connected_time":710000000000,"state":"active","ping":59},{"user_id":113,"name":"RayTrain","steam_id":76561198874299515,"connected_time":2177000000000,"state":"active","ping":69},{"user_id":9,"name":"CumbustiblePunda","steam_id":76561197974274677,"connected_time":13214000000000,"state":"active","ping":56},{"user_id":125,"name":"Stinky Whizzleteats","steam_id":76561197968945306,"connected_time":988000000000,"state":"active","ping":70},{"user_id":130,"name":"VIN WEASEL","steam_id":76561198014387066,"connected_time":624000000000,"state":"active","ping":48},{"user_id":102,"name":"warforge3","steam_id":76561199276024310,"connected_time":2826000000000,"state":"active","ping":93},{"user_id":110,"name":"pepsimus_maximus (pepsi/max)","steam_id":76561198062425104,"connected_time":2288000000000,"state":"active","ping":77},{"user_id":103,"name":"Sochin","steam_id":76561198967412865,"connected_time":2654000000000,"state":"active","ping":59},{"user_id":121,"name":"taffer","steam_id":76561199480942903,"connected_time":1459000000000,"state":"active","ping":62},{"user_id":119,"name":"Praskaton1905","steam_id":76561199086026716,"connected_time":1569000000000,"state":"active","ping":75},{"user_id":129,"name":"Purplenoogie","steam_id":76561198081872160,"connected_time":679000000000,"state":"active","ping":47},{"user_id":126,"name":"mihaiandreiaura","steam_id":76561198930688023,"connected_time":925000000000,"state":"active","ping":79},{"user_id":108,"name":"Local Moldovan Farmer","steam_id":76561198066109166,"connected_time":2353000000000,"state":"active","ping":74},{"user_id":87,"name":"FilipeLuk","steam_id":76561198150675438,"connected_time":3987000000000,"state":"active","ping":72},{"user_id":134,"name":"spycrabPootisPybro","steam_id":76561199184100727,"connected_time":117000000000,"state":"active","ping":72},{"user_id":109,"name":"DarkMelody","steam_id":76561198063225937,"connected_time":2298000000000,"state":"active","ping":119},{"user_id":111,"name":"ULTRAGURKATTV","steam_id":76561198113657772,"connected_time":2254000000000,"state":"active","ping":83},{"user_id":132,"name":"Werit Bacover","steam_id":76561198397163021,"connected_time":578000000000,"state":"active","ping":145},{"user_id":116,"name":"Random_Deutschbag","steam_id":76561199129218371,"connected_time":2063000000000,"state":"active","ping":44},{"user_id":117,"name":"Nyoom","steam_id":76561198054585002,"connected_time":2021000000000,"state":"active","ping":59},{"user_id":133,"name":"Denialman (Muted)","steam_id":76561198309182092,"connected_time":466000000000,"state":"active","ping":46}]},{"server_id":308,"name":"Uncletopia | Frankfurt | 3 | All Maps","name_short":"frk-3","host":"frk-1.de.uncletopia.com","port":27035,"enabled":true,"region":"eu","cc":"de","latitude":50.110924,"longitude":8.682127,"reserved":0,"last_update":"0001-01-01T00:00:00Z","name_a2s":"Uncletopia | Frankfurt | 3 | All Maps","protocol":17,"map":"plr_pipeline","folder":"tf","game":"Team Fortress","app_id":440,"player_count":0,"max_players":24,"Bots":0,"server_type":"Dedicated","server_os":"Linux","password":true,"vac":true,"version":"7961495","steam_id":85568392924504274,"keywords":["nocrits","nodmgspread","payload","uncletopia"],"game_id":440,"stv_port":27036,"stv_name":"Uncletopia | Frankfurt | 3 | All Maps | STV","players":null},{"server_id":309,"name":"Uncletopia | Frankfurt | 4 | All Maps","name_short":"frk-4","host":"frk-1.de.uncletopia.com","port":27045,"enabled":true,"region":"eu","cc":"de","latitude":50.110924,"longitude":8.682127,"reserved":0,"last_update":"0001-01-01T00:00:00Z","name_a2s":"Uncletopia | Frankfurt | 4 | All Maps","protocol":17,"map":"koth_lakeside_final","folder":"tf","game":"Team Fortress","app_id":440,"player_count":0,"max_players":24,"Bots":0,"server_type":"Dedicated","server_os":"Linux","password":true,"vac":true,"version":"7961495","steam_id":85568392924504275,"keywords":["cp","nocrits","nodmgspread","uncletopia"],"game_id":440,"stv_port":27046,"stv_name":"Uncletopia | Frankfurt | 4 | All Maps | STV","players":null},{"server_id":310,"name":"Uncletopia | Frankfurt | 5 | All Maps","name_short":"frk-5","host":"frk-1.de.uncletopia.com","port":27055,"enabled":true,"region":"eu","cc":"de","latitude":50.110924,"longitude":8.682127,"reserved":0,"last_update":"0001-01-01T00:00:00Z","name_a2s":"Uncletopia | Frankfurt | 5 | All Maps","protocol":17,"map":"ctf_landfall","folder":"tf","game":"Team Fortress","app_id":440,"player_count":0,"max_players":24,"Bots":0,"server_type":"Dedicated","server_os":"Linux","password":true,"vac":true,"version":"7961495","steam_id":85568392924504277,"keywords":["ctf","nocrits","nodmgspread","uncletopia"],"game_id":440,"stv_port":27056,"stv_name":"Uncletopia | Frankfurt | 5 | All Maps | STV","players":null},{"server_id":311,"name":"Uncletopia | Frankfurt | 6 | All Maps","name_short":"frk-6","host":"frk-1.de.uncletopia.com","port":27065,"enabled":true,"region":"eu","cc":"de","latitude":50.110924,"longitude":8.682127,"reserved":0,"last_update":"0001-01-01T00:00:00Z","name_a2s":"Uncletopia | Frankfurt | 6 | All Maps","protocol":17,"map":"pl_badwater","folder":"tf","game":"Team Fortress","app_id":440,"player_count":0,"max_players":24,"Bots":0,"server_type":"Dedicated","server_os":"Linux","password":true,"vac":true,"version":"7961495","steam_id":85568392924504278,"keywords":["nocrits","nodmgspread","payload","uncletopia"],"game_id":440,"stv_port":27066,"stv_name":"Uncletopia | Frankfurt | 6 | All Maps | STV","players":null},{"server_id":23,"name":"Uncletopia | Frankfurt | 7 | Stopwatch","name_short":"frk-7","host":"frk-1.de.uncletopia.com","port":27075,"enabled":true,"region":"eu","cc":"de","latitude":50.110924,"longitude":8.682127,"reserved":0,"last_update":"0001-01-01T00:00:00Z","name_a2s":"Uncletopia | Frankfurt | 7 | Stopwatch","protocol":17,"map":"koth_highpass","folder":"tf","game":"Team Fortress","app_id":440,"player_count":0,"max_players":24,"Bots":0,"server_type":"Dedicated","server_os":"Linux","password":true,"vac":true,"version":"7961495","steam_id":85568392924742827,"keywords":["cp","nocrits","nodmgspread","uncletopia"],"game_id":440,"stv_port":27076,"stv_name":"Uncletopia | Frankfurt | 7 | Stopwatch | STV","players":null},{"server_id":24,"name":"Uncletopia | Frankfurt | 8 | Community","name_short":"frk-8","host":"frk-1.de.uncletopia.com","port":27085,"enabled":true,"region":"eu","cc":"de","latitude":50.110924,"longitude":8.682127,"reserved":0,"last_update":"0001-01-01T00:00:00Z","name_a2s":"Uncletopia | Frankfurt | 8 | Community","protocol":17,"map":"workshop/pl_stallberg_rc3.ugc1849111469","folder":"tf","game":"Team Fortress","app_id":440,"player_count":0,"max_players":24,"Bots":0,"server_type":"Dedicated","server_os":"Linux","password":true,"vac":true,"version":"7961495","steam_id":85568392924742828,"keywords":["nocrits","nodmgspread","payload","uncletopia"],"game_id":440,"stv_port":27086,"stv_name":"Uncletopia | Frankfurt | 8 | Community | STV","players":null},{"server_id":202,"name":"Uncletopia | Hong Kong | 1 | All Maps","name_short":"hgk-1","host":"hgk-1.hk.uncletopia.com","port":27015,"enabled":true,"region":"asia","cc":"hk","latitude":22.302711,"longitude":114.177216,"reserved":0,"last_update":"0001-01-01T00:00:00Z","name_a2s":"Uncletopia | Hong Kong | 1 | All Maps","protocol":17,"map":"pl_badwater","folder":"tf","game":"Team Fortress","app_id":440,"player_count":24,"max_players":24,"Bots":0,"server_type":"Dedicated","server_os":"Linux","password":true,"vac":true,"version":"7961495","steam_id":85568392924494504,"keywords":["nocrits","nodmgspread","payload","uncletopia"],"game_id":440,"stv_port":27016,"stv_name":"Uncletopia | Hong Kong | 1 | All Maps | STV","players":[{"user_id":79,"name":"spacerock2014","steam_id":76561199158853202,"connected_time":1251000000000,"state":"active","ping":62},{"user_id":67,"name":"„É†„Éí(JP) #SAVE TF2","steam_id":76561198167528797,"connected_time":1830000000000,"state":"active","ping":109},{"user_id":50,"name":"Haru","steam_id":76561198240627872,"connected_time":4071000000000,"state":"active","ping":45},{"user_id":86,"name":"TomProPlayer","steam_id":76561199223292521,"connected_time":745000000000,"state":"active","ping":70},{"user_id":59,"name":"PhantomReaper","steam_id":76561199058312643,"connected_time":2981000000000,"state":"active","ping":107},{"user_id":18,"name":"3wfFbdrjEze5d2G","steam_id":76561198435900451,"connected_time":5581000000000,"state":"active","ping":69},{"user_id":76,"name":"Telekhine","steam_id":76561198387120618,"connected_time":1362000000000,"state":"active","ping":61},{"user_id":89,"name":"toad‚ô°","steam_id":76561198082199290,"connected_time":286000000000,"state":"active","ping":45},{"user_id":88,"name":"Marika","steam_id":76561198212649929,"connected_time":458000000000,"state":"active","ping":70},{"user_id":77,"name":"amanda the cat!","steam_id":76561199231294382,"connected_time":1362000000000,"state":"active","ping":132},{"user_id":48,"name":"Under The Bridge","steam_id":76561198093184384,"connected_time":4314000000000,"state":"active","ping":95},{"user_id":26,"name":"hodio","steam_id":76561198204747977,"connected_time":5054000000000,"state":"active","ping":69},{"user_id":44,"name":"v1.","steam_id":76561198037571054,"connected_time":4568000000000,"state":"active","ping":41},{"user_id":28,"name":"Joilee32","steam_id":76561199226255440,"connected_time":4895000000000,"state":"active","ping":81},{"user_id":80,"name":"Corn_Archer","steam_id":76561199185044554,"connected_time":1250000000000,"state":"active","ping":66},{"user_id":83,"name":"water tastes good","steam_id":76561199375947670,"connected_time":1142000000000,"state":"active","ping":70},{"user_id":43,"name":"eekynetwo(I can't chat)","steam_id":76561198990017441,"connected_time":4573000000000,"state":"active","ping":69},{"user_id":84,"name":"Priam","steam_id":76561198308840078,"connected_time":1114000000000,"state":"active","ping":111},{"user_id":90,"name":"sakuno rondo","steam_id":76561198230213828,"connected_time":235000000000,"state":"active","ping":64},{"user_id":55,"name":"my gun's broken :(","steam_id":76561199249938987,"connected_time":3765000000000,"state":"active","ping":44},{"user_id":64,"name":"BURN PYGMALION!!!","steam_id":76561198074339034,"connected_time":2587000000000,"state":"active","ping":76},{"user_id":71,"name":"eyes","steam_id":76561198858606228,"connected_time":1648000000000,"state":"active","ping":57},{"user_id":65,"name":"EXO","steam_id":76561198397865382,"connected_time":2552000000000,"state":"active","ping":137},{"user_id":85,"name":"brizzard","steam_id":76561198048438653,"connected_time":892000000000,"state":"active","ping":57}]},{"server_id":1,"name":"Uncletopia | Los Angeles | 1 | All Maps","name_short":"lax-1","host":"lax-1.us.uncletopia.com","port":27015,"enabled":true,"region":"us-west","cc":"us","latitude":33.94279,"longitude":-118.41004,"reserved":0,"last_update":"0001-01-01T00:00:00Z","name_a2s":"Uncletopia | Los Angeles | 1 | All Maps","protocol":17,"map":"koth_highpass","folder":"tf","game":"Team Fortress","app_id":440,"player_count":0,"max_players":24,"Bots":0,"server_type":"Dedicated","server_os":"Linux","password":true,"vac":true,"version":"7961495","steam_id":85568392924469991,"keywords":["cp","nocrits","nodmgspread","uncletopia"],"game_id":440,"stv_port":27016,"stv_name":"Uncletopia | Los Angeles | 1 | All Maps | STV","players":null},{"server_id":112,"name":"Uncletopia | Los Angeles | 2 | All Maps","name_short":"lax-2","host":"lax-1.us.uncletopia.com","port":27025,"enabled":true,"region":"us-west","cc":"us","latitude":33.94279,"longitude":-118.41004,"reserved":0,"last_update":"0001-01-01T00:00:00Z","name_a2s":"Uncletopia | Los Angeles | 2 | All Maps","protocol":17,"map":"pl_borneo","folder":"tf","game":"Team Fortress","app_id":440,"player_count":24,"max_players":24,"Bots":0,"server_type":"Dedicated","server_os":"Linux","password":true,"vac":true,"version":"7961495","steam_id":85568392924469992,"keywords":["nocrits","nodmgspread","payload","uncletopia"],"game_id":440,"stv_port":27026,"stv_name":"Uncletopia | Los Angeles | 2 | All Maps | STV","players":[{"user_id":346,"name":"Whisper!","steam_id":76561198119609795,"connected_time":992000000000,"state":"active","ping":49},{"user_id":344,"name":"SadChicken Œª","steam_id":76561198082458968,"connected_time":1544000000000,"state":"active","ping":62},{"user_id":332,"name":"DG3","steam_id":76561198132680247,"connected_time":2376000000000,"state":"active","ping":61},{"user_id":321,"name":"Pork Belly","steam_id":76561198053003142,"connected_time":3491000000000,"state":"active","ping":56},{"user_id":350,"name":"playstation joysticks","steam_id":76561198286114190,"connected_time":205000000000,"state":"active","ping":57},{"user_id":342,"name":"cruiser but wholesome","steam_id":76561198216976569,"connected_time":2208000000000,"state":"active","ping":56},{"user_id":351,"name":"Literal Vampire Potbelly Goblin","steam_id":76561197970527356,"connected_time":201000000000,"state":"active","ping":48},{"user_id":354,"name":"KickButtNess","steam_id":76561198093986236,"connected_time":177000000000,"state":"active","ping":51},{"user_id":357,"name":"Turkey Panini","steam_id":76561198067656416,"connected_time":45000000000,"state":"active","ping":76},{"user_id":352,"name":"SneekiCheekiQbone","steam_id":76561198045077980,"connected_time":199000000000,"state":"active","ping":45},{"user_id":348,"name":"number 24","steam_id":76561198350246784,"connected_time":215000000000,"state":"active","ping":51},{"user_id":306,"name":"Puskinti","steam_id":76561198032120688,"connected_time":4489000000000,"state":"active","ping":86},{"user_id":349,"name":"sherbink","steam_id":76561198357132470,"connected_time":212000000000,"state":"active","ping":59},{"user_id":316,"name":"Aspa","steam_id":76561199048815630,"connected_time":3934000000000,"state":"active","ping":107},{"user_id":356,"name":"Jokezonyu","steam_id":76561198213167893,"connected_time":123000000000,"state":"active","ping":62},{"user_id":358,"name":"BuncusBeffer","steam_id":76561198285936616,"connected_time":42000000000,"state":"active","ping":63},{"user_id":292,"name":"Just A Water Bottle","steam_id":76561198998941769,"connected_time":5327000000000,"state":"active","ping":89},{"user_id":347,"name":"Leefizzy","steam_id":76561198025759758,"connected_time":982000000000,"state":"active","ping":65},{"user_id":293,"name":"The Broken Lightbulb","steam_id":76561198141566312,"connected_time":5323000000000,"state":"active","ping":55},{"user_id":328,"name":"imma let my nuts hang","steam_id":76561198097544038,"connected_time":2428000000000,"state":"active","ping":55},{"user_id":305,"name":"Ethanol Buttchugger","steam_id":76561199127590316,"connected_time":4543000000000,"state":"active","ping":60},{"user_id":327,"name":"rilby","steam_id":76561198132755619,"connected_time":2977000000000,"state":"active","ping":34},{"user_id":338,"name":"I HATE HARUSAUL","steam_id":76561198452312880,"connected_time":2311000000000,"state":"active","ping":72},{"user_id":331,"name":"Scribbles","steam_id":76561198178326018,"connected_time":2386000000000,"state":"active","ping":75}]},{"server_id":324,"name":"Uncletopia | Los Angeles | 3 | All Maps","name_short":"lax-3","host":"lax-1.us.uncletopia.com","port":27035,"enabled":true,"region":"us-west","cc":"us","latitude":33.94279,"longitude":-118.41004,"reserved":0,"last_update":"0001-01-01T00:00:00Z","name_a2s":"Uncletopia | Los Angeles | 3 | All Maps","protocol":17,"map":"pl_barnblitz","folder":"tf","game":"Team Fortress","app_id":440,"player_count":0,"max_players":24,"Bots":0,"server_type":"Dedicated","server_os":"Linux","password":true,"vac":true,"version":"7961495","steam_id":85568392924510198,"keywords":["nocrits","nodmgspread","payload","uncletopia"],"game_id":440,"stv_port":27036,"stv_name":"Uncletopia | Los Angeles | 3 | All Maps | STV","players":null},{"server_id":25,"name":"Uncletopia | Los Angeles | 4 | Stopwatch","name_short":"lax-4","host":"lax-1.us.uncletopia.com","port":27045,"enabled":true,"region":"us-west","cc":"us","latitude":33.94279,"longitude":-118.41004,"reserved":0,"last_update":"0001-01-01T00:00:00Z","name_a2s":"Uncletopia | Los Angeles | 4 | Stopwatch","protocol":17,"map":"cp_process_final","folder":"tf","game":"Team Fortress","app_id":440,"player_count":0,"max_players":24,"Bots":0,"server_type":"Dedicated","server_os":"Linux","password":true,"vac":true,"version":"7961495","steam_id":85568392924510199,"keywords":["cp","nocrits","nodmgspread","uncletopia"],"game_id":440,"stv_port":27046,"stv_name":"Uncletopia | Los Angeles | 4 | Stopwatch | STV","players":null},{"server_id":11,"name":"Uncletopia | London | 1 | All Maps","name_short":"lon-1","host":"lon-1.uk.uncletopia.com","port":27015,"enabled":true,"region":"eu","cc":"gb","latitude":51.509865,"longitude":-0.118092,"reserved":0,"last_update":"0001-01-01T00:00:00Z","name_a2s":"Uncletopia | London | 1 | All Maps","protocol":17,"map":"koth_sawmill","folder":"tf","game":"Team Fortress","app_id":440,"player_count":0,"max_players":24,"Bots":0,"server_type":"Dedicated","server_os":"Linux","password":true,"vac":true,"version":"7961495","steam_id":85568392924367362,"keywords":["cp","nocrits","nodmgspread","uncletopia"],"game_id":440,"stv_port":27016,"stv_name":"Uncletopia | London | 1 | All Maps | STV","players":null},{"server_id":114,"name":"Uncletopia | London | 2 | All Maps","name_short":"lon-2","host":"lon-1.uk.uncletopia.com","port":27025,"enabled":true,"region":"eu","cc":"gb","latitude":51.509865,"longitude":-0.118092,"reserved":0,"last_update":"0001-01-01T00:00:00Z","name_a2s":"Uncletopia | London | 2 | All Maps","protocol":17,"map":"cp_mountainlab","folder":"tf","game":"Team Fortress","app_id":440,"player_count":0,"max_players":24,"Bots":0,"server_type":"Dedicated","server_os":"Linux","password":true,"vac":true,"version":"7961495","steam_id":85568392924470941,"keywords":["cp","nocrits","nodmgspread","uncletopia"],"game_id":440,"stv_port":27026,"stv_name":"Uncletopia | London | 2 | All Maps | STV","players":null},{"server_id":320,"name":"Uncletopia | London | 3 | All Maps","name_short":"lon-3","host":"lon-1.uk.uncletopia.com","port":27035,"enabled":true,"region":"eu","cc":"gb","latitude":51.509865,"longitude":-0.118092,"reserved":0,"last_update":"0001-01-01T00:00:00Z","name_a2s":"Uncletopia | London | 3 | All Maps","protocol":17,"map":"cp_mountainlab","folder":"tf","game":"Team Fortress","app_id":440,"player_count":0,"max_players":24,"Bots":0,"server_type":"Dedicated","server_os":"Linux","password":true,"vac":true,"version":"7961495","steam_id":85568392924510192,"keywords":["cp","nocrits","nodmgspread","uncletopia"],"game_id":440,"stv_port":27036,"stv_name":"Uncletopia | London | 3 | All Maps | STV","players":null},{"server_id":321,"name":"Uncletopia | London | 4 | All Maps","name_short":"lon-4","host":"lon-1.uk.uncletopia.com","port":27045,"enabled":true,"region":"eu","cc":"gb","latitude":51.509865,"longitude":-0.118092,"reserved":0,"last_update":"0001-01-01T00:00:00Z","name_a2s":"Uncletopia | London | 4 | All Maps","protocol":17,"map":"cp_mountainlab","folder":"tf","game":"Team Fortress","app_id":440,"player_count":1,"max_players":24,"Bots":0,"server_type":"Dedicated","server_os":"Linux","password":true,"vac":true,"version":"7961495","steam_id":85568392924510193,"keywords":["cp","nocrits","nodmgspread","uncletopia"],"game_id":440,"stv_port":27046,"stv_name":"Uncletopia | London | 4 | All Maps | STV","players":[{"user_id":5,"name":"toino_PT","steam_id":76561199008999046,"connected_time":263000000000,"state":"active","ping":85}]},{"server_id":21,"name":"Uncletopia | London | 5 | All Maps","name_short":"lon-5","host":"lon-1.uk.uncletopia.com","port":27055,"enabled":true,"region":"eu","cc":"gb","latitude":51.509865,"longitude":-0.118092,"reserved":0,"last_update":"0001-01-01T00:00:00Z","name_a2s":"Uncletopia | London | 5 | All Maps","protocol":17,"map":"koth_suijin","folder":"tf","game":"Team Fortress","app_id":440,"player_count":1,"max_players":24,"Bots":0,"server_type":"Dedicated","server_os":"Linux","password":true,"vac":true,"version":"7961495","steam_id":85568392924742829,"keywords":["cp","nocrits","nodmgspread","uncletopia"],"game_id":440,"stv_port":27056,"stv_name":"Uncletopia | London | 5 | All Maps | STV","players":[{"user_id":4,"name":"marvi444","steam_id":76561198431534139,"connected_time":25000000000,"state":"spawning","ping":53}]},{"server_id":22,"name":"Uncletopia | London | 6 | All Maps","name_short":"lon-6","host":"lon-1.uk.uncletopia.com","port":27065,"enabled":true,"region":"eu","cc":"gb","latitude":51.509865,"longitude":-0.118092,"reserved":0,"last_update":"0001-01-01T00:00:00Z","name_a2s":"Uncletopia | London | 6 | All Maps","protocol":17,"map":"pl_frontier_final","folder":"tf","game":"Team Fortress","app_id":440,"player_count":0,"max_players":24,"Bots":0,"server_type":"Dedicated","server_os":"Linux","password":true,"vac":true,"version":"7961495","steam_id":85568392924742830,"keywords":["nocrits","nodmgspread","payload","uncletopia"],"game_id":440,"stv_port":27066,"stv_name":"Uncletopia | London | 6 | All Maps | STV","players":null},{"server_id":40,"name":"Uncletopia | London | 7 | Stopwatch","name_short":"lon-7","host":"lon-1.uk.uncletopia.com","port":27075,"enabled":true,"region":"eu","cc":"gb","latitude":51.509865,"longitude":-0.118092,"reserved":0,"last_update":"0001-01-01T00:00:00Z","name_a2s":"Uncletopia | London | 7 | Stopwatch","protocol":17,"map":"pl_swiftwater_final1","folder":"tf","game":"Team Fortress","app_id":440,"player_count":0,"max_players":24,"Bots":0,"server_type":"Dedicated","server_os":"Linux","password":true,"vac":true,"version":"7961495","steam_id":85568392924964314,"keywords":["nocrits","nodmgspread","payload","uncletopia"],"game_id":440,"stv_port":27076,"stv_name":"Uncletopia | London | 7 | Stopwatch | STV","players":null},{"server_id":41,"name":"Uncletopia | London | 8 | Community","name_short":"lon-8","host":"lon-1.uk.uncletopia.com","port":27085,"enabled":true,"region":"eu","cc":"gb","latitude":51.509865,"longitude":-0.118092,"reserved":0,"last_update":"0001-01-01T00:00:00Z","name_a2s":"Uncletopia | London | 8 | Community","protocol":17,"map":"workshop/cp_propaganda_b18.ugc1603743849","folder":"tf","game":"Team Fortress","app_id":440,"player_count":0,"max_players":24,"Bots":0,"server_type":"Dedicated","server_os":"Linux","password":true,"vac":true,"version":"7961495","steam_id":85568392924964315,"keywords":["cp","nocrits","nodmgspread","uncletopia"],"game_id":440,"stv_port":27086,"stv_name":"Uncletopia | London | 8 | Community | STV","players":null},{"server_id":300,"name":"Uncletopia | Montr√©al | 1 | One Thousand Uncles","name_short":"mtl-1","host":"mtl-1.ca.uncletopia.com","port":27015,"enabled":true,"region":"us-east","cc":"ca","latitude":45.50889,"longitude":-73.56167,"reserved":0,"last_update":"0001-01-01T00:00:00Z","name_a2s":"Uncletopia | Montr√©al | 1 | One Thousand Uncles","protocol":17,"map":"cp_dustbowl","folder":"tf","game":"Team Fortress","app_id":440,"player_count":0,"max_players":32,"Bots":0,"server_type":"Dedicated","server_os":"Linux","password":true,"vac":true,"version":"7961495","steam_id":85568392924500087,"keywords":["alltalk","cp","danepve","increased_maxplayers","norespawntime","uncletopia"],"game_id":440,"stv_port":0,"stv_name":"","players":null},{"server_id":301,"name":"Uncletopia | Montr√©al | 2 | One Thousand Uncles","name_short":"mtl-2","host":"mtl-1.ca.uncletopia.com","port":27025,"enabled":true,"region":"us-east","cc":"ca","latitude":45.50889,"longitude":-73.56167,"reserved":0,"last_update":"0001-01-01T00:00:00Z","name_a2s":"Uncletopia | Montr√©al | 2 | One Thousand Uncles","protocol":17,"map":"cp_mossrock","folder":"tf","game":"Team Fortress","app_id":440,"player_count":0,"max_players":32,"Bots":0,"server_type":"Dedicated","server_os":"Linux","password":true,"vac":true,"version":"7961495","steam_id":85568392924500088,"keywords":["alltalk","cp","danepve","increased_maxplayers","norespawntime","uncletopia"],"game_id":440,"stv_port":0,"stv_name":"","players":null},{"server_id":302,"name":"Uncletopia | Montr√©al | 3 | One Thousand Uncles","name_short":"mtl-3","host":"mtl-1.ca.uncletopia.com","port":27035,"enabled":true,"region":"us-east","cc":"ca","latitude":45.50889,"longitude":-73.56167,"reserved":0,"last_update":"0001-01-01T00:00:00Z","name_a2s":"Uncletopia | Montr√©al | 3 | One Thousand Uncles","protocol":17,"map":"pl_pier","folder":"tf","game":"Team Fortress","app_id":440,"player_count":0,"max_players":32,"Bots":0,"server_type":"Dedicated","server_os":"Linux","password":true,"vac":true,"version":"7961495","steam_id":85568392924500089,"keywords":["alltalk","danepve","increased_maxplayers","norespawntime","payload","uncletopia"],"game_id":440,"stv_port":0,"stv_name":"","players":null},{"server_id":13,"name":"Uncletopia | New York City | 1 | All Maps","name_short":"nyc-1","host":"nyc-1.us.uncletopia.com","port":27015,"enabled":true,"region":"us-east","cc":"us","latitude":40.73061,"longitude":-73.93524,"reserved":0,"last_update":"0001-01-01T00:00:00Z","name_a2s":"Uncletopia | New York City | 1 | All Maps","protocol":17,"map":"koth_highpass","folder":"tf","game":"Team Fortress","app_id":440,"player_count":0,"max_players":24,"Bots":0,"server_type":"Dedicated","server_os":"Linux","password":true,"vac":true,"version":"7961495","steam_id":85568392924469993,"keywords":["cp","nocrits","nodmgspread","uncletopia"],"game_id":440,"stv_port":27016,"stv_name":"Uncletopia | New York City | 1 | All Maps | STV","players":null},{"server_id":14,"name":"Uncletopia | New York City | 2 | All Maps","name_short":"nyc-2","host":"nyc-1.us.uncletopia.com","port":27025,"enabled":true,"region":"us-east","cc":"us","latitude":40.73061,"longitude":-73.93524,"reserved":0,"last_update":"0001-01-01T00:00:00Z","name_a2s":"Uncletopia | New York City | 2 | All Maps","protocol":17,"map":"koth_highpass","folder":"tf","game":"Team Fortress","app_id":440,"player_count":0,"max_players":24,"Bots":0,"server_type":"Dedicated","server_os":"Linux","password":true,"vac":true,"version":"7961495","steam_id":85568392924469994,"keywords":["cp","nocrits","nodmgspread","uncletopia"],"game_id":440,"stv_port":27026,"stv_name":"Uncletopia | New York City | 2 | All Maps | STV","players":null},{"server_id":15,"name":"Uncletopia | New York City | 3 | Stopwatch","name_short":"nyc-3","host":"nyc-1.us.uncletopia.com","port":27035,"enabled":true,"region":"us-east","cc":"us","latitude":40.73061,"longitude":-73.93524,"reserved":0,"last_update":"0001-01-01T00:00:00Z","name_a2s":"Uncletopia | New York City | 3 | Stopwatch","protocol":17,"map":"workshop/koth_bagel_rc6.ugc2514036946","folder":"tf","game":"Team Fortress","app_id":440,"player_count":0,"max_players":24,"Bots":0,"server_type":"Dedicated","server_os":"Linux","password":true,"vac":true,"version":"7961495","steam_id":85568392924742820,"keywords":["cp","nocrits","nodmgspread","uncletopia"],"game_id":440,"stv_port":27036,"stv_name":"Uncletopia | New York City | 3 | Stopwatch | STV","players":null},{"server_id":16,"name":"Uncletopia | New York City | 4 | Community","name_short":"nyc-4","host":"nyc-1.us.uncletopia.com","port":27045,"enabled":true,"region":"us-east","cc":"us","latitude":40.73061,"longitude":-73.93524,"reserved":0,"last_update":"0001-01-01T00:00:00Z","name_a2s":"Uncletopia | New York City | 4 | Community","protocol":17,"map":"workshop/koth_ashville_final.ugc2130459942","folder":"tf","game":"Team Fortress","app_id":440,"player_count":0,"max_players":24,"Bots":0,"server_type":"Dedicated","server_os":"Linux","password":true,"vac":true,"version":"7961495","steam_id":85568392924742821,"keywords":["cp","nocrits","nodmgspread","uncletopia"],"game_id":440,"stv_port":27046,"stv_name":"Uncletopia | New York City | 4 | Community | STV","players":null},{"server_id":142,"name":"Uncletopia | S√£o Paulo | 1 | All Maps","name_short":"sao-1","host":"sao-1.br.uncletopia.com","port":27015,"enabled":true,"region":"sa","cc":"br","latitude":-23.533773,"longitude":-46.62529,"reserved":0,"last_update":"0001-01-01T00:00:00Z","name_a2s":"Uncletopia | S√£o Paulo | 1 | All Maps","protocol":17,"map":"koth_cascade","folder":"tf","game":"Team Fortress","app_id":440,"player_count":0,"max_players":24,"Bots":0,"server_type":"Dedicated","server_os":"Linux","password":true,"vac":true,"version":"7961495","steam_id":85568392924469996,"keywords":["cp","nocrits","nodmgspread","uncletopia"],"game_id":440,"stv_port":27016,"stv_name":"Uncletopia | S√£o Paulo | 1 | All Maps | STV","players":null},{"server_id":143,"name":"Uncletopia | S√£o Paulo | 2 | Community","name_short":"sao-2","host":"sao-2.br.uncletopia.com","port":27015,"enabled":true,"region":"sa","cc":"br","latitude":-23.533773,"longitude":-46.62529,"reserved":0,"last_update":"0001-01-01T00:00:00Z","name_a2s":"Uncletopia | S√£o Paulo | 2 | Community","protocol":17,"map":"workshop/cp_sultry_b8.ugc2775471508","folder":"tf","game":"Team Fortress","app_id":440,"player_count":0,"max_players":24,"Bots":0,"server_type":"Dedicated","server_os":"Linux","password":true,"vac":true,"version":"7961495","steam_id":85568392924485349,"keywords":["cp","nocrits","nodmgspread","uncletopia"],"game_id":440,"stv_port":27016,"stv_name":"Uncletopia | S√£o Paulo | 2 | Community | STV","players":null},{"server_id":7,"name":"Uncletopia | Seattle | 1 | All Maps","name_short":"sea-1","host":"sea-1.us.uncletopia.com","port":27015,"enabled":true,"region":"us-west","cc":"us","latitude":47.608013,"longitude":-122.33517,"reserved":0,"last_update":"0001-01-01T00:00:00Z","name_a2s":"Uncletopia | Seattle | 1 | All Maps","protocol":17,"map":"pl_snowycoast","folder":"tf","game":"Team Fortress","app_id":440,"player_count":20,"max_players":24,"Bots":0,"server_type":"Dedicated","server_os":"Linux","password":true,"vac":true,"version":"7961495","steam_id":85568392924469997,"keywords":["nocrits","nodmgspread","payload","uncletopia"],"game_id":440,"stv_port":27016,"stv_name":"Uncletopia | Seattle | 1 | All Maps | STV","players":[{"user_id":868,"name":"Mitsuba","steam_id":76561198034175095,"connected_time":278000000000,"state":"active","ping":130},{"user_id":797,"name":"NE–ØO","steam_id":76561197965450216,"connected_time":7112000000000,"state":"active","ping":51},{"user_id":856,"name":"Amazing476","steam_id":76561198103937489,"connected_time":1885000000000,"state":"active","ping":95},{"user_id":853,"name":"Soap Man","steam_id":76561198000490235,"connected_time":2620000000000,"state":"active","ping":64},{"user_id":842,"name":"That wasn't milk","steam_id":76561198155294045,"connected_time":3557000000000,"state":"active","ping":62},{"user_id":833,"name":"rat gets the cheese","steam_id":76561198031234032,"connected_time":4676000000000,"state":"active","ping":91},{"user_id":870,"name":"Dendromancy","steam_id":76561198194850754,"connected_time":204000000000,"state":"active","ping":82},{"user_id":816,"name":"ArchmageF (dont uber me)","steam_id":76561197992246851,"connected_time":5878000000000,"state":"active","ping":53},{"user_id":867,"name":"Nukkun","steam_id":76561198011598757,"connected_time":314000000000,"state":"active","ping":32},{"user_id":875,"name":"LizardGames","steam_id":76561199147525483,"connected_time":12000000000,"state":"spawning","ping":45},{"user_id":834,"name":"Swee","steam_id":76561198998446307,"connected_time":4339000000000,"state":"active","ping":65},{"user_id":852,"name":"Sailor","steam_id":76561199081983517,"connected_time":2729000000000,"state":"active","ping":93},{"user_id":862,"name":"Durts","steam_id":76561198045954506,"connected_time":1169000000000,"state":"active","ping":85},{"user_id":860,"name":"Evasive‚òÜ","steam_id":76561199184818576,"connected_time":1747000000000,"state":"active","ping":100},{"user_id":872,"name":"[TrC] Nosy","steam_id":76561197978859310,"connected_time":158000000000,"state":"active","ping":60},{"user_id":874,"name":"LeTonzy","steam_id":76561198005806699,"connected_time":20000000000,"state":"spawning","ping":82},{"user_id":857,"name":"CHIEF_JUSTICE_FUCKASS","steam_id":76561199261675844,"connected_time":1859000000000,"state":"active","ping":50},{"user_id":815,"name":"Sniff","steam_id":76561198010270922,"connected_time":5899000000000,"state":"active","ping":69},{"user_id":858,"name":"Grand","steam_id":76561198290143399,"connected_time":1848000000000,"state":"active","ping":75},{"user_id":863,"name":"ge0dude","steam_id":76561198852380273,"connected_time":1021000000000,"state":"active","ping":86}]},{"server_id":119,"name":"Uncletopia | Seattle | 2 | All Maps","name_short":"sea-2","host":"sea-1.us.uncletopia.com","port":27025,"enabled":true,"region":"us-west","cc":"us","latitude":47.608013,"longitude":-122.33517,"reserved":0,"last_update":"0001-01-01T00:00:00Z","name_a2s":"Uncletopia | Seattle | 2 | All Maps","protocol":17,"map":"pl_pier","folder":"tf","game":"Team Fortress","app_id":440,"player_count":24,"max_players":24,"Bots":0,"server_type":"Dedicated","server_os":"Linux","password":true,"vac":true,"version":"7961495","steam_id":85568392924469998,"keywords":["nocrits","nodmgspread","payload","uncletopia"],"game_id":440,"stv_port":27026,"stv_name":"Uncletopia | Seattle | 2 | All Maps | STV","players":[{"user_id":552,"name":"Sharky","steam_id":76561198012238028,"connected_time":617000000000,"state":"active","ping":50},{"user_id":515,"name":"A UsedNom","steam_id":76561198402832756,"connected_time":2869000000000,"state":"active","ping":56},{"user_id":553,"name":"Grill Skills","steam_id":76561198053575147,"connected_time":299000000000,"state":"active","ping":62},{"user_id":493,"name":"RavenwolF","steam_id":76561197963374354,"connected_time":4493000000000,"state":"active","ping":77},{"user_id":549,"name":"Foghorn Leghorn","steam_id":76561198145449177,"connected_time":688000000000,"state":"active","ping":106},{"user_id":536,"name":"Shoppekeepr","steam_id":76561198105888756,"connected_time":1450000000000,"state":"active","ping":64},{"user_id":548,"name":"chocky","steam_id":76561198057491296,"connected_time":719000000000,"state":"active","ping":46},{"user_id":530,"name":"phantom","steam_id":76561197963860777,"connected_time":2074000000000,"state":"active","ping":95},{"user_id":531,"name":"pk;member delete","steam_id":76561198027321950,"connected_time":1559000000000,"state":"active","ping":50},{"user_id":542,"name":"Keamy","steam_id":76561199471434875,"connected_time":1235000000000,"state":"active","ping":45},{"user_id":539,"name":"Esteboss","steam_id":76561198027967265,"connected_time":1362000000000,"state":"active","ping":64},{"user_id":518,"name":"KindlyRaze","steam_id":76561198159660970,"connected_time":2827000000000,"state":"active","ping":135},{"user_id":540,"name":"Monsieur Marley","steam_id":76561198153543927,"connected_time":1322000000000,"state":"active","ping":73},{"user_id":532,"name":"Comradical","steam_id":76561197990808285,"connected_time":1556000000000,"state":"active","ping":126},{"user_id":520,"name":"Callahan","steam_id":76561197976928457,"connected_time":2779000000000,"state":"active","ping":48},{"user_id":521,"name":"Goawhey","steam_id":76561198159714066,"connected_time":2660000000000,"state":"active","ping":67},{"user_id":550,"name":":(){ :|:\u0026 };:","steam_id":76561198115242460,"connected_time":644000000000,"state":"active","ping":55},{"user_id":541,"name":"Kzjytsugn","steam_id":76561198130241974,"connected_time":1313000000000,"state":"active","ping":41},{"user_id":554,"name":"Cyber LLama","steam_id":76561198323298672,"connected_time":67000000000,"state":"active","ping":57},{"user_id":543,"name":"Vibe Check","steam_id":76561198087326826,"connected_time":1208000000000,"state":"active","ping":121},{"user_id":477,"name":"Kwi","steam_id":76561198152232599,"connected_time":4982000000000,"state":"active","ping":62},{"user_id":545,"name":"buttmudd_jones","steam_id":76561198005954807,"connected_time":976000000000,"state":"active","ping":74},{"user_id":551,"name":"ketsu","steam_id":76561197966171554,"connected_time":640000000000,"state":"active","ping":182},{"user_id":527,"name":"Mr.Frundles","steam_id":76561198134559026,"connected_time":2499000000000,"state":"active","ping":55}]},{"server_id":406,"name":"Uncletopia | Seattle | 3 | Stopwatch","name_short":"sea-3","host":"sea-1.us.uncletopia.com","port":27035,"enabled":true,"region":"us-west","cc":"us","latitude":47.608013,"longitude":-122.33517,"reserved":0,"last_update":"0001-01-01T00:00:00Z","name_a2s":"Uncletopia | Seattle | 3 | Stopwatch","protocol":17,"map":"workshop/koth_jamram_rc1a.ugc2964065613","folder":"tf","game":"Team Fortress","app_id":440,"player_count":0,"max_players":24,"Bots":0,"server_type":"Dedicated","server_os":"Linux","password":true,"vac":true,"version":"7961495","steam_id":85568392924515217,"keywords":["cp","nocrits","nodmgspread","uncletopia"],"game_id":440,"stv_port":27036,"stv_name":"Uncletopia | Seattle | 3 | Stopwatch | STV","players":null},{"server_id":17,"name":"Uncletopia | San Francisco | 1 | All Maps","name_short":"sfo-1","host":"sfo-1.us.uncletopia.com","port":27015,"enabled":true,"region":"us-west","cc":"us","latitude":37.77397,"longitude":-122.4313,"reserved":0,"last_update":"0001-01-01T00:00:00Z","name_a2s":"Uncletopia | San Francisco | 1 | All Maps","protocol":17,"map":"koth_cascade","folder":"tf","game":"Team Fortress","app_id":440,"player_count":1,"max_players":24,"Bots":0,"server_type":"Dedicated","server_os":"Linux","password":true,"vac":true,"version":"7961495","steam_id":85568392924469999,"keywords":["cp","nocrits","nodmgspread","uncletopia"],"game_id":440,"stv_port":27016,"stv_name":"Uncletopia | San Francisco | 1 | All Maps | STV","players":[{"user_id":19,"name":"finmin","steam_id":76561198127639913,"connected_time":14000000000,"state":"active","ping":57}]},{"server_id":18,"name":"Uncletopia | San Francisco | 2 | All Maps","name_short":"sfo-2","host":"sfo-1.us.uncletopia.com","port":27025,"enabled":true,"region":"us-west","cc":"us","latitude":37.77397,"longitude":-122.4313,"reserved":0,"last_update":"0001-01-01T00:00:00Z","name_a2s":"Uncletopia | San Francisco | 2 | All Maps","protocol":17,"map":"cp_dustbowl","folder":"tf","game":"Team Fortress","app_id":440,"player_count":18,"max_players":24,"Bots":0,"server_type":"Dedicated","server_os":"Linux","password":true,"vac":true,"version":"7961495","steam_id":85568392924470000,"keywords":["cp","nocrits","nodmgspread","uncletopia"],"game_id":440,"stv_port":27026,"stv_name":"Uncletopia | San Francisco | 2 | All Maps | STV","players":[{"user_id":382,"name":"Heal me","steam_id":76561198081960217,"connected_time":176000000000,"state":"active","ping":74},{"user_id":349,"name":"StardustFox ‚ô•","steam_id":76561198136456439,"connected_time":3332000000000,"state":"active","ping":57},{"user_id":359,"name":"Ian","steam_id":76561198159334435,"connected_time":2395000000000,"state":"active","ping":174},{"user_id":240,"name":"Humble Learner","steam_id":76561198066091050,"connected_time":9648000000000,"state":"active","ping":64},{"user_id":379,"name":"Gaming G Gaming","steam_id":76561198101746587,"connected_time":566000000000,"state":"active","ping":51},{"user_id":331,"name":"ROTTINGGIRL","steam_id":76561198051445358,"connected_time":4380000000000,"state":"active","ping":45},{"user_id":376,"name":"STEVE_HOLT!!!!!","steam_id":76561198082263412,"connected_time":632000000000,"state":"active","ping":80},{"user_id":317,"name":"chesterwnimitz","steam_id":76561198062664377,"connected_time":5664000000000,"state":"active","ping":130},{"user_id":292,"name":"what makes me a good","steam_id":76561198065662025,"connected_time":6797000000000,"state":"active","ping":51},{"user_id":368,"name":"Lucerne‚òÖFlower","steam_id":76561198264105406,"connected_time":1649000000000,"state":"active","ping":133},{"user_id":371,"name":"Deuces","steam_id":76561198069585906,"connected_time":1339000000000,"state":"active","ping":58},{"user_id":381,"name":"spacey_","steam_id":76561197970406614,"connected_time":435000000000,"state":"active","ping":48},{"user_id":370,"name":"Antzen","steam_id":76561198041343470,"connected_time":1513000000000,"state":"active","ping":46},{"user_id":279,"name":"T√ºCold","steam_id":76561198111278197,"connected_time":7602000000000,"state":"active","ping":56},{"user_id":243,"name":"lol","steam_id":76561198026491738,"connected_time":9471000000000,"state":"active","ping":65},{"user_id":344,"name":"Sheep","steam_id":76561198161218914,"connected_time":3581000000000,"state":"active","ping":48},{"user_id":367,"name":"The Brexit Geezer","steam_id":76561198045972353,"connected_time":1892000000000,"state":"active","ping":57},{"user_id":361,"name":"wendigo(need hales own)","steam_id":76561197994528974,"connected_time":2365000000000,"state":"active","ping":96}]},{"server_id":19,"name":"Uncletopia | San Francisco | 3 | Stopwatch","name_short":"sfo-3","host":"sfo-1.us.uncletopia.com","port":27035,"enabled":true,"region":"us-west","cc":"us","latitude":37.77397,"longitude":-122.4313,"reserved":0,"last_update":"0001-01-01T00:00:00Z","name_a2s":"Uncletopia | San Francisco | 3 | Stopwatch","protocol":17,"map":"workshop/koth_clearcut_b15.ugc2107050255","folder":"tf","game":"Team Fortress","app_id":440,"player_count":0,"max_players":24,"Bots":0,"server_type":"Dedicated","server_os":"Linux","password":true,"vac":true,"version":"7961495","steam_id":85568392924742824,"keywords":["cp","nocrits","nodmgspread","uncletopia"],"game_id":440,"stv_port":27036,"stv_name":"Uncletopia | San Francisco | 3 | Stopwatch | STV","players":null},{"server_id":20,"name":"Uncletopia | San Francisco | 4 | Community","name_short":"sfo-4","host":"sfo-1.us.uncletopia.com","port":27045,"enabled":true,"region":"us-west","cc":"us","latitude":37.77397,"longitude":-122.4313,"reserved":0,"last_update":"0001-01-01T00:00:00Z","name_a2s":"Uncletopia | San Francisco | 4 | Community","protocol":17,"map":"workshop/cp_reckoner_rc6.ugc674719999","folder":"tf","game":"Team Fortress","app_id":440,"player_count":0,"max_players":24,"Bots":0,"server_type":"Dedicated","server_os":"Linux","password":true,"vac":true,"version":"7961495","steam_id":85568392924742826,"keywords":["cp","nocrits","nodmgspread","uncletopia"],"game_id":440,"stv_port":27046,"stv_name":"Uncletopia | San Francisco | 4 | Community | STV","players":null},{"server_id":141,"name":"Uncletopia | Sydney | 1 | All Maps","name_short":"syd-1","host":"syd-1.au.uncletopia.com","port":27015,"enabled":true,"region":"au","cc":"au","latitude":-33.865143,"longitude":151.2099,"reserved":0,"last_update":"0001-01-01T00:00:00Z","name_a2s":"Uncletopia | Sydney | 1 | All Maps","protocol":17,"map":"pl_borneo","folder":"tf","game":"Team Fortress","app_id":440,"player_count":24,"max_players":24,"Bots":0,"server_type":"Dedicated","server_os":"Linux","password":true,"vac":true,"version":"7961495","steam_id":85568392924470001,"keywords":["nocrits","nodmgspread","payload","uncletopia"],"game_id":440,"stv_port":27016,"stv_name":"Uncletopia | Sydney | 1 | All Maps | STV","players":[{"user_id":87,"name":"Titan","steam_id":76561198343953317,"connected_time":1645000000000,"state":"active","ping":64},{"user_id":16,"name":"Wonk","steam_id":76561198153116520,"connected_time":6453000000000,"state":"active","ping":66},{"user_id":58,"name":"don't Raymond my parade","steam_id":76561198301282416,"connected_time":4199000000000,"state":"active","ping":97},{"user_id":103,"name":"SIRROM12 (SIRR)","steam_id":76561198116738329,"connected_time":150000000000,"state":"active","ping":61},{"user_id":76,"name":"Dot","steam_id":76561198064534661,"connected_time":2372000000000,"state":"active","ping":60},{"user_id":88,"name":"Nyda","steam_id":76561198152311904,"connected_time":1626000000000,"state":"active","ping":65},{"user_id":78,"name":"Fresh Produce Gaming","steam_id":76561198358483352,"connected_time":2352000000000,"state":"active","ping":53},{"user_id":101,"name":"LightningBlock","steam_id":76561198289997742,"connected_time":163000000000,"state":"active","ping":38},{"user_id":104,"name":"cakey","steam_id":76561198173746761,"connected_time":149000000000,"state":"active","ping":47},{"user_id":83,"name":"Hertog van Damme","steam_id":76561198152470958,"connected_time":1962000000000,"state":"active","ping":66},{"user_id":90,"name":"alex","steam_id":76561198053382248,"connected_time":1119000000000,"state":"active","ping":40},{"user_id":102,"name":"precious.","steam_id":76561198054804209,"connected_time":161000000000,"state":"active","ping":90},{"user_id":79,"name":"voxii","steam_id":76561198099698281,"connected_time":2280000000000,"state":"active","ping":74},{"user_id":93,"name":"osborn","steam_id":76561198033663866,"connected_time":1006000000000,"state":"active","ping":36},{"user_id":82,"name":"Chrisy","steam_id":76561198092382473,"connected_time":2025000000000,"state":"active","ping":75},{"user_id":69,"name":"Clipsal 20A RCBO","steam_id":76561198031586265,"connected_time":3095000000000,"state":"active","ping":49},{"user_id":62,"name":"soupy","steam_id":76561198073734936,"connected_time":3713000000000,"state":"active","ping":89},{"user_id":94,"name":"washedmachine","steam_id":76561198058375270,"connected_time":589000000000,"state":"active","ping":44},{"user_id":92,"name":"callum.jones2008","steam_id":76561198050053720,"connected_time":1007000000000,"state":"active","ping":75},{"user_id":91,"name":"nurf","steam_id":76561198019391327,"connected_time":1017000000000,"state":"active","ping":80},{"user_id":68,"name":"ZappinandZwoopin","steam_id":76561199202045028,"connected_time":3207000000000,"state":"active","ping":70},{"user_id":85,"name":"J√ò‚±§","steam_id":76561199020647083,"connected_time":1918000000000,"state":"active","ping":65},{"user_id":98,"name":"MAcca","steam_id":76561199144357079,"connected_time":199000000000,"state":"spawning","ping":118},{"user_id":99,"name":"akmon753","steam_id":76561199507989067,"connected_time":198000000000,"state":"active","ping":56}]},{"server_id":123,"name":"Uncletopia | Sydney | 2 | All Maps","name_short":"syd-2","host":"syd-1.au.uncletopia.com","port":27025,"enabled":true,"region":"au","cc":"au","latitude":-33.865143,"longitude":151.2099,"reserved":0,"last_update":"0001-01-01T00:00:00Z","name_a2s":"Uncletopia | Sydney | 2 | All Maps","protocol":17,"map":"cp_mercenarypark","folder":"tf","game":"Team Fortress","app_id":440,"player_count":0,"max_players":24,"Bots":0,"server_type":"Dedicated","server_os":"Linux","password":true,"vac":true,"version":"7961495","steam_id":85568392924470002,"keywords":["cp","nocrits","nodmgspread","uncletopia"],"game_id":440,"stv_port":27026,"stv_name":"Uncletopia | Sydney | 2 | All Maps | STV","players":null},{"server_id":395,"name":"Uncletopia | Sydney | 3 | All Maps","name_short":"syd-3","host":"syd-1.au.uncletopia.com","port":27035,"enabled":true,"region":"au","cc":"au","latitude":-33.865143,"longitude":151.2099,"reserved":0,"last_update":"0001-01-01T00:00:00Z","name_a2s":"Uncletopia | Sydney | 3 | All Maps","protocol":17,"map":"koth_brazil","folder":"tf","game":"Team Fortress","app_id":440,"player_count":0,"max_players":24,"Bots":0,"server_type":"Dedicated","server_os":"Linux","password":true,"vac":true,"version":"7961495","steam_id":85568392925194467,"keywords":["cp","nocrits","nodmgspread","uncletopia"],"game_id":440,"stv_port":27036,"stv_name":"Uncletopia | Sydney | 3 | All Maps | STV","players":null},{"server_id":396,"name":"Uncletopia | Sydney | 4 | All Maps","name_short":"syd-4","host":"syd-1.au.uncletopia.com","port":27045,"enabled":true,"region":"au","cc":"au","latitude":-33.865143,"longitude":151.2099,"reserved":0,"last_update":"0001-01-01T00:00:00Z","name_a2s":"Uncletopia | Sydney | 4 | All Maps","protocol":17,"map":"cp_standin_final","folder":"tf","game":"Team Fortress","app_id":440,"player_count":0,"max_players":24,"Bots":0,"server_type":"Dedicated","server_os":"Linux","password":true,"vac":true,"version":"7961495","steam_id":85568392925397958,"keywords":["cp","nocrits","nodmgspread","uncletopia"],"game_id":440,"stv_port":27046,"stv_name":"Uncletopia | Sydney | 4 | All Maps | STV","players":null},{"server_id":58,"name":"Uncletopia | Sydney | 5 | Stopwatch","name_short":"syd-5","host":"syd-1.au.uncletopia.com","port":27055,"enabled":true,"region":"au","cc":"au","latitude":-33.865143,"longitude":151.2099,"reserved":0,"last_update":"0001-01-01T00:00:00Z","name_a2s":"Uncletopia | Sydney | 5 | Stopwatch","protocol":17,"map":"workshop/pl_barnblitz_pro7.ugc582280235","folder":"tf","game":"Team Fortress","app_id":440,"player_count":0,"max_players":24,"Bots":0,"server_type":"Dedicated","server_os":"Linux","password":true,"vac":true,"version":"7961495","steam_id":85568392925397959,"keywords":["nocrits","nodmgspread","payload","uncletopia"],"game_id":440,"stv_port":27056,"stv_name":"Uncletopia | Sydney | 5 | Stopwatch | STV","players":null},{"server_id":59,"name":"Uncletopia | Sydney | 6 | Community","name_short":"syd-6","host":"syd-1.au.uncletopia.com","port":27065,"enabled":true,"region":"au","cc":"au","latitude":-33.865143,"longitude":151.2099,"reserved":0,"last_update":"0001-01-01T00:00:00Z","name_a2s":"Uncletopia | Sydney | 6 | Community","protocol":17,"map":"workshop/koth_soot_final1.ugc2969540689","folder":"tf","game":"Team Fortress","app_id":440,"player_count":0,"max_players":24,"Bots":0,"server_type":"Dedicated","server_os":"Linux","password":true,"vac":true,"version":"7961495","steam_id":85568392925397960,"keywords":["cp","nocrits","nodmgspread","uncletopia"],"game_id":440,"stv_port":27066,"stv_name":"Uncletopia | Sydney | 6 | Community | STV","players":null},{"server_id":49,"name":"Uncletopia | Warsaw | 1 | One Thousand Uncles","name_short":"waw-1","host":"waw-1.pl.uncletopia.com","port":27015,"enabled":true,"region":"eu","cc":"pl","latitude":52.2297,"longitude":21.017532,"reserved":0,"last_update":"0001-01-01T00:00:00Z","name_a2s":"Uncletopia | Warsaw | 1 | One Thousand Uncles","protocol":17,"map":"pl_upward","folder":"tf","game":"Team Fortress","app_id":440,"player_count":0,"max_players":32,"Bots":0,"server_type":"Dedicated","server_os":"Linux","password":true,"vac":true,"version":"7961495","steam_id":85568392925397850,"keywords":["alltalk","danepve","increased_maxplayers","norespawntime","payload","uncletopia"],"game_id":440,"stv_port":0,"stv_name":"","players":null},{"server_id":50,"name":"Uncletopia | Warsaw | 2 | One Thousand Uncles","name_short":"waw-2","host":"waw-1.pl.uncletopia.com","port":27025,"enabled":true,"region":"eu","cc":"pl","latitude":52.2297,"longitude":21.017532,"reserved":0,"last_update":"0001-01-01T00:00:00Z","name_a2s":"Uncletopia | Warsaw | 2 | One Thousand Uncles","protocol":17,"map":"pl_pier","folder":"tf","game":"Team Fortress","app_id":440,"player_count":0,"max_players":32,"Bots":0,"server_type":"Dedicated","server_os":"Linux","password":true,"vac":true,"version":"7961495","steam_id":85568392925397851,"keywords":["alltalk","danepve","increased_maxplayers","norespawntime","payload","uncletopia"],"game_id":440,"stv_port":0,"stv_name":"","players":null},{"server_id":51,"name":"Uncletopia | Warsaw | 3 | All Maps","name_short":"waw-3","host":"waw-1.pl.uncletopia.com","port":27035,"enabled":true,"region":"eu","cc":"pl","latitude":52.2297,"longitude":21.017532,"reserved":0,"last_update":"0001-01-01T00:00:00Z","name_a2s":"Uncletopia | Warsaw | 3 | All Maps","protocol":17,"map":"pl_frontier_final","folder":"tf","game":"Team Fortress","app_id":440,"player_count":0,"max_players":24,"Bots":0,"server_type":"Dedicated","server_os":"Linux","password":true,"vac":true,"version":"7961495","steam_id":85568392925397852,"keywords":["nocrits","nodmgspread","payload","uncletopia"],"game_id":440,"stv_port":27036,"stv_name":"Uncletopia | Warsaw | 3 | All Maps | STV","players":null},{"server_id":52,"name":"Uncletopia | Warsaw | 4 | All Maps","name_short":"waw-4","host":"waw-1.pl.uncletopia.com","port":27045,"enabled":true,"region":"eu","cc":"pl","latitude":52.2297,"longitude":21.017532,"reserved":0,"last_update":"0001-01-01T00:00:00Z","name_a2s":"Uncletopia | Warsaw | 4 | All Maps","protocol":17,"map":"ctf_turbine","folder":"tf","game":"Team Fortress","app_id":440,"player_count":0,"max_players":24,"Bots":0,"server_type":"Dedicated","server_os":"Linux","password":true,"vac":true,"version":"7961495","steam_id":85568392925397853,"keywords":["ctf","nocrits","nodmgspread","uncletopia"],"game_id":440,"stv_port":27046,"stv_name":"Uncletopia | Warsaw | 4 | All Maps | STV","players":null},{"server_id":53,"name":"Uncletopia | Warsaw | 5 | Stopwatch","name_short":"waw-5","host":"waw-1.pl.uncletopia.com","port":27055,"enabled":true,"region":"eu","cc":"pl","latitude":52.2297,"longitude":21.017532,"reserved":0,"last_update":"0001-01-01T00:00:00Z","name_a2s":"Uncletopia | Warsaw | 5 | Stopwatch","protocol":17,"map":"pl_upward","folder":"tf","game":"Team Fortress","app_id":440,"player_count":0,"max_players":24,"Bots":0,"server_type":"Dedicated","server_os":"Linux","password":true,"vac":true,"version":"7961495","steam_id":85568392925397854,"keywords":["nocrits","nodmgspread","payload","uncletopia"],"game_id":440,"stv_port":27056,"stv_name":"Uncletopia | Warsaw | 5 | Stopwatch | STV","players":null},{"server_id":54,"name":"Uncletopia | Warsaw | 6 | Community","name_short":"waw-6","host":"waw-1.pl.uncletopia.com","port":27065,"enabled":true,"region":"eu","cc":"pl","latitude":52.2297,"longitude":21.017532,"reserved":0,"last_update":"0001-01-01T00:00:00Z","name_a2s":"Uncletopia | Warsaw | 6 | Community","protocol":17,"map":"workshop/pl_highwood_b19.ugc1769496557","folder":"tf","game":"Team Fortress","app_id":440,"player_count":0,"max_players":24,"Bots":0,"server_type":"Dedicated","server_os":"Linux","password":true,"vac":true,"version":"7961495","steam_id":85568392925397856,"keywords":["nocrits","nodmgspread","payload","uncletopia"],"game_id":440,"stv_port":27066,"stv_name":"Uncletopia | Warsaw | 6 | Community | STV","players":null}]}