{"status":true,"message":"","result":[{"server_id":9,"name":"Uncletopia | Atlanta | 1 | All Maps","name_short":"atl-1","host":"atl-1.us.uncletopia.com","port":27015,"enabled":true,"region":"us-east","cc":"us","latitude":33.753746,"longitude":-84.38633,"reserved":0,"last_update":"0001-01-01T00:00:00Z","name_a2s":"Uncletopia | Atlanta | 1 | All Maps","protocol":17,"map":"pl_swiftwater_final1","folder":"tf","game":"Team Fortress","app_id":440,"player_count":23,"max_players":24,"Bots":0,"server_type":"Dedicated","server_os":"Linux","password":true,"vac":true,"version":"7701286","steam_id":85568392924469982,"keywords":["nocrits","nodmgspread","payload","uncletopia"],"game_id":440,"stv_port":27016,"stv_name":"Uncletopia | Atlanta | 1 | All Maps | STV","players":[{"user_id":135,"name":"Convo-B-Gone","steam_id":76561198029527751,"connected_time":9852000000000,"state":"active","ping":47},{"user_id":219,"name":"M249 | Spectre","steam_id":76561198118334485,"connected_time":998000000000,"state":"active","ping":73},{"user_id":218,"name":"Maul","steam_id":76561198071844928,"connected_time":1040000000000,"state":"active","ping":75},{"user_id":215,"name":"Xbox_Pro_2016","steam_id":76561198176126519,"connected_time":1666000000000,"state":"active","ping":68},{"user_id":203,"name":"GLEEKY","steam_id":76561198287245599,"connected_time":3295000000000,"state":"active","ping":55},{"user_id":236,"name":"Rockgraham101","steam_id":76561198171740458,"connected_time":64000000000,"state":"active","ping":51},{"user_id":230,"name":"lker","steam_id":76561197976975075,"connected_time":549000000000,"state":"active","ping":39},{"user_id":206,"name":"Zion","steam_id":76561198051490182,"connected_time":2830000000000,"state":"active","ping":67},{"user_id":221,"name":"works cited","steam_id":76561198853297459,"connected_time":931000000000,"state":"active","ping":101},{"user_id":228,"name":"Mr.Spaghetti","steam_id":76561198078640224,"connected_time":671000000000,"state":"active","ping":117},{"user_id":224,"name":"Mythical Lag","steam_id":76561198347031281,"connected_time":900000000000,"state":"active","ping":76},{"user_id":237,"name":"Box of Lizards","steam_id":76561199072219697,"connected_time":54000000000,"state":"active","ping":129},{"user_id":226,"name":"Schizo Femboy","steam_id":76561199162627150,"connected_time":864000000000,"state":"active","ping":149},{"user_id":227,"name":"Ryan Cranston","steam_id":76561198272658103,"connected_time":827000000000,"state":"active","ping":117},{"user_id":229,"name":"Herr Müller","steam_id":76561198064876829,"connected_time":653000000000,"state":"active","ping":73},{"user_id":213,"name":"Nash","steam_id":76561198044192734,"connected_time":1828000000000,"state":"active","ping":51},{"user_id":217,"name":"RyanDCB [Real]","steam_id":76561198040138739,"connected_time":1105000000000,"state":"active","ping":81},{"user_id":209,"name":"mjemborsky","steam_id":76561198070600754,"connected_time":2486000000000,"state":"active","ping":86},{"user_id":231,"name":"ccog","steam_id":76561198009314845,"connected_time":507000000000,"state":"active","ping":109},{"user_id":232,"name":"stall","steam_id":76561199152861652,"connected_time":423000000000,"state":"active","ping":70},{"user_id":233,"name":"El Dorito","steam_id":76561198044544789,"connected_time":382000000000,"state":"active","ping":46},{"user_id":238,"name":"Swamp Bogman","steam_id":76561198053481519,"connected_time":32000000000,"state":"active","ping":66},{"user_id":197,"name":"Goyslop","steam_id":76561198142949496,"connected_time":3598000000000,"state":"active","ping":60}]},{"server_id":400,"name":"Uncletopia | Atlanta | 3 | All Maps","name_short":"atl-3","host":"atl-1.us.uncletopia.com","port":27035,"enabled":true,"region":"us-east","cc":"us","latitude":33.753746,"longitude":-84.38633,"reserved":0,"last_update":"0001-01-01T00:00:00Z","name_a2s":"Uncletopia | Atlanta | 3 | All Maps","protocol":17,"map":"koth_viaduct","folder":"tf","game":"Team Fortress","app_id":440,"player_count":0,"max_players":24,"Bots":0,"server_type":"Dedicated","server_os":"Linux","password":true,"vac":true,"version":"7701286","steam_id":85568392924515187,"keywords":["cp","nocrits","nodmgspread","uncletopia"],"game_id":440,"stv_port":27036,"stv_name":"Uncletopia | Atlanta | 3 | All Maps | STV","players":null},{"server_id":401,"name":"Uncletopia | Atlanta | 4 | No Payload","name_short":"atl-4","host":"atl-1.us.uncletopia.com","port":27045,"enabled":true,"region":"us-east","cc":"us","latitude":33.753746,"longitude":-84.38633,"reserved":0,"last_update":"0001-01-01T00:00:00Z","name_a2s":"Uncletopia | Atlanta | 4 | No Payload","protocol":17,"map":"koth_sawmill","folder":"tf","game":"Team Fortress","app_id":440,"player_count":0,"max_players":24,"Bots":0,"server_type":"Dedicated","server_os":"Linux","password":true,"vac":true,"version":"7701286","steam_id":85568392924515188,"keywords":["cp","nocrits","nodmgspread","uncletopia"],"game_id":440,"stv_port":27046,"stv_name":"Uncletopia | Atlanta | 4 | No Payload | STV","players":null},{"server_id":2,"name":"Uncletopia | Chicago | 1 | All Maps","name_short":"chi-1","host":"chi-1.us.uncletopia.com","port":27015,"enabled":true,"region":"us-central","cc":"us","latitude":41.881832,"longitude":-87.62318,"reserved":0,"last_update":"0001-01-01T00:00:00Z","name_a2s":"Uncletopia | Chicago | 1 | All Maps","protocol":17,"map":"koth_cascade","folder":"tf","game":"Team Fortress","app_id":440,"player_count":0,"max_players":24,"Bots":0,"server_type":"Dedicated","server_os":"Linux","password":true,"vac":true,"version":"7701286","steam_id":85568392924469984,"keywords":["cp","nocrits","nodmgspread","uncletopia"],"game_id":440,"stv_port":27016,"stv_name":"Uncletopia | Chicago | 1 | All Maps | STV","players":null},{"server_id":106,"name":"Uncletopia | Chicago | 2 | All Maps","name_short":"chi-2","host":"chi-1.us.uncletopia.com","port":27025,"enabled":true,"region":"us-central","cc":"us","latitude":41.881832,"longitude":-87.62318,"reserved":0,"last_update":"0001-01-01T00:00:00Z","name_a2s":"Uncletopia | Chicago | 2 | All Maps","protocol":17,"map":"cp_snakewater_final1","folder":"tf","game":"Team Fortress","app_id":440,"player_count":23,"max_players":24,"Bots":0,"server_type":"Dedicated","server_os":"Linux","password":true,"vac":true,"version":"7701286","steam_id":85568392924469985,"keywords":["cp","nocrits","nodmgspread","uncletopia"],"game_id":440,"stv_port":27026,"stv_name":"Uncletopia | Chicago | 2 | All Maps | STV","players":[{"user_id":286,"name":"vanilla","steam_id":76561198041105578,"connected_time":760000000000,"state":"active","ping":77},{"user_id":294,"name":"Aittrium","steam_id":76561199435287672,"connected_time":214000000000,"state":"active","ping":67},{"user_id":222,"name":"Testicular Torsion","steam_id":76561197968179862,"connected_time":5468000000000,"state":"active","ping":102},{"user_id":280,"name":"Timmy Rigs","steam_id":76561198040743777,"connected_time":1129000000000,"state":"active","ping":54},{"user_id":236,"name":"JJc","steam_id":76561198021164742,"connected_time":4959000000000,"state":"active","ping":47},{"user_id":295,"name":"lucree","steam_id":76561198276738225,"connected_time":185000000000,"state":"active","ping":109},{"user_id":249,"name":"triple eco","steam_id":76561198079892116,"connected_time":4290000000000,"state":"active","ping":44},{"user_id":296,"name":"huh6750","steam_id":76561199094058555,"connected_time":172000000000,"state":"active","ping":56},{"user_id":298,"name":"squid game","steam_id":76561199248960166,"connected_time":63000000000,"state":"active","ping":86},{"user_id":299,"name":"ATL1 | spoonful","steam_id":76561198927517471,"connected_time":11000000000,"state":"active","ping":63},{"user_id":289,"name":"Potstew","steam_id":76561198356366043,"connected_time":445000000000,"state":"active","ping":156},{"user_id":251,"name":"Dire_vVolf","steam_id":76561198052509176,"connected_time":3900000000000,"state":"active","ping":45},{"user_id":281,"name":"ethix","steam_id":76561198072592880,"connected_time":1129000000000,"state":"active","ping":49},{"user_id":271,"name":"Souper Scott","steam_id":76561198045518926,"connected_time":2408000000000,"state":"active","ping":49},{"user_id":291,"name":"_Pai","steam_id":76561198108196753,"connected_time":353000000000,"state":"active","ping":95},{"user_id":254,"name":"randomusername","steam_id":76561199078214700,"connected_time":3583000000000,"state":"active","ping":49},{"user_id":273,"name":"King Rat","steam_id":76561198083835128,"connected_time":2401000000000,"state":"active","ping":88},{"user_id":282,"name":"Tim Horton's chili enjoyer","steam_id":76561199187337967,"connected_time":854000000000,"state":"active","ping":75},{"user_id":253,"name":"Evolution","steam_id":76561198144767370,"connected_time":3894000000000,"state":"active","ping":82},{"user_id":275,"name":"stop","steam_id":76561198268686419,"connected_time":2298000000000,"state":"active","ping":54},{"user_id":277,"name":"Blackarachnia","steam_id":76561197999963686,"connected_time":1864000000000,"state":"active","ping":60},{"user_id":278,"name":"gamer_slayer136","steam_id":76561198117533276,"connected_time":1515000000000,"state":"active","ping":74},{"user_id":284,"name":"totoro","steam_id":76561198210420871,"connected_time":820000000000,"state":"active","ping":39}]},{"server_id":402,"name":"Uncletopia | Chicago | 3 | All Maps","name_short":"chi-3","host":"chi-1.us.uncletopia.com","port":27035,"enabled":true,"region":"us-central","cc":"us","latitude":41.881832,"longitude":-87.62318,"reserved":0,"last_update":"0001-01-01T00:00:00Z","name_a2s":"Uncletopia | Chicago | 3 | All Maps","protocol":17,"map":"koth_lakeside_final","folder":"tf","game":"Team Fortress","app_id":440,"player_count":0,"max_players":24,"Bots":0,"server_type":"Dedicated","server_os":"Linux","password":true,"vac":true,"version":"7701286","steam_id":85568392924515191,"keywords":["cp","nocrits","nodmgspread","uncletopia"],"game_id":440,"stv_port":0,"stv_name":"","players":null},{"server_id":403,"name":"Uncletopia | Chicago | 4 | All Maps","name_short":"chi-4","host":"chi-1.us.uncletopia.com","port":27045,"enabled":true,"region":"us-central","cc":"us","latitude":41.881832,"longitude":-87.62318,"reserved":0,"last_update":"0001-01-01T00:00:00Z","name_a2s":"Uncletopia | Chicago | 4 | All Maps","protocol":17,"map":"koth_highpass","folder":"tf","game":"Team Fortress","app_id":440,"player_count":0,"max_players":24,"Bots":0,"server_type":"Dedicated","server_os":"Linux","password":true,"vac":true,"version":"7701286","steam_id":85568392924515193,"keywords":["cp","nocrits","nodmgspread","uncletopia"],"game_id":440,"stv_port":27046,"stv_name":"Uncletopia | Chicago | 4 | All Maps | STV","players":null},{"server_id":36,"name":"Uncletopia | Chicago | 5 | All Maps","name_short":"chi-5","host":"chi-2.us.uncletopia.com","port":27015,"enabled":true,"region":"us-central","cc":"us","latitude":41.881832,"longitude":-87.62318,"reserved":0,"last_update":"0001-01-01T00:00:00Z","name_a2s":"Uncletopia | Chicago | 5 | All Maps","protocol":17,"map":"pl_swiftwater_final1","folder":"tf","game":"Team Fortress","app_id":440,"player_count":0,"max_players":24,"Bots":0,"server_type":"Dedicated","server_os":"Linux","password":true,"vac":true,"version":"7701286","steam_id":85568392924866362,"keywords":["nocrits","nodmgspread","payload","uncletopia"],"game_id":440,"stv_port":27016,"stv_name":"Uncletopia | Chicago | 5 | All Maps | STV","players":null},{"server_id":37,"name":"Uncletopia | Chicago | 6 | All Maps","name_short":"chi-6","host":"chi-2.us.uncletopia.com","port":27025,"enabled":true,"region":"us-central","cc":"us","latitude":41.881832,"longitude":-87.62318,"reserved":0,"last_update":"0001-01-01T00:00:00Z","name_a2s":"Uncletopia | Chicago | 6 | All Maps","protocol":17,"map":"pl_swiftwater_final1","folder":"tf","game":"Team Fortress","app_id":440,"player_count":0,"max_players":24,"Bots":0,"server_type":"Dedicated","server_os":"Linux","password":true,"vac":true,"version":"7701286","steam_id":85568392924866363,"keywords":["nocrits","nodmgspread","payload","uncletopia"],"game_id":440,"stv_port":27026,"stv_name":"Uncletopia | Chicago | 6 | All Maps | STV","players":null},{"server_id":38,"name":"Uncletopia | Chicago | 7 | No Payload","name_short":"chi-7","host":"chi-2.us.uncletopia.com","port":27035,"enabled":true,"region":"us-central","cc":"us","latitude":41.881832,"longitude":-87.62318,"reserved":0,"last_update":"0001-01-01T00:00:00Z","name_a2s":"Uncletopia | Chicago | 7 | No Payload","protocol":17,"map":"plr_pipeline","folder":"tf","game":"Team Fortress","app_id":440,"player_count":0,"max_players":24,"Bots":0,"server_type":"Dedicated","server_os":"Linux","password":true,"vac":true,"version":"7701286","steam_id":85568392924866364,"keywords":["nocrits","nodmgspread","payload","uncletopia"],"game_id":440,"stv_port":27036,"stv_name":"Uncletopia | Chicago | 7 | No Payload | STV","players":null},{"server_id":39,"name":"Uncletopia | Chicago | 8 | Community","name_short":"chi-8","host":"chi-2.us.uncletopia.com","port":27045,"enabled":true,"region":"us-central","cc":"us","latitude":41.881832,"longitude":-87.62318,"reserved":0,"last_update":"0001-01-01T00:00:00Z","name_a2s":"Uncletopia | Chicago | 8 | Community","protocol":17,"map":"workshop/koth_slaughter_rc1.ugc1712845210","folder":"tf","game":"Team Fortress","app_id":440,"player_count":0,"max_players":24,"Bots":0,"server_type":"Dedicated","server_os":"Linux","password":true,"vac":true,"version":"7701286","steam_id":85568392924866365,"keywords":["cp","nocrits","nodmgspread","uncletopia"],"game_id":440,"stv_port":27046,"stv_name":"Uncletopia | Chicago | 8 | Community | STV","players":null},{"server_id":8,"name":"Uncletopia | Dallas | 1 | All Maps","name_short":"dal-1","host":"dal-1.us.uncletopia.com","port":27015,"enabled":true,"region":"us-central","cc":"us","latitude":32.779167,"longitude":-96.80889,"reserved":0,"last_update":"0001-01-01T00:00:00Z","name_a2s":"Uncletopia | Dallas | 1 | All Maps","protocol":17,"map":"pl_pier","folder":"tf","game":"Team Fortress","app_id":440,"player_count":23,"max_players":24,"Bots":0,"server_type":"Dedicated","server_os":"Linux","password":true,"vac":true,"version":"7701286","steam_id":85568392924469986,"keywords":["nocrits","nodmgspread","payload","uncletopia"],"game_id":440,"stv_port":27016,"stv_name":"Uncletopia | Dallas | 1 | All Maps | STV","players":[{"user_id":274,"name":"culture","steam_id":76561198136156676,"connected_time":2264000000000,"state":"active","ping":75},{"user_id":286,"name":"PotatoKing","steam_id":76561198302517491,"connected_time":1317000000000,"state":"active","ping":74},{"user_id":276,"name":"kermitcreeper(ZAZA)","steam_id":76561199222829972,"connected_time":1852000000000,"state":"active","ping":60},{"user_id":266,"name":"lyra","steam_id":76561198200002859,"connected_time":2818000000000,"state":"active","ping":63},{"user_id":270,"name":"IZISOO","steam_id":76561198970380577,"connected_time":2671000000000,"state":"active","ping":75},{"user_id":269,"name":"rat smacker","steam_id":76561198053164901,"connected_time":2697000000000,"state":"active","ping":57},{"user_id":285,"name":"DSM-IVCE","steam_id":76561199438515797,"connected_time":1342000000000,"state":"active","ping":114},{"user_id":224,"name":"mac_cheese","steam_id":76561198071334162,"connected_time":7235000000000,"state":"active","ping":89},{"user_id":297,"name":"\u003cWoof\u003e p.d.i [TOP ROLLS]","steam_id":76561197980218037,"connected_time":353000000000,"state":"active","ping":94},{"user_id":295,"name":"i never touched my balls","steam_id":76561198081282228,"connected_time":719000000000,"state":"active","ping":76},{"user_id":225,"name":"Just Chuck","steam_id":76561198121697504,"connected_time":7182000000000,"state":"active","ping":84},{"user_id":288,"name":"awfulArbiter","steam_id":76561198068189558,"connected_time":1220000000000,"state":"active","ping":82},{"user_id":183,"name":"Petey","steam_id":76561198007339151,"connected_time":10289000000000,"state":"active","ping":62},{"user_id":292,"name":"Karambwanji","steam_id":76561198002158685,"connected_time":1103000000000,"state":"active","ping":84},{"user_id":289,"name":"Rastapopulos","steam_id":76561198061635027,"connected_time":1202000000000,"state":"active","ping":175},{"user_id":271,"name":"OmniXVII","steam_id":76561198027183394,"connected_time":2596000000000,"state":"active","ping":81},{"user_id":226,"name":"maybe next year i'll implode","steam_id":76561198359132531,"connected_time":7033000000000,"state":"active","ping":164},{"user_id":298,"name":"tosm-AA-","steam_id":76561198130032444,"connected_time":171000000000,"state":"active","ping":89},{"user_id":299,"name":"dumbass","steam_id":76561198410957728,"connected_time":121000000000,"state":"active","ping":67},{"user_id":259,"name":"schmopp","steam_id":76561198076490954,"connected_time":3549000000000,"state":"active","ping":64},{"user_id":260,"name":"Spirosity","steam_id":76561198013485753,"connected_time":3541000000000,"state":"active","ping":87},{"user_id":281,"name":"spunk pap","steam_id":76561198202278895,"connected_time":1455000000000,"state":"active","ping":51},{"user_id":291,"name":"The_Pacific_gamer","steam_id":76561198089491446,"connected_time":1183000000000,"state":"active","ping":101}]},{"server_id":108,"name":"Uncletopia | Dallas | 2 | All Maps","name_short":"dal-2","host":"dal-1.us.uncletopia.com","port":27025,"enabled":true,"region":"us-central","cc":"us","latitude":32.779167,"longitude":-96.80889,"reserved":0,"last_update":"0001-01-01T00:00:00Z","name_a2s":"Uncletopia | Dallas | 2 | All Maps","protocol":17,"map":"pl_frontier_final","folder":"tf","game":"Team Fortress","app_id":440,"player_count":0,"max_players":24,"Bots":0,"server_type":"Dedicated","server_os":"Linux","password":true,"vac":true,"version":"7701286","steam_id":85568392924469988,"keywords":["nocrits","nodmgspread","payload","uncletopia"],"game_id":440,"stv_port":27026,"stv_name":"Uncletopia | Dallas | 2 | All Maps | STV","players":null},{"server_id":5,"name":"Uncletopia | Frankfurt | 1 | All Maps","name_short":"frk-1","host":"frk-1.de.uncletopia.com","port":27015,"enabled":true,"region":"eu","cc":"de","latitude":50.110924,"longitude":8.682127,"reserved":0,"last_update":"0001-01-01T00:00:00Z","name_a2s":"Uncletopia | Frankfurt | 1 | All Maps","protocol":17,"map":"cp_mountainlab","folder":"tf","game":"Team Fortress","app_id":440,"player_count":0,"max_players":24,"Bots":0,"server_type":"Dedicated","server_os":"Linux","password":true,"vac":true,"version":"7701286","steam_id":85568392924469989,"keywords":["cp","nocrits","nodmgspread","uncletopia"],"game_id":440,"stv_port":0,"stv_name":"","players":null},{"server_id":110,"name":"Uncletopia | Frankfurt | 2 | All Maps","name_short":"frk-2","host":"frk-1.de.uncletopia.com","port":27025,"enabled":true,"region":"eu","cc":"de","latitude":50.110924,"longitude":8.682127,"reserved":0,"last_update":"0001-01-01T00:00:00Z","name_a2s":"Uncletopia | Frankfurt | 2 | All Maps","protocol":17,"map":"cp_sunshine","folder":"tf","game":"Team Fortress","app_id":440,"player_count":0,"max_players":24,"Bots":0,"server_type":"Dedicated","server_os":"Linux","password":true,"vac":true,"version":"7701286","steam_id":85568392924469990,"keywords":["cp","nocrits","nodmgspread","uncletopia"],"game_id":440,"stv_port":0,"stv_name":"","players":null},{"server_id":308,"name":"Uncletopia | Frankfurt | 3 | All Maps","name_short":"frk-3","host":"frk-1.de.uncletopia.com","port":27035,"enabled":true,"region":"eu","cc":"de","latitude":50.110924,"longitude":8.682127,"reserved":0,"last_update":"0001-01-01T00:00:00Z","name_a2s":"Uncletopia | Frankfurt | 3 | All Maps","protocol":17,"map":"pl_barnblitz","folder":"tf","game":"Team Fortress","app_id":440,"player_count":0,"max_players":24,"Bots":0,"server_type":"Dedicated","server_os":"Linux","password":true,"vac":true,"version":"7701286","steam_id":85568392924504274,"keywords":["nocrits","nodmgspread","payload","uncletopia"],"game_id":440,"stv_port":0,"stv_name":"","players":null},{"server_id":309,"name":"Uncletopia | Frankfurt | 4 | All Maps","name_short":"frk-4","host":"frk-1.de.uncletopia.com","port":27045,"enabled":true,"region":"eu","cc":"de","latitude":50.110924,"longitude":8.682127,"reserved":0,"last_update":"0001-01-01T00:00:00Z","name_a2s":"Uncletopia | Frankfurt | 4 | All Maps","protocol":17,"map":"pl_frontier_final","folder":"tf","game":"Team Fortress","app_id":440,"player_count":0,"max_players":24,"Bots":0,"server_type":"Dedicated","server_os":"Linux","password":true,"vac":true,"version":"7701286","steam_id":85568392924504275,"keywords":["nocrits","nodmgspread","payload","uncletopia"],"game_id":440,"stv_port":27046,"stv_name":"Uncletopia | Frankfurt | 4 | All Maps | STV","players":null},{"server_id":310,"name":"Uncletopia | Frankfurt | 5 | All Maps","name_short":"frk-5","host":"frk-1.de.uncletopia.com","port":27055,"enabled":true,"region":"eu","cc":"de","latitude":50.110924,"longitude":8.682127,"reserved":0,"last_update":"0001-01-01T00:00:00Z","name_a2s":"Uncletopia | Frankfurt | 5 | All Maps","protocol":17,"map":"koth_viaduct","folder":"tf","game":"Team Fortress","app_id":440,"player_count":0,"max_players":24,"Bots":0,"server_type":"Dedicated","server_os":"Linux","password":true,"vac":true,"version":"7701286","steam_id":85568392924504277,"keywords":["cp","nocrits","nodmgspread","uncletopia"],"game_id":440,"stv_port":0,"stv_name":"","players":null},{"server_id":311,"name":"Uncletopia | Frankfurt | 6 | All Maps","name_short":"frk-6","host":"frk-1.de.uncletopia.com","port":27065,"enabled":true,"region":"eu","cc":"de","latitude":50.110924,"longitude":8.682127,"reserved":0,"last_update":"0001-01-01T00:00:00Z","name_a2s":"Uncletopia | Frankfurt | 6 | All Maps","protocol":17,"map":"koth_lakeside_final","folder":"tf","game":"Team Fortress","app_id":440,"player_count":0,"max_players":24,"Bots":0,"server_type":"Dedicated","server_os":"Linux","password":true,"vac":true,"version":"7701286","steam_id":85568392924504278,"keywords":["cp","nocrits","nodmgspread","uncletopia"],"game_id":440,"stv_port":0,"stv_name":"","players":null},{"server_id":23,"name":"Uncletopia | Frankfurt | 7 | No Payload","name_short":"frk-7","host":"frk-1.de.uncletopia.com","port":27075,"enabled":true,"region":"eu","cc":"de","latitude":50.110924,"longitude":8.682127,"reserved":0,"last_update":"0001-01-01T00:00:00Z","name_a2s":"Uncletopia | Frankfurt | 7 | No Payload","protocol":17,"map":"pl_badwater","folder":"tf","game":"Team Fortress","app_id":440,"player_count":0,"max_players":24,"Bots":0,"server_type":"Dedicated","server_os":"Linux","password":true,"vac":true,"version":"7701286","steam_id":85568392924742827,"keywords":["nocrits","nodmgspread","payload","uncletopia"],"game_id":440,"stv_port":0,"stv_name":"","players":null},{"server_id":24,"name":"Uncletopia | Frankfurt | 8 | Community","name_short":"frk-8","host":"frk-1.de.uncletopia.com","port":27085,"enabled":true,"region":"eu","cc":"de","latitude":50.110924,"longitude":8.682127,"reserved":0,"last_update":"0001-01-01T00:00:00Z","name_a2s":"Uncletopia | Frankfurt | 8 | Community","protocol":17,"map":"pl_barnblitz","folder":"tf","game":"Team Fortress","app_id":440,"player_count":0,"max_players":24,"Bots":0,"server_type":"Dedicated","server_os":"Linux","password":true,"vac":true,"version":"7701286","steam_id":85568392924742828,"keywords":["nocrits","nodmgspread","payload","uncletopia"],"game_id":440,"stv_port":0,"stv_name":"","players":null},{"server_id":202,"name":"Uncletopia | Hong Kong | 1 | All Maps","name_short":"hgk-1","host":"hgk-1.hk.uncletopia.com","port":27015,"enabled":true,"region":"asia","cc":"hk","latitude":22.302711,"longitude":114.177216,"reserved":0,"last_update":"0001-01-01T00:00:00Z","name_a2s":"Uncletopia | Hong Kong | 1 | All Maps","protocol":17,"map":"pl_badwater","folder":"tf","game":"Team Fortress","app_id":440,"player_count":24,"max_players":24,"Bots":0,"server_type":"Dedicated","server_os":"Linux","password":true,"vac":true,"version":"7701286","steam_id":85568392924494504,"keywords":["nocrits","nodmgspread","payload","uncletopia"],"game_id":440,"stv_port":27016,"stv_name":"Uncletopia | Hong Kong | 1 | All Maps | STV","players":[{"user_id":158,"name":"tiden2000","steam_id":76561198092969425,"connected_time":1999000000000,"state":"active","ping":66},{"user_id":176,"name":"TomProPlayer","steam_id":76561199223292521,"connected_time":410000000000,"state":"active","ping":65},{"user_id":174,"name":"2232","steam_id":76561198074339034,"connected_time":499000000000,"state":"active","ping":74},{"user_id":129,"name":"Pyro","steam_id":76561197997710008,"connected_time":4222000000000,"state":"active","ping":39},{"user_id":151,"name":"Othopeus","steam_id":76561198283534382,"connected_time":2670000000000,"state":"active","ping":66},{"user_id":125,"name":"r","steam_id":76561198811024417,"connected_time":4749000000000,"state":"active","ping":68},{"user_id":115,"name":"geirangerfjord","steam_id":76561198318126190,"connected_time":6276000000000,"state":"active","ping":96},{"user_id":172,"name":"uptriste","steam_id":76561198158666692,"connected_time":790000000000,"state":"active","ping":41},{"user_id":110,"name":"nick","steam_id":76561198400698408,"connected_time":6842000000000,"state":"active","ping":91},{"user_id":136,"name":"Orie","steam_id":76561198183521659,"connected_time":3958000000000,"state":"active","ping":90},{"user_id":78,"name":"MS PowerPoint","steam_id":76561198369523192,"connected_time":9881000000000,"state":"active","ping":62},{"user_id":148,"name":". ᴗ.","steam_id":76561198208632261,"connected_time":2990000000000,"state":"active","ping":44},{"user_id":181,"name":"Ghuzik","steam_id":76561199107596818,"connected_time":27000000000,"state":"active","ping":121},{"user_id":152,"name":"Javariced","steam_id":76561198069402937,"connected_time":2666000000000,"state":"active","ping":92},{"user_id":162,"name":"Trivia","steam_id":76561198889862851,"connected_time":1856000000000,"state":"active","ping":45},{"user_id":180,"name":"TheGrimZoneExD","steam_id":76561199384486493,"connected_time":127000000000,"state":"active","ping":101},{"user_id":170,"name":"Gordon.Freeman","steam_id":76561198337746852,"connected_time":825000000000,"state":"active","ping":80},{"user_id":169,"name":"Dits","steam_id":76561198283833960,"connected_time":830000000000,"state":"active","ping":41},{"user_id":145,"name":"Youtube Algorithm#no112","steam_id":76561198095713423,"connected_time":3123000000000,"state":"active","ping":103},{"user_id":161,"name":"max","steam_id":76561198083833787,"connected_time":1925000000000,"state":"active","ping":118},{"user_id":163,"name":"¿?","steam_id":76561198225715416,"connected_time":1759000000000,"state":"active","ping":40},{"user_id":177,"name":"pro feeder","steam_id":76561199069458153,"connected_time":399000000000,"state":"active","ping":88},{"user_id":166,"name":"devonkingthe7th","steam_id":76561199442326707,"connected_time":1349000000000,"state":"active","ping":124},{"user_id":178,"name":"Lym0n","steam_id":76561199192420260,"connected_time":278000000000,"state":"active","ping":108}]},{"server_id":1,"name":"Uncletopia | Los Angeles | 1 | All Maps","name_short":"lax-1","host":"lax-1.us.uncletopia.com","port":27015,"enabled":true,"region":"us-west","cc":"us","latitude":33.94279,"longitude":-118.41004,"reserved":0,"last_update":"0001-01-01T00:00:00Z","name_a2s":"Uncletopia | Los Angeles | 1 | All Maps","protocol":17,"map":"plr_pipeline","folder":"tf","game":"Team Fortress","app_id":440,"player_count":8,"max_players":24,"Bots":0,"server_type":"Dedicated","server_os":"Linux","password":true,"vac":true,"version":"7701286","steam_id":85568392924469991,"keywords":["nocrits","nodmgspread","payload","uncletopia"],"game_id":440,"stv_port":27016,"stv_name":"Uncletopia | Los Angeles | 1 | All Maps | STV","players":[{"user_id":270,"name":"Senior3000","steam_id":76561198324900937,"connected_time":1956000000000,"state":"active","ping":36},{"user_id":289,"name":"catgirl giantess in heat","steam_id":76561198439042583,"connected_time":233000000000,"state":"active","ping":86},{"user_id":282,"name":"The_Decimator_75","steam_id":76561198298280283,"connected_time":1159000000000,"state":"active","ping":44},{"user_id":290,"name":"DoktorZee","steam_id":76561198031521278,"connected_time":173000000000,"state":"active","ping":96},{"user_id":287,"name":"jrmadmallard","steam_id":76561198275994616,"connected_time":858000000000,"state":"active","ping":75},{"user_id":288,"name":"能豆儿","steam_id":76561198165246425,"connected_time":847000000000,"state":"active","ping":228},{"user_id":274,"name":"Luka's Pizza","steam_id":76561199375536109,"connected_time":1544000000000,"state":"active","ping":110},{"user_id":233,"name":"1 Gallon of Bees","steam_id":76561198297585031,"connected_time":5169000000000,"state":"active","ping":65}]},{"server_id":112,"name":"Uncletopia | Los Angeles | 2 | All Maps","name_short":"lax-2","host":"lax-1.us.uncletopia.com","port":27025,"enabled":true,"region":"us-west","cc":"us","latitude":33.94279,"longitude":-118.41004,"reserved":0,"last_update":"0001-01-01T00:00:00Z","name_a2s":"Uncletopia | Los Angeles | 2 | All Maps","protocol":17,"map":"pl_borneo","folder":"tf","game":"Team Fortress","app_id":440,"player_count":0,"max_players":24,"Bots":0,"server_type":"Dedicated","server_os":"Linux","password":true,"vac":true,"version":"7701286","steam_id":85568392924469992,"keywords":["nocrits","nodmgspread","payload","uncletopia"],"game_id":440,"stv_port":27026,"stv_name":"Uncletopia | Los Angeles | 2 | All Maps | STV","players":null},{"server_id":324,"name":"Uncletopia | Los Angeles | 3 | All Maps","name_short":"lax-3","host":"lax-1.us.uncletopia.com","port":27035,"enabled":true,"region":"us-west","cc":"us","latitude":33.94279,"longitude":-118.41004,"reserved":0,"last_update":"0001-01-01T00:00:00Z","name_a2s":"Uncletopia | Los Angeles | 3 | All Maps","protocol":17,"map":"cp_process_final","folder":"tf","game":"Team Fortress","app_id":440,"player_count":0,"max_players":24,"Bots":0,"server_type":"Dedicated","server_os":"Linux","password":true,"vac":true,"version":"7701286","steam_id":85568392924510198,"keywords":["cp","nocrits","nodmgspread","uncletopia"],"game_id":440,"stv_port":27036,"stv_name":"Uncletopia | Los Angeles | 3 | All Maps | STV","players":null},{"server_id":25,"name":"Uncletopia | Los Angeles | 4 | No Payload","name_short":"lax-4","host":"lax-1.us.uncletopia.com","port":27045,"enabled":true,"region":"us-west","cc":"us","latitude":33.94279,"longitude":-118.41004,"reserved":0,"last_update":"0001-01-01T00:00:00Z","name_a2s":"Uncletopia | Los Angeles | 4 | No Payload","protocol":17,"map":"cp_vanguard","folder":"tf","game":"Team Fortress","app_id":440,"player_count":0,"max_players":24,"Bots":0,"server_type":"Dedicated","server_os":"Linux","password":true,"vac":true,"version":"7701286","steam_id":85568392924510199,"keywords":["cp","nocrits","nodmgspread","uncletopia"],"game_id":440,"stv_port":27046,"stv_name":"Uncletopia | Los Angeles | 4 | No Payload | STV","players":null},{"server_id":11,"name":"Uncletopia | London | 1 | All Maps","name_short":"lon-1","host":"lon-1.uk.uncletopia.com","port":27015,"enabled":true,"region":"eu","cc":"gb","latitude":51.509865,"longitude":-0.118092,"reserved":0,"last_update":"0001-01-01T00:00:00Z","name_a2s":"Uncletopia | London | 1 | All Maps","protocol":17,"map":"pl_frontier_final","folder":"tf","game":"Team Fortress","app_id":440,"player_count":0,"max_players":24,"Bots":0,"server_type":"Dedicated","server_os":"Linux","password":true,"vac":true,"version":"7701286","steam_id":85568392924367362,"keywords":["nocrits","nodmgspread","payload","uncletopia"],"game_id":440,"stv_port":27016,"stv_name":"Uncletopia | London | 1 | All Maps | STV","players":null},{"server_id":114,"name":"Uncletopia | London | 2 | All Maps","name_short":"lon-2","host":"lon-1.uk.uncletopia.com","port":27025,"enabled":true,"region":"eu","cc":"gb","latitude":51.509865,"longitude":-0.118092,"reserved":0,"last_update":"0001-01-01T00:00:00Z","name_a2s":"Uncletopia | London | 2 | All Maps","protocol":17,"map":"cp_dustbowl","folder":"tf","game":"Team Fortress","app_id":440,"player_count":0,"max_players":24,"Bots":0,"server_type":"Dedicated","server_os":"Linux","password":true,"vac":true,"version":"7701286","steam_id":85568392924470941,"keywords":["cp","nocrits","nodmgspread","uncletopia"],"game_id":440,"stv_port":0,"stv_name":"","players":null},{"server_id":320,"name":"Uncletopia | London | 3 | All Maps","name_short":"lon-3","host":"lon-1.uk.uncletopia.com","port":27035,"enabled":true,"region":"eu","cc":"gb","latitude":51.509865,"longitude":-0.118092,"reserved":0,"last_update":"0001-01-01T00:00:00Z","name_a2s":"Uncletopia | London | 3 | All Maps","protocol":17,"map":"pl_upward","folder":"tf","game":"Team Fortress","app_id":440,"player_count":23,"max_players":24,"Bots":0,"server_type":"Dedicated","server_os":"Linux","password":true,"vac":true,"version":"7701286","steam_id":85568392924510192,"keywords":["nocrits","nodmgspread","payload","uncletopia"],"game_id":440,"stv_port":0,"stv_name":"","players":[{"user_id":9,"name":"Capvin","steam_id":76561198989449047,"connected_time":1316000000000,"state":"active","ping":131},{"user_id":5,"name":"K.V. #RemoveRandomCrits","steam_id":76561197994832993,"connected_time":1490000000000,"state":"active","ping":70},{"user_id":27,"name":"ralsei smoking a fat blunt","steam_id":76561198258726123,"connected_time":320000000000,"state":"active","ping":81},{"user_id":12,"name":"hushhx","steam_id":76561198216200092,"connected_time":1131000000000,"state":"active","ping":45},{"user_id":11,"name":"Insanitybomb","steam_id":76561198048707708,"connected_time":1257000000000,"state":"active","ping":59},{"user_id":14,"name":"Deva Path","steam_id":76561198085763542,"connected_time":931000000000,"state":"active","ping":78},{"user_id":15,"name":"Mar","steam_id":76561198127633424,"connected_time":731000000000,"state":"active","ping":77},{"user_id":16,"name":"Rat head","steam_id":76561198184360615,"connected_time":731000000000,"state":"active","ping":90},{"user_id":24,"name":"яна цист","steam_id":76561199440030481,"connected_time":414000000000,"state":"active","ping":113},{"user_id":31,"name":"超级","steam_id":76561198277858041,"connected_time":262000000000,"state":"active","ping":97},{"user_id":20,"name":"anastasia","steam_id":76561197994492154,"connected_time":588000000000,"state":"active","ping":75},{"user_id":25,"name":"purplecan","steam_id":76561199208283508,"connected_time":381000000000,"state":"active","ping":75},{"user_id":22,"name":"AndrooKeK","steam_id":76561198293934368,"connected_time":561000000000,"state":"active","ping":81},{"user_id":23,"name":"ZOGG FearLand","steam_id":76561198352683491,"connected_time":555000000000,"state":"active","ping":42},{"user_id":26,"name":"Engineer Gaming","steam_id":76561198866730509,"connected_time":377000000000,"state":"active","ping":83},{"user_id":29,"name":"Artisan_Bonchemin","steam_id":76561199044775315,"connected_time":285000000000,"state":"active","ping":123},{"user_id":30,"name":"Sidmund","steam_id":76561198321850799,"connected_time":270000000000,"state":"active","ping":114},{"user_id":32,"name":"Esquire","steam_id":76561198441410650,"connected_time":248000000000,"state":"active","ping":64},{"user_id":33,"name":"weed fairy","steam_id":76561197998843096,"connected_time":191000000000,"state":"active","ping":88},{"user_id":34,"name":"The Bonk Man™","steam_id":76561199044260792,"connected_time":181000000000,"state":"active","ping":75},{"user_id":35,"name":"vladandreiy","steam_id":76561198154131247,"connected_time":134000000000,"state":"active","ping":82},{"user_id":36,"name":"Fat Pigeon","steam_id":76561198817940142,"connected_time":88000000000,"state":"active","ping":45},{"user_id":37,"name":"dafydd","steam_id":76561198052200325,"connected_time":1000000000,"state":"spawning","ping":74}]},{"server_id":321,"name":"Uncletopia | London | 4 | All Maps","name_short":"lon-4","host":"lon-1.uk.uncletopia.com","port":27045,"enabled":true,"region":"eu","cc":"gb","latitude":51.509865,"longitude":-0.118092,"reserved":0,"last_update":"0001-01-01T00:00:00Z","name_a2s":"Uncletopia | London | 4 | All Maps","protocol":17,"map":"koth_viaduct","folder":"tf","game":"Team Fortress","app_id":440,"player_count":0,"max_players":24,"Bots":0,"server_type":"Dedicated","server_os":"Linux","password":true,"vac":true,"version":"7701286","steam_id":85568392924510193,"keywords":["cp","nocrits","nodmgspread","uncletopia"],"game_id":440,"stv_port":0,"stv_name":"","players":null},{"server_id":21,"name":"Uncletopia | London | 5 | All Maps","name_short":"lon-5","host":"lon-1.uk.uncletopia.com","port":27055,"enabled":true,"region":"eu","cc":"gb","latitude":51.509865,"longitude":-0.118092,"reserved":0,"last_update":"0001-01-01T00:00:00Z","name_a2s":"Uncletopia | London | 5 | All Maps","protocol":17,"map":"cp_mountainlab","folder":"tf","game":"Team Fortress","app_id":440,"player_count":0,"max_players":24,"Bots":0,"server_type":"Dedicated","server_os":"Linux","password":true,"vac":true,"version":"7701286","steam_id":85568392924742829,"keywords":["cp","nocrits","nodmgspread","uncletopia"],"game_id":440,"stv_port":27056,"stv_name":"Uncletopia | London | 5 | All Maps | STV","players":null},{"server_id":22,"name":"Uncletopia | London | 6 | All Maps","name_short":"lon-6","host":"lon-1.uk.uncletopia.com","port":27065,"enabled":true,"region":"eu","cc":"gb","latitude":51.509865,"longitude":-0.118092,"reserved":0,"last_update":"0001-01-01T00:00:00Z","name_a2s":"Uncletopia | London | 6 | All Maps","protocol":17,"map":"cp_dustbowl","folder":"tf","game":"Team Fortress","app_id":440,"player_count":0,"max_players":24,"Bots":0,"server_type":"Dedicated","server_os":"Linux","password":true,"vac":true,"version":"7701286","steam_id":85568392924742830,"keywords":["cp","nocrits","nodmgspread","uncletopia"],"game_id":440,"stv_port":0,"stv_name":"","players":null},{"server_id":40,"name":"Uncletopia | London | 7 | No Payload","name_short":"lon-7","host":"lon-1.uk.uncletopia.com","port":27075,"enabled":true,"region":"eu","cc":"gb","latitude":51.509865,"longitude":-0.118092,"reserved":0,"last_update":"0001-01-01T00:00:00Z","name_a2s":"Uncletopia | London | 7 | No Payload","protocol":17,"map":"pl_frontier_final","folder":"tf","game":"Team Fortress","app_id":440,"player_count":0,"max_players":24,"Bots":0,"server_type":"Dedicated","server_os":"Linux","password":true,"vac":true,"version":"7701286","steam_id":85568392924964314,"keywords":["nocrits","nodmgspread","payload","uncletopia"],"game_id":440,"stv_port":0,"stv_name":"","players":null},{"server_id":41,"name":"Uncletopia | London | 8 | Community","name_short":"lon-8","host":"lon-1.uk.uncletopia.com","port":27085,"enabled":true,"region":"eu","cc":"gb","latitude":51.509865,"longitude":-0.118092,"reserved":0,"last_update":"0001-01-01T00:00:00Z","name_a2s":"Uncletopia | London | 8 | Community","protocol":17,"map":"pl_pier","folder":"tf","game":"Team Fortress","app_id":440,"player_count":0,"max_players":24,"Bots":0,"server_type":"Dedicated","server_os":"Linux","password":true,"vac":true,"version":"7701286","steam_id":85568392924964315,"keywords":["nocrits","nodmgspread","payload","uncletopia"],"game_id":440,"stv_port":0,"stv_name":"","players":null},{"server_id":300,"name":"Uncletopia | Montréal | 1 | All Maps","name_short":"mtl-1","host":"mtl-1.ca.uncletopia.com","port":27015,"enabled":true,"region":"us-east","cc":"ca","latitude":45.50889,"longitude":-73.56167,"reserved":0,"last_update":"0001-01-01T00:00:00Z","name_a2s":"Uncletopia | Montréal | 1 | All Maps","protocol":17,"map":"koth_lakeside_final","folder":"tf","game":"Team Fortress","app_id":440,"player_count":0,"max_players":24,"Bots":0,"server_type":"Dedicated","server_os":"Linux","password":true,"vac":true,"version":"7701286","steam_id":85568392924500087,"keywords":["cp","nocrits","nodmgspread","uncletopia"],"game_id":440,"stv_port":0,"stv_name":"","players":null},{"server_id":301,"name":"Uncletopia | Montréal | 2 | All Maps","name_short":"mtl-2","host":"mtl-1.ca.uncletopia.com","port":27025,"enabled":true,"region":"us-east","cc":"ca","latitude":45.50889,"longitude":-73.56167,"reserved":0,"last_update":"0001-01-01T00:00:00Z","name_a2s":"Uncletopia | Montréal | 2 | All Maps","protocol":17,"map":"koth_cascade","folder":"tf","game":"Team Fortress","app_id":440,"player_count":0,"max_players":24,"Bots":0,"server_type":"Dedicated","server_os":"Linux","password":true,"vac":true,"version":"7701286","steam_id":85568392924500088,"keywords":["cp","nocrits","nodmgspread","uncletopia"],"game_id":440,"stv_port":27026,"stv_name":"Uncletopia | Montréal | 2 | All Maps | STV","players":null},{"server_id":302,"name":"Uncletopia | Montréal | 3 | All Maps","name_short":"mtl-3","host":"mtl-1.ca.uncletopia.com","port":27035,"enabled":true,"region":"us-east","cc":"ca","latitude":45.50889,"longitude":-73.56167,"reserved":0,"last_update":"0001-01-01T00:00:00Z","name_a2s":"Uncletopia | Montréal | 3 | All Maps","protocol":17,"map":"pl_borneo","folder":"tf","game":"Team Fortress","app_id":440,"player_count":0,"max_players":24,"Bots":0,"server_type":"Dedicated","server_os":"Linux","password":true,"vac":true,"version":"7701286","steam_id":85568392924500089,"keywords":["nocrits","nodmgspread","payload","uncletopia"],"game_id":440,"stv_port":27036,"stv_name":"Uncletopia | Montréal | 3 | All Maps | STV","players":null},{"server_id":303,"name":"Uncletopia | Montréal | 4 | No Payload","name_short":"mtl-4","host":"mtl-1.ca.uncletopia.com","port":27045,"enabled":true,"region":"us-east","cc":"ca","latitude":45.50889,"longitude":-73.56167,"reserved":0,"last_update":"0001-01-01T00:00:00Z","name_a2s":"Uncletopia | Montréal | 4 | No Payload","protocol":17,"map":"koth_viaduct","folder":"tf","game":"Team Fortress","app_id":440,"player_count":0,"max_players":24,"Bots":0,"server_type":"Dedicated","server_os":"Linux","password":true,"vac":true,"version":"7701286","steam_id":85568392924500090,"keywords":["cp","nocrits","nodmgspread","uncletopia"],"game_id":440,"stv_port":27046,"stv_name":"Uncletopia | Montréal | 4 | No Payload | STV","players":null},{"server_id":13,"name":"Uncletopia | New York City | 1 | All Maps","name_short":"nyc-1","host":"nyc-1.us.uncletopia.com","port":27015,"enabled":true,"region":"us-east","cc":"us","latitude":40.73061,"longitude":-73.93524,"reserved":0,"last_update":"0001-01-01T00:00:00Z","name_a2s":"Uncletopia | New York City | 1 | All Maps","protocol":17,"map":"koth_highpass","folder":"tf","game":"Team Fortress","app_id":440,"player_count":0,"max_players":24,"Bots":0,"server_type":"Dedicated","server_os":"Linux","password":true,"vac":true,"version":"7701286","steam_id":85568392924469993,"keywords":["cp","nocrits","nodmgspread","uncletopia"],"game_id":440,"stv_port":27016,"stv_name":"Uncletopia | New York City | 1 | All Maps | STV","players":null},{"server_id":14,"name":"Uncletopia | New York City | 2 | All Maps","name_short":"nyc-2","host":"nyc-1.us.uncletopia.com","port":27025,"enabled":true,"region":"us-east","cc":"us","latitude":40.73061,"longitude":-73.93524,"reserved":0,"last_update":"0001-01-01T00:00:00Z","name_a2s":"Uncletopia | New York City | 2 | All Maps","protocol":17,"map":"koth_lakeside_final","folder":"tf","game":"Team Fortress","app_id":440,"player_count":0,"max_players":24,"Bots":0,"server_type":"Dedicated","server_os":"Linux","password":true,"vac":true,"version":"7701286","steam_id":85568392924469994,"keywords":["cp","nocrits","nodmgspread","uncletopia"],"game_id":440,"stv_port":27026,"stv_name":"Uncletopia | New York City | 2 | All Maps | STV","players":null},{"server_id":15,"name":"Uncletopia | New York City | 3 | All Maps","name_short":"nyc-3","host":"nyc-1.us.uncletopia.com","port":27035,"enabled":true,"region":"us-east","cc":"us","latitude":40.73061,"longitude":-73.93524,"reserved":0,"last_update":"0001-01-01T00:00:00Z","name_a2s":"Uncletopia | New York City | 3 | All Maps","protocol":17,"map":"pl_borneo","folder":"tf","game":"Team Fortress","app_id":440,"player_count":0,"max_players":24,"Bots":0,"server_type":"Dedicated","server_os":"Linux","password":true,"vac":true,"version":"7701286","steam_id":85568392924742820,"keywords":["nocrits","nodmgspread","payload","uncletopia"],"game_id":440,"stv_port":27036,"stv_name":"Uncletopia | New York City | 3 | All Maps | STV","players":null},{"server_id":16,"name":"Uncletopia | New York City | 4 | Community","name_short":"nyc-4","host":"nyc-1.us.uncletopia.com","port":27045,"enabled":true,"region":"us-east","cc":"us","latitude":40.73061,"longitude":-73.93524,"reserved":0,"last_update":"0001-01-01T00:00:00Z","name_a2s":"Uncletopia | New York City | 4 | Community","protocol":17,"map":"workshop/rd_asteroid_redux_rc9.ugc2154902912","folder":"tf","game":"Team Fortress","app_id":440,"player_count":0,"max_players":24,"Bots":0,"server_type":"Dedicated","server_os":"Linux","password":true,"vac":true,"version":"7701286","steam_id":85568392924742821,"keywords":["beta","nocrits","nodmgspread","rd","uncletopia"],"game_id":440,"stv_port":27046,"stv_name":"Uncletopia | New York City | 4 | Community | STV","players":null},{"server_id":142,"name":"Uncletopia | São Paulo | 1 | All Maps","name_short":"sao-1","host":"sao-1.br.uncletopia.com","port":27015,"enabled":true,"region":"sa","cc":"br","latitude":-23.533773,"longitude":-46.62529,"reserved":0,"last_update":"0001-01-01T00:00:00Z","name_a2s":"Uncletopia | São Paulo | 1 | All Maps","protocol":17,"map":"cp_altitude","folder":"tf","game":"Team Fortress","app_id":440,"player_count":0,"max_players":24,"Bots":0,"server_type":"Dedicated","server_os":"Linux","password":true,"vac":true,"version":"7701286","steam_id":85568392924469996,"keywords":["cp","nocrits","nodmgspread","uncletopia"],"game_id":440,"stv_port":27016,"stv_name":"Uncletopia | São Paulo | 1 | All Maps | STV","players":null},{"server_id":143,"name":"Uncletopia | São Paulo | 2 | All Maps","name_short":"sao-2","host":"sao-2.br.uncletopia.com","port":27015,"enabled":true,"region":"sa","cc":"br","latitude":-23.533773,"longitude":-46.62529,"reserved":0,"last_update":"0001-01-01T00:00:00Z","name_a2s":"Uncletopia | São Paulo | 2 | All Maps","protocol":17,"map":"pl_pier","folder":"tf","game":"Team Fortress","app_id":440,"player_count":0,"max_players":24,"Bots":0,"server_type":"Dedicated","server_os":"Linux","password":true,"vac":true,"version":"7701286","steam_id":85568392924485349,"keywords":["nocrits","nodmgspread","payload","uncletopia"],"game_id":440,"stv_port":27016,"stv_name":"Uncletopia | São Paulo | 2 | All Maps | STV","players":null},{"server_id":7,"name":"Uncletopia | Seattle | 1 | All Maps","name_short":"sea-1","host":"sea-1.us.uncletopia.com","port":27015,"enabled":true,"region":"us-west","cc":"us","latitude":47.608013,"longitude":-122.33517,"reserved":0,"last_update":"0001-01-01T00:00:00Z","name_a2s":"Uncletopia | Seattle | 1 | All Maps","protocol":17,"map":"pl_pier","folder":"tf","game":"Team Fortress","app_id":440,"player_count":24,"max_players":24,"Bots":0,"server_type":"Dedicated","server_os":"Linux","password":true,"vac":true,"version":"7701286","steam_id":85568392924469997,"keywords":["nocrits","nodmgspread","payload","uncletopia"],"game_id":440,"stv_port":27016,"stv_name":"Uncletopia | Seattle | 1 | All Maps | STV","players":[{"user_id":286,"name":"Super Mighty G","steam_id":76561198020932806,"connected_time":692000000000,"state":"active","ping":75},{"user_id":296,"name":"DORATHEEXPLORER","steam_id":76561198124773931,"connected_time":214000000000,"state":"active","ping":79},{"user_id":287,"name":"Drunkineer","steam_id":76561198256401292,"connected_time":682000000000,"state":"active","ping":97},{"user_id":288,"name":"JTuu","steam_id":76561198030606396,"connected_time":677000000000,"state":"active","ping":37},{"user_id":289,"name":"drive","steam_id":76561198041818185,"connected_time":675000000000,"state":"active","ping":93},{"user_id":216,"name":"PopcornNinja101","steam_id":76561198330680181,"connected_time":4062000000000,"state":"active","ping":48},{"user_id":290,"name":"k","steam_id":76561198835242836,"connected_time":637000000000,"state":"active","ping":51},{"user_id":276,"name":"Shooon","steam_id":76561198006107947,"connected_time":1483000000000,"state":"active","ping":65},{"user_id":291,"name":"your mom misses me","steam_id":76561198017748754,"connected_time":541000000000,"state":"active","ping":96},{"user_id":282,"name":"Wilbur","steam_id":76561198341220433,"connected_time":1086000000000,"state":"active","ping":62},{"user_id":264,"name":"trans gaming troll (she/her)","steam_id":76561198085410622,"connected_time":2136000000000,"state":"active","ping":47},{"user_id":277,"name":"ansoonii","steam_id":76561198092494136,"connected_time":1474000000000,"state":"active","ping":103},{"user_id":278,"name":"Misclick","steam_id":76561198050855911,"connected_time":1473000000000,"state":"active","ping":101},{"user_id":284,"name":"mommy","steam_id":76561198129195009,"connected_time":1007000000000,"state":"active","ping":67},{"user_id":292,"name":"Scrux","steam_id":76561198129763115,"connected_time":394000000000,"state":"active","ping":80},{"user_id":293,"name":"❤ Alice","steam_id":76561198869945051,"connected_time":383000000000,"state":"active","ping":110},{"user_id":253,"name":"gorlab","steam_id":76561198025089694,"connected_time":2517000000000,"state":"active","ping":66},{"user_id":237,"name":"TheMadDoctor(He/Him)","steam_id":76561198846198407,"connected_time":3288000000000,"state":"active","ping":46},{"user_id":294,"name":"oil","steam_id":76561198099980149,"connected_time":378000000000,"state":"active","ping":97},{"user_id":266,"name":"Antwan","steam_id":76561198246200638,"connected_time":2115000000000,"state":"active","ping":103},{"user_id":244,"name":"Raian","steam_id":76561199138048671,"connected_time":2981000000000,"state":"active","ping":74},{"user_id":269,"name":"IzzyHoP","steam_id":76561197995927883,"connected_time":1974000000000,"state":"active","ping":57},{"user_id":272,"name":"Big Oz","steam_id":76561198970897660,"connected_time":1854000000000,"state":"active","ping":92},{"user_id":295,"name":"Taffy","steam_id":76561198276612538,"connected_time":378000000000,"state":"active","ping":73}]},{"server_id":119,"name":"Uncletopia | Seattle | 2 | All Maps","name_short":"sea-2","host":"sea-1.us.uncletopia.com","port":27025,"enabled":true,"region":"us-west","cc":"us","latitude":47.608013,"longitude":-122.33517,"reserved":0,"last_update":"0001-01-01T00:00:00Z","name_a2s":"Uncletopia | Seattle | 2 | All Maps","protocol":17,"map":"koth_viaduct","folder":"tf","game":"Team Fortress","app_id":440,"player_count":0,"max_players":24,"Bots":0,"server_type":"Dedicated","server_os":"Linux","password":true,"vac":true,"version":"7701286","steam_id":85568392924469998,"keywords":["cp","nocrits","nodmgspread","uncletopia"],"game_id":440,"stv_port":27026,"stv_name":"Uncletopia | Seattle | 2 | All Maps | STV","players":null},{"server_id":17,"name":"Uncletopia | San Francisco | 1 | All Maps","name_short":"sfo-1","host":"sfo-1.us.uncletopia.com","port":27015,"enabled":true,"region":"us-west","cc":"us","latitude":37.77397,"longitude":-122.4313,"reserved":0,"last_update":"0001-01-01T00:00:00Z","name_a2s":"Uncletopia | San Francisco | 1 | All Maps","protocol":17,"map":"cp_snakewater_final1","folder":"tf","game":"Team Fortress","app_id":440,"player_count":0,"max_players":24,"Bots":0,"server_type":"Dedicated","server_os":"Linux","password":true,"vac":true,"version":"7701286","steam_id":85568392924469999,"keywords":["cp","nocrits","nodmgspread","uncletopia"],"game_id":440,"stv_port":27016,"stv_name":"Uncletopia | San Francisco | 1 | All Maps | STV","players":null},{"server_id":18,"name":"Uncletopia | San Francisco | 2 | All Maps","name_short":"sfo-2","host":"sfo-1.us.uncletopia.com","port":27025,"enabled":true,"region":"us-west","cc":"us","latitude":37.77397,"longitude":-122.4313,"reserved":0,"last_update":"0001-01-01T00:00:00Z","name_a2s":"Uncletopia | San Francisco | 2 | All Maps","protocol":17,"map":"pl_upward","folder":"tf","game":"Team Fortress","app_id":440,"player_count":24,"max_players":24,"Bots":0,"server_type":"Dedicated","server_os":"Linux","password":true,"vac":true,"version":"7701286","steam_id":85568392924470000,"keywords":["nocrits","nodmgspread","payload","uncletopia"],"game_id":440,"stv_port":27026,"stv_name":"Uncletopia | San Francisco | 2 | All Maps | STV","players":[{"user_id":82,"name":"Fgtfv567","steam_id":76561198071022525,"connected_time":7618000000000,"state":"active","ping":48},{"user_id":151,"name":"ritchie","steam_id":76561198097835871,"connected_time":746000000000,"state":"active","ping":108},{"user_id":116,"name":"schwicky shwag","steam_id":76561198037921140,"connected_time":4097000000000,"state":"active","ping":45},{"user_id":132,"name":"Dr_Minty","steam_id":76561199043644449,"connected_time":2981000000000,"state":"active","ping":56},{"user_id":117,"name":"Amogous Supreme","steam_id":76561198025476774,"connected_time":4092000000000,"state":"active","ping":51},{"user_id":139,"name":"MF","steam_id":76561199439734314,"connected_time":2518000000000,"state":"active","ping":71},{"user_id":141,"name":"Retr0Luigi","steam_id":76561199149799060,"connected_time":2395000000000,"state":"active","ping":61},{"user_id":136,"name":"Thöck","steam_id":76561198028135426,"connected_time":2618000000000,"state":"active","ping":59},{"user_id":113,"name":"Zorlovo","steam_id":76561198006443283,"connected_time":4808000000000,"state":"active","ping":83},{"user_id":97,"name":"twitch.tv/skrpy #Full Nelson","steam_id":76561198040969503,"connected_time":6314000000000,"state":"active","ping":56},{"user_id":152,"name":"Infentdegree211","steam_id":76561198385234127,"connected_time":738000000000,"state":"active","ping":65},{"user_id":149,"name":"Jessica (16 yo girl) xoxo","steam_id":76561198073699764,"connected_time":1144000000000,"state":"active","ping":61},{"user_id":156,"name":"Endo998","steam_id":76561197998220775,"connected_time":335000000000,"state":"active","ping":85},{"user_id":158,"name":"huma","steam_id":76561198054395941,"connected_time":32000000000,"state":"active","ping":54},{"user_id":154,"name":"mr555","steam_id":76561199128375354,"connected_time":660000000000,"state":"active","ping":152},{"user_id":123,"name":"Delta","steam_id":76561198021957971,"connected_time":3578000000000,"state":"active","ping":46},{"user_id":120,"name":"Riske","steam_id":76561198115840568,"connected_time":3842000000000,"state":"active","ping":121},{"user_id":150,"name":"Large Package","steam_id":76561198045403508,"connected_time":1067000000000,"state":"active","ping":65},{"user_id":122,"name":"Nullifeye","steam_id":76561198093373154,"connected_time":3769000000000,"state":"active","ping":94},{"user_id":88,"name":"ena - d","steam_id":76561198072329335,"connected_time":7385000000000,"state":"active","ping":108},{"user_id":142,"name":"Rice Farmer","steam_id":76561198448407150,"connected_time":2391000000000,"state":"active","ping":45},{"user_id":159,"name":"pipe muhammed","steam_id":76561198152818418,"connected_time":7000000000,"state":"spawning","ping":86},{"user_id":143,"name":"KooK0nut","steam_id":76561198025339756,"connected_time":2317000000000,"state":"active","ping":50},{"user_id":160,"name":"Beamz","steam_id":76561198014230017,"connected_time":6000000000,"state":"spawning","ping":252}]},{"server_id":19,"name":"Uncletopia | San Francisco | 3 | No Payload","name_short":"sfo-3","host":"sfo-1.us.uncletopia.com","port":27035,"enabled":true,"region":"us-west","cc":"us","latitude":37.77397,"longitude":-122.4313,"reserved":0,"last_update":"0001-01-01T00:00:00Z","name_a2s":"Uncletopia | San Francisco | 3 | No Payload","protocol":17,"map":"cp_vanguard","folder":"tf","game":"Team Fortress","app_id":440,"player_count":0,"max_players":24,"Bots":0,"server_type":"Dedicated","server_os":"Linux","password":true,"vac":true,"version":"7701286","steam_id":85568392924742824,"keywords":["cp","nocrits","nodmgspread","uncletopia"],"game_id":440,"stv_port":27036,"stv_name":"Uncletopia | San Francisco | 3 | No Payload | STV","players":null},{"server_id":20,"name":"Uncletopia | San Francisco | 4 | Community","name_short":"sfo-4","host":"sfo-1.us.uncletopia.com","port":27045,"enabled":true,"region":"us-west","cc":"us","latitude":37.77397,"longitude":-122.4313,"reserved":0,"last_update":"0001-01-01T00:00:00Z","name_a2s":"Uncletopia | San Francisco | 4 | Community","protocol":17,"map":"workshop/koth_product_final.ugc454272353","folder":"tf","game":"Team Fortress","app_id":440,"player_count":0,"max_players":24,"Bots":0,"server_type":"Dedicated","server_os":"Linux","password":true,"vac":true,"version":"7701286","steam_id":85568392924742826,"keywords":["cp","nocrits","nodmgspread","uncletopia"],"game_id":440,"stv_port":27046,"stv_name":"Uncletopia | San Francisco | 4 | Community | STV","players":null},{"server_id":141,"name":"Uncletopia | Sydney | 1 | All Maps","name_short":"syd-1","host":"syd-1.au.uncletopia.com","port":27015,"enabled":true,"region":"au","cc":"au","latitude":-33.865143,"longitude":151.2099,"reserved":0,"last_update":"0001-01-01T00:00:00Z","name_a2s":"Uncletopia | Sydney | 1 | All Maps","protocol":17,"map":"koth_highpass","folder":"tf","game":"Team Fortress","app_id":440,"player_count":24,"max_players":24,"Bots":0,"server_type":"Dedicated","server_os":"Linux","password":true,"vac":true,"version":"7701286","steam_id":85568392924470001,"keywords":["cp","nocrits","nodmgspread","uncletopia"],"game_id":440,"stv_port":27016,"stv_name":"Uncletopia | Sydney | 1 | All Maps | STV","players":[{"user_id":388,"name":"Pew pew pew!","steam_id":76561198004120277,"connected_time":541000000000,"state":"active","ping":43},{"user_id":346,"name":"spacesip","steam_id":76561198037301616,"connected_time":3166000000000,"state":"active","ping":61},{"user_id":389,"name":"jrg","steam_id":76561197997362731,"connected_time":458000000000,"state":"active","ping":43},{"user_id":374,"name":"Crash","steam_id":76561198049431074,"connected_time":1559000000000,"state":"active","ping":56},{"user_id":395,"name":"wezst","steam_id":76561199401657705,"connected_time":111000000000,"state":"active","ping":43},{"user_id":347,"name":"Qwerty","steam_id":76561199157092367,"connected_time":3100000000000,"state":"active","ping":60},{"user_id":376,"name":"ToadFungus","steam_id":76561199219667039,"connected_time":1091000000000,"state":"active","ping":96},{"user_id":358,"name":"Rogue (Anti-fire)","steam_id":76561198055404248,"connected_time":2529000000000,"state":"active","ping":45},{"user_id":394,"name":"Altara","steam_id":76561198022306164,"connected_time":167000000000,"state":"active","ping":58},{"user_id":379,"name":"AllYourBase","steam_id":76561198048899241,"connected_time":1076000000000,"state":"active","ping":79},{"user_id":390,"name":"dad","steam_id":76561198063032696,"connected_time":340000000000,"state":"active","ping":59},{"user_id":359,"name":"April","steam_id":76561198848287180,"connected_time":2514000000000,"state":"active","ping":38},{"user_id":380,"name":"noguchi sensei","steam_id":76561198115314385,"connected_time":1044000000000,"state":"active","ping":166},{"user_id":383,"name":"Shadow","steam_id":76561198258813673,"connected_time":945000000000,"state":"active","ping":96},{"user_id":384,"name":"FERRETBYTE","steam_id":76561198025046090,"connected_time":914000000000,"state":"active","ping":61},{"user_id":363,"name":"Reddaye","steam_id":76561198025232124,"connected_time":2338000000000,"state":"active","ping":43},{"user_id":391,"name":"sweeney","steam_id":76561198164574293,"connected_time":233000000000,"state":"active","ping":30},{"user_id":381,"name":"D E T H","steam_id":76561198406959622,"connected_time":1041000000000,"state":"active","ping":49},{"user_id":393,"name":"gambling at the pokies","steam_id":76561198453256367,"connected_time":195000000000,"state":"active","ping":133},{"user_id":396,"name":"2200","steam_id":76561198048634605,"connected_time":80000000000,"state":"active","ping":46},{"user_id":397,"name":"[FOC] PHOENIX","steam_id":76561199355723935,"connected_time":66000000000,"state":"spawning","ping":45},{"user_id":371,"name":"Captain Underpants","steam_id":76561199219366711,"connected_time":2125000000000,"state":"active","ping":103},{"user_id":372,"name":"moflow081703","steam_id":76561198357274326,"connected_time":2110000000000,"state":"active","ping":51},{"user_id":386,"name":"Rextron","steam_id":76561198086545752,"connected_time":851000000000,"state":"active","ping":104}]},{"server_id":123,"name":"Uncletopia | Sydney | 2 | All Maps","name_short":"syd-2","host":"syd-1.au.uncletopia.com","port":27025,"enabled":true,"region":"au","cc":"au","latitude":-33.865143,"longitude":151.2099,"reserved":0,"last_update":"0001-01-01T00:00:00Z","name_a2s":"Uncletopia | Sydney | 2 | All Maps","protocol":17,"map":"pl_barnblitz","folder":"tf","game":"Team Fortress","app_id":440,"player_count":23,"max_players":24,"Bots":0,"server_type":"Dedicated","server_os":"Linux","password":true,"vac":true,"version":"7701286","steam_id":85568392924470002,"keywords":["nocrits","nodmgspread","payload","uncletopia"],"game_id":440,"stv_port":27026,"stv_name":"Uncletopia | Sydney | 2 | All Maps | STV","players":[{"user_id":339,"name":"Yaurria","steam_id":76561197971456252,"connected_time":1339000000000,"state":"active","ping":55},{"user_id":350,"name":"Bluemmy","steam_id":76561198223299712,"connected_time":212000000000,"state":"active","ping":36},{"user_id":328,"name":"Pizzaray","steam_id":76561198005075102,"connected_time":1579000000000,"state":"active","ping":30},{"user_id":347,"name":"blicky","steam_id":76561198029829077,"connected_time":382000000000,"state":"active","ping":88},{"user_id":258,"name":"Smeecko","steam_id":76561198024602273,"connected_time":6661000000000,"state":"active","ping":48},{"user_id":299,"name":"Comedy Mode","steam_id":76561198293250088,"connected_time":3726000000000,"state":"active","ping":102},{"user_id":346,"name":"Yegg","steam_id":76561198219898025,"connected_time":884000000000,"state":"active","ping":64},{"user_id":335,"name":"BackyardBonanza19943214","steam_id":76561198383642609,"connected_time":1388000000000,"state":"active","ping":74},{"user_id":348,"name":"Your FBI Agent","steam_id":76561198196896728,"connected_time":375000000000,"state":"active","ping":47},{"user_id":302,"name":"ToeJam \u0026 Earl Sweatshirt","steam_id":76561198067883394,"connected_time":3581000000000,"state":"active","ping":121},{"user_id":349,"name":"Þórr","steam_id":76561198126719182,"connected_time":325000000000,"state":"active","ping":53},{"user_id":271,"name":"franky meatballs","steam_id":76561198048120251,"connected_time":5797000000000,"state":"active","ping":91},{"user_id":316,"name":"Lancer","steam_id":76561198122813810,"connected_time":2514000000000,"state":"active","ping":79},{"user_id":351,"name":"Madison Ivy","steam_id":76561198074674290,"connected_time":209000000000,"state":"active","ping":61},{"user_id":352,"name":"toots","steam_id":76561198094589768,"connected_time":90000000000,"state":"active","ping":68},{"user_id":353,"name":"Meihronias","steam_id":76561199163845108,"connected_time":58000000000,"state":"active","ping":66},{"user_id":354,"name":"fuschu","steam_id":76561198125648728,"connected_time":46000000000,"state":"spawning","ping":44},{"user_id":344,"name":"n3dd","steam_id":76561198159412279,"connected_time":993000000000,"state":"active","ping":45},{"user_id":311,"name":"Autistic Raptor","steam_id":76561198354523762,"connected_time":2756000000000,"state":"active","ping":52},{"user_id":355,"name":"doinky","steam_id":76561198329724365,"connected_time":43000000000,"state":"active","ping":61},{"user_id":330,"name":"Kitty Person","steam_id":76561198798992121,"connected_time":1485000000000,"state":"active","ping":99},{"user_id":329,"name":"MayoMan","steam_id":76561199140828165,"connected_time":1577000000000,"state":"active","ping":41},{"user_id":319,"name":"Glorious","steam_id":76561198365852306,"connected_time":2471000000000,"state":"active","ping":65}]},{"server_id":395,"name":"Uncletopia | Sydney | 3 | All Maps","name_short":"syd-3","host":"syd-1.au.uncletopia.com","port":27035,"enabled":true,"region":"au","cc":"au","latitude":-33.865143,"longitude":151.2099,"reserved":0,"last_update":"0001-01-01T00:00:00Z","name_a2s":"Uncletopia | Sydney | 3 | All Maps","protocol":17,"map":"koth_viaduct","folder":"tf","game":"Team Fortress","app_id":440,"player_count":0,"max_players":24,"Bots":0,"server_type":"Dedicated","server_os":"Linux","password":true,"vac":true,"version":"7701286","steam_id":85568392925194467,"keywords":["cp","nocrits","nodmgspread","uncletopia"],"game_id":440,"stv_port":27036,"stv_name":"Uncletopia | Sydney | 3 | All Maps | STV","players":null},{"server_id":396,"name":"Uncletopia | Sydney | 4 | All Maps","name_short":"syd-4","host":"syd-1.au.uncletopia.com","port":27045,"enabled":true,"region":"au","cc":"au","latitude":-33.865143,"longitude":151.2099,"reserved":0,"last_update":"0001-01-01T00:00:00Z","name_a2s":"Uncletopia | Sydney | 4 | All Maps","protocol":17,"map":"pl_borneo","folder":"tf","game":"Team Fortress","app_id":440,"player_count":2,"max_players":24,"Bots":0,"server_type":"Dedicated","server_os":"Linux","password":true,"vac":true,"version":"7701286","steam_id":85568392925397958,"keywords":["nocrits","nodmgspread","payload","uncletopia"],"game_id":440,"stv_port":27046,"stv_name":"Uncletopia | Sydney | 4 | All Maps | STV","players":[{"user_id":40,"name":"Night","steam_id":76561198371839412,"connected_time":1601000000000,"state":"active","ping":49},{"user_id":42,"name":"non_performing","steam_id":76561198449729129,"connected_time":1136000000000,"state":"active","ping":67}]},{"server_id":58,"name":"Uncletopia | Sydney | 5 | No Payload","name_short":"syd-5","host":"syd-1.au.uncletopia.com","port":27055,"enabled":true,"region":"au","cc":"au","latitude":-33.865143,"longitude":151.2099,"reserved":0,"last_update":"0001-01-01T00:00:00Z","name_a2s":"Uncletopia | Sydney | 5 | No Payload","protocol":17,"map":"koth_lazarus","folder":"tf","game":"Team Fortress","app_id":440,"player_count":0,"max_players":24,"Bots":0,"server_type":"Dedicated","server_os":"Linux","password":true,"vac":true,"version":"7701286","steam_id":85568392925397959,"keywords":["cp","nocrits","nodmgspread","uncletopia"],"game_id":440,"stv_port":27056,"stv_name":"Uncletopia | Sydney | 5 | No Payload | STV","players":null},{"server_id":59,"name":"Uncletopia | Sydney | 6 | Community","name_short":"syd-6","host":"syd-1.au.uncletopia.com","port":27065,"enabled":true,"region":"au","cc":"au","latitude":-33.865143,"longitude":151.2099,"reserved":0,"last_update":"0001-01-01T00:00:00Z","name_a2s":"Uncletopia | Sydney | 6 | Community","protocol":17,"map":"workshop/cp_reckoner_rc6.ugc674719999","folder":"tf","game":"Team Fortress","app_id":440,"player_count":0,"max_players":24,"Bots":0,"server_type":"Dedicated","server_os":"Linux","password":true,"vac":true,"version":"7701286","steam_id":85568392925397960,"keywords":["cp","nocrits","nodmgspread","uncletopia"],"game_id":440,"stv_port":27066,"stv_name":"Uncletopia | Sydney | 6 | Community | STV","players":null},{"server_id":49,"name":"Uncletopia | Warsaw | 1 | All Maps","name_short":"waw-1","host":"waw-1.pl.uncletopia.com","port":27015,"enabled":true,"region":"eu","cc":"pl","latitude":52.2297,"longitude":21.017532,"reserved":0,"last_update":"0001-01-01T00:00:00Z","name_a2s":"Uncletopia | Warsaw | 1 | All Maps","protocol":17,"map":"pl_upward","folder":"tf","game":"Team Fortress","app_id":440,"player_count":0,"max_players":24,"Bots":0,"server_type":"Dedicated","server_os":"Linux","password":true,"vac":true,"version":"7701286","steam_id":85568392925397850,"keywords":["nocrits","nodmgspread","payload","uncletopia"],"game_id":440,"stv_port":0,"stv_name":"","players":null},{"server_id":50,"name":"Uncletopia | Warsaw | 2 | All Maps","name_short":"waw-2","host":"waw-1.pl.uncletopia.com","port":27025,"enabled":true,"region":"eu","cc":"pl","latitude":52.2297,"longitude":21.017532,"reserved":0,"last_update":"0001-01-01T00:00:00Z","name_a2s":"Uncletopia | Warsaw | 2 | All Maps","protocol":17,"map":"koth_highpass","folder":"tf","game":"Team Fortress","app_id":440,"player_count":0,"max_players":24,"Bots":0,"server_type":"Dedicated","server_os":"Linux","password":true,"vac":true,"version":"7701286","steam_id":85568392925397851,"keywords":["cp","nocrits","nodmgspread","uncletopia"],"game_id":440,"stv_port":0,"stv_name":"","players":null},{"server_id":51,"name":"Uncletopia | Warsaw | 3 | All Maps","name_short":"waw-3","host":"waw-1.pl.uncletopia.com","port":27035,"enabled":true,"region":"eu","cc":"pl","latitude":52.2297,"longitude":21.017532,"reserved":0,"last_update":"0001-01-01T00:00:00Z","name_a2s":"Uncletopia | Warsaw | 3 | All Maps","protocol":17,"map":"cp_mountainlab","folder":"tf","game":"Team Fortress","app_id":440,"player_count":2,"max_players":24,"Bots":0,"server_type":"Dedicated","server_os":"Linux","password":true,"vac":true,"version":"7701286","steam_id":85568392925397852,"keywords":["cp","nocrits","nodmgspread","uncletopia"],"game_id":440,"stv_port":0,"stv_name":"","players":[{"user_id":5,"name":"дон ягон","steam_id":76561199086100360,"connected_time":680000000000,"state":"active","ping":107},{"user_id":6,"name":"theblackfire","steam_id":76561198883641136,"connected_time":678000000000,"state":"active","ping":73}]},{"server_id":52,"name":"Uncletopia | Warsaw | 4 | All Maps","name_short":"waw-4","host":"waw-1.pl.uncletopia.com","port":27045,"enabled":true,"region":"eu","cc":"pl","latitude":52.2297,"longitude":21.017532,"reserved":0,"last_update":"0001-01-01T00:00:00Z","name_a2s":"Uncletopia | Warsaw | 4 | All Maps","protocol":17,"map":"pl_borneo","folder":"tf","game":"Team Fortress","app_id":440,"player_count":0,"max_players":24,"Bots":0,"server_type":"Dedicated","server_os":"Linux","password":true,"vac":true,"version":"7701286","steam_id":85568392925397853,"keywords":["nocrits","nodmgspread","payload","uncletopia"],"game_id":440,"stv_port":0,"stv_name":"","players":null},{"server_id":53,"name":"Uncletopia | Warsaw | 5 | No Payload","name_short":"waw-5","host":"waw-1.pl.uncletopia.com","port":27055,"enabled":true,"region":"eu","cc":"pl","latitude":52.2297,"longitude":21.017532,"reserved":0,"last_update":"0001-01-01T00:00:00Z","name_a2s":"Uncletopia | Warsaw | 5 | No Payload","protocol":17,"map":"pl_frontier_final","folder":"tf","game":"Team Fortress","app_id":440,"player_count":0,"max_players":24,"Bots":0,"server_type":"Dedicated","server_os":"Linux","password":true,"vac":true,"version":"7701286","steam_id":85568392925397854,"keywords":["nocrits","nodmgspread","payload","uncletopia"],"game_id":440,"stv_port":0,"stv_name":"","players":null},{"server_id":54,"name":"Uncletopia | Warsaw | 6 | Community","name_short":"waw-6","host":"waw-1.pl.uncletopia.com","port":27065,"enabled":true,"region":"eu","cc":"pl","latitude":52.2297,"longitude":21.017532,"reserved":0,"last_update":"0001-01-01T00:00:00Z","name_a2s":"Uncletopia | Warsaw | 6 | Community","protocol":17,"map":"pl_pier","folder":"tf","game":"Team Fortress","app_id":440,"player_count":0,"max_players":24,"Bots":0,"server_type":"Dedicated","server_os":"Linux","password":true,"vac":true,"version":"7701286","steam_id":85568392925397856,"keywords":["nocrits","nodmgspread","payload","uncletopia"],"game_id":440,"stv_port":0,"stv_name":"","players":null}]}