{"status":true,"message":"","result":[{"server_id":2,"name":"Uncletopia | Chicago | 1 | All Maps","name_short":"chi-1","host":"chi-1.us.uncletopia.com","port":27015,"enabled":true,"region":"us-central","cc":"us","latitude":41.881832,"longitude":-87.62318,"reserved":0,"last_update":"0001-01-01T00:00:00Z","name_a2s":"Uncletopia | Chicago | 1 | All Maps","protocol":17,"map":"koth_viaduct","folder":"tf","game":"Team Fortress","app_id":440,"player_count":0,"max_players":24,"Bots":0,"server_type":"Dedicated","server_os":"Linux","password":true,"vac":true,"version":"7961495","steam_id":85568392924469984,"keywords":["cp","nocrits","nodmgspread","uncletopia"],"game_id":440,"stv_port":27016,"stv_name":"Uncletopia | Chicago | 1 | All Maps | STV","players":null},{"server_id":106,"name":"Uncletopia | Chicago | 2 | All Maps","name_short":"chi-2","host":"chi-1.us.uncletopia.com","port":27025,"enabled":true,"region":"us-central","cc":"us","latitude":41.881832,"longitude":-87.62318,"reserved":0,"last_update":"0001-01-01T00:00:00Z","name_a2s":"Uncletopia | Chicago | 2 | All Maps","protocol":17,"map":"cp_mountainlab","folder":"tf","game":"Team Fortress","app_id":440,"player_count":0,"max_players":24,"Bots":0,"server_type":"Dedicated","server_os":"Linux","password":true,"vac":true,"version":"7961495","steam_id":85568392924469985,"keywords":["cp","nocrits","nodmgspread","uncletopia"],"game_id":440,"stv_port":27026,"stv_name":"Uncletopia | Chicago | 2 | All Maps | STV","players":null},{"server_id":402,"name":"Uncletopia | Chicago | 3 | All Maps","name_short":"chi-3","host":"chi-1.us.uncletopia.com","port":27035,"enabled":true,"region":"us-central","cc":"us","latitude":41.881832,"longitude":-87.62318,"reserved":0,"last_update":"0001-01-01T00:00:00Z","name_a2s":"Uncletopia | Chicago | 3 | All Maps","protocol":17,"map":"koth_cascade","folder":"tf","game":"Team Fortress","app_id":440,"player_count":0,"max_players":24,"Bots":0,"server_type":"Dedicated","server_os":"Linux","password":true,"vac":true,"version":"7961495","steam_id":85568392924515191,"keywords":["cp","nocrits","nodmgspread","uncletopia"],"game_id":440,"stv_port":27036,"stv_name":"Uncletopia | Chicago | 3 | All Maps | STV","players":null},{"server_id":403,"name":"Uncletopia | Chicago | 4 | All Maps","name_short":"chi-4","host":"chi-1.us.uncletopia.com","port":27045,"enabled":true,"region":"us-central","cc":"us","latitude":41.881832,"longitude":-87.62318,"reserved":0,"last_update":"0001-01-01T00:00:00Z","name_a2s":"Uncletopia | Chicago | 4 | All Maps","protocol":17,"map":"pl_upward","folder":"tf","game":"Team Fortress","app_id":440,"player_count":23,"max_players":24,"Bots":0,"server_type":"Dedicated","server_os":"Linux","password":true,"vac":true,"version":"7961495","steam_id":85568392924515193,"keywords":["nocrits","nodmgspread","payload","uncletopia"],"game_id":440,"stv_port":27046,"stv_name":"Uncletopia | Chicago | 4 | All Maps | STV","players":[{"user_id":3,"name":"coffee bagel","steam_id":76561198141198352,"connected_time":3210000000000,"state":"active","ping":42},{"user_id":49,"name":"Chip and Drink","steam_id":76561198352433972,"connected_time":295000000000,"state":"active","ping":74},{"user_id":31,"name":"soup","steam_id":76561198972506893,"connected_time":1067000000000,"state":"active","ping":75},{"user_id":6,"name":"cofi","steam_id":76561198077504898,"connected_time":3200000000000,"state":"active","ping":67},{"user_id":50,"name":"Sh¬°T_in_the_walls","steam_id":76561198950820621,"connected_time":295000000000,"state":"active","ping":80},{"user_id":34,"name":"Satan-2","steam_id":76561199231742764,"connected_time":972000000000,"state":"active","ping":62},{"user_id":51,"name":"Ojen","steam_id":76561197998414482,"connected_time":283000000000,"state":"active","ping":62},{"user_id":27,"name":"Alexgo","steam_id":76561198044430542,"connected_time":1267000000000,"state":"active","ping":84},{"user_id":11,"name":"Dunkin' Ponuts","steam_id":76561198082382465,"connected_time":3029000000000,"state":"active","ping":63},{"user_id":18,"name":"Free1337","steam_id":76561198034160133,"connected_time":2229000000000,"state":"active","ping":51},{"user_id":52,"name":"Mank","steam_id":76561198189421005,"connected_time":275000000000,"state":"active","ping":59},{"user_id":53,"name":"Gorb","steam_id":76561198149125968,"connected_time":150000000000,"state":"active","ping":147},{"user_id":24,"name":"DSM-IVCE","steam_id":76561199438515797,"connected_time":1810000000000,"state":"active","ping":131},{"user_id":30,"name":"Cleric","steam_id":76561198001855922,"connected_time":1180000000000,"state":"active","ping":95},{"user_id":20,"name":"is there anything unfappable?","steam_id":76561198032259680,"connected_time":2197000000000,"state":"active","ping":65},{"user_id":54,"name":"e doctor","steam_id":76561198081851446,"connected_time":143000000000,"state":"active","ping":46},{"user_id":29,"name":"zzzPoison","steam_id":76561198302928116,"connected_time":1261000000000,"state":"active","ping":49},{"user_id":36,"name":"CF-TF2","steam_id":76561198145893044,"connected_time":788000000000,"state":"active","ping":81},{"user_id":45,"name":"noel","steam_id":76561198128280883,"connected_time":434000000000,"state":"active","ping":81},{"user_id":48,"name":"Kurt Biscuitmaker","steam_id":76561198331701823,"connected_time":372000000000,"state":"active","ping":79},{"user_id":56,"name":"dayanaradaiz","steam_id":76561198192788758,"connected_time":86000000000,"state":"active","ping":71},{"user_id":40,"name":"Pancake","steam_id":76561198057888197,"connected_time":717000000000,"state":"active","ping":74},{"user_id":41,"name":"Dirtbomb","steam_id":76561198002403301,"connected_time":714000000000,"state":"active","ping":96}]},{"server_id":36,"name":"Uncletopia | Chicago | 5 | All Maps","name_short":"chi-5","host":"chi-2.us.uncletopia.com","port":27015,"enabled":true,"region":"us-central","cc":"us","latitude":41.881832,"longitude":-87.62318,"reserved":0,"last_update":"0001-01-01T00:00:00Z","name_a2s":"Uncletopia | Chicago | 5 | All Maps","protocol":17,"map":"pl_frontier_final","folder":"tf","game":"Team Fortress","app_id":440,"player_count":0,"max_players":24,"Bots":0,"server_type":"Dedicated","server_os":"Linux","password":true,"vac":true,"version":"7961495","steam_id":85568392924866362,"keywords":["nocrits","nodmgspread","payload","uncletopia"],"game_id":440,"stv_port":27016,"stv_name":"Uncletopia | Chicago | 5 | All Maps | STV","players":null},{"server_id":37,"name":"Uncletopia | Chicago | 6 | All Maps","name_short":"chi-6","host":"chi-2.us.uncletopia.com","port":27025,"enabled":true,"region":"us-central","cc":"us","latitude":41.881832,"longitude":-87.62318,"reserved":0,"last_update":"0001-01-01T00:00:00Z","name_a2s":"Uncletopia | Chicago | 6 | All Maps","protocol":17,"map":"cp_snakewater_final1","folder":"tf","game":"Team Fortress","app_id":440,"player_count":0,"max_players":24,"Bots":0,"server_type":"Dedicated","server_os":"Linux","password":true,"vac":true,"version":"7961495","steam_id":85568392924866363,"keywords":["cp","nocrits","nodmgspread","uncletopia"],"game_id":440,"stv_port":27026,"stv_name":"Uncletopia | Chicago | 6 | All Maps | STV","players":null},{"server_id":38,"name":"Uncletopia | Chicago | 7 | Stopwatch Beta","name_short":"chi-7","host":"chi-2.us.uncletopia.com","port":27035,"enabled":true,"region":"us-central","cc":"us","latitude":41.881832,"longitude":-87.62318,"reserved":0,"last_update":"0001-01-01T00:00:00Z","name_a2s":"Uncletopia | Chicago | 7 | Stopwatch Beta","protocol":17,"map":"cp_process_final","folder":"tf","game":"Team Fortress","app_id":440,"player_count":0,"max_players":24,"Bots":0,"server_type":"Dedicated","server_os":"Linux","password":true,"vac":true,"version":"7961495","steam_id":85568392924866364,"keywords":["cp","nocrits","nodmgspread","uncletopia"],"game_id":440,"stv_port":27036,"stv_name":"Uncletopia | Chicago | 7 | Stopwatch Beta | STV","players":null},{"server_id":39,"name":"Uncletopia | Chicago | 8 | Community","name_short":"chi-8","host":"chi-2.us.uncletopia.com","port":27045,"enabled":true,"region":"us-central","cc":"us","latitude":41.881832,"longitude":-87.62318,"reserved":0,"last_update":"0001-01-01T00:00:00Z","name_a2s":"Uncletopia | Chicago | 8 | Community","protocol":17,"map":"cp_snakewater_final1","folder":"tf","game":"Team Fortress","app_id":440,"player_count":0,"max_players":24,"Bots":0,"server_type":"Dedicated","server_os":"Linux","password":true,"vac":true,"version":"7961495","steam_id":85568392924866365,"keywords":["cp","nocrits","nodmgspread","uncletopia"],"game_id":440,"stv_port":27046,"stv_name":"Uncletopia | Chicago | 8 | Community | STV","players":null},{"server_id":8,"name":"Uncletopia | Dallas | 1 | All Maps","name_short":"dal-1","host":"dal-1.us.uncletopia.com","port":27015,"enabled":true,"region":"us-central","cc":"us","latitude":32.779167,"longitude":-96.80889,"reserved":0,"last_update":"0001-01-01T00:00:00Z","name_a2s":"Uncletopia | Dallas | 1 | All Maps","protocol":17,"map":"koth_highpass","folder":"tf","game":"Team Fortress","app_id":440,"player_count":0,"max_players":24,"Bots":0,"server_type":"Dedicated","server_os":"Linux","password":true,"vac":true,"version":"7961495","steam_id":85568392924469986,"keywords":["cp","nocrits","nodmgspread","uncletopia"],"game_id":440,"stv_port":27016,"stv_name":"Uncletopia | Dallas | 1 | All Maps | STV","players":null},{"server_id":108,"name":"Uncletopia | Dallas | 2 | All Maps","name_short":"dal-2","host":"dal-1.us.uncletopia.com","port":27025,"enabled":true,"region":"us-central","cc":"us","latitude":32.779167,"longitude":-96.80889,"reserved":0,"last_update":"0001-01-01T00:00:00Z","name_a2s":"Uncletopia | Dallas | 2 | All Maps","protocol":17,"map":"cp_mountainlab","folder":"tf","game":"Team Fortress","app_id":440,"player_count":0,"max_players":24,"Bots":0,"server_type":"Dedicated","server_os":"Linux","password":true,"vac":true,"version":"7961495","steam_id":85568392924469988,"keywords":["cp","nocrits","nodmgspread","uncletopia"],"game_id":440,"stv_port":27026,"stv_name":"Uncletopia | Dallas | 2 | All Maps | STV","players":null},{"server_id":5,"name":"Uncletopia | Frankfurt | 1 | All Maps","name_short":"frk-1","host":"frk-1.de.uncletopia.com","port":27015,"enabled":true,"region":"eu","cc":"de","latitude":50.110924,"longitude":8.682127,"reserved":0,"last_update":"0001-01-01T00:00:00Z","name_a2s":"Uncletopia | Frankfurt | 1 | All Maps","protocol":17,"map":"pl_barnblitz","folder":"tf","game":"Team Fortress","app_id":440,"player_count":24,"max_players":24,"Bots":0,"server_type":"Dedicated","server_os":"Linux","password":true,"vac":true,"version":"7961495","steam_id":85568392924469989,"keywords":["nocrits","nodmgspread","payload","uncletopia"],"game_id":440,"stv_port":27016,"stv_name":"Uncletopia | Frankfurt | 1 | All Maps | STV","players":[{"user_id":22,"name":"Quadraticrat","steam_id":76561199032586760,"connected_time":3154000000000,"state":"active","ping":69},{"user_id":23,"name":"Marius","steam_id":76561198253530198,"connected_time":3043000000000,"state":"active","ping":66},{"user_id":58,"name":"Lightboom","steam_id":76561198104645103,"connected_time":1122000000000,"state":"active","ping":100},{"user_id":15,"name":"DeCypher \u003c3","steam_id":76561198171992619,"connected_time":3885000000000,"state":"active","ping":68},{"user_id":57,"name":"flave","steam_id":76561198056372101,"connected_time":1305000000000,"state":"active","ping":71},{"user_id":17,"name":"Spectre","steam_id":76561198163819482,"connected_time":3558000000000,"state":"active","ping":70},{"user_id":70,"name":"ozwk","steam_id":76561198062257357,"connected_time":443000000000,"state":"active","ping":55},{"user_id":19,"name":"Blaze The Fox","steam_id":76561198068005085,"connected_time":3388000000000,"state":"active","ping":62},{"user_id":25,"name":"Chris Pratt","steam_id":76561198189553021,"connected_time":2792000000000,"state":"active","ping":60},{"user_id":45,"name":"peso enjoyer","steam_id":76561198798177799,"connected_time":2305000000000,"state":"active","ping":69},{"user_id":73,"name":"Immobile Sentry","steam_id":76561199138554847,"connected_time":327000000000,"state":"active","ping":180},{"user_id":74,"name":"Mr.raccoon","steam_id":76561198247751074,"connected_time":253000000000,"state":"active","ping":66},{"user_id":55,"name":"Snaky","steam_id":76561199000954430,"connected_time":1353000000000,"state":"active","ping":102},{"user_id":56,"name":"AnanasGerste","steam_id":76561198133825211,"connected_time":1351000000000,"state":"active","ping":48},{"user_id":51,"name":"TRSRAFI","steam_id":76561198187500353,"connected_time":1731000000000,"state":"active","ping":97},{"user_id":34,"name":"Marcus","steam_id":76561198205027963,"connected_time":2468000000000,"state":"active","ping":71},{"user_id":38,"name":"kanasta","steam_id":76561198206177349,"connected_time":2424000000000,"state":"active","ping":60},{"user_id":69,"name":"Reverend Clement Hedges","steam_id":76561197977730341,"connected_time":520000000000,"state":"active","ping":76},{"user_id":39,"name":"shr","steam_id":76561198449852071,"connected_time":2418000000000,"state":"active","ping":58},{"user_id":40,"name":"Varsk","steam_id":76561198061398890,"connected_time":2415000000000,"state":"active","ping":58},{"user_id":65,"name":"HUGO","steam_id":76561198317134996,"connected_time":666000000000,"state":"active","ping":74},{"user_id":42,"name":"Darkeus","steam_id":76561199145555360,"connected_time":2391000000000,"state":"active","ping":78},{"user_id":43,"name":"Orenex","steam_id":76561199025618309,"connected_time":2390000000000,"state":"active","ping":84},{"user_id":64,"name":"V.","steam_id":76561198048589995,"connected_time":762000000000,"state":"active","ping":120}]},{"server_id":110,"name":"Uncletopia | Frankfurt | 2 | All Maps","name_short":"frk-2","host":"frk-1.de.uncletopia.com","port":27025,"enabled":true,"region":"eu","cc":"de","latitude":50.110924,"longitude":8.682127,"reserved":0,"last_update":"0001-01-01T00:00:00Z","name_a2s":"Uncletopia | Frankfurt | 2 | All Maps","protocol":17,"map":"pl_barnblitz","folder":"tf","game":"Team Fortress","app_id":440,"player_count":24,"max_players":24,"Bots":0,"server_type":"Dedicated","server_os":"Linux","password":true,"vac":true,"version":"7961495","steam_id":85568392924469990,"keywords":["nocrits","nodmgspread","payload","uncletopia"],"game_id":440,"stv_port":27026,"stv_name":"Uncletopia | Frankfurt | 2 | All Maps | STV","players":[{"user_id":168,"name":"Grey Clay","steam_id":76561198025646032,"connected_time":641000000000,"state":"active","ping":156},{"user_id":161,"name":"We are in a world of magic","steam_id":76561198104745492,"connected_time":974000000000,"state":"active","ping":73},{"user_id":165,"name":"Egg Hunter","steam_id":76561199372365790,"connected_time":783000000000,"state":"active","ping":98},{"user_id":133,"name":"bigmazi","steam_id":76561198133276643,"connected_time":3358000000000,"state":"active","ping":95},{"user_id":138,"name":"El Ketchapo","steam_id":76561198304311172,"connected_time":3023000000000,"state":"active","ping":105},{"user_id":120,"name":"Dovakhin31","steam_id":76561198029884537,"connected_time":4029000000000,"state":"active","ping":76},{"user_id":162,"name":"Niaz","steam_id":76561198442958151,"connected_time":831000000000,"state":"active","ping":75},{"user_id":145,"name":"Barak93","steam_id":76561198044585705,"connected_time":2351000000000,"state":"active","ping":53},{"user_id":179,"name":"rmz.ssj","steam_id":76561198329613930,"connected_time":254000000000,"state":"active","ping":67},{"user_id":128,"name":"triplepute","steam_id":76561198059934617,"connected_time":3874000000000,"state":"active","ping":73},{"user_id":154,"name":"fast3r","steam_id":76561198415542035,"connected_time":1943000000000,"state":"active","ping":55},{"user_id":183,"name":"philippoliverCat","steam_id":76561198877008415,"connected_time":7000000000,"state":"spawning","ping":221},{"user_id":164,"name":"Spaenny","steam_id":76561198035850165,"connected_time":815000000000,"state":"active","ping":60},{"user_id":169,"name":"Damien_FR","steam_id":76561198002011432,"connected_time":633000000000,"state":"active","ping":58},{"user_id":170,"name":"john fortress","steam_id":76561198013237629,"connected_time":583000000000,"state":"active","ping":110},{"user_id":160,"name":"brehs","steam_id":76561198150653454,"connected_time":1181000000000,"state":"active","ping":55},{"user_id":177,"name":"Rocket Queen's consort","steam_id":76561198092995429,"connected_time":322000000000,"state":"active","ping":131},{"user_id":166,"name":"Dkz","steam_id":76561197970673402,"connected_time":755000000000,"state":"active","ping":50},{"user_id":182,"name":"Mka Kitty","steam_id":76561198070128785,"connected_time":37000000000,"state":"active","ping":76},{"user_id":172,"name":"Revenge of the Jews in 3D","steam_id":76561199381623663,"connected_time":556000000000,"state":"active","ping":101},{"user_id":173,"name":"TheEmeraldStar","steam_id":76561198072942529,"connected_time":554000000000,"state":"active","ping":84},{"user_id":181,"name":"Shovelhalfrusty","steam_id":76561198346447513,"connected_time":55000000000,"state":"active","ping":72},{"user_id":178,"name":"Smol","steam_id":76561198805163740,"connected_time":302000000000,"state":"active","ping":81},{"user_id":180,"name":"Doriian","steam_id":76561198071438810,"connected_time":177000000000,"state":"active","ping":75}]},{"server_id":308,"name":"Uncletopia | Frankfurt | 3 | All Maps","name_short":"frk-3","host":"frk-1.de.uncletopia.com","port":27035,"enabled":true,"region":"eu","cc":"de","latitude":50.110924,"longitude":8.682127,"reserved":0,"last_update":"0001-01-01T00:00:00Z","name_a2s":"Uncletopia | Frankfurt | 3 | All Maps","protocol":17,"map":"cp_mountainlab","folder":"tf","game":"Team Fortress","app_id":440,"player_count":0,"max_players":24,"Bots":0,"server_type":"Dedicated","server_os":"Linux","password":true,"vac":true,"version":"7961495","steam_id":85568392924504274,"keywords":["cp","nocrits","nodmgspread","uncletopia"],"game_id":440,"stv_port":27036,"stv_name":"Uncletopia | Frankfurt | 3 | All Maps | STV","players":null},{"server_id":309,"name":"Uncletopia | Frankfurt | 4 | All Maps","name_short":"frk-4","host":"frk-1.de.uncletopia.com","port":27045,"enabled":true,"region":"eu","cc":"de","latitude":50.110924,"longitude":8.682127,"reserved":0,"last_update":"0001-01-01T00:00:00Z","name_a2s":"Uncletopia | Frankfurt | 4 | All Maps","protocol":17,"map":"cp_mountainlab","folder":"tf","game":"Team Fortress","app_id":440,"player_count":0,"max_players":24,"Bots":0,"server_type":"Dedicated","server_os":"Linux","password":true,"vac":true,"version":"7961495","steam_id":85568392924504275,"keywords":["cp","nocrits","nodmgspread","uncletopia"],"game_id":440,"stv_port":27046,"stv_name":"Uncletopia | Frankfurt | 4 | All Maps | STV","players":null},{"server_id":310,"name":"Uncletopia | Frankfurt | 5 | All Maps","name_short":"frk-5","host":"frk-1.de.uncletopia.com","port":27055,"enabled":true,"region":"eu","cc":"de","latitude":50.110924,"longitude":8.682127,"reserved":0,"last_update":"0001-01-01T00:00:00Z","name_a2s":"Uncletopia | Frankfurt | 5 | All Maps","protocol":17,"map":"pl_upward","folder":"tf","game":"Team Fortress","app_id":440,"player_count":0,"max_players":24,"Bots":0,"server_type":"Dedicated","server_os":"Linux","password":true,"vac":true,"version":"7961495","steam_id":85568392924504277,"keywords":["nocrits","nodmgspread","payload","uncletopia"],"game_id":440,"stv_port":27056,"stv_name":"Uncletopia | Frankfurt | 5 | All Maps | STV","players":null},{"server_id":311,"name":"Uncletopia | Frankfurt | 6 | All Maps","name_short":"frk-6","host":"frk-1.de.uncletopia.com","port":27065,"enabled":true,"region":"eu","cc":"de","latitude":50.110924,"longitude":8.682127,"reserved":0,"last_update":"0001-01-01T00:00:00Z","name_a2s":"Uncletopia | Frankfurt | 6 | All Maps","protocol":17,"map":"pl_pier","folder":"tf","game":"Team Fortress","app_id":440,"player_count":0,"max_players":24,"Bots":0,"server_type":"Dedicated","server_os":"Linux","password":true,"vac":true,"version":"7961495","steam_id":85568392924504278,"keywords":["nocrits","nodmgspread","payload","uncletopia"],"game_id":440,"stv_port":27066,"stv_name":"Uncletopia | Frankfurt | 6 | All Maps | STV","players":null},{"server_id":23,"name":"Uncletopia | Frankfurt | 7 | Stopwatch Beta","name_short":"frk-7","host":"frk-1.de.uncletopia.com","port":27075,"enabled":true,"region":"eu","cc":"de","latitude":50.110924,"longitude":8.682127,"reserved":0,"last_update":"0001-01-01T00:00:00Z","name_a2s":"Uncletopia | Frankfurt | 7 | Stopwatch Beta","protocol":17,"map":"koth_cascade","folder":"tf","game":"Team Fortress","app_id":440,"player_count":0,"max_players":24,"Bots":0,"server_type":"Dedicated","server_os":"Linux","password":true,"vac":true,"version":"7961495","steam_id":85568392924742827,"keywords":["cp","nocrits","nodmgspread","uncletopia"],"game_id":440,"stv_port":27076,"stv_name":"Uncletopia | Frankfurt | 7 | Stopwatch Beta | STV","players":null},{"server_id":24,"name":"Uncletopia | Frankfurt | 8 | Community","name_short":"frk-8","host":"frk-1.de.uncletopia.com","port":27085,"enabled":true,"region":"eu","cc":"de","latitude":50.110924,"longitude":8.682127,"reserved":0,"last_update":"0001-01-01T00:00:00Z","name_a2s":"Uncletopia | Frankfurt | 8 | Community","protocol":17,"map":"workshop/pl_emerge_rc2.ugc888027758","folder":"tf","game":"Team Fortress","app_id":440,"player_count":0,"max_players":24,"Bots":0,"server_type":"Dedicated","server_os":"Linux","password":true,"vac":true,"version":"7961495","steam_id":85568392924742828,"keywords":["nocrits","nodmgspread","payload","uncletopia"],"game_id":440,"stv_port":27086,"stv_name":"Uncletopia | Frankfurt | 8 | Community | STV","players":null},{"server_id":202,"name":"Uncletopia | Hong Kong | 1 | All Maps","name_short":"hgk-1","host":"hgk-1.hk.uncletopia.com","port":27015,"enabled":true,"region":"asia","cc":"hk","latitude":22.302711,"longitude":114.177216,"reserved":0,"last_update":"0001-01-01T00:00:00Z","name_a2s":"Uncletopia | Hong Kong | 1 | All Maps","protocol":17,"map":"pl_pier","folder":"tf","game":"Team Fortress","app_id":440,"player_count":24,"max_players":24,"Bots":0,"server_type":"Dedicated","server_os":"Linux","password":true,"vac":true,"version":"7961495","steam_id":85568392924494504,"keywords":["nocrits","nodmgspread","payload","uncletopia"],"game_id":440,"stv_port":27016,"stv_name":"Uncletopia | Hong Kong | 1 | All Maps | STV","players":[{"user_id":137,"name":"screaming sniper","steam_id":76561199085568674,"connected_time":4528000000000,"state":"active","ping":66},{"user_id":141,"name":"Vortex Swagger","steam_id":76561198833527091,"connected_time":3888000000000,"state":"active","ping":88},{"user_id":165,"name":"cellum95","steam_id":76561198172146871,"connected_time":894000000000,"state":"active","ping":77},{"user_id":171,"name":"E","steam_id":76561199173781370,"connected_time":462000000000,"state":"active","ping":133},{"user_id":166,"name":"lsf","steam_id":76561198095278714,"connected_time":872000000000,"state":"active","ping":38},{"user_id":103,"name":"vintage","steam_id":76561198230213828,"connected_time":7319000000000,"state":"active","ping":61},{"user_id":154,"name":"xPhid","steam_id":76561199080808930,"connected_time":2284000000000,"state":"active","ping":76},{"user_id":163,"name":"ConHoshi","steam_id":76561199387718733,"connected_time":1325000000000,"state":"active","ping":83},{"user_id":127,"name":"KABOOMSKY","steam_id":76561198303608523,"connected_time":5316000000000,"state":"active","ping":113},{"user_id":145,"name":"corpse_cadaver","steam_id":76561199225360457,"connected_time":2889000000000,"state":"active","ping":73},{"user_id":156,"name":"3rwynM","steam_id":76561198288311270,"connected_time":1894000000000,"state":"active","ping":60},{"user_id":167,"name":"meowsh","steam_id":76561198060448954,"connected_time":868000000000,"state":"active","ping":75},{"user_id":142,"name":"AmaiToxic","steam_id":76561199122491157,"connected_time":3499000000000,"state":"active","ping":120},{"user_id":135,"name":"nefarious nigel","steam_id":76561198055553140,"connected_time":4543000000000,"state":"active","ping":76},{"user_id":152,"name":"Box Standard","steam_id":76561198312001455,"connected_time":2333000000000,"state":"active","ping":143},{"user_id":157,"name":"i am a F2P and my aim is shit","steam_id":76561199475974790,"connected_time":1881000000000,"state":"active","ping":121},{"user_id":172,"name":"\"SKS\"","steam_id":76561198187995386,"connected_time":298000000000,"state":"active","ping":90},{"user_id":155,"name":"Pillboi","steam_id":76561198011172886,"connected_time":1925000000000,"state":"active","ping":43},{"user_id":160,"name":"Cock Gobbler [F2P]","steam_id":76561199205335227,"connected_time":1835000000000,"state":"active","ping":71},{"user_id":150,"name":"Streety","steam_id":76561199098969003,"connected_time":2765000000000,"state":"active","ping":77},{"user_id":168,"name":"Big PP","steam_id":76561198203073201,"connected_time":686000000000,"state":"active","ping":60},{"user_id":134,"name":"spinach (old mouse)","steam_id":76561198042539541,"connected_time":4556000000000,"state":"active","ping":80},{"user_id":126,"name":"17","steam_id":76561198241530712,"connected_time":5398000000000,"state":"active","ping":59},{"user_id":170,"name":"Alan The Annihilator","steam_id":76561198346128694,"connected_time":638000000000,"state":"active","ping":81}]},{"server_id":1,"name":"Uncletopia | Los Angeles | 1 | All Maps","name_short":"lax-1","host":"lax-1.us.uncletopia.com","port":27015,"enabled":true,"region":"us-west","cc":"us","latitude":33.94279,"longitude":-118.41004,"reserved":0,"last_update":"0001-01-01T00:00:00Z","name_a2s":"Uncletopia | Los Angeles | 1 | All Maps","protocol":17,"map":"koth_cascade","folder":"tf","game":"Team Fortress","app_id":440,"player_count":0,"max_players":24,"Bots":0,"server_type":"Dedicated","server_os":"Linux","password":true,"vac":true,"version":"7961495","steam_id":85568392924469991,"keywords":["cp","nocrits","nodmgspread","uncletopia"],"game_id":440,"stv_port":27016,"stv_name":"Uncletopia | Los Angeles | 1 | All Maps | STV","players":null},{"server_id":112,"name":"Uncletopia | Los Angeles | 2 | All Maps","name_short":"lax-2","host":"lax-1.us.uncletopia.com","port":27025,"enabled":true,"region":"us-west","cc":"us","latitude":33.94279,"longitude":-118.41004,"reserved":0,"last_update":"0001-01-01T00:00:00Z","name_a2s":"Uncletopia | Los Angeles | 2 | All Maps","protocol":17,"map":"pl_swiftwater_final1","folder":"tf","game":"Team Fortress","app_id":440,"player_count":0,"max_players":24,"Bots":0,"server_type":"Dedicated","server_os":"Linux","password":true,"vac":true,"version":"7961495","steam_id":85568392924469992,"keywords":["nocrits","nodmgspread","payload","uncletopia"],"game_id":440,"stv_port":27026,"stv_name":"Uncletopia | Los Angeles | 2 | All Maps | STV","players":null},{"server_id":324,"name":"Uncletopia | Los Angeles | 3 | All Maps","name_short":"lax-3","host":"lax-1.us.uncletopia.com","port":27035,"enabled":true,"region":"us-west","cc":"us","latitude":33.94279,"longitude":-118.41004,"reserved":0,"last_update":"0001-01-01T00:00:00Z","name_a2s":"Uncletopia | Los Angeles | 3 | All Maps","protocol":17,"map":"pl_borneo","folder":"tf","game":"Team Fortress","app_id":440,"player_count":24,"max_players":24,"Bots":0,"server_type":"Dedicated","server_os":"Linux","password":true,"vac":true,"version":"7961495","steam_id":85568392924510198,"keywords":["nocrits","nodmgspread","payload","uncletopia"],"game_id":440,"stv_port":27036,"stv_name":"Uncletopia | Los Angeles | 3 | All Maps | STV","players":[{"user_id":507,"name":"NPC","steam_id":76561198104086771,"connected_time":1667000000000,"state":"active","ping":45},{"user_id":514,"name":"flaccid","steam_id":76561198299241777,"connected_time":961000000000,"state":"active","ping":130},{"user_id":516,"name":"shark bait hoo ha ha","steam_id":76561198114603745,"connected_time":717000000000,"state":"active","ping":46},{"user_id":497,"name":"jrd101721","steam_id":76561198154812975,"connected_time":2345000000000,"state":"active","ping":57},{"user_id":512,"name":"saber","steam_id":76561198059041027,"connected_time":1031000000000,"state":"active","ping":77},{"user_id":466,"name":"lol","steam_id":76561198026491738,"connected_time":4473000000000,"state":"active","ping":60},{"user_id":506,"name":"Thomas","steam_id":76561198064273772,"connected_time":1817000000000,"state":"active","ping":106},{"user_id":496,"name":"BIG HOG","steam_id":76561198079923652,"connected_time":2367000000000,"state":"active","ping":75},{"user_id":505,"name":"Skipikip","steam_id":76561198125019458,"connected_time":1963000000000,"state":"active","ping":107},{"user_id":491,"name":"korkskrou","steam_id":76561198422156430,"connected_time":2654000000000,"state":"active","ping":71},{"user_id":477,"name":"FI LO","steam_id":76561198976530881,"connected_time":3226000000000,"state":"active","ping":42},{"user_id":492,"name":"neniy49302","steam_id":76561199490577908,"connected_time":2554000000000,"state":"active","ping":136},{"user_id":479,"name":"shitass | troutsupply.net","steam_id":76561198210572481,"connected_time":3186000000000,"state":"active","ping":45},{"user_id":495,"name":"Giant","steam_id":76561198851536991,"connected_time":2404000000000,"state":"active","ping":52},{"user_id":522,"name":"NotSharky","steam_id":76561198078910436,"connected_time":40000000000,"state":"active","ping":48},{"user_id":518,"name":"Ôº£Ôº®Ôº°Ôº≠Ôº∞Ôº©ÔºØÔºÆ","steam_id":76561198883157736,"connected_time":593000000000,"state":"active","ping":106},{"user_id":511,"name":"Switchclackback","steam_id":76561198014355417,"connected_time":1419000000000,"state":"active","ping":61},{"user_id":498,"name":"Viren","steam_id":76561198012636897,"connected_time":2337000000000,"state":"active","ping":77},{"user_id":499,"name":"NubNub21","steam_id":76561197995743317,"connected_time":2318000000000,"state":"active","ping":110},{"user_id":521,"name":"BuncusBeffer","steam_id":76561198285936616,"connected_time":319000000000,"state":"active","ping":66},{"user_id":519,"name":"Miles","steam_id":76561198340337331,"connected_time":591000000000,"state":"active","ping":66},{"user_id":486,"name":"Celery","steam_id":76561198019941718,"connected_time":3104000000000,"state":"active","ping":138},{"user_id":517,"name":"Faefanger","steam_id":76561198201871002,"connected_time":713000000000,"state":"active","ping":105},{"user_id":520,"name":"walrooos","steam_id":76561198024521839,"connected_time":471000000000,"state":"active","ping":48}]},{"server_id":25,"name":"Uncletopia | Los Angeles | 4 | Stopwatch Beta","name_short":"lax-4","host":"lax-1.us.uncletopia.com","port":27045,"enabled":true,"region":"us-west","cc":"us","latitude":33.94279,"longitude":-118.41004,"reserved":0,"last_update":"0001-01-01T00:00:00Z","name_a2s":"Uncletopia | Los Angeles | 4 | Stopwatch Beta","protocol":17,"map":"pl_frontier_final","folder":"tf","game":"Team Fortress","app_id":440,"player_count":0,"max_players":24,"Bots":0,"server_type":"Dedicated","server_os":"Linux","password":true,"vac":true,"version":"7961495","steam_id":85568392924510199,"keywords":["nocrits","nodmgspread","payload","uncletopia"],"game_id":440,"stv_port":27046,"stv_name":"Uncletopia | Los Angeles | 4 | Stopwatch Beta | STV","players":null},{"server_id":11,"name":"Uncletopia | London | 1 | All Maps","name_short":"lon-1","host":"lon-1.uk.uncletopia.com","port":27015,"enabled":true,"region":"eu","cc":"gb","latitude":51.509865,"longitude":-0.118092,"reserved":0,"last_update":"0001-01-01T00:00:00Z","name_a2s":"Uncletopia | London | 1 | All Maps","protocol":17,"map":"pl_barnblitz","folder":"tf","game":"Team Fortress","app_id":440,"player_count":24,"max_players":24,"Bots":0,"server_type":"Dedicated","server_os":"Linux","password":true,"vac":true,"version":"7961495","steam_id":85568392924367362,"keywords":["nocrits","nodmgspread","payload","uncletopia"],"game_id":440,"stv_port":27016,"stv_name":"Uncletopia | London | 1 | All Maps | STV","players":[{"user_id":276,"name":"bowchika wowa #SlavaUkraine","steam_id":76561198159564550,"connected_time":3746000000000,"state":"active","ping":71},{"user_id":314,"name":"[P-roc] Cmm Bert","steam_id":76561198016658674,"connected_time":305000000000,"state":"active","ping":62},{"user_id":309,"name":"owo","steam_id":76561198158209651,"connected_time":824000000000,"state":"active","ping":50},{"user_id":270,"name":"all g","steam_id":76561198139729249,"connected_time":4679000000000,"state":"active","ping":94},{"user_id":290,"name":"t0ksi","steam_id":76561198107240798,"connected_time":2944000000000,"state":"active","ping":75},{"user_id":212,"name":"Sunchouse","steam_id":76561198453479806,"connected_time":9112000000000,"state":"active","ping":90},{"user_id":279,"name":"Vitamin Weee","steam_id":76561199183937747,"connected_time":3541000000000,"state":"active","ping":98},{"user_id":304,"name":"Ôº≤ ÔºØ Ôº¢ Ôº¢ Ôº• Ôº≤ Ôº¥","steam_id":76561198134404830,"connected_time":1237000000000,"state":"active","ping":152},{"user_id":193,"name":"big naked bruh","steam_id":76561199179040672,"connected_time":11090000000000,"state":"active","ping":57},{"user_id":310,"name":"‚à´cos¬≤(2x)sin(x)dx","steam_id":76561198079937590,"connected_time":803000000000,"state":"active","ping":59},{"user_id":293,"name":"Maddox","steam_id":76561198026419869,"connected_time":2761000000000,"state":"active","ping":76},{"user_id":298,"name":"marvs","steam_id":76561198851777617,"connected_time":1769000000000,"state":"active","ping":45},{"user_id":315,"name":"Sakari","steam_id":76561197997811299,"connected_time":45000000000,"state":"active","ping":74},{"user_id":312,"name":"Darfsterman #rustclash","steam_id":76561199004139305,"connected_time":503000000000,"state":"active","ping":67},{"user_id":308,"name":"TheEventGuy","steam_id":76561197972797744,"connected_time":827000000000,"state":"active","ping":72},{"user_id":303,"name":"uwu","steam_id":76561199209906710,"connected_time":1242000000000,"state":"active","ping":51},{"user_id":297,"name":"MargoulGetron","steam_id":76561198020551698,"connected_time":2027000000000,"state":"active","ping":52},{"user_id":316,"name":"‚úûüòàprofesonale","steam_id":76561198049924024,"connected_time":44000000000,"state":"active","ping":186},{"user_id":302,"name":"KnugenIV","steam_id":76561198127091993,"connected_time":1249000000000,"state":"active","ping":59},{"user_id":300,"name":"sAmasam","steam_id":76561198114953928,"connected_time":1743000000000,"state":"active","ping":60},{"user_id":296,"name":"Neimon","steam_id":76561198343485710,"connected_time":2059000000000,"state":"active","ping":132},{"user_id":282,"name":"Walter Jr","steam_id":76561199111329270,"connected_time":3399000000000,"state":"active","ping":129},{"user_id":301,"name":"Jimmi Amareno","steam_id":76561198327750625,"connected_time":1614000000000,"state":"active","ping":30},{"user_id":245,"name":"png.png","steam_id":76561198444446521,"connected_time":6798000000000,"state":"active","ping":119}]},{"server_id":114,"name":"Uncletopia | London | 2 | All Maps","name_short":"lon-2","host":"lon-1.uk.uncletopia.com","port":27025,"enabled":true,"region":"eu","cc":"gb","latitude":51.509865,"longitude":-0.118092,"reserved":0,"last_update":"0001-01-01T00:00:00Z","name_a2s":"Uncletopia | London | 2 | All Maps","protocol":17,"map":"cp_altitude","folder":"tf","game":"Team Fortress","app_id":440,"player_count":0,"max_players":24,"Bots":0,"server_type":"Dedicated","server_os":"Linux","password":true,"vac":true,"version":"7961495","steam_id":85568392924470941,"keywords":["cp","nocrits","nodmgspread","uncletopia"],"game_id":440,"stv_port":27026,"stv_name":"Uncletopia | London | 2 | All Maps | STV","players":null},{"server_id":320,"name":"Uncletopia | London | 3 | All Maps","name_short":"lon-3","host":"lon-1.uk.uncletopia.com","port":27035,"enabled":true,"region":"eu","cc":"gb","latitude":51.509865,"longitude":-0.118092,"reserved":0,"last_update":"0001-01-01T00:00:00Z","name_a2s":"Uncletopia | London | 3 | All Maps","protocol":17,"map":"pl_barnblitz","folder":"tf","game":"Team Fortress","app_id":440,"player_count":0,"max_players":24,"Bots":0,"server_type":"Dedicated","server_os":"Linux","password":true,"vac":true,"version":"7961495","steam_id":85568392924510192,"keywords":["nocrits","nodmgspread","payload","uncletopia"],"game_id":440,"stv_port":27036,"stv_name":"Uncletopia | London | 3 | All Maps | STV","players":null},{"server_id":321,"name":"Uncletopia | London | 4 | All Maps","name_short":"lon-4","host":"lon-1.uk.uncletopia.com","port":27045,"enabled":true,"region":"eu","cc":"gb","latitude":51.509865,"longitude":-0.118092,"reserved":0,"last_update":"0001-01-01T00:00:00Z","name_a2s":"Uncletopia | London | 4 | All Maps","protocol":17,"map":"koth_cascade","folder":"tf","game":"Team Fortress","app_id":440,"player_count":6,"max_players":24,"Bots":0,"server_type":"Dedicated","server_os":"Linux","password":true,"vac":true,"version":"7961495","steam_id":85568392924510193,"keywords":["cp","nocrits","nodmgspread","uncletopia"],"game_id":440,"stv_port":27046,"stv_name":"Uncletopia | London | 4 | All Maps | STV","players":[{"user_id":4,"name":"Hoovyweaponsguy","steam_id":76561199126382862,"connected_time":2261000000000,"state":"active","ping":74},{"user_id":5,"name":"Monkey Brain","steam_id":76561199098984554,"connected_time":2241000000000,"state":"active","ping":75},{"user_id":6,"name":"Glyphid","steam_id":76561198998832900,"connected_time":917000000000,"state":"active","ping":91},{"user_id":7,"name":"Rlen","steam_id":76561198132139920,"connected_time":917000000000,"state":"active","ping":105},{"user_id":9,"name":"Fat Pigeon","steam_id":76561198817940142,"connected_time":203000000000,"state":"active","ping":44},{"user_id":10,"name":"Ruth(-less bitch)","steam_id":76561198150006573,"connected_time":164000000000,"state":"active","ping":48}]},{"server_id":21,"name":"Uncletopia | London | 5 | All Maps","name_short":"lon-5","host":"lon-1.uk.uncletopia.com","port":27055,"enabled":true,"region":"eu","cc":"gb","latitude":51.509865,"longitude":-0.118092,"reserved":0,"last_update":"0001-01-01T00:00:00Z","name_a2s":"Uncletopia | London | 5 | All Maps","protocol":17,"map":"pl_upward","folder":"tf","game":"Team Fortress","app_id":440,"player_count":24,"max_players":24,"Bots":0,"server_type":"Dedicated","server_os":"Linux","password":true,"vac":true,"version":"7961495","steam_id":85568392924742829,"keywords":["nocrits","nodmgspread","payload","uncletopia"],"game_id":440,"stv_port":27056,"stv_name":"Uncletopia | London | 5 | All Maps | STV","players":[{"user_id":44,"name":"manKe","steam_id":76561198008564860,"connected_time":630000000000,"state":"active","ping":58},{"user_id":45,"name":"Qwerty","steam_id":76561198023525894,"connected_time":618000000000,"state":"active","ping":87},{"user_id":31,"name":"Karahieb","steam_id":76561197972670214,"connected_time":1175000000000,"state":"active","ping":65},{"user_id":7,"name":"Û†Ä°Û†Ä°","steam_id":76561198399390201,"connected_time":2745000000000,"state":"active","ping":102},{"user_id":9,"name":"Fus in Boots","steam_id":76561198053897722,"connected_time":2528000000000,"state":"active","ping":63},{"user_id":10,"name":"Psychicpie","steam_id":76561198126065206,"connected_time":2332000000000,"state":"active","ping":52},{"user_id":53,"name":"ArikMor","steam_id":76561199124472513,"connected_time":107000000000,"state":"active","ping":127},{"user_id":52,"name":"Silver","steam_id":76561198175238807,"connected_time":133000000000,"state":"active","ping":46},{"user_id":18,"name":"hdmi_3","steam_id":76561199122704479,"connected_time":1694000000000,"state":"active","ping":137},{"user_id":55,"name":"Umbro","steam_id":76561198087930438,"connected_time":89000000000,"state":"active","ping":75},{"user_id":25,"name":"invertO","steam_id":76561198142244174,"connected_time":1300000000000,"state":"active","ping":60},{"user_id":33,"name":"Radigan-Flanders::","steam_id":76561198100439744,"connected_time":1094000000000,"state":"active","ping":32},{"user_id":23,"name":"Andr√°s","steam_id":76561198272546996,"connected_time":1344000000000,"state":"active","ping":76},{"user_id":56,"name":"Arii","steam_id":76561198138137939,"connected_time":56000000000,"state":"active","ping":55},{"user_id":57,"name":"Syd","steam_id":76561198020515027,"connected_time":39000000000,"state":"active","ping":67},{"user_id":49,"name":"Feel","steam_id":76561198008784722,"connected_time":421000000000,"state":"active","ping":47},{"user_id":30,"name":"Homer Sexual","steam_id":76561198382509396,"connected_time":1225000000000,"state":"active","ping":54},{"user_id":34,"name":"Unseen","steam_id":76561198154670360,"connected_time":1054000000000,"state":"active","ping":91},{"user_id":36,"name":"Nessieling","steam_id":76561198083556891,"connected_time":1048000000000,"state":"active","ping":110},{"user_id":39,"name":"Vital","steam_id":76561198062052388,"connected_time":938000000000,"state":"active","ping":62},{"user_id":40,"name":"blurst of times","steam_id":76561197972325640,"connected_time":922000000000,"state":"active","ping":44},{"user_id":41,"name":"banrab","steam_id":76561198083615367,"connected_time":892000000000,"state":"active","ping":39},{"user_id":47,"name":"LIGHTWEIGHT BABY","steam_id":76561198002761980,"connected_time":616000000000,"state":"active","ping":59},{"user_id":51,"name":"koko","steam_id":76561198903997529,"connected_time":191000000000,"state":"active","ping":88}]},{"server_id":22,"name":"Uncletopia | London | 6 | All Maps","name_short":"lon-6","host":"lon-1.uk.uncletopia.com","port":27065,"enabled":true,"region":"eu","cc":"gb","latitude":51.509865,"longitude":-0.118092,"reserved":0,"last_update":"0001-01-01T00:00:00Z","name_a2s":"Uncletopia | London | 6 | All Maps","protocol":17,"map":"koth_lakeside_final","folder":"tf","game":"Team Fortress","app_id":440,"player_count":0,"max_players":24,"Bots":0,"server_type":"Dedicated","server_os":"Linux","password":true,"vac":true,"version":"7961495","steam_id":85568392924742830,"keywords":["cp","nocrits","nodmgspread","uncletopia"],"game_id":440,"stv_port":27066,"stv_name":"Uncletopia | London | 6 | All Maps | STV","players":null},{"server_id":40,"name":"Uncletopia | London | 7 | No Payload","name_short":"lon-7","host":"lon-1.uk.uncletopia.com","port":27075,"enabled":true,"region":"eu","cc":"gb","latitude":51.509865,"longitude":-0.118092,"reserved":0,"last_update":"0001-01-01T00:00:00Z","name_a2s":"Uncletopia | London | 7 | No Payload","protocol":17,"map":"pl_snowycoast","folder":"tf","game":"Team Fortress","app_id":440,"player_count":0,"max_players":24,"Bots":0,"server_type":"Dedicated","server_os":"Linux","password":true,"vac":true,"version":"7961495","steam_id":85568392924964314,"keywords":["nocrits","nodmgspread","payload","uncletopia"],"game_id":440,"stv_port":27076,"stv_name":"Uncletopia | London | 7 | No Payload | STV","players":null},{"server_id":41,"name":"Uncletopia | London | 8 | Community","name_short":"lon-8","host":"lon-1.uk.uncletopia.com","port":27085,"enabled":true,"region":"eu","cc":"gb","latitude":51.509865,"longitude":-0.118092,"reserved":0,"last_update":"0001-01-01T00:00:00Z","name_a2s":"Uncletopia | London | 8 | Community","protocol":17,"map":"koth_viaduct","folder":"tf","game":"Team Fortress","app_id":440,"player_count":0,"max_players":24,"Bots":0,"server_type":"Dedicated","server_os":"Linux","password":true,"vac":true,"version":"7961495","steam_id":85568392924964315,"keywords":["cp","nocrits","nodmgspread","uncletopia"],"game_id":440,"stv_port":27086,"stv_name":"Uncletopia | London | 8 | Community | STV","players":null},{"server_id":300,"name":"Uncletopia | Montr√©al | 1 | All Maps","name_short":"mtl-1","host":"mtl-1.ca.uncletopia.com","port":27015,"enabled":true,"region":"us-east","cc":"ca","latitude":45.50889,"longitude":-73.56167,"reserved":0,"last_update":"0001-01-01T00:00:00Z","name_a2s":"Uncletopia | Montr√©al | 1 | All Maps","protocol":17,"map":"koth_cascade","folder":"tf","game":"Team Fortress","app_id":440,"player_count":0,"max_players":24,"Bots":0,"server_type":"Dedicated","server_os":"Linux","password":true,"vac":true,"version":"7961495","steam_id":85568392924500087,"keywords":["cp","nocrits","nodmgspread","uncletopia"],"game_id":440,"stv_port":27016,"stv_name":"Uncletopia | Montr√©al | 1 | All Maps | STV","players":null},{"server_id":301,"name":"Uncletopia | Montr√©al | 2 | All Maps","name_short":"mtl-2","host":"mtl-1.ca.uncletopia.com","port":27025,"enabled":true,"region":"us-east","cc":"ca","latitude":45.50889,"longitude":-73.56167,"reserved":0,"last_update":"0001-01-01T00:00:00Z","name_a2s":"Uncletopia | Montr√©al | 2 | All Maps","protocol":17,"map":"pl_frontier_final","folder":"tf","game":"Team Fortress","app_id":440,"player_count":0,"max_players":24,"Bots":0,"server_type":"Dedicated","server_os":"Linux","password":true,"vac":true,"version":"7961495","steam_id":85568392924500088,"keywords":["nocrits","nodmgspread","payload","uncletopia"],"game_id":440,"stv_port":27026,"stv_name":"Uncletopia | Montr√©al | 2 | All Maps | STV","players":null},{"server_id":302,"name":"Uncletopia | Montr√©al | 3 | All Maps","name_short":"mtl-3","host":"mtl-1.ca.uncletopia.com","port":27035,"enabled":true,"region":"us-east","cc":"ca","latitude":45.50889,"longitude":-73.56167,"reserved":0,"last_update":"0001-01-01T00:00:00Z","name_a2s":"Uncletopia | Montr√©al | 3 | All Maps","protocol":17,"map":"pl_upward","folder":"tf","game":"Team Fortress","app_id":440,"player_count":0,"max_players":24,"Bots":0,"server_type":"Dedicated","server_os":"Linux","password":true,"vac":true,"version":"7961495","steam_id":85568392924500089,"keywords":["nocrits","nodmgspread","payload","uncletopia"],"game_id":440,"stv_port":27036,"stv_name":"Uncletopia | Montr√©al | 3 | All Maps | STV","players":null},{"server_id":303,"name":"Uncletopia | Montr√©al | 4 | No Payload","name_short":"mtl-4","host":"mtl-1.ca.uncletopia.com","port":27045,"enabled":true,"region":"us-east","cc":"ca","latitude":45.50889,"longitude":-73.56167,"reserved":0,"last_update":"0001-01-01T00:00:00Z","name_a2s":"Uncletopia | Montr√©al | 4 | No Payload","protocol":17,"map":"cp_mountainlab","folder":"tf","game":"Team Fortress","app_id":440,"player_count":0,"max_players":24,"Bots":0,"server_type":"Dedicated","server_os":"Linux","password":true,"vac":true,"version":"7961495","steam_id":85568392924500090,"keywords":["cp","nocrits","nodmgspread","uncletopia"],"game_id":440,"stv_port":27046,"stv_name":"Uncletopia | Montr√©al | 4 | No Payload | STV","players":null},{"server_id":13,"name":"Uncletopia | New York City | 1 | All Maps","name_short":"nyc-1","host":"nyc-1.us.uncletopia.com","port":27015,"enabled":true,"region":"us-east","cc":"us","latitude":40.73061,"longitude":-73.93524,"reserved":0,"last_update":"0001-01-01T00:00:00Z","name_a2s":"Uncletopia | New York City | 1 | All Maps","protocol":17,"map":"cp_sunshine","folder":"tf","game":"Team Fortress","app_id":440,"player_count":0,"max_players":24,"Bots":0,"server_type":"Dedicated","server_os":"Linux","password":true,"vac":true,"version":"7961495","steam_id":85568392924469993,"keywords":["cp","nocrits","nodmgspread","uncletopia"],"game_id":440,"stv_port":27016,"stv_name":"Uncletopia | New York City | 1 | All Maps | STV","players":null},{"server_id":14,"name":"Uncletopia | New York City | 2 | All Maps","name_short":"nyc-2","host":"nyc-1.us.uncletopia.com","port":27025,"enabled":true,"region":"us-east","cc":"us","latitude":40.73061,"longitude":-73.93524,"reserved":0,"last_update":"0001-01-01T00:00:00Z","name_a2s":"Uncletopia | New York City | 2 | All Maps","protocol":17,"map":"pl_snowycoast","folder":"tf","game":"Team Fortress","app_id":440,"player_count":0,"max_players":24,"Bots":0,"server_type":"Dedicated","server_os":"Linux","password":true,"vac":true,"version":"7961495","steam_id":85568392924469994,"keywords":["nocrits","nodmgspread","payload","uncletopia"],"game_id":440,"stv_port":27026,"stv_name":"Uncletopia | New York City | 2 | All Maps | STV","players":null},{"server_id":15,"name":"Uncletopia | New York City | 3 | Stopwatch Beta","name_short":"nyc-3","host":"nyc-1.us.uncletopia.com","port":27035,"enabled":true,"region":"us-east","cc":"us","latitude":40.73061,"longitude":-73.93524,"reserved":0,"last_update":"0001-01-01T00:00:00Z","name_a2s":"Uncletopia | New York City | 3 | Stopwatch Beta","protocol":17,"map":"koth_lakeside_final","folder":"tf","game":"Team Fortress","app_id":440,"player_count":0,"max_players":24,"Bots":0,"server_type":"Dedicated","server_os":"Linux","password":true,"vac":true,"version":"7961495","steam_id":85568392924742820,"keywords":["cp","nocrits","nodmgspread","uncletopia"],"game_id":440,"stv_port":27036,"stv_name":"Uncletopia | New York City | 3 | Stopwatch Beta | STV","players":null},{"server_id":16,"name":"Uncletopia | New York City | 4 | Community","name_short":"nyc-4","host":"nyc-1.us.uncletopia.com","port":27045,"enabled":true,"region":"us-east","cc":"us","latitude":40.73061,"longitude":-73.93524,"reserved":0,"last_update":"0001-01-01T00:00:00Z","name_a2s":"Uncletopia | New York City | 4 | Community","protocol":17,"map":"pl_frontier_final","folder":"tf","game":"Team Fortress","app_id":440,"player_count":0,"max_players":24,"Bots":0,"server_type":"Dedicated","server_os":"Linux","password":true,"vac":true,"version":"7961495","steam_id":85568392924742821,"keywords":["nocrits","nodmgspread","payload","uncletopia"],"game_id":440,"stv_port":27046,"stv_name":"Uncletopia | New York City | 4 | Community | STV","players":null},{"server_id":142,"name":"Uncletopia | S√£o Paulo | 1 | All Maps","name_short":"sao-1","host":"sao-1.br.uncletopia.com","port":27015,"enabled":true,"region":"sa","cc":"br","latitude":-23.533773,"longitude":-46.62529,"reserved":0,"last_update":"0001-01-01T00:00:00Z","name_a2s":"Uncletopia | S√£o Paulo | 1 | All Maps","protocol":17,"map":"koth_highpass","folder":"tf","game":"Team Fortress","app_id":440,"player_count":0,"max_players":24,"Bots":0,"server_type":"Dedicated","server_os":"Linux","password":true,"vac":true,"version":"7961495","steam_id":85568392924469996,"keywords":["cp","nocrits","nodmgspread","uncletopia"],"game_id":440,"stv_port":27016,"stv_name":"Uncletopia | S√£o Paulo | 1 | All Maps | STV","players":null},{"server_id":143,"name":"Uncletopia | S√£o Paulo | 2 | All Maps","name_short":"sao-2","host":"sao-2.br.uncletopia.com","port":27015,"enabled":true,"region":"sa","cc":"br","latitude":-23.533773,"longitude":-46.62529,"reserved":0,"last_update":"0001-01-01T00:00:00Z","name_a2s":"Uncletopia | S√£o Paulo | 2 | All Maps","protocol":17,"map":"koth_cascade","folder":"tf","game":"Team Fortress","app_id":440,"player_count":0,"max_players":24,"Bots":0,"server_type":"Dedicated","server_os":"Linux","password":true,"vac":true,"version":"7961495","steam_id":85568392924485349,"keywords":["cp","nocrits","nodmgspread","uncletopia"],"game_id":440,"stv_port":27016,"stv_name":"Uncletopia | S√£o Paulo | 2 | All Maps | STV","players":null},{"server_id":7,"name":"Uncletopia | Seattle | 1 | All Maps","name_short":"sea-1","host":"sea-1.us.uncletopia.com","port":27015,"enabled":true,"region":"us-west","cc":"us","latitude":47.608013,"longitude":-122.33517,"reserved":0,"last_update":"0001-01-01T00:00:00Z","name_a2s":"Uncletopia | Seattle | 1 | All Maps","protocol":17,"map":"koth_lakeside_final","folder":"tf","game":"Team Fortress","app_id":440,"player_count":0,"max_players":24,"Bots":0,"server_type":"Dedicated","server_os":"Linux","password":true,"vac":true,"version":"7961495","steam_id":85568392924469997,"keywords":["cp","nocrits","nodmgspread","uncletopia"],"game_id":440,"stv_port":27016,"stv_name":"Uncletopia | Seattle | 1 | All Maps | STV","players":null},{"server_id":119,"name":"Uncletopia | Seattle | 2 | All Maps","name_short":"sea-2","host":"sea-1.us.uncletopia.com","port":27025,"enabled":true,"region":"us-west","cc":"us","latitude":47.608013,"longitude":-122.33517,"reserved":0,"last_update":"0001-01-01T00:00:00Z","name_a2s":"Uncletopia | Seattle | 2 | All Maps","protocol":17,"map":"koth_highpass","folder":"tf","game":"Team Fortress","app_id":440,"player_count":0,"max_players":24,"Bots":0,"server_type":"Dedicated","server_os":"Linux","password":true,"vac":true,"version":"7961495","steam_id":85568392924469998,"keywords":["cp","nocrits","nodmgspread","uncletopia"],"game_id":440,"stv_port":27026,"stv_name":"Uncletopia | Seattle | 2 | All Maps | STV","players":null},{"server_id":406,"name":"Uncletopia | Seattle | 3 | Stopwatch Beta","name_short":"sea-3","host":"sea-1.us.uncletopia.com","port":27035,"enabled":true,"region":"us-west","cc":"us","latitude":47.608013,"longitude":-122.33517,"reserved":0,"last_update":"0001-01-01T00:00:00Z","name_a2s":"Uncletopia | Seattle | 3 | Stopwatch Beta","protocol":17,"map":"pl_swiftwater_final1","folder":"tf","game":"Team Fortress","app_id":440,"player_count":0,"max_players":24,"Bots":0,"server_type":"Dedicated","server_os":"Linux","password":true,"vac":true,"version":"7961495","steam_id":85568392924515217,"keywords":["nocrits","nodmgspread","payload","uncletopia"],"game_id":440,"stv_port":27036,"stv_name":"Uncletopia | Seattle | 3 | Stopwatch Beta | STV","players":null},{"server_id":17,"name":"Uncletopia | San Francisco | 1 | All Maps","name_short":"sfo-1","host":"sfo-1.us.uncletopia.com","port":27015,"enabled":true,"region":"us-west","cc":"us","latitude":37.77397,"longitude":-122.4313,"reserved":0,"last_update":"0001-01-01T00:00:00Z","name_a2s":"Uncletopia | San Francisco | 1 | All Maps","protocol":17,"map":"pl_frontier_final","folder":"tf","game":"Team Fortress","app_id":440,"player_count":0,"max_players":24,"Bots":0,"server_type":"Dedicated","server_os":"Linux","password":true,"vac":true,"version":"7932396","steam_id":85568392924469999,"keywords":["nocrits","nodmgspread","payload","uncletopia"],"game_id":440,"stv_port":27016,"stv_name":"Uncletopia | San Francisco | 1 | All Maps | STV","players":null},{"server_id":18,"name":"Uncletopia | San Francisco | 2 | All Maps","name_short":"sfo-2","host":"sfo-1.us.uncletopia.com","port":27025,"enabled":true,"region":"us-west","cc":"us","latitude":37.77397,"longitude":-122.4313,"reserved":0,"last_update":"0001-01-01T00:00:00Z","name_a2s":"Uncletopia | San Francisco | 2 | All Maps","protocol":17,"map":"cp_snakewater_final1","folder":"tf","game":"Team Fortress","app_id":440,"player_count":0,"max_players":24,"Bots":0,"server_type":"Dedicated","server_os":"Linux","password":true,"vac":true,"version":"7932396","steam_id":85568392924470000,"keywords":["cp","nocrits","nodmgspread","uncletopia"],"game_id":440,"stv_port":27026,"stv_name":"Uncletopia | San Francisco | 2 | All Maps | STV","players":null},{"server_id":19,"name":"Uncletopia | San Francisco | 3 | Stopwatch Beta","name_short":"sfo-3","host":"sfo-1.us.uncletopia.com","port":27035,"enabled":true,"region":"us-west","cc":"us","latitude":37.77397,"longitude":-122.4313,"reserved":0,"last_update":"0001-01-01T00:00:00Z","name_a2s":"Uncletopia | San Francisco | 3 | Stopwatch Beta","protocol":17,"map":"koth_lakeside_final","folder":"tf","game":"Team Fortress","app_id":440,"player_count":0,"max_players":24,"Bots":0,"server_type":"Dedicated","server_os":"Linux","password":true,"vac":true,"version":"7932396","steam_id":85568392924742824,"keywords":["cp","nocrits","nodmgspread","uncletopia"],"game_id":440,"stv_port":27036,"stv_name":"Uncletopia | San Francisco | 3 | Stopwatch Beta | STV","players":null},{"server_id":20,"name":"Uncletopia | San Francisco | 4 | Community","name_short":"sfo-4","host":"sfo-1.us.uncletopia.com","port":27045,"enabled":true,"region":"us-west","cc":"us","latitude":37.77397,"longitude":-122.4313,"reserved":0,"last_update":"0001-01-01T00:00:00Z","name_a2s":"Uncletopia | San Francisco | 4 | Community","protocol":17,"map":"pl_borneo","folder":"tf","game":"Team Fortress","app_id":440,"player_count":0,"max_players":24,"Bots":0,"server_type":"Dedicated","server_os":"Linux","password":true,"vac":true,"version":"7932396","steam_id":85568392924742826,"keywords":["nocrits","nodmgspread","payload","uncletopia"],"game_id":440,"stv_port":27046,"stv_name":"Uncletopia | San Francisco | 4 | Community | STV","players":null},{"server_id":141,"name":"Uncletopia | Sydney | 1 | All Maps","name_short":"syd-1","host":"syd-1.au.uncletopia.com","port":27015,"enabled":true,"region":"au","cc":"au","latitude":-33.865143,"longitude":151.2099,"reserved":0,"last_update":"0001-01-01T00:00:00Z","name_a2s":"Uncletopia | Sydney | 1 | All Maps","protocol":17,"map":"plr_hightower","folder":"tf","game":"Team Fortress","app_id":440,"player_count":13,"max_players":24,"Bots":0,"server_type":"Dedicated","server_os":"Linux","password":true,"vac":true,"version":"7961495","steam_id":85568392924470001,"keywords":["nocrits","nodmgspread","payload","uncletopia"],"game_id":440,"stv_port":27016,"stv_name":"Uncletopia | Sydney | 1 | All Maps | STV","players":[{"user_id":242,"name":"pepsi_bottle","steam_id":76561199123087971,"connected_time":4323000000000,"state":"active","ping":73},{"user_id":243,"name":"TZEI","steam_id":76561198045566851,"connected_time":3900000000000,"state":"active","ping":98},{"user_id":244,"name":"Xylotrix_","steam_id":76561199224567332,"connected_time":3875000000000,"state":"active","ping":72},{"user_id":267,"name":"[DH] Solaire","steam_id":76561199080309918,"connected_time":226000000000,"state":"active","ping":68},{"user_id":263,"name":"Slowpoke","steam_id":76561198089176674,"connected_time":598000000000,"state":"active","ping":39},{"user_id":257,"name":"Penguin Wielder","steam_id":76561198169038889,"connected_time":1187000000000,"state":"active","ping":54},{"user_id":266,"name":"MININinja1308","steam_id":76561199040303660,"connected_time":456000000000,"state":"active","ping":54},{"user_id":265,"name":"APVC","steam_id":76561199090168813,"connected_time":487000000000,"state":"active","ping":45},{"user_id":259,"name":"Clawwar","steam_id":76561199237452444,"connected_time":975000000000,"state":"active","ping":69},{"user_id":268,"name":"Not A Clever Man","steam_id":76561198038700246,"connected_time":193000000000,"state":"active","ping":71},{"user_id":261,"name":"nankaidatte421","steam_id":76561199379533644,"connected_time":928000000000,"state":"active","ping":250},{"user_id":272,"name":"Tasman","steam_id":76561198041224384,"connected_time":26000000000,"state":"active","ping":27},{"user_id":270,"name":"the ape","steam_id":76561198354289272,"connected_time":84000000000,"state":"active","ping":61}]},{"server_id":123,"name":"Uncletopia | Sydney | 2 | All Maps","name_short":"syd-2","host":"syd-1.au.uncletopia.com","port":27025,"enabled":true,"region":"au","cc":"au","latitude":-33.865143,"longitude":151.2099,"reserved":0,"last_update":"0001-01-01T00:00:00Z","name_a2s":"Uncletopia | Sydney | 2 | All Maps","protocol":17,"map":"pl_swiftwater_final1","folder":"tf","game":"Team Fortress","app_id":440,"player_count":24,"max_players":24,"Bots":0,"server_type":"Dedicated","server_os":"Linux","password":true,"vac":true,"version":"7961495","steam_id":85568392924470002,"keywords":["nocrits","nodmgspread","payload","uncletopia"],"game_id":440,"stv_port":27026,"stv_name":"Uncletopia | Sydney | 2 | All Maps | STV","players":[{"user_id":212,"name":"Sandal Bomber‚Ñ¢¬©","steam_id":76561198026823397,"connected_time":5817000000000,"state":"active","ping":54},{"user_id":269,"name":"TTV/Lachiebuzzx","steam_id":76561198161564938,"connected_time":1379000000000,"state":"active","ping":59},{"user_id":207,"name":"CatWithAMatch","steam_id":76561199378844984,"connected_time":6135000000000,"state":"active","ping":44},{"user_id":197,"name":"Swimming Champion 1967","steam_id":76561198026225936,"connected_time":6597000000000,"state":"active","ping":112},{"user_id":268,"name":"MindlessTie","steam_id":76561198107844324,"connected_time":1432000000000,"state":"active","ping":67},{"user_id":270,"name":"Pug","steam_id":76561198136794372,"connected_time":1378000000000,"state":"active","ping":86},{"user_id":274,"name":"Jacob","steam_id":76561198059341907,"connected_time":738000000000,"state":"active","ping":47},{"user_id":260,"name":"whiteshaq","steam_id":76561198131988811,"connected_time":2576000000000,"state":"active","ping":53},{"user_id":263,"name":"Johnathan Markos","steam_id":76561198008305856,"connected_time":2339000000000,"state":"active","ping":70},{"user_id":272,"name":"Bitch, Please","steam_id":76561197961747465,"connected_time":1195000000000,"state":"active","ping":91},{"user_id":271,"name":"Frog Friend","steam_id":76561198054505772,"connected_time":1347000000000,"state":"active","ping":62},{"user_id":252,"name":"Squishy","steam_id":76561198985769205,"connected_time":3305000000000,"state":"active","ping":54},{"user_id":218,"name":"funk","steam_id":76561198285337750,"connected_time":5551000000000,"state":"active","ping":63},{"user_id":216,"name":"radek","steam_id":76561198025474411,"connected_time":5701000000000,"state":"active","ping":67},{"user_id":273,"name":"Chud the Dud","steam_id":76561198025741807,"connected_time":1130000000000,"state":"active","ping":71},{"user_id":258,"name":"Physkal","steam_id":76561198072140363,"connected_time":2754000000000,"state":"active","ping":70},{"user_id":235,"name":"unspoken rhizzome","steam_id":76561198037965602,"connected_time":4381000000000,"state":"active","ping":48},{"user_id":236,"name":"Player 3.14","steam_id":76561198016766670,"connected_time":4379000000000,"state":"active","ping":54},{"user_id":276,"name":"soupy","steam_id":76561198073734936,"connected_time":213000000000,"state":"active","ping":90},{"user_id":256,"name":"e_o","steam_id":76561198040405520,"connected_time":2832000000000,"state":"active","ping":60},{"user_id":257,"name":"‚ô• Sharpy \u003e v \u003c","steam_id":76561198091613743,"connected_time":2802000000000,"state":"active","ping":99},{"user_id":246,"name":"SHOGUN!","steam_id":76561198077533366,"connected_time":4012000000000,"state":"active","ping":49},{"user_id":264,"name":"Hungry for thumbtacks","steam_id":76561198059129270,"connected_time":2173000000000,"state":"active","ping":67},{"user_id":267,"name":"Grantymunk","steam_id":76561198051439179,"connected_time":1663000000000,"state":"active","ping":76}]},{"server_id":395,"name":"Uncletopia | Sydney | 3 | All Maps","name_short":"syd-3","host":"syd-1.au.uncletopia.com","port":27035,"enabled":true,"region":"au","cc":"au","latitude":-33.865143,"longitude":151.2099,"reserved":0,"last_update":"0001-01-01T00:00:00Z","name_a2s":"Uncletopia | Sydney | 3 | All Maps","protocol":17,"map":"pl_upward","folder":"tf","game":"Team Fortress","app_id":440,"player_count":0,"max_players":24,"Bots":0,"server_type":"Dedicated","server_os":"Linux","password":true,"vac":true,"version":"7961495","steam_id":85568392925194467,"keywords":["nocrits","nodmgspread","payload","uncletopia"],"game_id":440,"stv_port":27036,"stv_name":"Uncletopia | Sydney | 3 | All Maps | STV","players":null},{"server_id":396,"name":"Uncletopia | Sydney | 4 | All Maps","name_short":"syd-4","host":"syd-1.au.uncletopia.com","port":27045,"enabled":true,"region":"au","cc":"au","latitude":-33.865143,"longitude":151.2099,"reserved":0,"last_update":"0001-01-01T00:00:00Z","name_a2s":"Uncletopia | Sydney | 4 | All Maps","protocol":17,"map":"koth_cascade","folder":"tf","game":"Team Fortress","app_id":440,"player_count":0,"max_players":24,"Bots":0,"server_type":"Dedicated","server_os":"Linux","password":true,"vac":true,"version":"7961495","steam_id":85568392925397958,"keywords":["cp","nocrits","nodmgspread","uncletopia"],"game_id":440,"stv_port":27046,"stv_name":"Uncletopia | Sydney | 4 | All Maps | STV","players":null},{"server_id":58,"name":"Uncletopia | Sydney | 5 | Stopwatch Beta","name_short":"syd-5","host":"syd-1.au.uncletopia.com","port":27055,"enabled":true,"region":"au","cc":"au","latitude":-33.865143,"longitude":151.2099,"reserved":0,"last_update":"0001-01-01T00:00:00Z","name_a2s":"Uncletopia | Sydney | 5 | Stopwatch Beta","protocol":17,"map":"koth_viaduct","folder":"tf","game":"Team Fortress","app_id":440,"player_count":0,"max_players":24,"Bots":0,"server_type":"Dedicated","server_os":"Linux","password":true,"vac":true,"version":"7961495","steam_id":85568392925397959,"keywords":["cp","nocrits","nodmgspread","uncletopia"],"game_id":440,"stv_port":27056,"stv_name":"Uncletopia | Sydney | 5 | Stopwatch Beta | STV","players":null},{"server_id":59,"name":"Uncletopia | Sydney | 6 | Community","name_short":"syd-6","host":"syd-1.au.uncletopia.com","port":27065,"enabled":true,"region":"au","cc":"au","latitude":-33.865143,"longitude":151.2099,"reserved":0,"last_update":"0001-01-01T00:00:00Z","name_a2s":"Uncletopia | Sydney | 6 | Community","protocol":17,"map":"workshop/cp_indulge.ugc528106646","folder":"tf","game":"Team Fortress","app_id":440,"player_count":0,"max_players":24,"Bots":0,"server_type":"Dedicated","server_os":"Linux","password":true,"vac":true,"version":"7961495","steam_id":85568392925397960,"keywords":["cp","nocrits","nodmgspread","uncletopia"],"game_id":440,"stv_port":27066,"stv_name":"Uncletopia | Sydney | 6 | Community | STV","players":null},{"server_id":49,"name":"Uncletopia | Warsaw | 1 | All Maps","name_short":"waw-1","host":"waw-1.pl.uncletopia.com","port":27015,"enabled":true,"region":"eu","cc":"pl","latitude":52.2297,"longitude":21.017532,"reserved":0,"last_update":"0001-01-01T00:00:00Z","name_a2s":"","protocol":0,"map":"","folder":"","game":"","app_id":0,"player_count":0,"max_players":0,"Bots":0,"server_type":"","server_os":"","password":false,"vac":false,"version":"","steam_id":0,"keywords":null,"game_id":0,"stv_port":0,"stv_name":"","players":null},{"server_id":50,"name":"Uncletopia | Warsaw | 2 | All Maps","name_short":"waw-2","host":"waw-1.pl.uncletopia.com","port":27025,"enabled":true,"region":"eu","cc":"pl","latitude":52.2297,"longitude":21.017532,"reserved":0,"last_update":"0001-01-01T00:00:00Z","name_a2s":"Uncletopia | Warsaw | 2 | All Maps","protocol":17,"map":"cp_mountainlab","folder":"tf","game":"Team Fortress","app_id":440,"player_count":0,"max_players":24,"Bots":0,"server_type":"Dedicated","server_os":"Linux","password":true,"vac":true,"version":"7961495","steam_id":85568392925397851,"keywords":["cp","nocrits","nodmgspread","uncletopia"],"game_id":440,"stv_port":27026,"stv_name":"Uncletopia | Warsaw | 2 | All Maps | STV","players":null},{"server_id":51,"name":"Uncletopia | Warsaw | 3 | All Maps","name_short":"waw-3","host":"waw-1.pl.uncletopia.com","port":27035,"enabled":true,"region":"eu","cc":"pl","latitude":52.2297,"longitude":21.017532,"reserved":0,"last_update":"0001-01-01T00:00:00Z","name_a2s":"Uncletopia | Warsaw | 3 | All Maps","protocol":17,"map":"cp_mountainlab","folder":"tf","game":"Team Fortress","app_id":440,"player_count":0,"max_players":24,"Bots":0,"server_type":"Dedicated","server_os":"Linux","password":true,"vac":true,"version":"7961495","steam_id":85568392925397852,"keywords":["cp","nocrits","nodmgspread","uncletopia"],"game_id":440,"stv_port":27036,"stv_name":"Uncletopia | Warsaw | 3 | All Maps | STV","players":null},{"server_id":52,"name":"Uncletopia | Warsaw | 4 | All Maps","name_short":"waw-4","host":"waw-1.pl.uncletopia.com","port":27045,"enabled":true,"region":"eu","cc":"pl","latitude":52.2297,"longitude":21.017532,"reserved":0,"last_update":"0001-01-01T00:00:00Z","name_a2s":"Uncletopia | Warsaw | 4 | All Maps","protocol":17,"map":"pl_snowycoast","folder":"tf","game":"Team Fortress","app_id":440,"player_count":7,"max_players":24,"Bots":0,"server_type":"Dedicated","server_os":"Linux","password":true,"vac":true,"version":"7961495","steam_id":85568392925397853,"keywords":["nocrits","nodmgspread","payload","uncletopia"],"game_id":440,"stv_port":27046,"stv_name":"Uncletopia | Warsaw | 4 | All Maps | STV","players":[{"user_id":90,"name":"Blam","steam_id":76561199142730050,"connected_time":589000000000,"state":"active","ping":127},{"user_id":86,"name":"Shark","steam_id":76561198205226501,"connected_time":804000000000,"state":"active","ping":179},{"user_id":78,"name":"eva.","steam_id":76561198054474684,"connected_time":1538000000000,"state":"active","ping":75},{"user_id":24,"name":"Streaker","steam_id":76561198859213547,"connected_time":5053000000000,"state":"active","ping":75},{"user_id":18,"name":"mindas tf2.LT","steam_id":76561198056839438,"connected_time":5607000000000,"state":"active","ping":37},{"user_id":88,"name":"dawgdavd","steam_id":76561199477636492,"connected_time":713000000000,"state":"active","ping":161},{"user_id":38,"name":"Charmedelf","steam_id":76561197993611881,"connected_time":4141000000000,"state":"active","ping":60}]},{"server_id":53,"name":"Uncletopia | Warsaw | 5 | Stopwatch Beta","name_short":"waw-5","host":"waw-1.pl.uncletopia.com","port":27055,"enabled":true,"region":"eu","cc":"pl","latitude":52.2297,"longitude":21.017532,"reserved":0,"last_update":"0001-01-01T00:00:00Z","name_a2s":"Uncletopia | Warsaw | 5 | Stopwatch Beta","protocol":17,"map":"pl_snowycoast","folder":"tf","game":"Team Fortress","app_id":440,"player_count":0,"max_players":24,"Bots":0,"server_type":"Dedicated","server_os":"Linux","password":true,"vac":true,"version":"7961495","steam_id":85568392925397854,"keywords":["nocrits","nodmgspread","payload","uncletopia"],"game_id":440,"stv_port":27056,"stv_name":"Uncletopia | Warsaw | 5 | Stopwatch Beta | STV","players":null},{"server_id":54,"name":"Uncletopia | Warsaw | 6 | Community","name_short":"waw-6","host":"waw-1.pl.uncletopia.com","port":27065,"enabled":true,"region":"eu","cc":"pl","latitude":52.2297,"longitude":21.017532,"reserved":0,"last_update":"0001-01-01T00:00:00Z","name_a2s":"Uncletopia | Warsaw | 6 | Community","protocol":17,"map":"pl_borneo","folder":"tf","game":"Team Fortress","app_id":440,"player_count":0,"max_players":24,"Bots":0,"server_type":"Dedicated","server_os":"Linux","password":true,"vac":true,"version":"7961495","steam_id":85568392925397856,"keywords":["nocrits","nodmgspread","payload","uncletopia"],"game_id":440,"stv_port":27066,"stv_name":"Uncletopia | Warsaw | 6 | Community | STV","players":null}]}