{"status":true,"message":"","result":[{"server_id":9,"name":"Uncletopia | Atlanta | 1 | All Maps","name_short":"atl-1","host":"atl-1.us.uncletopia.com","port":27015,"enabled":true,"region":"us-east","cc":"us","latitude":33.753746,"longitude":-84.38633,"reserved":0,"last_update":"0001-01-01T00:00:00Z","name_a2s":"Uncletopia | Atlanta | 1 | All Maps","protocol":17,"map":"koth_cascade","folder":"tf","game":"Team Fortress","app_id":440,"player_count":0,"max_players":24,"Bots":0,"server_type":"Dedicated","server_os":"Linux","password":true,"vac":true,"version":"7757534","steam_id":85568392924469982,"keywords":["cp","nocrits","nodmgspread","uncletopia"],"game_id":440,"stv_port":27016,"stv_name":"Uncletopia | Atlanta | 1 | All Maps | STV","players":null},{"server_id":400,"name":"Uncletopia | Atlanta | 3 | Stopwatch Beta","name_short":"atl-3","host":"atl-1.us.uncletopia.com","port":27035,"enabled":true,"region":"us-east","cc":"us","latitude":33.753746,"longitude":-84.38633,"reserved":0,"last_update":"0001-01-01T00:00:00Z","name_a2s":"Uncletopia | Atlanta | 3 | Stopwatch Beta","protocol":17,"map":"workshop/pl_barnblitz_pro7.ugc582280235","folder":"tf","game":"Team Fortress","app_id":440,"player_count":0,"max_players":24,"Bots":0,"server_type":"Dedicated","server_os":"Linux","password":true,"vac":true,"version":"7757534","steam_id":85568392924515187,"keywords":["nocrits","nodmgspread","payload","uncletopia"],"game_id":440,"stv_port":27036,"stv_name":"Uncletopia | Atlanta | 3 | Stopwatch Beta | STV","players":null},{"server_id":401,"name":"Uncletopia | Atlanta | 4 | No Payload","name_short":"atl-4","host":"atl-1.us.uncletopia.com","port":27045,"enabled":true,"region":"us-east","cc":"us","latitude":33.753746,"longitude":-84.38633,"reserved":0,"last_update":"0001-01-01T00:00:00Z","name_a2s":"Uncletopia | Atlanta | 4 | No Payload","protocol":17,"map":"pl_pier","folder":"tf","game":"Team Fortress","app_id":440,"player_count":0,"max_players":24,"Bots":0,"server_type":"Dedicated","server_os":"Linux","password":true,"vac":true,"version":"7723704","steam_id":85568392924515188,"keywords":["nocrits","nodmgspread","payload","uncletopia"],"game_id":440,"stv_port":27046,"stv_name":"Uncletopia | Atlanta | 4 | No Payload | STV","players":null},{"server_id":2,"name":"Uncletopia | Chicago | 1 | All Maps","name_short":"chi-1","host":"chi-1.us.uncletopia.com","port":27015,"enabled":true,"region":"us-central","cc":"us","latitude":41.881832,"longitude":-87.62318,"reserved":0,"last_update":"0001-01-01T00:00:00Z","name_a2s":"Uncletopia | Chicago | 1 | All Maps","protocol":17,"map":"cp_snakewater_final1","folder":"tf","game":"Team Fortress","app_id":440,"player_count":24,"max_players":24,"Bots":0,"server_type":"Dedicated","server_os":"Linux","password":true,"vac":true,"version":"7757534","steam_id":85568392924469984,"keywords":["cp","nocrits","nodmgspread","uncletopia"],"game_id":440,"stv_port":27016,"stv_name":"Uncletopia | Chicago | 1 | All Maps | STV","players":[{"user_id":1057,"name":"Omnineco","steam_id":76561198041704026,"connected_time":875000000000,"state":"active","ping":69},{"user_id":1044,"name":"Got Oil?","steam_id":76561199238964574,"connected_time":1409000000000,"state":"active","ping":72},{"user_id":989,"name":"Vro","steam_id":76561198253396630,"connected_time":5727000000000,"state":"active","ping":92},{"user_id":1011,"name":"Lennu","steam_id":76561198060730154,"connected_time":4794000000000,"state":"active","ping":72},{"user_id":987,"name":"Magic Jack","steam_id":76561198227459488,"connected_time":6031000000000,"state":"active","ping":59},{"user_id":1047,"name":"SLUM","steam_id":76561199201239981,"connected_time":1385000000000,"state":"active","ping":74},{"user_id":1042,"name":"stockhack","steam_id":76561198050220225,"connected_time":1470000000000,"state":"active","ping":66},{"user_id":1054,"name":"the boss","steam_id":76561198047689205,"connected_time":1176000000000,"state":"active","ping":59},{"user_id":1046,"name":"MistakesWereMade","steam_id":76561199059220481,"connected_time":1405000000000,"state":"active","ping":107},{"user_id":1026,"name":"xyt0nix","steam_id":76561199437938235,"connected_time":2583000000000,"state":"active","ping":70},{"user_id":1051,"name":"oohho","steam_id":76561198073707607,"connected_time":1342000000000,"state":"active","ping":88},{"user_id":1015,"name":"Tarofel","steam_id":76561198051888035,"connected_time":3749000000000,"state":"active","ping":57},{"user_id":1055,"name":"Æğis","steam_id":76561198105421633,"connected_time":1128000000000,"state":"active","ping":71},{"user_id":1053,"name":"Um...Can I come too?","steam_id":76561198035698704,"connected_time":1277000000000,"state":"active","ping":103},{"user_id":1025,"name":"BitterSweet","steam_id":76561198161342377,"connected_time":3049000000000,"state":"active","ping":80},{"user_id":1058,"name":"resh","steam_id":76561198066619792,"connected_time":563000000000,"state":"active","ping":70},{"user_id":1031,"name":"Shrek is Kek","steam_id":76561198126373933,"connected_time":2401000000000,"state":"active","ping":68},{"user_id":1017,"name":"Oddjob","steam_id":76561198976160793,"connected_time":3694000000000,"state":"active","ping":76},{"user_id":1033,"name":"Supreme Leader Gnomedolf Slonke","steam_id":76561198310594866,"connected_time":2325000000000,"state":"active","ping":105},{"user_id":1049,"name":"RURU","steam_id":76561198039758987,"connected_time":1358000000000,"state":"active","ping":101},{"user_id":1050,"name":"aversa","steam_id":76561198840460101,"connected_time":1353000000000,"state":"active","ping":73},{"user_id":1052,"name":"Shnakes","steam_id":76561198201649518,"connected_time":1328000000000,"state":"active","ping":114},{"user_id":1018,"name":"ScoutBox","steam_id":76561198111539895,"connected_time":3124000000000,"state":"active","ping":95},{"user_id":1023,"name":"Subway Fan","steam_id":76561198336372790,"connected_time":3099000000000,"state":"active","ping":52}]},{"server_id":106,"name":"Uncletopia | Chicago | 2 | All Maps","name_short":"chi-2","host":"chi-1.us.uncletopia.com","port":27025,"enabled":true,"region":"us-central","cc":"us","latitude":41.881832,"longitude":-87.62318,"reserved":0,"last_update":"0001-01-01T00:00:00Z","name_a2s":"Uncletopia | Chicago | 2 | All Maps","protocol":17,"map":"pl_pier","folder":"tf","game":"Team Fortress","app_id":440,"player_count":12,"max_players":24,"Bots":0,"server_type":"Dedicated","server_os":"Linux","password":true,"vac":true,"version":"7757534","steam_id":85568392924469985,"keywords":["nocrits","nodmgspread","payload","uncletopia"],"game_id":440,"stv_port":27026,"stv_name":"Uncletopia | Chicago | 2 | All Maps | STV","players":[{"user_id":1068,"name":"INFINITE","steam_id":76561197971285557,"connected_time":297000000000,"state":"active","ping":64},{"user_id":1039,"name":"sneakysquid (real)","steam_id":76561198800721329,"connected_time":2920000000000,"state":"active","ping":84},{"user_id":1057,"name":"Random Dumbass","steam_id":76561198098144550,"connected_time":1605000000000,"state":"active","ping":96},{"user_id":1058,"name":"TrainTheSizeOfTheChryslerBuildi","steam_id":76561198053730310,"connected_time":1536000000000,"state":"active","ping":70},{"user_id":1072,"name":"White Noiz","steam_id":76561198116408865,"connected_time":84000000000,"state":"active","ping":68},{"user_id":1062,"name":"_DrunkenGibberish_","steam_id":76561199123070071,"connected_time":1109000000000,"state":"active","ping":94},{"user_id":1070,"name":"a catboy","steam_id":76561198819642001,"connected_time":231000000000,"state":"active","ping":74},{"user_id":1073,"name":"bolar pear","steam_id":76561198254222319,"connected_time":48000000000,"state":"active","ping":71},{"user_id":1054,"name":"dordaz76","steam_id":76561198216466729,"connected_time":1822000000000,"state":"active","ping":63},{"user_id":1059,"name":"Quandale Dingle","steam_id":76561198055068244,"connected_time":1516000000000,"state":"active","ping":55},{"user_id":1064,"name":"GhostCoffee","steam_id":76561198105228900,"connected_time":1069000000000,"state":"active","ping":49},{"user_id":1065,"name":"VX_","steam_id":76561198211529143,"connected_time":1019000000000,"state":"active","ping":72}]},{"server_id":402,"name":"Uncletopia | Chicago | 3 | All Maps","name_short":"chi-3","host":"chi-1.us.uncletopia.com","port":27035,"enabled":true,"region":"us-central","cc":"us","latitude":41.881832,"longitude":-87.62318,"reserved":0,"last_update":"0001-01-01T00:00:00Z","name_a2s":"Uncletopia | Chicago | 3 | All Maps","protocol":17,"map":"koth_cascade","folder":"tf","game":"Team Fortress","app_id":440,"player_count":0,"max_players":24,"Bots":0,"server_type":"Dedicated","server_os":"Linux","password":true,"vac":true,"version":"7757534","steam_id":85568392924515191,"keywords":["cp","nocrits","nodmgspread","uncletopia"],"game_id":440,"stv_port":27036,"stv_name":"Uncletopia | Chicago | 3 | All Maps | STV","players":null},{"server_id":403,"name":"Uncletopia | Chicago | 4 | All Maps","name_short":"chi-4","host":"chi-1.us.uncletopia.com","port":27045,"enabled":true,"region":"us-central","cc":"us","latitude":41.881832,"longitude":-87.62318,"reserved":0,"last_update":"0001-01-01T00:00:00Z","name_a2s":"Uncletopia | Chicago | 4 | All Maps","protocol":17,"map":"pl_badwater","folder":"tf","game":"Team Fortress","app_id":440,"player_count":15,"max_players":24,"Bots":0,"server_type":"Dedicated","server_os":"Linux","password":true,"vac":true,"version":"7757534","steam_id":85568392924515193,"keywords":["nocrits","nodmgspread","payload","uncletopia"],"game_id":440,"stv_port":27046,"stv_name":"Uncletopia | Chicago | 4 | All Maps | STV","players":[{"user_id":866,"name":"BustedRake","steam_id":76561198130489976,"connected_time":536000000000,"state":"active","ping":69},{"user_id":858,"name":"The New Chest Cutter","steam_id":76561199132268907,"connected_time":803000000000,"state":"active","ping":61},{"user_id":876,"name":"Bitter","steam_id":76561198146532457,"connected_time":8000000000,"state":"spawning","ping":60},{"user_id":840,"name":"dzcreeper","steam_id":76561198072250723,"connected_time":2368000000000,"state":"active","ping":74},{"user_id":875,"name":"Literally a Trans Woman","steam_id":76561198054639925,"connected_time":72000000000,"state":"active","ping":69},{"user_id":869,"name":"bare minimum","steam_id":76561198288482730,"connected_time":411000000000,"state":"active","ping":100},{"user_id":867,"name":"kramer","steam_id":76561198117761965,"connected_time":525000000000,"state":"active","ping":66},{"user_id":874,"name":"Seven_","steam_id":76561198098540255,"connected_time":80000000000,"state":"active","ping":134},{"user_id":855,"name":"Ghilo","steam_id":76561198010112441,"connected_time":1121000000000,"state":"active","ping":65},{"user_id":817,"name":"Huey","steam_id":76561198972816386,"connected_time":3794000000000,"state":"active","ping":66},{"user_id":857,"name":"some bloke from Chicago","steam_id":76561199218284628,"connected_time":940000000000,"state":"active","ping":64},{"user_id":872,"name":"served","steam_id":76561199438267625,"connected_time":296000000000,"state":"active","ping":100},{"user_id":837,"name":"warrior","steam_id":76561198074500319,"connected_time":2516000000000,"state":"active","ping":97},{"user_id":863,"name":"I'm Cloaked","steam_id":76561198039763676,"connected_time":637000000000,"state":"active","ping":58},{"user_id":864,"name":"jiim jaam","steam_id":76561198069814977,"connected_time":634000000000,"state":"active","ping":64}]},{"server_id":36,"name":"Uncletopia | Chicago | 5 | All Maps","name_short":"chi-5","host":"chi-2.us.uncletopia.com","port":27015,"enabled":true,"region":"us-central","cc":"us","latitude":41.881832,"longitude":-87.62318,"reserved":0,"last_update":"0001-01-01T00:00:00Z","name_a2s":"Uncletopia | Chicago | 5 | All Maps","protocol":17,"map":"koth_viaduct","folder":"tf","game":"Team Fortress","app_id":440,"player_count":0,"max_players":24,"Bots":0,"server_type":"Dedicated","server_os":"Linux","password":true,"vac":true,"version":"7757534","steam_id":85568392924866362,"keywords":["cp","nocrits","nodmgspread","uncletopia"],"game_id":440,"stv_port":27016,"stv_name":"Uncletopia | Chicago | 5 | All Maps | STV","players":null},{"server_id":37,"name":"Uncletopia | Chicago | 6 | All Maps","name_short":"chi-6","host":"chi-2.us.uncletopia.com","port":27025,"enabled":true,"region":"us-central","cc":"us","latitude":41.881832,"longitude":-87.62318,"reserved":0,"last_update":"0001-01-01T00:00:00Z","name_a2s":"Uncletopia | Chicago | 6 | All Maps","protocol":17,"map":"cp_sunshine","folder":"tf","game":"Team Fortress","app_id":440,"player_count":0,"max_players":24,"Bots":0,"server_type":"Dedicated","server_os":"Linux","password":true,"vac":true,"version":"7757534","steam_id":85568392924866363,"keywords":["cp","nocrits","nodmgspread","uncletopia"],"game_id":440,"stv_port":27026,"stv_name":"Uncletopia | Chicago | 6 | All Maps | STV","players":null},{"server_id":38,"name":"Uncletopia | Chicago | 7 | Stopwatch Beta","name_short":"chi-7","host":"chi-2.us.uncletopia.com","port":27035,"enabled":true,"region":"us-central","cc":"us","latitude":41.881832,"longitude":-87.62318,"reserved":0,"last_update":"0001-01-01T00:00:00Z","name_a2s":"Uncletopia | Chicago | 7 | Stopwatch Beta","protocol":17,"map":"workshop/pl_vigil_rc9.ugc1266210012","folder":"tf","game":"Team Fortress","app_id":440,"player_count":0,"max_players":24,"Bots":0,"server_type":"Dedicated","server_os":"Linux","password":true,"vac":true,"version":"7757534","steam_id":85568392924866364,"keywords":["nocrits","nodmgspread","payload","uncletopia"],"game_id":440,"stv_port":27036,"stv_name":"Uncletopia | Chicago | 7 | Stopwatch Beta | STV","players":null},{"server_id":39,"name":"Uncletopia | Chicago | 8 | Community","name_short":"chi-8","host":"chi-2.us.uncletopia.com","port":27045,"enabled":true,"region":"us-central","cc":"us","latitude":41.881832,"longitude":-87.62318,"reserved":0,"last_update":"0001-01-01T00:00:00Z","name_a2s":"Uncletopia | Chicago | 8 | Community","protocol":17,"map":"workshop/koth_bagel_rc5.ugc2514036946","folder":"tf","game":"Team Fortress","app_id":440,"player_count":0,"max_players":24,"Bots":0,"server_type":"Dedicated","server_os":"Linux","password":true,"vac":true,"version":"7757534","steam_id":85568392924866365,"keywords":["cp","nocrits","nodmgspread","uncletopia"],"game_id":440,"stv_port":27046,"stv_name":"Uncletopia | Chicago | 8 | Community | STV","players":null},{"server_id":8,"name":"Uncletopia | Dallas | 1 | All Maps","name_short":"dal-1","host":"dal-1.us.uncletopia.com","port":27015,"enabled":true,"region":"us-central","cc":"us","latitude":32.779167,"longitude":-96.80889,"reserved":0,"last_update":"0001-01-01T00:00:00Z","name_a2s":"Uncletopia | Dallas | 1 | All Maps","protocol":17,"map":"koth_highpass","folder":"tf","game":"Team Fortress","app_id":440,"player_count":0,"max_players":24,"Bots":0,"server_type":"Dedicated","server_os":"Linux","password":true,"vac":true,"version":"7757534","steam_id":85568392924469986,"keywords":["cp","nocrits","nodmgspread","uncletopia"],"game_id":440,"stv_port":27016,"stv_name":"Uncletopia | Dallas | 1 | All Maps | STV","players":null},{"server_id":108,"name":"Uncletopia | Dallas | 2 | All Maps","name_short":"dal-2","host":"dal-1.us.uncletopia.com","port":27025,"enabled":true,"region":"us-central","cc":"us","latitude":32.779167,"longitude":-96.80889,"reserved":0,"last_update":"0001-01-01T00:00:00Z","name_a2s":"Uncletopia | Dallas | 2 | All Maps","protocol":17,"map":"pl_barnblitz","folder":"tf","game":"Team Fortress","app_id":440,"player_count":0,"max_players":24,"Bots":0,"server_type":"Dedicated","server_os":"Linux","password":true,"vac":true,"version":"7757534","steam_id":85568392924469988,"keywords":["nocrits","nodmgspread","payload","uncletopia"],"game_id":440,"stv_port":27026,"stv_name":"Uncletopia | Dallas | 2 | All Maps | STV","players":null},{"server_id":5,"name":"Uncletopia | Frankfurt | 1 | All Maps","name_short":"frk-1","host":"frk-1.de.uncletopia.com","port":27015,"enabled":true,"region":"eu","cc":"de","latitude":50.110924,"longitude":8.682127,"reserved":0,"last_update":"0001-01-01T00:00:00Z","name_a2s":"Uncletopia | Frankfurt | 1 | All Maps","protocol":17,"map":"pl_snowycoast","folder":"tf","game":"Team Fortress","app_id":440,"player_count":24,"max_players":24,"Bots":0,"server_type":"Dedicated","server_os":"Linux","password":true,"vac":true,"version":"7757534","steam_id":85568392924469989,"keywords":["nocrits","nodmgspread","payload","uncletopia"],"game_id":440,"stv_port":27016,"stv_name":"Uncletopia | Frankfurt | 1 | All Maps | STV","players":[{"user_id":104,"name":"simon","steam_id":76561198880361394,"connected_time":1155000000000,"state":"active","ping":48},{"user_id":99,"name":"TonTon","steam_id":76561198145468895,"connected_time":1416000000000,"state":"active","ping":51},{"user_id":109,"name":"PLUTO","steam_id":76561198312436128,"connected_time":785000000000,"state":"active","ping":121},{"user_id":65,"name":"flora","steam_id":76561197994492154,"connected_time":3839000000000,"state":"active","ping":67},{"user_id":110,"name":"Icaras","steam_id":76561198416724843,"connected_time":738000000000,"state":"active","ping":53},{"user_id":16,"name":"Orochi","steam_id":76561198265192382,"connected_time":6507000000000,"state":"active","ping":64},{"user_id":115,"name":"G/3","steam_id":76561198234844188,"connected_time":261000000000,"state":"active","ping":59},{"user_id":106,"name":"󠀡󠀡","steam_id":76561198015585266,"connected_time":864000000000,"state":"active","ping":85},{"user_id":112,"name":"Mata_FM11","steam_id":76561198044824504,"connected_time":726000000000,"state":"active","ping":58},{"user_id":35,"name":"Kazz","steam_id":76561199055163044,"connected_time":5882000000000,"state":"active","ping":68},{"user_id":78,"name":"toust","steam_id":76561199103417422,"connected_time":3018000000000,"state":"active","ping":47},{"user_id":95,"name":"HwK!","steam_id":76561198287835588,"connected_time":1954000000000,"state":"active","ping":88},{"user_id":26,"name":"Tamamo","steam_id":76561198116789623,"connected_time":6096000000000,"state":"active","ping":59},{"user_id":87,"name":"FlameTheGame","steam_id":76561198841108519,"connected_time":2268000000000,"state":"active","ping":89},{"user_id":98,"name":"murderwow","steam_id":76561198024566944,"connected_time":1459000000000,"state":"active","ping":102},{"user_id":113,"name":"Jonathan Toenail","steam_id":76561198134665611,"connected_time":722000000000,"state":"active","ping":76},{"user_id":90,"name":"2D","steam_id":76561199113659141,"connected_time":2024000000000,"state":"active","ping":127},{"user_id":96,"name":"Canis[Magnus]Pectus","steam_id":76561198363775072,"connected_time":1655000000000,"state":"active","ping":118},{"user_id":86,"name":"Zogg","steam_id":76561198352683491,"connected_time":2310000000000,"state":"active","ping":55},{"user_id":97,"name":"САНЯ ВОДІЛА","steam_id":76561198343380238,"connected_time":1478000000000,"state":"active","ping":78},{"user_id":85,"name":"ChaserFogFi","steam_id":76561199119836596,"connected_time":2421000000000,"state":"active","ping":148},{"user_id":102,"name":"Johnny Sack","steam_id":76561198364121077,"connected_time":1216000000000,"state":"active","ping":100},{"user_id":89,"name":"KajaStorm","steam_id":76561199215842872,"connected_time":2050000000000,"state":"active","ping":127},{"user_id":94,"name":"Merc","steam_id":76561198044864067,"connected_time":1967000000000,"state":"active","ping":70}]},{"server_id":110,"name":"Uncletopia | Frankfurt | 2 | All Maps","name_short":"frk-2","host":"frk-1.de.uncletopia.com","port":27025,"enabled":true,"region":"eu","cc":"de","latitude":50.110924,"longitude":8.682127,"reserved":0,"last_update":"0001-01-01T00:00:00Z","name_a2s":"Uncletopia | Frankfurt | 2 | All Maps","protocol":17,"map":"pl_barnblitz","folder":"tf","game":"Team Fortress","app_id":440,"player_count":24,"max_players":24,"Bots":0,"server_type":"Dedicated","server_os":"Linux","password":true,"vac":true,"version":"7757534","steam_id":85568392924469990,"keywords":["nocrits","nodmgspread","payload","uncletopia"],"game_id":440,"stv_port":27026,"stv_name":"Uncletopia | Frankfurt | 2 | All Maps | STV","players":[{"user_id":81,"name":"jovi_","steam_id":76561198449280552,"connected_time":885000000000,"state":"active","ping":62},{"user_id":77,"name":"ツクヨミノミコト","steam_id":76561198842270384,"connected_time":1008000000000,"state":"active","ping":91},{"user_id":87,"name":"nobody","steam_id":76561198180637374,"connected_time":115000000000,"state":"active","ping":80},{"user_id":74,"name":"Oceanic | tuesday maybe","steam_id":76561197979741827,"connected_time":1306000000000,"state":"active","ping":64},{"user_id":54,"name":"Hooggers","steam_id":76561198120447741,"connected_time":2819000000000,"state":"active","ping":85},{"user_id":78,"name":"Rasta Moose","steam_id":76561198009747646,"connected_time":935000000000,"state":"active","ping":112},{"user_id":66,"name":"JGV","steam_id":76561198094654971,"connected_time":1742000000000,"state":"active","ping":66},{"user_id":83,"name":"Guy with squares as username","steam_id":76561198269524918,"connected_time":534000000000,"state":"active","ping":57},{"user_id":51,"name":"Nick","steam_id":76561198036109469,"connected_time":2942000000000,"state":"active","ping":90},{"user_id":43,"name":"Gorlami","steam_id":76561198139623088,"connected_time":3358000000000,"state":"active","ping":81},{"user_id":15,"name":"Sauce™","steam_id":76561198155094400,"connected_time":4470000000000,"state":"active","ping":53},{"user_id":84,"name":"GigaGuenther","steam_id":76561198257633868,"connected_time":519000000000,"state":"active","ping":64},{"user_id":85,"name":"JohnTraveltime","steam_id":76561199244281754,"connected_time":510000000000,"state":"active","ping":80},{"user_id":86,"name":"árvíztűrő tükörfúrógép","steam_id":76561198296643061,"connected_time":221000000000,"state":"active","ping":65},{"user_id":76,"name":"The Wolf Leader","steam_id":76561198038007462,"connected_time":1088000000000,"state":"active","ping":66},{"user_id":79,"name":"You slumber","steam_id":76561198344639692,"connected_time":929000000000,"state":"active","ping":94},{"user_id":82,"name":"bluemoon","steam_id":76561198097713633,"connected_time":734000000000,"state":"active","ping":73},{"user_id":26,"name":"clems17","steam_id":76561199420685482,"connected_time":4062000000000,"state":"active","ping":54},{"user_id":62,"name":"Hetmanych","steam_id":76561198870926865,"connected_time":2050000000000,"state":"active","ping":55},{"user_id":37,"name":"TTV/pablo_ricco","steam_id":76561198279839318,"connected_time":3768000000000,"state":"active","ping":87},{"user_id":65,"name":"Tata Cobraz0r","steam_id":76561198017693962,"connected_time":1763000000000,"state":"active","ping":84},{"user_id":30,"name":"bombo112","steam_id":76561198059743551,"connected_time":4027000000000,"state":"active","ping":91},{"user_id":56,"name":"NIKITA","steam_id":76561197992927989,"connected_time":2792000000000,"state":"active","ping":91},{"user_id":80,"name":"skeleton_archer_1","steam_id":76561198407636430,"connected_time":916000000000,"state":"active","ping":90}]},{"server_id":308,"name":"Uncletopia | Frankfurt | 3 | All Maps","name_short":"frk-3","host":"frk-1.de.uncletopia.com","port":27035,"enabled":true,"region":"eu","cc":"de","latitude":50.110924,"longitude":8.682127,"reserved":0,"last_update":"0001-01-01T00:00:00Z","name_a2s":"Uncletopia | Frankfurt | 3 | All Maps","protocol":17,"map":"koth_highpass","folder":"tf","game":"Team Fortress","app_id":440,"player_count":0,"max_players":24,"Bots":0,"server_type":"Dedicated","server_os":"Linux","password":true,"vac":true,"version":"7757534","steam_id":85568392924504274,"keywords":["cp","nocrits","nodmgspread","uncletopia"],"game_id":440,"stv_port":27036,"stv_name":"Uncletopia | Frankfurt | 3 | All Maps | STV","players":null},{"server_id":309,"name":"Uncletopia | Frankfurt | 4 | All Maps","name_short":"frk-4","host":"frk-1.de.uncletopia.com","port":27045,"enabled":true,"region":"eu","cc":"de","latitude":50.110924,"longitude":8.682127,"reserved":0,"last_update":"0001-01-01T00:00:00Z","name_a2s":"Uncletopia | Frankfurt | 4 | All Maps","protocol":17,"map":"pl_snowycoast","folder":"tf","game":"Team Fortress","app_id":440,"player_count":0,"max_players":24,"Bots":0,"server_type":"Dedicated","server_os":"Linux","password":true,"vac":true,"version":"7757534","steam_id":85568392924504275,"keywords":["nocrits","nodmgspread","payload","uncletopia"],"game_id":440,"stv_port":27046,"stv_name":"Uncletopia | Frankfurt | 4 | All Maps | STV","players":null},{"server_id":310,"name":"Uncletopia | Frankfurt | 5 | All Maps","name_short":"frk-5","host":"frk-1.de.uncletopia.com","port":27055,"enabled":true,"region":"eu","cc":"de","latitude":50.110924,"longitude":8.682127,"reserved":0,"last_update":"0001-01-01T00:00:00Z","name_a2s":"Uncletopia | Frankfurt | 5 | All Maps","protocol":17,"map":"cp_altitude","folder":"tf","game":"Team Fortress","app_id":440,"player_count":0,"max_players":24,"Bots":0,"server_type":"Dedicated","server_os":"Linux","password":true,"vac":true,"version":"7757534","steam_id":85568392924504277,"keywords":["cp","nocrits","nodmgspread","uncletopia"],"game_id":440,"stv_port":27056,"stv_name":"Uncletopia | Frankfurt | 5 | All Maps | STV","players":null},{"server_id":311,"name":"Uncletopia | Frankfurt | 6 | All Maps","name_short":"frk-6","host":"frk-1.de.uncletopia.com","port":27065,"enabled":true,"region":"eu","cc":"de","latitude":50.110924,"longitude":8.682127,"reserved":0,"last_update":"0001-01-01T00:00:00Z","name_a2s":"Uncletopia | Frankfurt | 6 | All Maps","protocol":17,"map":"koth_highpass","folder":"tf","game":"Team Fortress","app_id":440,"player_count":0,"max_players":24,"Bots":0,"server_type":"Dedicated","server_os":"Linux","password":true,"vac":true,"version":"7757534","steam_id":85568392924504278,"keywords":["cp","nocrits","nodmgspread","uncletopia"],"game_id":440,"stv_port":27066,"stv_name":"Uncletopia | Frankfurt | 6 | All Maps | STV","players":null},{"server_id":23,"name":"Uncletopia | Frankfurt | 7 | Stopwatch Beta","name_short":"frk-7","host":"frk-1.de.uncletopia.com","port":27075,"enabled":true,"region":"eu","cc":"de","latitude":50.110924,"longitude":8.682127,"reserved":0,"last_update":"0001-01-01T00:00:00Z","name_a2s":"Uncletopia | Frankfurt | 7 | Stopwatch Beta","protocol":17,"map":"pl_borneo","folder":"tf","game":"Team Fortress","app_id":440,"player_count":0,"max_players":24,"Bots":0,"server_type":"Dedicated","server_os":"Linux","password":true,"vac":true,"version":"7757534","steam_id":85568392924742827,"keywords":["nocrits","nodmgspread","payload","uncletopia"],"game_id":440,"stv_port":27076,"stv_name":"Uncletopia | Frankfurt | 7 | Stopwatch Beta | STV","players":null},{"server_id":24,"name":"Uncletopia | Frankfurt | 8 | Community","name_short":"frk-8","host":"frk-1.de.uncletopia.com","port":27085,"enabled":true,"region":"eu","cc":"de","latitude":50.110924,"longitude":8.682127,"reserved":0,"last_update":"0001-01-01T00:00:00Z","name_a2s":"Uncletopia | Frankfurt | 8 | Community","protocol":17,"map":"koth_cascade","folder":"tf","game":"Team Fortress","app_id":440,"player_count":0,"max_players":24,"Bots":0,"server_type":"Dedicated","server_os":"Linux","password":true,"vac":true,"version":"7757534","steam_id":85568392924742828,"keywords":["cp","nocrits","nodmgspread","uncletopia"],"game_id":440,"stv_port":27086,"stv_name":"Uncletopia | Frankfurt | 8 | Community | STV","players":null},{"server_id":202,"name":"Uncletopia | Hong Kong | 1 | All Maps","name_short":"hgk-1","host":"hgk-1.hk.uncletopia.com","port":27015,"enabled":true,"region":"asia","cc":"hk","latitude":22.302711,"longitude":114.177216,"reserved":0,"last_update":"0001-01-01T00:00:00Z","name_a2s":"Uncletopia | Hong Kong | 1 | All Maps","protocol":17,"map":"pl_badwater","folder":"tf","game":"Team Fortress","app_id":440,"player_count":23,"max_players":24,"Bots":0,"server_type":"Dedicated","server_os":"Linux","password":true,"vac":true,"version":"7757534","steam_id":85568392924494504,"keywords":["nocrits","nodmgspread","payload","uncletopia"],"game_id":440,"stv_port":27016,"stv_name":"Uncletopia | Hong Kong | 1 | All Maps | STV","players":[{"user_id":344,"name":"sierra","steam_id":76561197969873415,"connected_time":3720000000000,"state":"active","ping":101},{"user_id":286,"name":"帕","steam_id":76561198439343999,"connected_time":7571000000000,"state":"active","ping":74},{"user_id":353,"name":"help me","steam_id":76561198339657566,"connected_time":2805000000000,"state":"active","ping":138},{"user_id":340,"name":"SunShine","steam_id":76561198323642446,"connected_time":3744000000000,"state":"active","ping":106},{"user_id":389,"name":"UltraFat","steam_id":76561198253918132,"connected_time":60000000000,"state":"active","ping":86},{"user_id":347,"name":"Iron Bomber!!!","steam_id":76561198203073201,"connected_time":3707000000000,"state":"active","ping":72},{"user_id":375,"name":"マグナス","steam_id":76561198208990721,"connected_time":1382000000000,"state":"active","ping":167},{"user_id":354,"name":"qb","steam_id":76561198412329672,"connected_time":2803000000000,"state":"active","ping":99},{"user_id":381,"name":"boxnet","steam_id":76561198411165133,"connected_time":528000000000,"state":"active","ping":73},{"user_id":386,"name":"proxe","steam_id":76561199198599971,"connected_time":169000000000,"state":"active","ping":96},{"user_id":350,"name":"Peter Python","steam_id":76561198353760830,"connected_time":3474000000000,"state":"active","ping":132},{"user_id":387,"name":"wota bota","steam_id":76561198173345911,"connected_time":157000000000,"state":"active","ping":91},{"user_id":376,"name":"Noyour","steam_id":76561198323259830,"connected_time":1363000000000,"state":"active","ping":114},{"user_id":306,"name":"Bertengkar","steam_id":76561198213031155,"connected_time":5344000000000,"state":"active","ping":99},{"user_id":358,"name":"let cook","steam_id":76561198055553140,"connected_time":2753000000000,"state":"active","ping":79},{"user_id":383,"name":"Bernard Bear","steam_id":76561199229248492,"connected_time":490000000000,"state":"active","ping":83},{"user_id":377,"name":"niceguy6785","steam_id":76561199442589750,"connected_time":1187000000000,"state":"active","ping":63},{"user_id":382,"name":"AmaiToxic","steam_id":76561199122491157,"connected_time":523000000000,"state":"active","ping":133},{"user_id":296,"name":"greeny","steam_id":76561198024666371,"connected_time":6845000000000,"state":"active","ping":94},{"user_id":179,"name":"loreley","steam_id":76561198230213828,"connected_time":19879000000000,"state":"active","ping":61},{"user_id":284,"name":"Urotsuki","steam_id":76561198074339034,"connected_time":8039000000000,"state":"active","ping":75},{"user_id":351,"name":"\u003c\u003cDunce](:-p)-|---\u003c","steam_id":76561199190321580,"connected_time":2830000000000,"state":"active","ping":73},{"user_id":379,"name":"momosneakeradventure","steam_id":76561199046440440,"connected_time":539000000000,"state":"active","ping":45}]},{"server_id":1,"name":"Uncletopia | Los Angeles | 1 | All Maps","name_short":"lax-1","host":"lax-1.us.uncletopia.com","port":27015,"enabled":true,"region":"us-west","cc":"us","latitude":33.94279,"longitude":-118.41004,"reserved":0,"last_update":"0001-01-01T00:00:00Z","name_a2s":"Uncletopia | Los Angeles | 1 | All Maps","protocol":17,"map":"cp_sunshine","folder":"tf","game":"Team Fortress","app_id":440,"player_count":0,"max_players":24,"Bots":0,"server_type":"Dedicated","server_os":"Linux","password":true,"vac":true,"version":"7757534","steam_id":85568392924469991,"keywords":["cp","nocrits","nodmgspread","uncletopia"],"game_id":440,"stv_port":27016,"stv_name":"Uncletopia | Los Angeles | 1 | All Maps | STV","players":null},{"server_id":112,"name":"Uncletopia | Los Angeles | 2 | All Maps","name_short":"lax-2","host":"lax-1.us.uncletopia.com","port":27025,"enabled":true,"region":"us-west","cc":"us","latitude":33.94279,"longitude":-118.41004,"reserved":0,"last_update":"0001-01-01T00:00:00Z","name_a2s":"Uncletopia | Los Angeles | 2 | All Maps","protocol":17,"map":"pl_badwater","folder":"tf","game":"Team Fortress","app_id":440,"player_count":24,"max_players":24,"Bots":0,"server_type":"Dedicated","server_os":"Linux","password":true,"vac":true,"version":"7757534","steam_id":85568392924469992,"keywords":["nocrits","nodmgspread","payload","uncletopia"],"game_id":440,"stv_port":27026,"stv_name":"Uncletopia | Los Angeles | 2 | All Maps | STV","players":[{"user_id":373,"name":"Dauntless Duelist","steam_id":76561198025056018,"connected_time":5232000000000,"state":"active","ping":74},{"user_id":407,"name":"SuaveFrenchman","steam_id":76561198043762683,"connected_time":946000000000,"state":"active","ping":46},{"user_id":386,"name":"w key + left click + spacebar","steam_id":76561198319442494,"connected_time":3457000000000,"state":"active","ping":56},{"user_id":388,"name":"nella","steam_id":76561198079349621,"connected_time":2937000000000,"state":"active","ping":58},{"user_id":408,"name":"Greenpikmin","steam_id":76561198137310107,"connected_time":733000000000,"state":"active","ping":49},{"user_id":387,"name":"monjiro","steam_id":76561198239598834,"connected_time":3184000000000,"state":"active","ping":99},{"user_id":294,"name":"delight","steam_id":76561197980280272,"connected_time":10906000000000,"state":"active","ping":74},{"user_id":410,"name":"Joe Burrow Appreciator","steam_id":76561198142420107,"connected_time":526000000000,"state":"active","ping":47},{"user_id":400,"name":"SanitysEdge","steam_id":76561198130732813,"connected_time":2053000000000,"state":"active","ping":47},{"user_id":390,"name":"daemon","steam_id":76561198001541433,"connected_time":2884000000000,"state":"active","ping":119},{"user_id":401,"name":"Large Charles","steam_id":76561197999663001,"connected_time":2052000000000,"state":"active","ping":76},{"user_id":351,"name":"everythingrhymeswithorange","steam_id":76561198010306193,"connected_time":6595000000000,"state":"active","ping":61},{"user_id":360,"name":"rorywashere /ᐠ - ˕ -マ Ⳋ","steam_id":76561198065825165,"connected_time":6064000000000,"state":"active","ping":98},{"user_id":411,"name":"thespringbunny","steam_id":76561198453680089,"connected_time":452000000000,"state":"active","ping":64},{"user_id":261,"name":"p9 squash","steam_id":76561198150281353,"connected_time":13489000000000,"state":"active","ping":88},{"user_id":382,"name":"rice white","steam_id":76561198320732910,"connected_time":3965000000000,"state":"active","ping":119},{"user_id":380,"name":"Sterling Nano","steam_id":76561198048580088,"connected_time":4100000000000,"state":"active","ping":104},{"user_id":395,"name":"Totally Not a Potato","steam_id":76561198062288913,"connected_time":2353000000000,"state":"active","ping":59},{"user_id":409,"name":"jovial","steam_id":76561198297130941,"connected_time":572000000000,"state":"active","ping":55},{"user_id":375,"name":"Altoids?","steam_id":76561197997323720,"connected_time":4944000000000,"state":"active","ping":94},{"user_id":399,"name":"IggyYT","steam_id":76561198317980567,"connected_time":2074000000000,"state":"active","ping":114},{"user_id":412,"name":"Thaatsovietguy","steam_id":76561199262265522,"connected_time":230000000000,"state":"active","ping":93},{"user_id":383,"name":"xMystic_Fire","steam_id":76561198189961543,"connected_time":3938000000000,"state":"active","ping":85},{"user_id":385,"name":"p9 jorts","steam_id":76561199041179985,"connected_time":3626000000000,"state":"active","ping":92}]},{"server_id":324,"name":"Uncletopia | Los Angeles | 3 | All Maps","name_short":"lax-3","host":"lax-1.us.uncletopia.com","port":27035,"enabled":true,"region":"us-west","cc":"us","latitude":33.94279,"longitude":-118.41004,"reserved":0,"last_update":"0001-01-01T00:00:00Z","name_a2s":"Uncletopia | Los Angeles | 3 | All Maps","protocol":17,"map":"cp_sunshine","folder":"tf","game":"Team Fortress","app_id":440,"player_count":0,"max_players":24,"Bots":0,"server_type":"Dedicated","server_os":"Linux","password":true,"vac":true,"version":"7757534","steam_id":85568392924510198,"keywords":["cp","nocrits","nodmgspread","uncletopia"],"game_id":440,"stv_port":27036,"stv_name":"Uncletopia | Los Angeles | 3 | All Maps | STV","players":null},{"server_id":25,"name":"Uncletopia | Los Angeles | 4 | Stopwatch Beta","name_short":"lax-4","host":"lax-1.us.uncletopia.com","port":27045,"enabled":true,"region":"us-west","cc":"us","latitude":33.94279,"longitude":-118.41004,"reserved":0,"last_update":"0001-01-01T00:00:00Z","name_a2s":"Uncletopia | Los Angeles | 4 | Stopwatch Beta","protocol":17,"map":"koth_viaduct","folder":"tf","game":"Team Fortress","app_id":440,"player_count":0,"max_players":24,"Bots":0,"server_type":"Dedicated","server_os":"Linux","password":true,"vac":true,"version":"7757534","steam_id":85568392924510199,"keywords":["cp","nocrits","nodmgspread","uncletopia"],"game_id":440,"stv_port":27046,"stv_name":"Uncletopia | Los Angeles | 4 | Stopwatch Beta | STV","players":null},{"server_id":11,"name":"Uncletopia | London | 1 | All Maps","name_short":"lon-1","host":"lon-1.uk.uncletopia.com","port":27015,"enabled":true,"region":"eu","cc":"gb","latitude":51.509865,"longitude":-0.118092,"reserved":0,"last_update":"0001-01-01T00:00:00Z","name_a2s":"Uncletopia | London | 1 | All Maps","protocol":17,"map":"cp_steel","folder":"tf","game":"Team Fortress","app_id":440,"player_count":24,"max_players":24,"Bots":0,"server_type":"Dedicated","server_os":"Linux","password":true,"vac":true,"version":"7757534","steam_id":85568392924367362,"keywords":["cp","nocrits","nodmgspread","uncletopia"],"game_id":440,"stv_port":27016,"stv_name":"Uncletopia | London | 1 | All Maps | STV","players":[{"user_id":51,"name":"santi","steam_id":76561199074895719,"connected_time":3197000000000,"state":"active","ping":112},{"user_id":70,"name":"cob","steam_id":76561199303622823,"connected_time":2686000000000,"state":"active","ping":64},{"user_id":90,"name":"alex47ka","steam_id":76561198117847251,"connected_time":1409000000000,"state":"active","ping":77},{"user_id":95,"name":"lvl. 50 honkler","steam_id":76561198061688660,"connected_time":1248000000000,"state":"active","ping":149},{"user_id":88,"name":"yeas","steam_id":76561198402092256,"connected_time":1445000000000,"state":"active","ping":117},{"user_id":15,"name":"poliakov.noam","steam_id":76561199259322961,"connected_time":5225000000000,"state":"active","ping":101},{"user_id":102,"name":"Alforholig","steam_id":76561198115546320,"connected_time":416000000000,"state":"active","ping":91},{"user_id":92,"name":"ZeeZer0","steam_id":76561198043828441,"connected_time":1375000000000,"state":"active","ping":46},{"user_id":103,"name":"Wedgeridoo","steam_id":76561198082813907,"connected_time":262000000000,"state":"active","ping":101},{"user_id":59,"name":"bee","steam_id":76561198025553902,"connected_time":3038000000000,"state":"active","ping":138},{"user_id":84,"name":"lusik","steam_id":76561199239168617,"connected_time":1820000000000,"state":"active","ping":75},{"user_id":80,"name":"Himmelsstürmer","steam_id":76561198012699793,"connected_time":1955000000000,"state":"active","ping":86},{"user_id":104,"name":"[CiC] FU2Max","steam_id":76561197960282327,"connected_time":204000000000,"state":"active","ping":44},{"user_id":71,"name":"cyx","steam_id":76561199316310715,"connected_time":2685000000000,"state":"active","ping":93},{"user_id":66,"name":"Meet the sissy of tf2","steam_id":76561199467551436,"connected_time":2821000000000,"state":"active","ping":87},{"user_id":93,"name":"Captain Mac","steam_id":76561197971973906,"connected_time":1365000000000,"state":"active","ping":48},{"user_id":96,"name":"totally not foof","steam_id":76561198308439257,"connected_time":1187000000000,"state":"active","ping":46},{"user_id":73,"name":"LOBZIK","steam_id":76561198114830120,"connected_time":2662000000000,"state":"active","ping":77},{"user_id":32,"name":"Marcos","steam_id":76561198798925721,"connected_time":4733000000000,"state":"active","ping":84},{"user_id":78,"name":"Lenny","steam_id":76561198056067073,"connected_time":2259000000000,"state":"active","ping":100},{"user_id":82,"name":"Gamer","steam_id":76561198032359132,"connected_time":1914000000000,"state":"active","ping":45},{"user_id":45,"name":"MtnDew","steam_id":76561199100059743,"connected_time":3669000000000,"state":"active","ping":108},{"user_id":36,"name":"oepidus","steam_id":76561198963841479,"connected_time":4625000000000,"state":"active","ping":91},{"user_id":101,"name":"disposablesuperbread","steam_id":76561199074703607,"connected_time":770000000000,"state":"active","ping":83}]},{"server_id":114,"name":"Uncletopia | London | 2 | All Maps","name_short":"lon-2","host":"lon-1.uk.uncletopia.com","port":27025,"enabled":true,"region":"eu","cc":"gb","latitude":51.509865,"longitude":-0.118092,"reserved":0,"last_update":"0001-01-01T00:00:00Z","name_a2s":"Uncletopia | London | 2 | All Maps","protocol":17,"map":"cp_process_final","folder":"tf","game":"Team Fortress","app_id":440,"player_count":24,"max_players":24,"Bots":0,"server_type":"Dedicated","server_os":"Linux","password":true,"vac":true,"version":"7757534","steam_id":85568392924470941,"keywords":["cp","nocrits","nodmgspread","uncletopia"],"game_id":440,"stv_port":27026,"stv_name":"Uncletopia | London | 2 | All Maps | STV","players":[{"user_id":249,"name":"101 000 tuns of democracy","steam_id":76561198218257120,"connected_time":1312000000000,"state":"active","ping":75},{"user_id":221,"name":"`Fox","steam_id":76561198079000692,"connected_time":2947000000000,"state":"active","ping":145},{"user_id":216,"name":"TheGreenWolf","steam_id":76561198170607033,"connected_time":3342000000000,"state":"active","ping":70},{"user_id":254,"name":"Hansi","steam_id":76561198035577047,"connected_time":748000000000,"state":"active","ping":68},{"user_id":240,"name":"wasto-/-™","steam_id":76561198102888038,"connected_time":1585000000000,"state":"active","ping":58},{"user_id":232,"name":"tonedude","steam_id":76561198280837376,"connected_time":2251000000000,"state":"active","ping":50},{"user_id":252,"name":"Florua","steam_id":76561198182297846,"connected_time":1204000000000,"state":"active","ping":68},{"user_id":245,"name":"Taez","steam_id":76561198261820803,"connected_time":1399000000000,"state":"active","ping":69},{"user_id":162,"name":"_zipfile","steam_id":76561198066133808,"connected_time":7068000000000,"state":"active","ping":65},{"user_id":224,"name":"erobrine2","steam_id":76561198173218318,"connected_time":2871000000000,"state":"active","ping":45},{"user_id":235,"name":"Noelle Gaming","steam_id":76561198244936556,"connected_time":1963000000000,"state":"active","ping":105},{"user_id":239,"name":"Deva Path","steam_id":76561198085763542,"connected_time":1606000000000,"state":"active","ping":85},{"user_id":16,"name":"Pineapple Okanつ ◕_◕ ༽\ufffd\ufffd","steam_id":76561198069199449,"connected_time":16289000000000,"state":"active","ping":111},{"user_id":223,"name":"NABER","steam_id":76561198831465151,"connected_time":2905000000000,"state":"active","ping":87},{"user_id":253,"name":"Pancakes","steam_id":76561198196259989,"connected_time":1203000000000,"state":"active","ping":49},{"user_id":230,"name":"crat","steam_id":76561198401398502,"connected_time":2439000000000,"state":"active","ping":103},{"user_id":242,"name":"bad at tf2 episode 2","steam_id":76561198002451113,"connected_time":1549000000000,"state":"active","ping":96},{"user_id":243,"name":"Grinch Gun","steam_id":76561198097789669,"connected_time":1530000000000,"state":"active","ping":67},{"user_id":227,"name":"dAg CS ⇄ TF2","steam_id":76561198047819527,"connected_time":2756000000000,"state":"active","ping":115},{"user_id":244,"name":"Gandhi the Grater","steam_id":76561198051198555,"connected_time":1511000000000,"state":"active","ping":54},{"user_id":220,"name":"aGreedGryphon","steam_id":76561198245175308,"connected_time":2951000000000,"state":"active","ping":56},{"user_id":228,"name":"The Dark Destoryer","steam_id":76561198831440921,"connected_time":2745000000000,"state":"active","ping":29},{"user_id":255,"name":"Asfreild","steam_id":76561198055901120,"connected_time":156000000000,"state":"active","ping":74},{"user_id":215,"name":"no bitches nigusman","steam_id":76561199466723428,"connected_time":3430000000000,"state":"active","ping":90}]},{"server_id":320,"name":"Uncletopia | London | 3 | All Maps","name_short":"lon-3","host":"lon-1.uk.uncletopia.com","port":27035,"enabled":true,"region":"eu","cc":"gb","latitude":51.509865,"longitude":-0.118092,"reserved":0,"last_update":"0001-01-01T00:00:00Z","name_a2s":"Uncletopia | London | 3 | All Maps","protocol":17,"map":"pl_snowycoast","folder":"tf","game":"Team Fortress","app_id":440,"player_count":0,"max_players":24,"Bots":0,"server_type":"Dedicated","server_os":"Linux","password":true,"vac":true,"version":"7757534","steam_id":85568392924510192,"keywords":["nocrits","nodmgspread","payload","uncletopia"],"game_id":440,"stv_port":27036,"stv_name":"Uncletopia | London | 3 | All Maps | STV","players":null},{"server_id":321,"name":"Uncletopia | London | 4 | All Maps","name_short":"lon-4","host":"lon-1.uk.uncletopia.com","port":27045,"enabled":true,"region":"eu","cc":"gb","latitude":51.509865,"longitude":-0.118092,"reserved":0,"last_update":"0001-01-01T00:00:00Z","name_a2s":"Uncletopia | London | 4 | All Maps","protocol":17,"map":"cp_snakewater_final1","folder":"tf","game":"Team Fortress","app_id":440,"player_count":0,"max_players":24,"Bots":0,"server_type":"Dedicated","server_os":"Linux","password":true,"vac":true,"version":"7757534","steam_id":85568392924510193,"keywords":["cp","nocrits","nodmgspread","uncletopia"],"game_id":440,"stv_port":27046,"stv_name":"Uncletopia | London | 4 | All Maps | STV","players":null},{"server_id":21,"name":"Uncletopia | London | 5 | All Maps","name_short":"lon-5","host":"lon-1.uk.uncletopia.com","port":27055,"enabled":true,"region":"eu","cc":"gb","latitude":51.509865,"longitude":-0.118092,"reserved":0,"last_update":"0001-01-01T00:00:00Z","name_a2s":"Uncletopia | London | 5 | All Maps","protocol":17,"map":"cp_altitude","folder":"tf","game":"Team Fortress","app_id":440,"player_count":0,"max_players":24,"Bots":0,"server_type":"Dedicated","server_os":"Linux","password":true,"vac":true,"version":"7757534","steam_id":85568392924742829,"keywords":["cp","nocrits","nodmgspread","uncletopia"],"game_id":440,"stv_port":27056,"stv_name":"Uncletopia | London | 5 | All Maps | STV","players":null},{"server_id":22,"name":"Uncletopia | London | 6 | All Maps","name_short":"lon-6","host":"lon-1.uk.uncletopia.com","port":27065,"enabled":true,"region":"eu","cc":"gb","latitude":51.509865,"longitude":-0.118092,"reserved":0,"last_update":"0001-01-01T00:00:00Z","name_a2s":"Uncletopia | London | 6 | All Maps","protocol":17,"map":"koth_cascade","folder":"tf","game":"Team Fortress","app_id":440,"player_count":24,"max_players":24,"Bots":0,"server_type":"Dedicated","server_os":"Linux","password":true,"vac":true,"version":"7757534","steam_id":85568392924742830,"keywords":["cp","nocrits","nodmgspread","uncletopia"],"game_id":440,"stv_port":27066,"stv_name":"Uncletopia | London | 6 | All Maps | STV","players":[{"user_id":42,"name":"Space Rimmer","steam_id":76561198069243201,"connected_time":708000000000,"state":"active","ping":45},{"user_id":44,"name":"icebear85","steam_id":76561198838438281,"connected_time":551000000000,"state":"active","ping":84},{"user_id":15,"name":"Ultimis the TBH Creature","steam_id":76561198217182993,"connected_time":1970000000000,"state":"active","ping":66},{"user_id":6,"name":"romaingallo","steam_id":76561198268112907,"connected_time":2385000000000,"state":"active","ping":57},{"user_id":54,"name":"bAdmon","steam_id":76561197961785793,"connected_time":269000000000,"state":"active","ping":56},{"user_id":45,"name":"Xilef TV","steam_id":76561198454267023,"connected_time":551000000000,"state":"active","ping":84},{"user_id":16,"name":"Dolphy","steam_id":76561198842756892,"connected_time":1955000000000,"state":"active","ping":89},{"user_id":55,"name":"!","steam_id":76561198427311326,"connected_time":184000000000,"state":"active","ping":87},{"user_id":38,"name":"Jruhh","steam_id":76561198842477772,"connected_time":893000000000,"state":"active","ping":71},{"user_id":25,"name":"PotatoBob","steam_id":76561199192517531,"connected_time":1553000000000,"state":"active","ping":57},{"user_id":56,"name":"Tea","steam_id":76561198417636184,"connected_time":176000000000,"state":"active","ping":96},{"user_id":33,"name":"LeP0tato","steam_id":76561198077615937,"connected_time":1137000000000,"state":"active","ping":66},{"user_id":46,"name":"Vibing Wave [IRAN]","steam_id":76561198866358613,"connected_time":517000000000,"state":"active","ping":155},{"user_id":24,"name":"minn","steam_id":76561198099101232,"connected_time":1634000000000,"state":"active","ping":59},{"user_id":29,"name":"Flower","steam_id":76561198833635742,"connected_time":1207000000000,"state":"active","ping":93},{"user_id":47,"name":"Whirlwind","steam_id":76561198942024930,"connected_time":515000000000,"state":"active","ping":105},{"user_id":31,"name":"The Funny Cat-Heaby","steam_id":76561198439978112,"connected_time":1167000000000,"state":"active","ping":107},{"user_id":60,"name":"spy gaming","steam_id":76561198410955546,"connected_time":70000000000,"state":"active","ping":80},{"user_id":39,"name":"Mr.Man","steam_id":76561199175688390,"connected_time":843000000000,"state":"active","ping":88},{"user_id":40,"name":"Silungar","steam_id":76561199043530432,"connected_time":801000000000,"state":"active","ping":69},{"user_id":59,"name":"Innocent Bystander","steam_id":76561198259885007,"connected_time":92000000000,"state":"active","ping":52},{"user_id":51,"name":"zek","steam_id":76561198862763731,"connected_time":398000000000,"state":"active","ping":64},{"user_id":52,"name":"DOMAIN","steam_id":76561199095640319,"connected_time":364000000000,"state":"active","ping":90},{"user_id":50,"name":"soldiergaming","steam_id":76561199124905283,"connected_time":454000000000,"state":"active","ping":68}]},{"server_id":40,"name":"Uncletopia | London | 7 | No Payload","name_short":"lon-7","host":"lon-1.uk.uncletopia.com","port":27075,"enabled":true,"region":"eu","cc":"gb","latitude":51.509865,"longitude":-0.118092,"reserved":0,"last_update":"0001-01-01T00:00:00Z","name_a2s":"Uncletopia | London | 7 | No Payload","protocol":17,"map":"koth_harvest_final","folder":"tf","game":"Team Fortress","app_id":440,"player_count":9,"max_players":24,"Bots":0,"server_type":"Dedicated","server_os":"Linux","password":true,"vac":true,"version":"7757534","steam_id":85568392924964314,"keywords":["cp","nocrits","nodmgspread","uncletopia"],"game_id":440,"stv_port":27076,"stv_name":"Uncletopia | London | 7 | No Payload | STV","players":[{"user_id":8,"name":"GMsU | Rebikas","steam_id":76561198077053764,"connected_time":410000000000,"state":"active","ping":47},{"user_id":11,"name":"BingusDingus","steam_id":76561198310983903,"connected_time":298000000000,"state":"active","ping":43},{"user_id":10,"name":"Knoxxen","steam_id":76561198071114510,"connected_time":311000000000,"state":"active","ping":62},{"user_id":12,"name":"Parapluie","steam_id":76561197971640301,"connected_time":287000000000,"state":"active","ping":32},{"user_id":13,"name":"spud Johnson (fake) - Allkeysho","steam_id":76561199380974466,"connected_time":253000000000,"state":"active","ping":86},{"user_id":14,"name":"Uncle Terry","steam_id":76561198396415736,"connected_time":236000000000,"state":"active","ping":49},{"user_id":15,"name":"KingVoker","steam_id":76561198039602539,"connected_time":163000000000,"state":"active","ping":70},{"user_id":16,"name":"Ergas","steam_id":76561198860861032,"connected_time":79000000000,"state":"active","ping":66},{"user_id":17,"name":"💀","steam_id":76561198973187023,"connected_time":47000000000,"state":"active","ping":72}]},{"server_id":41,"name":"Uncletopia | London | 8 | Community","name_short":"lon-8","host":"lon-1.uk.uncletopia.com","port":27085,"enabled":true,"region":"eu","cc":"gb","latitude":51.509865,"longitude":-0.118092,"reserved":0,"last_update":"0001-01-01T00:00:00Z","name_a2s":"Uncletopia | London | 8 | Community","protocol":17,"map":"workshop/koth_ashville_final.ugc2130459942","folder":"tf","game":"Team Fortress","app_id":440,"player_count":0,"max_players":24,"Bots":0,"server_type":"Dedicated","server_os":"Linux","password":true,"vac":true,"version":"7757534","steam_id":85568392924964315,"keywords":["cp","nocrits","nodmgspread","uncletopia"],"game_id":440,"stv_port":27086,"stv_name":"Uncletopia | London | 8 | Community | STV","players":null},{"server_id":300,"name":"Uncletopia | Montréal | 1 | All Maps","name_short":"mtl-1","host":"mtl-1.ca.uncletopia.com","port":27015,"enabled":true,"region":"us-east","cc":"ca","latitude":45.50889,"longitude":-73.56167,"reserved":0,"last_update":"0001-01-01T00:00:00Z","name_a2s":"Uncletopia | Montréal | 1 | All Maps","protocol":17,"map":"koth_highpass","folder":"tf","game":"Team Fortress","app_id":440,"player_count":0,"max_players":24,"Bots":0,"server_type":"Dedicated","server_os":"Linux","password":true,"vac":true,"version":"7757534","steam_id":85568392924500087,"keywords":["cp","nocrits","nodmgspread","uncletopia"],"game_id":440,"stv_port":27016,"stv_name":"Uncletopia | Montréal | 1 | All Maps | STV","players":null},{"server_id":301,"name":"Uncletopia | Montréal | 2 | All Maps","name_short":"mtl-2","host":"mtl-1.ca.uncletopia.com","port":27025,"enabled":true,"region":"us-east","cc":"ca","latitude":45.50889,"longitude":-73.56167,"reserved":0,"last_update":"0001-01-01T00:00:00Z","name_a2s":"Uncletopia | Montréal | 2 | All Maps","protocol":17,"map":"koth_lakeside_final","folder":"tf","game":"Team Fortress","app_id":440,"player_count":0,"max_players":24,"Bots":0,"server_type":"Dedicated","server_os":"Linux","password":true,"vac":true,"version":"7757534","steam_id":85568392924500088,"keywords":["cp","nocrits","nodmgspread","uncletopia"],"game_id":440,"stv_port":27026,"stv_name":"Uncletopia | Montréal | 2 | All Maps | STV","players":null},{"server_id":302,"name":"Uncletopia | Montréal | 3 | All Maps","name_short":"mtl-3","host":"mtl-1.ca.uncletopia.com","port":27035,"enabled":true,"region":"us-east","cc":"ca","latitude":45.50889,"longitude":-73.56167,"reserved":0,"last_update":"0001-01-01T00:00:00Z","name_a2s":"Uncletopia | Montréal | 3 | All Maps","protocol":17,"map":"koth_cascade","folder":"tf","game":"Team Fortress","app_id":440,"player_count":0,"max_players":24,"Bots":0,"server_type":"Dedicated","server_os":"Linux","password":true,"vac":true,"version":"7757534","steam_id":85568392924500089,"keywords":["cp","nocrits","nodmgspread","uncletopia"],"game_id":440,"stv_port":27036,"stv_name":"Uncletopia | Montréal | 3 | All Maps | STV","players":null},{"server_id":303,"name":"Uncletopia | Montréal | 4 | No Payload","name_short":"mtl-4","host":"mtl-1.ca.uncletopia.com","port":27045,"enabled":true,"region":"us-east","cc":"ca","latitude":45.50889,"longitude":-73.56167,"reserved":0,"last_update":"0001-01-01T00:00:00Z","name_a2s":"Uncletopia | Montréal | 4 | No Payload","protocol":17,"map":"koth_lakeside_final","folder":"tf","game":"Team Fortress","app_id":440,"player_count":0,"max_players":24,"Bots":0,"server_type":"Dedicated","server_os":"Linux","password":true,"vac":true,"version":"7757534","steam_id":85568392924500090,"keywords":["cp","nocrits","nodmgspread","uncletopia"],"game_id":440,"stv_port":27046,"stv_name":"Uncletopia | Montréal | 4 | No Payload | STV","players":null},{"server_id":13,"name":"Uncletopia | New York City | 1 | All Maps","name_short":"nyc-1","host":"nyc-1.us.uncletopia.com","port":27015,"enabled":true,"region":"us-east","cc":"us","latitude":40.73061,"longitude":-73.93524,"reserved":0,"last_update":"0001-01-01T00:00:00Z","name_a2s":"Uncletopia | New York City | 1 | All Maps","protocol":17,"map":"cp_snakewater_final1","folder":"tf","game":"Team Fortress","app_id":440,"player_count":0,"max_players":24,"Bots":0,"server_type":"Dedicated","server_os":"Linux","password":true,"vac":true,"version":"7757534","steam_id":85568392924469993,"keywords":["cp","nocrits","nodmgspread","uncletopia"],"game_id":440,"stv_port":27016,"stv_name":"Uncletopia | New York City | 1 | All Maps | STV","players":null},{"server_id":14,"name":"Uncletopia | New York City | 2 | All Maps","name_short":"nyc-2","host":"nyc-1.us.uncletopia.com","port":27025,"enabled":true,"region":"us-east","cc":"us","latitude":40.73061,"longitude":-73.93524,"reserved":0,"last_update":"0001-01-01T00:00:00Z","name_a2s":"Uncletopia | New York City | 2 | All Maps","protocol":17,"map":"cp_egypt_final","folder":"tf","game":"Team Fortress","app_id":440,"player_count":0,"max_players":24,"Bots":0,"server_type":"Dedicated","server_os":"Linux","password":true,"vac":true,"version":"7757534","steam_id":85568392924469994,"keywords":["cp","nocrits","nodmgspread","uncletopia"],"game_id":440,"stv_port":27026,"stv_name":"Uncletopia | New York City | 2 | All Maps | STV","players":null},{"server_id":15,"name":"Uncletopia | New York City | 3 | Stopwatch Beta","name_short":"nyc-3","host":"nyc-1.us.uncletopia.com","port":27035,"enabled":true,"region":"us-east","cc":"us","latitude":40.73061,"longitude":-73.93524,"reserved":0,"last_update":"0001-01-01T00:00:00Z","name_a2s":"Uncletopia | New York City | 3 | Stopwatch Beta","protocol":17,"map":"workshop/koth_clearcut_b15.ugc2107050255","folder":"tf","game":"Team Fortress","app_id":440,"player_count":0,"max_players":24,"Bots":0,"server_type":"Dedicated","server_os":"Linux","password":true,"vac":true,"version":"7757534","steam_id":85568392924742820,"keywords":["cp","nocrits","nodmgspread","uncletopia"],"game_id":440,"stv_port":27036,"stv_name":"Uncletopia | New York City | 3 | Stopwatch Beta | STV","players":null},{"server_id":16,"name":"Uncletopia | New York City | 4 | Community","name_short":"nyc-4","host":"nyc-1.us.uncletopia.com","port":27045,"enabled":true,"region":"us-east","cc":"us","latitude":40.73061,"longitude":-73.93524,"reserved":0,"last_update":"0001-01-01T00:00:00Z","name_a2s":"Uncletopia | New York City | 4 | Community","protocol":17,"map":"workshop/pl_barnblitz_pro7.ugc582280235","folder":"tf","game":"Team Fortress","app_id":440,"player_count":0,"max_players":24,"Bots":0,"server_type":"Dedicated","server_os":"Linux","password":true,"vac":true,"version":"7757534","steam_id":85568392924742821,"keywords":["nocrits","nodmgspread","payload","uncletopia"],"game_id":440,"stv_port":27046,"stv_name":"Uncletopia | New York City | 4 | Community | STV","players":null},{"server_id":142,"name":"Uncletopia | São Paulo | 1 | All Maps","name_short":"sao-1","host":"sao-1.br.uncletopia.com","port":27015,"enabled":true,"region":"sa","cc":"br","latitude":-23.533773,"longitude":-46.62529,"reserved":0,"last_update":"0001-01-01T00:00:00Z","name_a2s":"Uncletopia | São Paulo | 1 | All Maps","protocol":17,"map":"pl_barnblitz","folder":"tf","game":"Team Fortress","app_id":440,"player_count":0,"max_players":24,"Bots":0,"server_type":"Dedicated","server_os":"Linux","password":true,"vac":true,"version":"7757534","steam_id":85568392924469996,"keywords":["nocrits","nodmgspread","payload","uncletopia"],"game_id":440,"stv_port":27016,"stv_name":"Uncletopia | São Paulo | 1 | All Maps | STV","players":null},{"server_id":143,"name":"Uncletopia | São Paulo | 2 | All Maps","name_short":"sao-2","host":"sao-2.br.uncletopia.com","port":27015,"enabled":true,"region":"sa","cc":"br","latitude":-23.533773,"longitude":-46.62529,"reserved":0,"last_update":"0001-01-01T00:00:00Z","name_a2s":"Uncletopia | São Paulo | 2 | All Maps","protocol":17,"map":"cp_altitude","folder":"tf","game":"Team Fortress","app_id":440,"player_count":0,"max_players":24,"Bots":0,"server_type":"Dedicated","server_os":"Linux","password":true,"vac":true,"version":"7757534","steam_id":85568392924485349,"keywords":["cp","nocrits","nodmgspread","uncletopia"],"game_id":440,"stv_port":27016,"stv_name":"Uncletopia | São Paulo | 2 | All Maps | STV","players":null},{"server_id":7,"name":"Uncletopia | Seattle | 1 | All Maps","name_short":"sea-1","host":"sea-1.us.uncletopia.com","port":27015,"enabled":true,"region":"us-west","cc":"us","latitude":47.608013,"longitude":-122.33517,"reserved":0,"last_update":"0001-01-01T00:00:00Z","name_a2s":"Uncletopia | Seattle | 1 | All Maps","protocol":17,"map":"koth_highpass","folder":"tf","game":"Team Fortress","app_id":440,"player_count":24,"max_players":24,"Bots":0,"server_type":"Dedicated","server_os":"Linux","password":true,"vac":true,"version":"7757534","steam_id":85568392924469997,"keywords":["cp","nocrits","nodmgspread","uncletopia"],"game_id":440,"stv_port":27016,"stv_name":"Uncletopia | Seattle | 1 | All Maps | STV","players":[{"user_id":974,"name":"zag queen of chaos","steam_id":76561198093520833,"connected_time":921000000000,"state":"active","ping":87},{"user_id":969,"name":"samjunes90","steam_id":76561199235316419,"connected_time":1922000000000,"state":"active","ping":99},{"user_id":978,"name":"goopgrabber","steam_id":76561199029951083,"connected_time":670000000000,"state":"active","ping":64},{"user_id":935,"name":"PopcornNinja101","steam_id":76561198330680181,"connected_time":4775000000000,"state":"active","ping":48},{"user_id":933,"name":"dragggg","steam_id":76561198222386220,"connected_time":4797000000000,"state":"active","ping":45},{"user_id":975,"name":"Kamuify","steam_id":76561198008860999,"connected_time":784000000000,"state":"active","ping":95},{"user_id":986,"name":"Your eggs are reasonably firm","steam_id":76561198112211345,"connected_time":216000000000,"state":"active","ping":59},{"user_id":886,"name":"Xyvanereth","steam_id":76561198844137326,"connected_time":8884000000000,"state":"active","ping":50},{"user_id":979,"name":"Soviet Mexican Bear","steam_id":76561198296350977,"connected_time":661000000000,"state":"active","ping":166},{"user_id":980,"name":"CMDR Osowiec","steam_id":76561198267752855,"connected_time":605000000000,"state":"active","ping":58},{"user_id":972,"name":"T","steam_id":76561198065709361,"connected_time":945000000000,"state":"active","ping":55},{"user_id":981,"name":"lol","steam_id":76561198026491738,"connected_time":435000000000,"state":"active","ping":76},{"user_id":932,"name":"SkyLark","steam_id":76561198303618132,"connected_time":4915000000000,"state":"active","ping":59},{"user_id":903,"name":"Sweets","steam_id":76561198998446307,"connected_time":7875000000000,"state":"active","ping":67},{"user_id":968,"name":"Jonny","steam_id":76561198072507309,"connected_time":2109000000000,"state":"active","ping":74},{"user_id":962,"name":"Stranger Danger","steam_id":76561198115242460,"connected_time":2308000000000,"state":"active","ping":45},{"user_id":982,"name":"Cassandra (She/her)","steam_id":76561198094123940,"connected_time":427000000000,"state":"active","ping":124},{"user_id":966,"name":"Joseph \"Biden\" Stalin","steam_id":76561198213863907,"connected_time":2124000000000,"state":"active","ping":75},{"user_id":971,"name":"pastry","steam_id":76561198038999341,"connected_time":1521000000000,"state":"active","ping":72},{"user_id":951,"name":"kaeru","steam_id":76561198043789098,"connected_time":3650000000000,"state":"active","ping":62},{"user_id":989,"name":"Cloud","steam_id":76561198272454184,"connected_time":96000000000,"state":"active","ping":173},{"user_id":964,"name":"Cinna Mon","steam_id":76561198005840633,"connected_time":2152000000000,"state":"active","ping":56},{"user_id":896,"name":"Oomitch","steam_id":76561198071702759,"connected_time":8598000000000,"state":"active","ping":55},{"user_id":988,"name":"☆ Artsy Sheep ☆","steam_id":76561198269243813,"connected_time":193000000000,"state":"active","ping":90}]},{"server_id":119,"name":"Uncletopia | Seattle | 2 | All Maps","name_short":"sea-2","host":"sea-1.us.uncletopia.com","port":27025,"enabled":true,"region":"us-west","cc":"us","latitude":47.608013,"longitude":-122.33517,"reserved":0,"last_update":"0001-01-01T00:00:00Z","name_a2s":"Uncletopia | Seattle | 2 | All Maps","protocol":17,"map":"koth_cascade","folder":"tf","game":"Team Fortress","app_id":440,"player_count":0,"max_players":24,"Bots":0,"server_type":"Dedicated","server_os":"Linux","password":true,"vac":true,"version":"7757534","steam_id":85568392924469998,"keywords":["cp","nocrits","nodmgspread","uncletopia"],"game_id":440,"stv_port":27026,"stv_name":"Uncletopia | Seattle | 2 | All Maps | STV","players":null},{"server_id":406,"name":"Uncletopia | Seattle | 3 | Stopwatch Beta","name_short":"sea-3","host":"sea-1.us.uncletopia.com","port":27035,"enabled":true,"region":"us-west","cc":"us","latitude":47.608013,"longitude":-122.33517,"reserved":0,"last_update":"0001-01-01T00:00:00Z","name_a2s":"Uncletopia | Seattle | 3 | Stopwatch Beta","protocol":17,"map":"koth_lakeside_final","folder":"tf","game":"Team Fortress","app_id":440,"player_count":0,"max_players":24,"Bots":0,"server_type":"Dedicated","server_os":"Linux","password":true,"vac":true,"version":"7757534","steam_id":85568392924515217,"keywords":["cp","nocrits","nodmgspread","uncletopia"],"game_id":440,"stv_port":27036,"stv_name":"Uncletopia | Seattle | 3 | Stopwatch Beta | STV","players":null},{"server_id":17,"name":"Uncletopia | San Francisco | 1 | All Maps","name_short":"sfo-1","host":"sfo-1.us.uncletopia.com","port":27015,"enabled":true,"region":"us-west","cc":"us","latitude":37.77397,"longitude":-122.4313,"reserved":0,"last_update":"0001-01-01T00:00:00Z","name_a2s":"Uncletopia | San Francisco | 1 | All Maps","protocol":17,"map":"koth_highpass","folder":"tf","game":"Team Fortress","app_id":440,"player_count":0,"max_players":24,"Bots":0,"server_type":"Dedicated","server_os":"Linux","password":true,"vac":true,"version":"7757534","steam_id":85568392924469999,"keywords":["cp","nocrits","nodmgspread","uncletopia"],"game_id":440,"stv_port":27016,"stv_name":"Uncletopia | San Francisco | 1 | All Maps | STV","players":null},{"server_id":18,"name":"Uncletopia | San Francisco | 2 | All Maps","name_short":"sfo-2","host":"sfo-1.us.uncletopia.com","port":27025,"enabled":true,"region":"us-west","cc":"us","latitude":37.77397,"longitude":-122.4313,"reserved":0,"last_update":"0001-01-01T00:00:00Z","name_a2s":"Uncletopia | San Francisco | 2 | All Maps","protocol":17,"map":"cp_snakewater_final1","folder":"tf","game":"Team Fortress","app_id":440,"player_count":0,"max_players":24,"Bots":0,"server_type":"Dedicated","server_os":"Linux","password":true,"vac":true,"version":"7757534","steam_id":85568392924470000,"keywords":["cp","nocrits","nodmgspread","uncletopia"],"game_id":440,"stv_port":27026,"stv_name":"Uncletopia | San Francisco | 2 | All Maps | STV","players":null},{"server_id":19,"name":"Uncletopia | San Francisco | 3 | Stopwatch Beta","name_short":"sfo-3","host":"sfo-1.us.uncletopia.com","port":27035,"enabled":true,"region":"us-west","cc":"us","latitude":37.77397,"longitude":-122.4313,"reserved":0,"last_update":"0001-01-01T00:00:00Z","name_a2s":"Uncletopia | San Francisco | 3 | Stopwatch Beta","protocol":17,"map":"koth_viaduct","folder":"tf","game":"Team Fortress","app_id":440,"player_count":0,"max_players":24,"Bots":0,"server_type":"Dedicated","server_os":"Linux","password":true,"vac":true,"version":"7757534","steam_id":85568392924742824,"keywords":["cp","nocrits","nodmgspread","uncletopia"],"game_id":440,"stv_port":27036,"stv_name":"Uncletopia | San Francisco | 3 | Stopwatch Beta | STV","players":null},{"server_id":20,"name":"Uncletopia | San Francisco | 4 | Community","name_short":"sfo-4","host":"sfo-1.us.uncletopia.com","port":27045,"enabled":true,"region":"us-west","cc":"us","latitude":37.77397,"longitude":-122.4313,"reserved":0,"last_update":"0001-01-01T00:00:00Z","name_a2s":"Uncletopia | San Francisco | 4 | Community","protocol":17,"map":"workshop/koth_slaughter_rc1.ugc1712845210","folder":"tf","game":"Team Fortress","app_id":440,"player_count":0,"max_players":24,"Bots":0,"server_type":"Dedicated","server_os":"Linux","password":true,"vac":true,"version":"7757534","steam_id":85568392924742826,"keywords":["cp","nocrits","nodmgspread","uncletopia"],"game_id":440,"stv_port":27046,"stv_name":"Uncletopia | San Francisco | 4 | Community | STV","players":null},{"server_id":141,"name":"Uncletopia | Sydney | 1 | All Maps","name_short":"syd-1","host":"syd-1.au.uncletopia.com","port":27015,"enabled":true,"region":"au","cc":"au","latitude":-33.865143,"longitude":151.2099,"reserved":0,"last_update":"0001-01-01T00:00:00Z","name_a2s":"Uncletopia | Sydney | 1 | All Maps","protocol":17,"map":"pl_pier","folder":"tf","game":"Team Fortress","app_id":440,"player_count":23,"max_players":24,"Bots":0,"server_type":"Dedicated","server_os":"Linux","password":true,"vac":true,"version":"7757534","steam_id":85568392924470001,"keywords":["nocrits","nodmgspread","payload","uncletopia"],"game_id":440,"stv_port":27016,"stv_name":"Uncletopia | Sydney | 1 | All Maps | STV","players":[{"user_id":358,"name":"uncle nephew junior","steam_id":76561198930683342,"connected_time":805000000000,"state":"active","ping":53},{"user_id":338,"name":"michael","steam_id":76561198052848358,"connected_time":2830000000000,"state":"active","ping":63},{"user_id":343,"name":"Fatass Yoshi","steam_id":76561198033784848,"connected_time":2663000000000,"state":"active","ping":45},{"user_id":291,"name":"Piklz","steam_id":76561198043384139,"connected_time":6065000000000,"state":"active","ping":50},{"user_id":292,"name":"Bobby Bigman","steam_id":76561198044679656,"connected_time":5912000000000,"state":"active","ping":59},{"user_id":349,"name":"Elves","steam_id":76561198010873624,"connected_time":1354000000000,"state":"active","ping":58},{"user_id":340,"name":"jim :)","steam_id":76561198127508905,"connected_time":2737000000000,"state":"active","ping":35},{"user_id":348,"name":"Shaggy Gaming","steam_id":76561198065107870,"connected_time":1368000000000,"state":"active","ping":96},{"user_id":367,"name":"BNOR SOOP","steam_id":76561198082918640,"connected_time":35000000000,"state":"active","ping":58},{"user_id":347,"name":"Mac","steam_id":76561198063407128,"connected_time":1764000000000,"state":"active","ping":45},{"user_id":366,"name":"bowser","steam_id":76561198271462646,"connected_time":199000000000,"state":"active","ping":45},{"user_id":351,"name":"Turbo_dip","steam_id":76561198446508846,"connected_time":1353000000000,"state":"active","ping":70},{"user_id":356,"name":"Raven","steam_id":76561198428025966,"connected_time":988000000000,"state":"active","ping":65},{"user_id":334,"name":"lemur","steam_id":76561198278239170,"connected_time":3014000000000,"state":"active","ping":84},{"user_id":360,"name":"Cup","steam_id":76561198038485845,"connected_time":761000000000,"state":"active","ping":41},{"user_id":362,"name":"Lil Asian","steam_id":76561199004503278,"connected_time":516000000000,"state":"active","ping":54},{"user_id":313,"name":"Lv 9 Reborn Nubblet","steam_id":76561198069483103,"connected_time":4678000000000,"state":"active","ping":90},{"user_id":353,"name":"Sy 4","steam_id":76561198879862702,"connected_time":1328000000000,"state":"active","ping":69},{"user_id":359,"name":"helton1 #RemoveCrossbow","steam_id":76561198841855657,"connected_time":792000000000,"state":"active","ping":54},{"user_id":352,"name":"East","steam_id":76561197998179587,"connected_time":1344000000000,"state":"active","ping":99},{"user_id":363,"name":"AfroMeerkat","steam_id":76561197995499647,"connected_time":497000000000,"state":"active","ping":61},{"user_id":321,"name":"Consolidated Fart","steam_id":76561198924101909,"connected_time":4145000000000,"state":"active","ping":66},{"user_id":336,"name":"james16","steam_id":76561198362678073,"connected_time":3007000000000,"state":"active","ping":38}]},{"server_id":123,"name":"Uncletopia | Sydney | 2 | All Maps","name_short":"syd-2","host":"syd-1.au.uncletopia.com","port":27025,"enabled":true,"region":"au","cc":"au","latitude":-33.865143,"longitude":151.2099,"reserved":0,"last_update":"0001-01-01T00:00:00Z","name_a2s":"Uncletopia | Sydney | 2 | All Maps","protocol":17,"map":"koth_cascade","folder":"tf","game":"Team Fortress","app_id":440,"player_count":0,"max_players":24,"Bots":0,"server_type":"Dedicated","server_os":"Linux","password":true,"vac":true,"version":"7757534","steam_id":85568392924470002,"keywords":["cp","nocrits","nodmgspread","uncletopia"],"game_id":440,"stv_port":27026,"stv_name":"Uncletopia | Sydney | 2 | All Maps | STV","players":null},{"server_id":395,"name":"Uncletopia | Sydney | 3 | All Maps","name_short":"syd-3","host":"syd-1.au.uncletopia.com","port":27035,"enabled":true,"region":"au","cc":"au","latitude":-33.865143,"longitude":151.2099,"reserved":0,"last_update":"0001-01-01T00:00:00Z","name_a2s":"Uncletopia | Sydney | 3 | All Maps","protocol":17,"map":"cp_sunshine","folder":"tf","game":"Team Fortress","app_id":440,"player_count":24,"max_players":24,"Bots":0,"server_type":"Dedicated","server_os":"Linux","password":true,"vac":true,"version":"7757534","steam_id":85568392925194467,"keywords":["cp","nocrits","nodmgspread","uncletopia"],"game_id":440,"stv_port":27036,"stv_name":"Uncletopia | Sydney | 3 | All Maps | STV","players":[{"user_id":99,"name":"manok nugro","steam_id":76561198216003071,"connected_time":599000000000,"state":"active","ping":69},{"user_id":101,"name":"krandlez` (Any/All)","steam_id":76561198044839726,"connected_time":23000000000,"state":"active","ping":44},{"user_id":52,"name":"Da Vinky?","steam_id":76561199056711109,"connected_time":2445000000000,"state":"active","ping":41},{"user_id":65,"name":"Brent Gaming","steam_id":76561198004079481,"connected_time":1849000000000,"state":"active","ping":81},{"user_id":83,"name":"Nyanderthal","steam_id":76561198843075573,"connected_time":1360000000000,"state":"active","ping":62},{"user_id":98,"name":"xX_sexhaver_Xx(real)","steam_id":76561199205171109,"connected_time":834000000000,"state":"active","ping":62},{"user_id":55,"name":"SaltierThanYou","steam_id":76561198444395188,"connected_time":2263000000000,"state":"active","ping":85},{"user_id":61,"name":"ryderpro","steam_id":76561199435031335,"connected_time":1996000000000,"state":"active","ping":63},{"user_id":57,"name":"blicky","steam_id":76561198029829077,"connected_time":2241000000000,"state":"active","ping":90},{"user_id":78,"name":"Faston J Finch","steam_id":76561198811524641,"connected_time":1535000000000,"state":"active","ping":59},{"user_id":97,"name":"RBY","steam_id":76561198279663555,"connected_time":900000000000,"state":"active","ping":56},{"user_id":84,"name":"quinn","steam_id":76561198117785377,"connected_time":1306000000000,"state":"active","ping":61},{"user_id":69,"name":"eefee","steam_id":76561197997078384,"connected_time":1664000000000,"state":"active","ping":90},{"user_id":71,"name":"Dragoon","steam_id":76561198039564424,"connected_time":1647000000000,"state":"active","ping":37},{"user_id":100,"name":"stevenw","steam_id":76561198133041525,"connected_time":129000000000,"state":"active","ping":90},{"user_id":85,"name":"EarlyElite4199","steam_id":76561198432308585,"connected_time":1246000000000,"state":"active","ping":45},{"user_id":95,"name":"bocky2","steam_id":76561198053972551,"connected_time":969000000000,"state":"active","ping":59},{"user_id":86,"name":"Zelenyy","steam_id":76561198151123472,"connected_time":1182000000000,"state":"active","ping":60},{"user_id":88,"name":"Sonic","steam_id":76561199121259829,"connected_time":1120000000000,"state":"active","ping":73},{"user_id":90,"name":"Corrade","steam_id":76561198088865883,"connected_time":1112000000000,"state":"active","ping":55},{"user_id":82,"name":"iesApac","steam_id":76561198176708635,"connected_time":1488000000000,"state":"active","ping":68},{"user_id":91,"name":"iv","steam_id":76561198288602412,"connected_time":1100000000000,"state":"active","ping":75},{"user_id":92,"name":"shadowyknight","steam_id":76561198963934206,"connected_time":1087000000000,"state":"active","ping":106},{"user_id":96,"name":"ON THE BRINK OF DEFEAT","steam_id":76561198259740839,"connected_time":962000000000,"state":"active","ping":65}]},{"server_id":396,"name":"Uncletopia | Sydney | 4 | All Maps","name_short":"syd-4","host":"syd-1.au.uncletopia.com","port":27045,"enabled":true,"region":"au","cc":"au","latitude":-33.865143,"longitude":151.2099,"reserved":0,"last_update":"0001-01-01T00:00:00Z","name_a2s":"Uncletopia | Sydney | 4 | All Maps","protocol":17,"map":"koth_highpass","folder":"tf","game":"Team Fortress","app_id":440,"player_count":0,"max_players":24,"Bots":0,"server_type":"Dedicated","server_os":"Linux","password":true,"vac":true,"version":"7757534","steam_id":85568392925397958,"keywords":["cp","nocrits","nodmgspread","uncletopia"],"game_id":440,"stv_port":27046,"stv_name":"Uncletopia | Sydney | 4 | All Maps | STV","players":null},{"server_id":58,"name":"Uncletopia | Sydney | 5 | Stopwatch Beta","name_short":"syd-5","host":"syd-1.au.uncletopia.com","port":27055,"enabled":true,"region":"au","cc":"au","latitude":-33.865143,"longitude":151.2099,"reserved":0,"last_update":"0001-01-01T00:00:00Z","name_a2s":"Uncletopia | Sydney | 5 | Stopwatch Beta","protocol":17,"map":"koth_lakeside_final","folder":"tf","game":"Team Fortress","app_id":440,"player_count":5,"max_players":24,"Bots":0,"server_type":"Dedicated","server_os":"Linux","password":true,"vac":true,"version":"7757534","steam_id":85568392925397959,"keywords":["cp","nocrits","nodmgspread","uncletopia"],"game_id":440,"stv_port":27056,"stv_name":"Uncletopia | Sydney | 5 | Stopwatch Beta | STV","players":[{"user_id":12,"name":"MADVfish","steam_id":76561199441817273,"connected_time":1550000000000,"state":"active","ping":35},{"user_id":13,"name":"Adoriun","steam_id":76561199220638026,"connected_time":1504000000000,"state":"active","ping":96},{"user_id":14,"name":"ChlonieCalva","steam_id":76561199055740510,"connected_time":1415000000000,"state":"active","ping":251},{"user_id":15,"name":"la capone","steam_id":76561199465694949,"connected_time":1316000000000,"state":"active","ping":84},{"user_id":16,"name":"spacewielder","steam_id":76561198155133814,"connected_time":1242000000000,"state":"active","ping":92}]},{"server_id":59,"name":"Uncletopia | Sydney | 6 | Community","name_short":"syd-6","host":"syd-1.au.uncletopia.com","port":27065,"enabled":true,"region":"au","cc":"au","latitude":-33.865143,"longitude":151.2099,"reserved":0,"last_update":"0001-01-01T00:00:00Z","name_a2s":"Uncletopia | Sydney | 6 | Community","protocol":17,"map":"workshop/koth_ashville_final.ugc2130459942","folder":"tf","game":"Team Fortress","app_id":440,"player_count":6,"max_players":24,"Bots":0,"server_type":"Dedicated","server_os":"Linux","password":true,"vac":true,"version":"7757534","steam_id":85568392925397960,"keywords":["cp","nocrits","nodmgspread","uncletopia"],"game_id":440,"stv_port":27066,"stv_name":"Uncletopia | Sydney | 6 | Community | STV","players":[{"user_id":16,"name":"alien!! ahhh!!!","steam_id":76561198816343768,"connected_time":1012000000000,"state":"active","ping":79},{"user_id":17,"name":"Sstikky","steam_id":76561198240792076,"connected_time":1005000000000,"state":"active","ping":33},{"user_id":21,"name":"CoolGamerYT","steam_id":76561198207771804,"connected_time":666000000000,"state":"active","ping":69},{"user_id":19,"name":"jiv","steam_id":76561198802347473,"connected_time":948000000000,"state":"active","ping":178},{"user_id":20,"name":"The Bisoneer TF2","steam_id":76561199446773766,"connected_time":831000000000,"state":"active","ping":90},{"user_id":23,"name":"Biden's Most Autistic Catgirl","steam_id":76561198183548195,"connected_time":312000000000,"state":"active","ping":94}]},{"server_id":49,"name":"Uncletopia | Warsaw | 1 | All Maps","name_short":"waw-1","host":"waw-1.pl.uncletopia.com","port":27015,"enabled":true,"region":"eu","cc":"pl","latitude":52.2297,"longitude":21.017532,"reserved":0,"last_update":"0001-01-01T00:00:00Z","name_a2s":"","protocol":0,"map":"","folder":"","game":"","app_id":0,"player_count":0,"max_players":0,"Bots":0,"server_type":"","server_os":"","password":false,"vac":false,"version":"","steam_id":0,"keywords":null,"game_id":0,"stv_port":0,"stv_name":"","players":null},{"server_id":50,"name":"Uncletopia | Warsaw | 2 | All Maps","name_short":"waw-2","host":"waw-1.pl.uncletopia.com","port":27025,"enabled":true,"region":"eu","cc":"pl","latitude":52.2297,"longitude":21.017532,"reserved":0,"last_update":"0001-01-01T00:00:00Z","name_a2s":"Uncletopia | Warsaw | 2 | All Maps","protocol":17,"map":"koth_highpass","folder":"tf","game":"Team Fortress","app_id":440,"player_count":0,"max_players":24,"Bots":0,"server_type":"Dedicated","server_os":"Linux","password":true,"vac":true,"version":"7757534","steam_id":85568392925397851,"keywords":["cp","nocrits","nodmgspread","uncletopia"],"game_id":440,"stv_port":27026,"stv_name":"Uncletopia | Warsaw | 2 | All Maps | STV","players":null},{"server_id":51,"name":"Uncletopia | Warsaw | 3 | All Maps","name_short":"waw-3","host":"waw-1.pl.uncletopia.com","port":27035,"enabled":true,"region":"eu","cc":"pl","latitude":52.2297,"longitude":21.017532,"reserved":0,"last_update":"0001-01-01T00:00:00Z","name_a2s":"Uncletopia | Warsaw | 3 | All Maps","protocol":17,"map":"koth_highpass","folder":"tf","game":"Team Fortress","app_id":440,"player_count":0,"max_players":24,"Bots":0,"server_type":"Dedicated","server_os":"Linux","password":true,"vac":true,"version":"7757534","steam_id":85568392925397852,"keywords":["cp","nocrits","nodmgspread","uncletopia"],"game_id":440,"stv_port":27036,"stv_name":"Uncletopia | Warsaw | 3 | All Maps | STV","players":null},{"server_id":52,"name":"Uncletopia | Warsaw | 4 | All Maps","name_short":"waw-4","host":"waw-1.pl.uncletopia.com","port":27045,"enabled":true,"region":"eu","cc":"pl","latitude":52.2297,"longitude":21.017532,"reserved":0,"last_update":"0001-01-01T00:00:00Z","name_a2s":"Uncletopia | Warsaw | 4 | All Maps","protocol":17,"map":"cp_dustbowl","folder":"tf","game":"Team Fortress","app_id":440,"player_count":0,"max_players":24,"Bots":0,"server_type":"Dedicated","server_os":"Linux","password":true,"vac":true,"version":"7757534","steam_id":85568392925397853,"keywords":["cp","nocrits","nodmgspread","uncletopia"],"game_id":440,"stv_port":27046,"stv_name":"Uncletopia | Warsaw | 4 | All Maps | STV","players":null},{"server_id":53,"name":"Uncletopia | Warsaw | 5 | Stopwatch Beta","name_short":"waw-5","host":"waw-1.pl.uncletopia.com","port":27055,"enabled":true,"region":"eu","cc":"pl","latitude":52.2297,"longitude":21.017532,"reserved":0,"last_update":"0001-01-01T00:00:00Z","name_a2s":"Uncletopia | Warsaw | 5 | Stopwatch Beta","protocol":17,"map":"workshop/pl_barnblitz_pro7.ugc582280235","folder":"tf","game":"Team Fortress","app_id":440,"player_count":0,"max_players":24,"Bots":0,"server_type":"Dedicated","server_os":"Linux","password":true,"vac":true,"version":"7757534","steam_id":85568392925397854,"keywords":["nocrits","nodmgspread","payload","uncletopia"],"game_id":440,"stv_port":27056,"stv_name":"Uncletopia | Warsaw | 5 | Stopwatch Beta | STV","players":null},{"server_id":54,"name":"Uncletopia | Warsaw | 6 | Community","name_short":"waw-6","host":"waw-1.pl.uncletopia.com","port":27065,"enabled":true,"region":"eu","cc":"pl","latitude":52.2297,"longitude":21.017532,"reserved":0,"last_update":"0001-01-01T00:00:00Z","name_a2s":"Uncletopia | Warsaw | 6 | Community","protocol":17,"map":"pl_barnblitz","folder":"tf","game":"Team Fortress","app_id":440,"player_count":0,"max_players":24,"Bots":0,"server_type":"Dedicated","server_os":"Linux","password":true,"vac":true,"version":"7757534","steam_id":85568392925397856,"keywords":["nocrits","nodmgspread","payload","uncletopia"],"game_id":440,"stv_port":27066,"stv_name":"Uncletopia | Warsaw | 6 | Community | STV","players":null}]}