{"status":true,"message":"","result":[{"server_id":9,"name":"Uncletopia | Atlanta | 1 | All Maps","name_short":"atl-1","host":"atl-1.us.uncletopia.com","port":27015,"enabled":true,"region":"us-east","cc":"us","latitude":33.753746,"longitude":-84.38633,"reserved":0,"last_update":"0001-01-01T00:00:00Z","name_a2s":"Uncletopia | Atlanta | 1 | All Maps","protocol":17,"map":"cp_sunshine","folder":"tf","game":"Team Fortress","app_id":440,"player_count":24,"max_players":24,"Bots":0,"server_type":"Dedicated","server_os":"Linux","password":true,"vac":true,"version":"7723704","steam_id":85568392924469982,"keywords":["cp","nocrits","nodmgspread","uncletopia"],"game_id":440,"stv_port":27016,"stv_name":"Uncletopia | Atlanta | 1 | All Maps | STV","players":[{"user_id":3,"name":"GabetIV femboy","steam_id":76561198145700338,"connected_time":2859000000000,"state":"active","ping":77},{"user_id":58,"name":"DuckKey","steam_id":76561198904477889,"connected_time":737000000000,"state":"active","ping":56},{"user_id":5,"name":"mommy claus","steam_id":76561199230929836,"connected_time":2857000000000,"state":"active","ping":86},{"user_id":6,"name":"mouth of river","steam_id":76561198069954956,"connected_time":2856000000000,"state":"active","ping":48},{"user_id":7,"name":"HEFTY HOG","steam_id":76561198079923652,"connected_time":2856000000000,"state":"active","ping":66},{"user_id":8,"name":"hyeon","steam_id":76561198246700372,"connected_time":2855000000000,"state":"active","ping":57},{"user_id":53,"name":"Midnight Throne","steam_id":76561198059831285,"connected_time":838000000000,"state":"active","ping":69},{"user_id":11,"name":"「SK8TR」","steam_id":76561199389089862,"connected_time":2853000000000,"state":"active","ping":153},{"user_id":13,"name":"Big ol' Willy Gaming","steam_id":76561198048545731,"connected_time":2845000000000,"state":"active","ping":140},{"user_id":66,"name":"BB Lorexav","steam_id":76561198207565988,"connected_time":198000000000,"state":"active","ping":63},{"user_id":46,"name":"McSwingset","steam_id":76561198040417409,"connected_time":1153000000000,"state":"active","ping":56},{"user_id":54,"name":"Just a storm dick, sit down","steam_id":76561198404528521,"connected_time":834000000000,"state":"active","ping":79},{"user_id":17,"name":"flappyflap2","steam_id":76561198285048973,"connected_time":2834000000000,"state":"active","ping":61},{"user_id":61,"name":"herb","steam_id":76561198185980055,"connected_time":654000000000,"state":"active","ping":102},{"user_id":19,"name":"CapnCoolaid","steam_id":76561199120332919,"connected_time":2832000000000,"state":"active","ping":100},{"user_id":20,"name":"DeckofDragons","steam_id":76561198057398213,"connected_time":2828000000000,"state":"active","ping":77},{"user_id":35,"name":"pinglefingle","steam_id":76561198216580197,"connected_time":2281000000000,"state":"active","ping":79},{"user_id":37,"name":"lao","steam_id":76561198047857698,"connected_time":2106000000000,"state":"active","ping":137},{"user_id":49,"name":"Chicken Nugget","steam_id":76561198082601232,"connected_time":919000000000,"state":"active","ping":74},{"user_id":67,"name":"trashed","steam_id":76561197961095970,"connected_time":53000000000,"state":"active","ping":75},{"user_id":51,"name":"ghostedghost","steam_id":76561198111410905,"connected_time":884000000000,"state":"active","ping":103},{"user_id":62,"name":"eggo","steam_id":76561198105515914,"connected_time":526000000000,"state":"active","ping":91},{"user_id":57,"name":"swag commander in chief","steam_id":76561198143132686,"connected_time":765000000000,"state":"active","ping":104},{"user_id":65,"name":"natalie","steam_id":76561198084507532,"connected_time":269000000000,"state":"active","ping":148}]},{"server_id":400,"name":"Uncletopia | Atlanta | 3 | Stopwatch Beta","name_short":"atl-3","host":"atl-1.us.uncletopia.com","port":27035,"enabled":true,"region":"us-east","cc":"us","latitude":33.753746,"longitude":-84.38633,"reserved":0,"last_update":"0001-01-01T00:00:00Z","name_a2s":"Uncletopia | Atlanta | 3 | Stopwatch Beta","protocol":17,"map":"koth_cascade","folder":"tf","game":"Team Fortress","app_id":440,"player_count":0,"max_players":24,"Bots":0,"server_type":"Dedicated","server_os":"Linux","password":true,"vac":true,"version":"7723704","steam_id":85568392924515187,"keywords":["cp","nocrits","nodmgspread","uncletopia"],"game_id":440,"stv_port":27036,"stv_name":"Uncletopia | Atlanta | 3 | Stopwatch Beta | STV","players":null},{"server_id":401,"name":"Uncletopia | Atlanta | 4 | No Payload","name_short":"atl-4","host":"atl-1.us.uncletopia.com","port":27045,"enabled":true,"region":"us-east","cc":"us","latitude":33.753746,"longitude":-84.38633,"reserved":0,"last_update":"0001-01-01T00:00:00Z","name_a2s":"Uncletopia | Atlanta | 4 | No Payload","protocol":17,"map":"cp_gorge","folder":"tf","game":"Team Fortress","app_id":440,"player_count":24,"max_players":24,"Bots":0,"server_type":"Dedicated","server_os":"Linux","password":true,"vac":true,"version":"7723704","steam_id":85568392924515188,"keywords":["cp","nocrits","nodmgspread","uncletopia"],"game_id":440,"stv_port":27046,"stv_name":"Uncletopia | Atlanta | 4 | No Payload | STV","players":[{"user_id":209,"name":"Sono Famama","steam_id":76561197984447146,"connected_time":634000000000,"state":"active","ping":120},{"user_id":197,"name":"The Builder","steam_id":76561198093432863,"connected_time":1265000000000,"state":"active","ping":66},{"user_id":210,"name":"Misty Blu ✿","steam_id":76561198011442255,"connected_time":582000000000,"state":"active","ping":104},{"user_id":202,"name":"devamar","steam_id":76561198069115467,"connected_time":1054000000000,"state":"active","ping":90},{"user_id":203,"name":"|AG| Level","steam_id":76561198063633592,"connected_time":1043000000000,"state":"active","ping":71},{"user_id":169,"name":"earthbound393","steam_id":76561199444276547,"connected_time":2782000000000,"state":"active","ping":147},{"user_id":211,"name":"Poyo","steam_id":76561198389364816,"connected_time":567000000000,"state":"active","ping":81},{"user_id":200,"name":"Kiphus","steam_id":76561198025289407,"connected_time":1217000000000,"state":"active","ping":69},{"user_id":207,"name":"MagikCactus","steam_id":76561198035678261,"connected_time":919000000000,"state":"active","ping":112},{"user_id":212,"name":"thingamajon","steam_id":76561198808378733,"connected_time":565000000000,"state":"active","ping":75},{"user_id":213,"name":"ReformedOrthodoxRabbiBillClinto","steam_id":76561198401455467,"connected_time":436000000000,"state":"active","ping":96},{"user_id":214,"name":"Ask Nicely For Heals","steam_id":76561198138478907,"connected_time":420000000000,"state":"active","ping":70},{"user_id":215,"name":"BLOOD !","steam_id":76561198004400850,"connected_time":400000000000,"state":"active","ping":78},{"user_id":216,"name":"Brother Garland","steam_id":76561198108026255,"connected_time":397000000000,"state":"active","ping":50},{"user_id":228,"name":"Snake Handler","steam_id":76561198027198306,"connected_time":147000000000,"state":"active","ping":75},{"user_id":229,"name":"Disco Chewbacca","steam_id":76561198004324301,"connected_time":109000000000,"state":"active","ping":120},{"user_id":189,"name":"Bone Tomahawk","steam_id":76561198183019399,"connected_time":2586000000000,"state":"active","ping":88},{"user_id":225,"name":"Faust main","steam_id":76561198971799149,"connected_time":300000000000,"state":"active","ping":82},{"user_id":220,"name":"Psycho-Pathetic","steam_id":76561198209881263,"connected_time":334000000000,"state":"active","ping":114},{"user_id":184,"name":"Pistol Freeman","steam_id":76561198026818915,"connected_time":2695000000000,"state":"active","ping":87},{"user_id":221,"name":"Rabbit Captain Guykatsu","steam_id":76561198035469897,"connected_time":333000000000,"state":"active","ping":103},{"user_id":222,"name":"Buckytr","steam_id":76561198096335025,"connected_time":326000000000,"state":"active","ping":102},{"user_id":223,"name":"Blitzy","steam_id":76561198149472890,"connected_time":324000000000,"state":"active","ping":120},{"user_id":226,"name":"TruffleShuffler","steam_id":76561199067409498,"connected_time":298000000000,"state":"active","ping":113}]},{"server_id":2,"name":"Uncletopia | Chicago | 1 | All Maps","name_short":"chi-1","host":"chi-1.us.uncletopia.com","port":27015,"enabled":true,"region":"us-central","cc":"us","latitude":41.881832,"longitude":-87.62318,"reserved":0,"last_update":"0001-01-01T00:00:00Z","name_a2s":"Uncletopia | Chicago | 1 | All Maps","protocol":17,"map":"pl_badwater","folder":"tf","game":"Team Fortress","app_id":440,"player_count":24,"max_players":24,"Bots":0,"server_type":"Dedicated","server_os":"Linux","password":true,"vac":true,"version":"7723704","steam_id":85568392924469984,"keywords":["nocrits","nodmgspread","payload","uncletopia"],"game_id":440,"stv_port":27016,"stv_name":"Uncletopia | Chicago | 1 | All Maps | STV","players":[{"user_id":52,"name":"「Saint」","steam_id":76561198241943070,"connected_time":1092000000000,"state":"active","ping":106},{"user_id":58,"name":"violet","steam_id":76561198248461754,"connected_time":691000000000,"state":"active","ping":95},{"user_id":39,"name":"MoonWolf","steam_id":76561198095735033,"connected_time":1843000000000,"state":"active","ping":77},{"user_id":50,"name":"Penjamin Blinkerton","steam_id":76561198111866305,"connected_time":1124000000000,"state":"active","ping":90},{"user_id":8,"name":"Astoriæ!","steam_id":76561199090168858,"connected_time":2726000000000,"state":"active","ping":56},{"user_id":9,"name":"pie gaming","steam_id":76561198072592880,"connected_time":2718000000000,"state":"active","ping":45},{"user_id":10,"name":"Degmac","steam_id":76561198100163166,"connected_time":2714000000000,"state":"active","ping":47},{"user_id":11,"name":"[slug]","steam_id":76561197989592178,"connected_time":2709000000000,"state":"active","ping":62},{"user_id":12,"name":"mr. wonderful","steam_id":76561198083175190,"connected_time":2703000000000,"state":"active","ping":47},{"user_id":54,"name":"BeerDrinker49000000000","steam_id":76561198846515168,"connected_time":921000000000,"state":"active","ping":153},{"user_id":33,"name":"Thatoneguybunchanumbers","steam_id":76561198028039160,"connected_time":2276000000000,"state":"active","ping":77},{"user_id":45,"name":"The Weatherman is fucking dying","steam_id":76561198000445420,"connected_time":1619000000000,"state":"active","ping":75},{"user_id":16,"name":"hej","steam_id":76561197996366940,"connected_time":2673000000000,"state":"active","ping":60},{"user_id":44,"name":"Money Collector","steam_id":76561198046249467,"connected_time":1686000000000,"state":"active","ping":57},{"user_id":18,"name":"Swash","steam_id":76561197969421355,"connected_time":2670000000000,"state":"active","ping":48},{"user_id":53,"name":"Back with the milk","steam_id":76561199020105501,"connected_time":992000000000,"state":"active","ping":67},{"user_id":28,"name":"Female Gamer","steam_id":76561199366482682,"connected_time":2620000000000,"state":"active","ping":92},{"user_id":21,"name":"MedRed™ #IATAH","steam_id":76561198002962970,"connected_time":2664000000000,"state":"active","ping":94},{"user_id":49,"name":"MazapanCabon28","steam_id":76561199243339919,"connected_time":1150000000000,"state":"active","ping":121},{"user_id":23,"name":"Ch4rl33","steam_id":76561198037008621,"connected_time":2647000000000,"state":"active","ping":53},{"user_id":46,"name":"ROGUE-PLANET","steam_id":76561198116023052,"connected_time":1377000000000,"state":"active","ping":73},{"user_id":25,"name":"Waffle Wannabe","steam_id":76561198064510650,"connected_time":2643000000000,"state":"active","ping":72},{"user_id":26,"name":"FunGi","steam_id":76561198881418662,"connected_time":2637000000000,"state":"active","ping":76},{"user_id":27,"name":"mobe","steam_id":76561198121633820,"connected_time":2636000000000,"state":"active","ping":105}]},{"server_id":106,"name":"Uncletopia | Chicago | 2 | All Maps","name_short":"chi-2","host":"chi-1.us.uncletopia.com","port":27025,"enabled":true,"region":"us-central","cc":"us","latitude":41.881832,"longitude":-87.62318,"reserved":0,"last_update":"0001-01-01T00:00:00Z","name_a2s":"Uncletopia | Chicago | 2 | All Maps","protocol":17,"map":"pl_upward","folder":"tf","game":"Team Fortress","app_id":440,"player_count":24,"max_players":24,"Bots":0,"server_type":"Dedicated","server_os":"Linux","password":true,"vac":true,"version":"7723704","steam_id":85568392924469985,"keywords":["nocrits","nodmgspread","payload","uncletopia"],"game_id":440,"stv_port":27026,"stv_name":"Uncletopia | Chicago | 2 | All Maps | STV","players":[{"user_id":22,"name":"Kamin","steam_id":76561198255299559,"connected_time":1300000000000,"state":"active","ping":81},{"user_id":16,"name":"Pie Eater 9000","steam_id":76561198003791564,"connected_time":2248000000000,"state":"active","ping":52},{"user_id":51,"name":"Fluffeline","steam_id":76561198352909489,"connected_time":47000000000,"state":"active","ping":135},{"user_id":24,"name":"crissaegrim","steam_id":76561198109943303,"connected_time":1058000000000,"state":"active","ping":61},{"user_id":25,"name":"Indacouch735","steam_id":76561198082081354,"connected_time":1057000000000,"state":"active","ping":58},{"user_id":26,"name":"fool","steam_id":76561198172049831,"connected_time":1033000000000,"state":"active","ping":104},{"user_id":13,"name":"Devious Wink","steam_id":76561198043571022,"connected_time":2442000000000,"state":"active","ping":60},{"user_id":47,"name":"River Rat","steam_id":76561198116383976,"connected_time":231000000000,"state":"active","ping":110},{"user_id":28,"name":"BigKafka420","steam_id":76561198150265040,"connected_time":945000000000,"state":"active","ping":70},{"user_id":31,"name":"Spike Bones","steam_id":76561198234926120,"connected_time":885000000000,"state":"active","ping":81},{"user_id":30,"name":"『Hazon』","steam_id":76561198119852107,"connected_time":904000000000,"state":"active","ping":63},{"user_id":50,"name":"NataKilar","steam_id":76561198041274441,"connected_time":105000000000,"state":"active","ping":54},{"user_id":33,"name":"8 festive lemons","steam_id":76561198403975457,"connected_time":818000000000,"state":"active","ping":75},{"user_id":34,"name":"Second Hand Smoke Gaming","steam_id":76561198380926090,"connected_time":795000000000,"state":"active","ping":46},{"user_id":35,"name":"StarWither","steam_id":76561198383264295,"connected_time":755000000000,"state":"active","ping":103},{"user_id":36,"name":"Yogsto-dude","steam_id":76561199180079018,"connected_time":746000000000,"state":"active","ping":178},{"user_id":37,"name":"glug slug","steam_id":76561197988690273,"connected_time":735000000000,"state":"active","ping":72},{"user_id":48,"name":"ctap2lean","steam_id":76561198068538473,"connected_time":175000000000,"state":"active","ping":78},{"user_id":39,"name":"merty","steam_id":76561198067874268,"connected_time":711000000000,"state":"active","ping":62},{"user_id":40,"name":"longer arms","steam_id":76561197984752473,"connected_time":702000000000,"state":"active","ping":48},{"user_id":41,"name":"KTB","steam_id":76561197990744614,"connected_time":701000000000,"state":"active","ping":42},{"user_id":42,"name":"shadow3004","steam_id":76561198064870076,"connected_time":687000000000,"state":"active","ping":93},{"user_id":43,"name":"MagicKing27ttv","steam_id":76561198276953046,"connected_time":678000000000,"state":"active","ping":65},{"user_id":45,"name":"Greg | trade.tf","steam_id":76561198111875038,"connected_time":656000000000,"state":"active","ping":109}]},{"server_id":402,"name":"Uncletopia | Chicago | 3 | All Maps","name_short":"chi-3","host":"chi-1.us.uncletopia.com","port":27035,"enabled":true,"region":"us-central","cc":"us","latitude":41.881832,"longitude":-87.62318,"reserved":0,"last_update":"0001-01-01T00:00:00Z","name_a2s":"Uncletopia | Chicago | 3 | All Maps","protocol":17,"map":"cp_mountainlab","folder":"tf","game":"Team Fortress","app_id":440,"player_count":0,"max_players":24,"Bots":0,"server_type":"Dedicated","server_os":"Linux","password":true,"vac":true,"version":"7723704","steam_id":85568392924515191,"keywords":["cp","nocrits","nodmgspread","uncletopia"],"game_id":440,"stv_port":27036,"stv_name":"Uncletopia | Chicago | 3 | All Maps | STV","players":null},{"server_id":403,"name":"Uncletopia | Chicago | 4 | All Maps","name_short":"chi-4","host":"chi-1.us.uncletopia.com","port":27045,"enabled":true,"region":"us-central","cc":"us","latitude":41.881832,"longitude":-87.62318,"reserved":0,"last_update":"0001-01-01T00:00:00Z","name_a2s":"Uncletopia | Chicago | 4 | All Maps","protocol":17,"map":"pl_upward","folder":"tf","game":"Team Fortress","app_id":440,"player_count":24,"max_players":24,"Bots":0,"server_type":"Dedicated","server_os":"Linux","password":true,"vac":true,"version":"7723704","steam_id":85568392924515193,"keywords":["nocrits","nodmgspread","payload","uncletopia"],"game_id":440,"stv_port":27046,"stv_name":"Uncletopia | Chicago | 4 | All Maps | STV","players":[{"user_id":13,"name":"M249 | Spectre","steam_id":76561198118334485,"connected_time":2620000000000,"state":"active","ping":69},{"user_id":4,"name":"Ye (I Love Hitler) West","steam_id":76561198068830312,"connected_time":2730000000000,"state":"active","ping":45},{"user_id":8,"name":"Zodyxajon","steam_id":76561198165561581,"connected_time":2694000000000,"state":"active","ping":69},{"user_id":10,"name":"TasteMaple","steam_id":76561199103760177,"connected_time":2672000000000,"state":"active","ping":66},{"user_id":7,"name":"Wug","steam_id":76561198084112264,"connected_time":2715000000000,"state":"active","ping":77},{"user_id":36,"name":"Strange Child","steam_id":76561198082523009,"connected_time":1687000000000,"state":"active","ping":62},{"user_id":37,"name":"Bloop","steam_id":76561198253563271,"connected_time":1574000000000,"state":"active","ping":45},{"user_id":12,"name":"McGangBang","steam_id":76561198862379865,"connected_time":2655000000000,"state":"active","ping":57},{"user_id":40,"name":"q!k.glodfyeehs","steam_id":76561198086008437,"connected_time":948000000000,"state":"active","ping":75},{"user_id":15,"name":"a table","steam_id":76561198158461279,"connected_time":2564000000000,"state":"active","ping":61},{"user_id":17,"name":"Murk Wahlberg","steam_id":76561198131467867,"connected_time":2429000000000,"state":"active","ping":83},{"user_id":43,"name":"NyanPigz","steam_id":76561198124136007,"connected_time":55000000000,"state":"active","ping":65},{"user_id":38,"name":"NOLSEY","steam_id":76561198108959504,"connected_time":959000000000,"state":"active","ping":49},{"user_id":21,"name":"The Assistant Regional Manager","steam_id":76561199221484936,"connected_time":2319000000000,"state":"active","ping":108},{"user_id":22,"name":"yuji","steam_id":76561198401572620,"connected_time":2294000000000,"state":"active","ping":61},{"user_id":23,"name":"WitheringLeo","steam_id":76561198046722918,"connected_time":2284000000000,"state":"active","ping":69},{"user_id":24,"name":"Nephs","steam_id":76561198136763403,"connected_time":2269000000000,"state":"active","ping":71},{"user_id":42,"name":"IIP","steam_id":76561198286102406,"connected_time":662000000000,"state":"active","ping":70},{"user_id":41,"name":"{AmethystPlays}","steam_id":76561198314936891,"connected_time":677000000000,"state":"active","ping":104},{"user_id":27,"name":"twitch.tv/kegaman_","steam_id":76561198043632775,"connected_time":2210000000000,"state":"active","ping":102},{"user_id":34,"name":"bigturr","steam_id":76561199043827112,"connected_time":2079000000000,"state":"active","ping":52},{"user_id":31,"name":"tntmanbook","steam_id":76561199199630272,"connected_time":2126000000000,"state":"active","ping":60},{"user_id":32,"name":"cube","steam_id":76561197991759721,"connected_time":2124000000000,"state":"active","ping":60},{"user_id":39,"name":"Rat God","steam_id":76561198066161598,"connected_time":959000000000,"state":"active","ping":43}]},{"server_id":36,"name":"Uncletopia | Chicago | 5 | All Maps","name_short":"chi-5","host":"chi-2.us.uncletopia.com","port":27015,"enabled":true,"region":"us-central","cc":"us","latitude":41.881832,"longitude":-87.62318,"reserved":0,"last_update":"0001-01-01T00:00:00Z","name_a2s":"Uncletopia | Chicago | 5 | All Maps","protocol":17,"map":"cp_altitude","folder":"tf","game":"Team Fortress","app_id":440,"player_count":0,"max_players":24,"Bots":0,"server_type":"Dedicated","server_os":"Linux","password":true,"vac":true,"version":"7723704","steam_id":85568392924866362,"keywords":["cp","nocrits","nodmgspread","uncletopia"],"game_id":440,"stv_port":27016,"stv_name":"Uncletopia | Chicago | 5 | All Maps | STV","players":null},{"server_id":37,"name":"Uncletopia | Chicago | 6 | All Maps","name_short":"chi-6","host":"chi-2.us.uncletopia.com","port":27025,"enabled":true,"region":"us-central","cc":"us","latitude":41.881832,"longitude":-87.62318,"reserved":0,"last_update":"0001-01-01T00:00:00Z","name_a2s":"Uncletopia | Chicago | 6 | All Maps","protocol":17,"map":"pl_swiftwater_final1","folder":"tf","game":"Team Fortress","app_id":440,"player_count":0,"max_players":24,"Bots":0,"server_type":"Dedicated","server_os":"Linux","password":true,"vac":true,"version":"7723704","steam_id":85568392924866363,"keywords":["nocrits","nodmgspread","payload","uncletopia"],"game_id":440,"stv_port":27026,"stv_name":"Uncletopia | Chicago | 6 | All Maps | STV","players":null},{"server_id":38,"name":"Uncletopia | Chicago | 7 | Stopwatch Beta","name_short":"chi-7","host":"chi-2.us.uncletopia.com","port":27035,"enabled":true,"region":"us-central","cc":"us","latitude":41.881832,"longitude":-87.62318,"reserved":0,"last_update":"0001-01-01T00:00:00Z","name_a2s":"Uncletopia | Chicago | 7 | Stopwatch Beta","protocol":17,"map":"pl_badwater","folder":"tf","game":"Team Fortress","app_id":440,"player_count":1,"max_players":24,"Bots":0,"server_type":"Dedicated","server_os":"Linux","password":true,"vac":true,"version":"7723704","steam_id":85568392924866364,"keywords":["nocrits","nodmgspread","payload","uncletopia"],"game_id":440,"stv_port":27036,"stv_name":"Uncletopia | Chicago | 7 | Stopwatch Beta | STV","players":[{"user_id":6,"name":"ุ","steam_id":76561198084134025,"connected_time":2766000000000,"state":"active","ping":70}]},{"server_id":39,"name":"Uncletopia | Chicago | 8 | Community","name_short":"chi-8","host":"chi-2.us.uncletopia.com","port":27045,"enabled":true,"region":"us-central","cc":"us","latitude":41.881832,"longitude":-87.62318,"reserved":0,"last_update":"0001-01-01T00:00:00Z","name_a2s":"Uncletopia | Chicago | 8 | Community","protocol":17,"map":"workshop/rd_asteroid_redux_rc9.ugc2154902912","folder":"tf","game":"Team Fortress","app_id":440,"player_count":12,"max_players":24,"Bots":0,"server_type":"Dedicated","server_os":"Linux","password":true,"vac":true,"version":"7723704","steam_id":85568392924866365,"keywords":["beta","nocrits","nodmgspread","rd","uncletopia"],"game_id":440,"stv_port":27046,"stv_name":"Uncletopia | Chicago | 8 | Community | STV","players":[{"user_id":37,"name":"wiwi","steam_id":76561198094220383,"connected_time":1635000000000,"state":"active","ping":61},{"user_id":56,"name":"Aspxts","steam_id":76561199125254746,"connected_time":248000000000,"state":"active","ping":57},{"user_id":51,"name":"Snoopy","steam_id":76561198273735974,"connected_time":1065000000000,"state":"active","ping":98},{"user_id":53,"name":"rainbowmaster25!","steam_id":76561199215255414,"connected_time":889000000000,"state":"active","ping":69},{"user_id":18,"name":"Huge","steam_id":76561199030987614,"connected_time":2670000000000,"state":"active","ping":78},{"user_id":40,"name":"Aster","steam_id":76561198037920420,"connected_time":1532000000000,"state":"active","ping":100},{"user_id":41,"name":"TÖZI","steam_id":76561198045268695,"connected_time":1520000000000,"state":"active","ping":45},{"user_id":27,"name":"Bagaboned","steam_id":76561198043761335,"connected_time":2333000000000,"state":"active","ping":93},{"user_id":55,"name":"Obii⛧","steam_id":76561199209580985,"connected_time":254000000000,"state":"active","ping":68},{"user_id":32,"name":"Zubats |TAOZ|","steam_id":76561198041819445,"connected_time":2255000000000,"state":"active","ping":59},{"user_id":34,"name":"Dad Rock Deluxe","steam_id":76561198051224819,"connected_time":2204000000000,"state":"active","ping":60},{"user_id":36,"name":"PintoVero","steam_id":76561198088369252,"connected_time":1924000000000,"state":"active","ping":59}]},{"server_id":8,"name":"Uncletopia | Dallas | 1 | All Maps","name_short":"dal-1","host":"dal-1.us.uncletopia.com","port":27015,"enabled":true,"region":"us-central","cc":"us","latitude":32.779167,"longitude":-96.80889,"reserved":0,"last_update":"0001-01-01T00:00:00Z","name_a2s":"Uncletopia | Dallas | 1 | All Maps","protocol":17,"map":"pl_frontier_final","folder":"tf","game":"Team Fortress","app_id":440,"player_count":0,"max_players":24,"Bots":0,"server_type":"Dedicated","server_os":"Linux","password":true,"vac":true,"version":"7723704","steam_id":85568392924469986,"keywords":["nocrits","nodmgspread","payload","uncletopia"],"game_id":440,"stv_port":27016,"stv_name":"Uncletopia | Dallas | 1 | All Maps | STV","players":null},{"server_id":108,"name":"Uncletopia | Dallas | 2 | All Maps","name_short":"dal-2","host":"dal-1.us.uncletopia.com","port":27025,"enabled":true,"region":"us-central","cc":"us","latitude":32.779167,"longitude":-96.80889,"reserved":0,"last_update":"0001-01-01T00:00:00Z","name_a2s":"Uncletopia | Dallas | 2 | All Maps","protocol":17,"map":"pl_barnblitz","folder":"tf","game":"Team Fortress","app_id":440,"player_count":24,"max_players":24,"Bots":0,"server_type":"Dedicated","server_os":"Linux","password":true,"vac":true,"version":"7723704","steam_id":85568392924469988,"keywords":["nocrits","nodmgspread","payload","uncletopia"],"game_id":440,"stv_port":27026,"stv_name":"Uncletopia | Dallas | 2 | All Maps | STV","players":[{"user_id":18,"name":"B R O U T","steam_id":76561199161322235,"connected_time":2711000000000,"state":"active","ping":61},{"user_id":19,"name":"meh","steam_id":76561198136808129,"connected_time":2710000000000,"state":"active","ping":69},{"user_id":21,"name":"★CyberWario★","steam_id":76561198362810244,"connected_time":2708000000000,"state":"active","ping":105},{"user_id":32,"name":"Captain Matt","steam_id":76561198015374828,"connected_time":2452000000000,"state":"active","ping":69},{"user_id":14,"name":"G. Howard Dee","steam_id":76561198058382812,"connected_time":2722000000000,"state":"active","ping":63},{"user_id":8,"name":"DannyM","steam_id":76561198351165570,"connected_time":2745000000000,"state":"active","ping":40},{"user_id":9,"name":"Jesus Loves You57","steam_id":76561199058833769,"connected_time":2745000000000,"state":"active","ping":85},{"user_id":10,"name":"The Ultimate Coomer","steam_id":76561199128833757,"connected_time":2731000000000,"state":"active","ping":43},{"user_id":11,"name":"David De Bergerac","steam_id":76561198010306294,"connected_time":2729000000000,"state":"active","ping":86},{"user_id":38,"name":"+","steam_id":76561198262422184,"connected_time":304000000000,"state":"active","ping":55},{"user_id":13,"name":"★CyberMario★","steam_id":76561198045798329,"connected_time":2725000000000,"state":"active","ping":47},{"user_id":15,"name":"keffers | Chrimbus Time","steam_id":76561198202338796,"connected_time":2720000000000,"state":"active","ping":80},{"user_id":39,"name":"Medical Asshat","steam_id":76561198004584315,"connected_time":304000000000,"state":"active","ping":89},{"user_id":17,"name":"poey","steam_id":76561198865346767,"connected_time":2713000000000,"state":"active","ping":66},{"user_id":20,"name":"UNINSURED MOTORIST","steam_id":76561198070923665,"connected_time":2709000000000,"state":"active","ping":101},{"user_id":26,"name":"❤ Ashley ❤","steam_id":76561198056428303,"connected_time":2680000000000,"state":"active","ping":76},{"user_id":23,"name":"r0ck","steam_id":76561198141716764,"connected_time":2704000000000,"state":"active","ping":98},{"user_id":33,"name":"Nugakku","steam_id":76561198082346219,"connected_time":1915000000000,"state":"active","ping":85},{"user_id":25,"name":"bigman","steam_id":76561199055369923,"connected_time":2685000000000,"state":"active","ping":86},{"user_id":27,"name":"Apetometrist","steam_id":76561198045391635,"connected_time":2678000000000,"state":"active","ping":79},{"user_id":37,"name":"Xylemon","steam_id":76561197965297420,"connected_time":718000000000,"state":"active","ping":102},{"user_id":29,"name":"Zee❤","steam_id":76561198274550638,"connected_time":2666000000000,"state":"active","ping":56},{"user_id":30,"name":"Joker Joestar","steam_id":76561198115696839,"connected_time":2660000000000,"state":"active","ping":73},{"user_id":35,"name":"JudeTheDude","steam_id":76561198834387981,"connected_time":1526000000000,"state":"active","ping":87}]},{"server_id":5,"name":"Uncletopia | Frankfurt | 1 | All Maps","name_short":"frk-1","host":"frk-1.de.uncletopia.com","port":27015,"enabled":true,"region":"eu","cc":"de","latitude":50.110924,"longitude":8.682127,"reserved":0,"last_update":"0001-01-01T00:00:00Z","name_a2s":"Uncletopia | Frankfurt | 1 | All Maps","protocol":17,"map":"cp_mountainlab","folder":"tf","game":"Team Fortress","app_id":440,"player_count":0,"max_players":24,"Bots":0,"server_type":"Dedicated","server_os":"Linux","password":true,"vac":true,"version":"7723704","steam_id":85568392924469989,"keywords":["cp","nocrits","nodmgspread","uncletopia"],"game_id":440,"stv_port":27016,"stv_name":"Uncletopia | Frankfurt | 1 | All Maps | STV","players":null},{"server_id":110,"name":"Uncletopia | Frankfurt | 2 | All Maps","name_short":"frk-2","host":"frk-1.de.uncletopia.com","port":27025,"enabled":true,"region":"eu","cc":"de","latitude":50.110924,"longitude":8.682127,"reserved":0,"last_update":"0001-01-01T00:00:00Z","name_a2s":"Uncletopia | Frankfurt | 2 | All Maps","protocol":17,"map":"pl_pier","folder":"tf","game":"Team Fortress","app_id":440,"player_count":0,"max_players":24,"Bots":0,"server_type":"Dedicated","server_os":"Linux","password":true,"vac":true,"version":"7723704","steam_id":85568392924469990,"keywords":["nocrits","nodmgspread","payload","uncletopia"],"game_id":440,"stv_port":27026,"stv_name":"Uncletopia | Frankfurt | 2 | All Maps | STV","players":null},{"server_id":308,"name":"Uncletopia | Frankfurt | 3 | All Maps","name_short":"frk-3","host":"frk-1.de.uncletopia.com","port":27035,"enabled":true,"region":"eu","cc":"de","latitude":50.110924,"longitude":8.682127,"reserved":0,"last_update":"0001-01-01T00:00:00Z","name_a2s":"Uncletopia | Frankfurt | 3 | All Maps","protocol":17,"map":"pl_swiftwater_final1","folder":"tf","game":"Team Fortress","app_id":440,"player_count":0,"max_players":24,"Bots":0,"server_type":"Dedicated","server_os":"Linux","password":true,"vac":true,"version":"7723704","steam_id":85568392924504274,"keywords":["nocrits","nodmgspread","payload","uncletopia"],"game_id":440,"stv_port":27036,"stv_name":"Uncletopia | Frankfurt | 3 | All Maps | STV","players":null},{"server_id":309,"name":"Uncletopia | Frankfurt | 4 | All Maps","name_short":"frk-4","host":"frk-1.de.uncletopia.com","port":27045,"enabled":true,"region":"eu","cc":"de","latitude":50.110924,"longitude":8.682127,"reserved":0,"last_update":"0001-01-01T00:00:00Z","name_a2s":"Uncletopia | Frankfurt | 4 | All Maps","protocol":17,"map":"cp_altitude","folder":"tf","game":"Team Fortress","app_id":440,"player_count":0,"max_players":24,"Bots":0,"server_type":"Dedicated","server_os":"Linux","password":true,"vac":true,"version":"7723704","steam_id":85568392924504275,"keywords":["cp","nocrits","nodmgspread","uncletopia"],"game_id":440,"stv_port":27046,"stv_name":"Uncletopia | Frankfurt | 4 | All Maps | STV","players":null},{"server_id":310,"name":"Uncletopia | Frankfurt | 5 | All Maps","name_short":"frk-5","host":"frk-1.de.uncletopia.com","port":27055,"enabled":true,"region":"eu","cc":"de","latitude":50.110924,"longitude":8.682127,"reserved":0,"last_update":"0001-01-01T00:00:00Z","name_a2s":"Uncletopia | Frankfurt | 5 | All Maps","protocol":17,"map":"cp_process_final","folder":"tf","game":"Team Fortress","app_id":440,"player_count":0,"max_players":24,"Bots":0,"server_type":"Dedicated","server_os":"Linux","password":true,"vac":true,"version":"7723704","steam_id":85568392924504277,"keywords":["cp","nocrits","nodmgspread","uncletopia"],"game_id":440,"stv_port":27056,"stv_name":"Uncletopia | Frankfurt | 5 | All Maps | STV","players":null},{"server_id":311,"name":"Uncletopia | Frankfurt | 6 | All Maps","name_short":"frk-6","host":"frk-1.de.uncletopia.com","port":27065,"enabled":true,"region":"eu","cc":"de","latitude":50.110924,"longitude":8.682127,"reserved":0,"last_update":"0001-01-01T00:00:00Z","name_a2s":"Uncletopia | Frankfurt | 6 | All Maps","protocol":17,"map":"cp_snakewater_final1","folder":"tf","game":"Team Fortress","app_id":440,"player_count":0,"max_players":24,"Bots":0,"server_type":"Dedicated","server_os":"Linux","password":true,"vac":true,"version":"7723704","steam_id":85568392924504278,"keywords":["cp","nocrits","nodmgspread","uncletopia"],"game_id":440,"stv_port":27066,"stv_name":"Uncletopia | Frankfurt | 6 | All Maps | STV","players":null},{"server_id":23,"name":"Uncletopia | Frankfurt | 7 | No Payload","name_short":"frk-7","host":"frk-1.de.uncletopia.com","port":27075,"enabled":true,"region":"eu","cc":"de","latitude":50.110924,"longitude":8.682127,"reserved":0,"last_update":"0001-01-01T00:00:00Z","name_a2s":"Uncletopia | Frankfurt | 7 | No Payload","protocol":17,"map":"pl_upward","folder":"tf","game":"Team Fortress","app_id":440,"player_count":0,"max_players":24,"Bots":0,"server_type":"Dedicated","server_os":"Linux","password":true,"vac":true,"version":"7723704","steam_id":85568392924742827,"keywords":["nocrits","nodmgspread","payload","uncletopia"],"game_id":440,"stv_port":27076,"stv_name":"Uncletopia | Frankfurt | 7 | No Payload | STV","players":null},{"server_id":24,"name":"Uncletopia | Frankfurt | 8 | Community","name_short":"frk-8","host":"frk-1.de.uncletopia.com","port":27085,"enabled":true,"region":"eu","cc":"de","latitude":50.110924,"longitude":8.682127,"reserved":0,"last_update":"0001-01-01T00:00:00Z","name_a2s":"Uncletopia | Frankfurt | 8 | Community","protocol":17,"map":"cp_altitude","folder":"tf","game":"Team Fortress","app_id":440,"player_count":0,"max_players":24,"Bots":0,"server_type":"Dedicated","server_os":"Linux","password":true,"vac":true,"version":"7723704","steam_id":85568392924742828,"keywords":["cp","nocrits","nodmgspread","uncletopia"],"game_id":440,"stv_port":27086,"stv_name":"Uncletopia | Frankfurt | 8 | Community | STV","players":null},{"server_id":202,"name":"Uncletopia | Hong Kong | 1 | All Maps","name_short":"hgk-1","host":"hgk-1.hk.uncletopia.com","port":27015,"enabled":true,"region":"asia","cc":"hk","latitude":22.302711,"longitude":114.177216,"reserved":0,"last_update":"0001-01-01T00:00:00Z","name_a2s":"Uncletopia | Hong Kong | 1 | All Maps","protocol":17,"map":"pl_wutville_event","folder":"tf","game":"Team Fortress","app_id":440,"player_count":24,"max_players":24,"Bots":0,"server_type":"Dedicated","server_os":"Linux","password":true,"vac":true,"version":"7723704","steam_id":85568392924494504,"keywords":["nocrits","nodmgspread","payload","uncletopia"],"game_id":440,"stv_port":27016,"stv_name":"Uncletopia | Hong Kong | 1 | All Maps | STV","players":[{"user_id":213,"name":"Blonde By Frank Ocean","steam_id":76561198400698408,"connected_time":3457000000000,"state":"spawning","ping":93},{"user_id":189,"name":"i like cheese","steam_id":76561198085893796,"connected_time":5225000000000,"state":"active","ping":167},{"user_id":220,"name":"JayJ","steam_id":76561198324008555,"connected_time":2824000000000,"state":"spawning","ping":74},{"user_id":241,"name":"CaptainBozo","steam_id":76561199151959977,"connected_time":576000000000,"state":"spawning","ping":60},{"user_id":203,"name":"Puddin","steam_id":76561198140052918,"connected_time":4468000000000,"state":"active","ping":112},{"user_id":201,"name":"Telekhine","steam_id":76561198387120618,"connected_time":4618000000000,"state":"active","ping":95},{"user_id":224,"name":"Lúd","steam_id":76561198828840546,"connected_time":2775000000000,"state":"active","ping":66},{"user_id":238,"name":"Noyour","steam_id":76561198323259830,"connected_time":1015000000000,"state":"active","ping":122},{"user_id":179,"name":"煙海 | Enkai","steam_id":76561198050460825,"connected_time":6887000000000,"state":"active","ping":129},{"user_id":18,"name":"Bertengkar","steam_id":76561198213031155,"connected_time":14363000000000,"state":"spawning","ping":108},{"user_id":251,"name":"Pillboi","steam_id":76561198011172886,"connected_time":28000000000,"state":"active","ping":53},{"user_id":237,"name":"AzureWares","steam_id":76561199439340850,"connected_time":1031000000000,"state":"active","ping":91},{"user_id":195,"name":"Vortex Morez","steam_id":76561198833527091,"connected_time":5202000000000,"state":"active","ping":102},{"user_id":245,"name":"KHMaster","steam_id":76561199198453345,"connected_time":425000000000,"state":"active","ping":68},{"user_id":242,"name":"bakabazooka(merrychrismas)","steam_id":76561198061628689,"connected_time":574000000000,"state":"active","ping":114},{"user_id":244,"name":"Me is gaming","steam_id":76561199025438331,"connected_time":502000000000,"state":"spawning","ping":64},{"user_id":212,"name":"Momoxhien","steam_id":76561198414997429,"connected_time":3768000000000,"state":"spawning","ping":71},{"user_id":230,"name":"juan233","steam_id":76561198867566247,"connected_time":1709000000000,"state":"active","ping":132},{"user_id":197,"name":"it chrmis time","steam_id":76561198055553140,"connected_time":5158000000000,"state":"spawning","ping":82},{"user_id":161,"name":"Windmill","steam_id":76561199230997986,"connected_time":7981000000000,"state":"active","ping":112},{"user_id":240,"name":"Milk❤ (most hated guy in ut)","steam_id":76561198163911560,"connected_time":593000000000,"state":"spawning","ping":106},{"user_id":162,"name":"Lu","steam_id":76561198320532821,"connected_time":7864000000000,"state":"active","ping":269},{"user_id":236,"name":"chaoticrecon","steam_id":76561199078255117,"connected_time":1599000000000,"state":"spawning","ping":64},{"user_id":222,"name":"ProgressorBread24","steam_id":76561199070629046,"connected_time":2822000000000,"state":"spawning","ping":142}]},{"server_id":1,"name":"Uncletopia | Los Angeles | 1 | All Maps","name_short":"lax-1","host":"lax-1.us.uncletopia.com","port":27015,"enabled":true,"region":"us-west","cc":"us","latitude":33.94279,"longitude":-118.41004,"reserved":0,"last_update":"0001-01-01T00:00:00Z","name_a2s":"Uncletopia | Los Angeles | 1 | All Maps","protocol":17,"map":"pl_snowycoast","folder":"tf","game":"Team Fortress","app_id":440,"player_count":0,"max_players":24,"Bots":0,"server_type":"Dedicated","server_os":"Linux","password":true,"vac":true,"version":"7723704","steam_id":85568392924469991,"keywords":["nocrits","nodmgspread","payload","uncletopia"],"game_id":440,"stv_port":27016,"stv_name":"Uncletopia | Los Angeles | 1 | All Maps | STV","players":null},{"server_id":112,"name":"Uncletopia | Los Angeles | 2 | All Maps","name_short":"lax-2","host":"lax-1.us.uncletopia.com","port":27025,"enabled":true,"region":"us-west","cc":"us","latitude":33.94279,"longitude":-118.41004,"reserved":0,"last_update":"0001-01-01T00:00:00Z","name_a2s":"Uncletopia | Los Angeles | 2 | All Maps","protocol":17,"map":"koth_viaduct","folder":"tf","game":"Team Fortress","app_id":440,"player_count":0,"max_players":24,"Bots":0,"server_type":"Dedicated","server_os":"Linux","password":true,"vac":true,"version":"7723704","steam_id":85568392924469992,"keywords":["cp","nocrits","nodmgspread","uncletopia"],"game_id":440,"stv_port":27026,"stv_name":"Uncletopia | Los Angeles | 2 | All Maps | STV","players":null},{"server_id":324,"name":"Uncletopia | Los Angeles | 3 | All Maps","name_short":"lax-3","host":"lax-1.us.uncletopia.com","port":27035,"enabled":true,"region":"us-west","cc":"us","latitude":33.94279,"longitude":-118.41004,"reserved":0,"last_update":"0001-01-01T00:00:00Z","name_a2s":"Uncletopia | Los Angeles | 3 | All Maps","protocol":17,"map":"koth_viaduct","folder":"tf","game":"Team Fortress","app_id":440,"player_count":0,"max_players":24,"Bots":0,"server_type":"Dedicated","server_os":"Linux","password":true,"vac":true,"version":"7723704","steam_id":85568392924510198,"keywords":["cp","nocrits","nodmgspread","uncletopia"],"game_id":440,"stv_port":27036,"stv_name":"Uncletopia | Los Angeles | 3 | All Maps | STV","players":null},{"server_id":25,"name":"Uncletopia | Los Angeles | 4 | Stopwatch Beta","name_short":"lax-4","host":"lax-1.us.uncletopia.com","port":27045,"enabled":true,"region":"us-west","cc":"us","latitude":33.94279,"longitude":-118.41004,"reserved":0,"last_update":"0001-01-01T00:00:00Z","name_a2s":"Uncletopia | Los Angeles | 4 | Stopwatch Beta","protocol":17,"map":"cp_sunshine","folder":"tf","game":"Team Fortress","app_id":440,"player_count":0,"max_players":24,"Bots":0,"server_type":"Dedicated","server_os":"Linux","password":true,"vac":true,"version":"7723704","steam_id":85568392924510199,"keywords":["cp","nocrits","nodmgspread","uncletopia"],"game_id":440,"stv_port":27046,"stv_name":"Uncletopia | Los Angeles | 4 | Stopwatch Beta | STV","players":null},{"server_id":11,"name":"Uncletopia | London | 1 | All Maps","name_short":"lon-1","host":"lon-1.uk.uncletopia.com","port":27015,"enabled":true,"region":"eu","cc":"gb","latitude":51.509865,"longitude":-0.118092,"reserved":0,"last_update":"0001-01-01T00:00:00Z","name_a2s":"Uncletopia | London | 1 | All Maps","protocol":17,"map":"koth_viaduct","folder":"tf","game":"Team Fortress","app_id":440,"player_count":9,"max_players":24,"Bots":0,"server_type":"Dedicated","server_os":"Linux","password":true,"vac":true,"version":"7723704","steam_id":85568392924367362,"keywords":["cp","nocrits","nodmgspread","uncletopia"],"game_id":440,"stv_port":27016,"stv_name":"Uncletopia | London | 1 | All Maps | STV","players":[{"user_id":3,"name":"dorak","steam_id":76561198818037965,"connected_time":929000000000,"state":"active","ping":105},{"user_id":4,"name":"Труп Володя","steam_id":76561198035718457,"connected_time":913000000000,"state":"active","ping":86},{"user_id":5,"name":"paska","steam_id":76561198128841501,"connected_time":909000000000,"state":"active","ping":87},{"user_id":6,"name":"Tomb","steam_id":76561198110349761,"connected_time":905000000000,"state":"active","ping":46},{"user_id":7,"name":"Left Boob","steam_id":76561199359780574,"connected_time":886000000000,"state":"active","ping":163},{"user_id":8,"name":"Akrin","steam_id":76561199254804349,"connected_time":885000000000,"state":"active","ping":174},{"user_id":10,"name":"prxdjxct","steam_id":76561199123557947,"connected_time":682000000000,"state":"active","ping":150},{"user_id":11,"name":"Мыкола Арматура","steam_id":76561199281115916,"connected_time":621000000000,"state":"active","ping":141},{"user_id":12,"name":"МЕДИК!","steam_id":76561198803488036,"connected_time":502000000000,"state":"active","ping":119}]},{"server_id":114,"name":"Uncletopia | London | 2 | All Maps","name_short":"lon-2","host":"lon-1.uk.uncletopia.com","port":27025,"enabled":true,"region":"eu","cc":"gb","latitude":51.509865,"longitude":-0.118092,"reserved":0,"last_update":"0001-01-01T00:00:00Z","name_a2s":"Uncletopia | London | 2 | All Maps","protocol":17,"map":"koth_highpass","folder":"tf","game":"Team Fortress","app_id":440,"player_count":0,"max_players":24,"Bots":0,"server_type":"Dedicated","server_os":"Linux","password":true,"vac":true,"version":"7723704","steam_id":85568392924470941,"keywords":["cp","nocrits","nodmgspread","uncletopia"],"game_id":440,"stv_port":27026,"stv_name":"Uncletopia | London | 2 | All Maps | STV","players":null},{"server_id":320,"name":"Uncletopia | London | 3 | All Maps","name_short":"lon-3","host":"lon-1.uk.uncletopia.com","port":27035,"enabled":true,"region":"eu","cc":"gb","latitude":51.509865,"longitude":-0.118092,"reserved":0,"last_update":"0001-01-01T00:00:00Z","name_a2s":"Uncletopia | London | 3 | All Maps","protocol":17,"map":"pl_barnblitz","folder":"tf","game":"Team Fortress","app_id":440,"player_count":0,"max_players":24,"Bots":0,"server_type":"Dedicated","server_os":"Linux","password":true,"vac":true,"version":"7723704","steam_id":85568392924510192,"keywords":["nocrits","nodmgspread","payload","uncletopia"],"game_id":440,"stv_port":27036,"stv_name":"Uncletopia | London | 3 | All Maps | STV","players":null},{"server_id":321,"name":"Uncletopia | London | 4 | All Maps","name_short":"lon-4","host":"lon-1.uk.uncletopia.com","port":27045,"enabled":true,"region":"eu","cc":"gb","latitude":51.509865,"longitude":-0.118092,"reserved":0,"last_update":"0001-01-01T00:00:00Z","name_a2s":"Uncletopia | London | 4 | All Maps","protocol":17,"map":"koth_highpass","folder":"tf","game":"Team Fortress","app_id":440,"player_count":0,"max_players":24,"Bots":0,"server_type":"Dedicated","server_os":"Linux","password":true,"vac":true,"version":"7723704","steam_id":85568392924510193,"keywords":["cp","nocrits","nodmgspread","uncletopia"],"game_id":440,"stv_port":27046,"stv_name":"Uncletopia | London | 4 | All Maps | STV","players":null},{"server_id":21,"name":"Uncletopia | London | 5 | All Maps","name_short":"lon-5","host":"lon-1.uk.uncletopia.com","port":27055,"enabled":true,"region":"eu","cc":"gb","latitude":51.509865,"longitude":-0.118092,"reserved":0,"last_update":"0001-01-01T00:00:00Z","name_a2s":"Uncletopia | London | 5 | All Maps","protocol":17,"map":"pl_badwater","folder":"tf","game":"Team Fortress","app_id":440,"player_count":0,"max_players":24,"Bots":0,"server_type":"Dedicated","server_os":"Linux","password":true,"vac":true,"version":"7723704","steam_id":85568392924742829,"keywords":["nocrits","nodmgspread","payload","uncletopia"],"game_id":440,"stv_port":27056,"stv_name":"Uncletopia | London | 5 | All Maps | STV","players":null},{"server_id":22,"name":"Uncletopia | London | 6 | All Maps","name_short":"lon-6","host":"lon-1.uk.uncletopia.com","port":27065,"enabled":true,"region":"eu","cc":"gb","latitude":51.509865,"longitude":-0.118092,"reserved":0,"last_update":"0001-01-01T00:00:00Z","name_a2s":"Uncletopia | London | 6 | All Maps","protocol":17,"map":"cp_altitude","folder":"tf","game":"Team Fortress","app_id":440,"player_count":0,"max_players":24,"Bots":0,"server_type":"Dedicated","server_os":"Linux","password":true,"vac":true,"version":"7723704","steam_id":85568392924742830,"keywords":["cp","nocrits","nodmgspread","uncletopia"],"game_id":440,"stv_port":27066,"stv_name":"Uncletopia | London | 6 | All Maps | STV","players":null},{"server_id":40,"name":"Uncletopia | London | 7 | No Payload","name_short":"lon-7","host":"lon-1.uk.uncletopia.com","port":27075,"enabled":true,"region":"eu","cc":"gb","latitude":51.509865,"longitude":-0.118092,"reserved":0,"last_update":"0001-01-01T00:00:00Z","name_a2s":"Uncletopia | London | 7 | No Payload","protocol":17,"map":"koth_cascade","folder":"tf","game":"Team Fortress","app_id":440,"player_count":0,"max_players":24,"Bots":0,"server_type":"Dedicated","server_os":"Linux","password":true,"vac":true,"version":"7723704","steam_id":85568392924964314,"keywords":["cp","nocrits","nodmgspread","uncletopia"],"game_id":440,"stv_port":27076,"stv_name":"Uncletopia | London | 7 | No Payload | STV","players":null},{"server_id":41,"name":"Uncletopia | London | 8 | Community","name_short":"lon-8","host":"lon-1.uk.uncletopia.com","port":27085,"enabled":true,"region":"eu","cc":"gb","latitude":51.509865,"longitude":-0.118092,"reserved":0,"last_update":"0001-01-01T00:00:00Z","name_a2s":"Uncletopia | London | 8 | Community","protocol":17,"map":"pl_snowycoast","folder":"tf","game":"Team Fortress","app_id":440,"player_count":0,"max_players":24,"Bots":0,"server_type":"Dedicated","server_os":"Linux","password":true,"vac":true,"version":"7723704","steam_id":85568392924964315,"keywords":["nocrits","nodmgspread","payload","uncletopia"],"game_id":440,"stv_port":27086,"stv_name":"Uncletopia | London | 8 | Community | STV","players":null},{"server_id":300,"name":"Uncletopia | Montréal | 1 | All Maps","name_short":"mtl-1","host":"mtl-1.ca.uncletopia.com","port":27015,"enabled":true,"region":"us-east","cc":"ca","latitude":45.50889,"longitude":-73.56167,"reserved":0,"last_update":"0001-01-01T00:00:00Z","name_a2s":"Uncletopia | Montréal | 1 | All Maps","protocol":17,"map":"pl_snowycoast","folder":"tf","game":"Team Fortress","app_id":440,"player_count":0,"max_players":24,"Bots":0,"server_type":"Dedicated","server_os":"Linux","password":true,"vac":true,"version":"7723704","steam_id":85568392924500087,"keywords":["nocrits","nodmgspread","payload","uncletopia"],"game_id":440,"stv_port":27016,"stv_name":"Uncletopia | Montréal | 1 | All Maps | STV","players":null},{"server_id":301,"name":"Uncletopia | Montréal | 2 | All Maps","name_short":"mtl-2","host":"mtl-1.ca.uncletopia.com","port":27025,"enabled":true,"region":"us-east","cc":"ca","latitude":45.50889,"longitude":-73.56167,"reserved":0,"last_update":"0001-01-01T00:00:00Z","name_a2s":"Uncletopia | Montréal | 2 | All Maps","protocol":17,"map":"cp_process_final","folder":"tf","game":"Team Fortress","app_id":440,"player_count":0,"max_players":24,"Bots":0,"server_type":"Dedicated","server_os":"Linux","password":true,"vac":true,"version":"7723704","steam_id":85568392924500088,"keywords":["cp","nocrits","nodmgspread","uncletopia"],"game_id":440,"stv_port":27026,"stv_name":"Uncletopia | Montréal | 2 | All Maps | STV","players":null},{"server_id":302,"name":"Uncletopia | Montréal | 3 | All Maps","name_short":"mtl-3","host":"mtl-1.ca.uncletopia.com","port":27035,"enabled":true,"region":"us-east","cc":"ca","latitude":45.50889,"longitude":-73.56167,"reserved":0,"last_update":"0001-01-01T00:00:00Z","name_a2s":"Uncletopia | Montréal | 3 | All Maps","protocol":17,"map":"pl_barnblitz","folder":"tf","game":"Team Fortress","app_id":440,"player_count":0,"max_players":24,"Bots":0,"server_type":"Dedicated","server_os":"Linux","password":true,"vac":true,"version":"7723704","steam_id":85568392924500089,"keywords":["nocrits","nodmgspread","payload","uncletopia"],"game_id":440,"stv_port":27036,"stv_name":"Uncletopia | Montréal | 3 | All Maps | STV","players":null},{"server_id":303,"name":"Uncletopia | Montréal | 4 | No Payload","name_short":"mtl-4","host":"mtl-1.ca.uncletopia.com","port":27045,"enabled":true,"region":"us-east","cc":"ca","latitude":45.50889,"longitude":-73.56167,"reserved":0,"last_update":"0001-01-01T00:00:00Z","name_a2s":"Uncletopia | Montréal | 4 | No Payload","protocol":17,"map":"koth_cascade","folder":"tf","game":"Team Fortress","app_id":440,"player_count":0,"max_players":24,"Bots":0,"server_type":"Dedicated","server_os":"Linux","password":true,"vac":true,"version":"7723704","steam_id":85568392924500090,"keywords":["cp","nocrits","nodmgspread","uncletopia"],"game_id":440,"stv_port":27046,"stv_name":"Uncletopia | Montréal | 4 | No Payload | STV","players":null},{"server_id":13,"name":"Uncletopia | New York City | 1 | All Maps","name_short":"nyc-1","host":"nyc-1.us.uncletopia.com","port":27015,"enabled":true,"region":"us-east","cc":"us","latitude":40.73061,"longitude":-73.93524,"reserved":0,"last_update":"0001-01-01T00:00:00Z","name_a2s":"Uncletopia | New York City | 1 | All Maps","protocol":17,"map":"koth_viaduct","folder":"tf","game":"Team Fortress","app_id":440,"player_count":0,"max_players":24,"Bots":0,"server_type":"Dedicated","server_os":"Linux","password":true,"vac":true,"version":"7723704","steam_id":85568392924469993,"keywords":["cp","nocrits","nodmgspread","uncletopia"],"game_id":440,"stv_port":27016,"stv_name":"Uncletopia | New York City | 1 | All Maps | STV","players":null},{"server_id":14,"name":"Uncletopia | New York City | 2 | All Maps","name_short":"nyc-2","host":"nyc-1.us.uncletopia.com","port":27025,"enabled":true,"region":"us-east","cc":"us","latitude":40.73061,"longitude":-73.93524,"reserved":0,"last_update":"0001-01-01T00:00:00Z","name_a2s":"Uncletopia | New York City | 2 | All Maps","protocol":17,"map":"ctf_turbine","folder":"tf","game":"Team Fortress","app_id":440,"player_count":24,"max_players":24,"Bots":0,"server_type":"Dedicated","server_os":"Linux","password":true,"vac":true,"version":"7723704","steam_id":85568392924469994,"keywords":["ctf","nocrits","nodmgspread","uncletopia"],"game_id":440,"stv_port":27026,"stv_name":"Uncletopia | New York City | 2 | All Maps | STV","players":[{"user_id":9,"name":"OFF DA GLOOP!!","steam_id":76561198126549311,"connected_time":2618000000000,"state":"active","ping":69},{"user_id":15,"name":"Sticky","steam_id":76561198031581547,"connected_time":2039000000000,"state":"active","ping":107},{"user_id":5,"name":"munkiツ","steam_id":76561198841270249,"connected_time":2810000000000,"state":"active","ping":38},{"user_id":6,"name":"Grundle Thunder","steam_id":76561197960790338,"connected_time":2752000000000,"state":"active","ping":60},{"user_id":10,"name":"sweet n spicy","steam_id":76561198165660732,"connected_time":2452000000000,"state":"active","ping":70},{"user_id":48,"name":"Infinity","steam_id":76561199134919099,"connected_time":23000000000,"state":"active","ping":114},{"user_id":11,"name":"Insayne","steam_id":76561199237951955,"connected_time":2440000000000,"state":"active","ping":66},{"user_id":36,"name":"sprunk","steam_id":76561198061768122,"connected_time":670000000000,"state":"active","ping":74},{"user_id":39,"name":"Diamond Jack","steam_id":76561198321304762,"connected_time":547000000000,"state":"active","ping":39},{"user_id":17,"name":"2003 chevy malibu","steam_id":76561199075669125,"connected_time":1893000000000,"state":"active","ping":46},{"user_id":18,"name":"Juri Han","steam_id":76561198041678517,"connected_time":1888000000000,"state":"active","ping":135},{"user_id":20,"name":"SpycyNoodles","steam_id":76561198309439750,"connected_time":1828000000000,"state":"active","ping":81},{"user_id":21,"name":"lets do it","steam_id":76561198110314362,"connected_time":1827000000000,"state":"active","ping":70},{"user_id":40,"name":"Seller of Waffles","steam_id":76561198296018138,"connected_time":508000000000,"state":"active","ping":81},{"user_id":23,"name":"Iggy!","steam_id":76561198035671259,"connected_time":1824000000000,"state":"active","ping":78},{"user_id":47,"name":"cooleo740","steam_id":76561198053777905,"connected_time":186000000000,"state":"active","ping":77},{"user_id":41,"name":"PAC-MATH","steam_id":76561198327729748,"connected_time":507000000000,"state":"active","ping":73},{"user_id":46,"name":"harry","steam_id":76561198365118514,"connected_time":219000000000,"state":"active","ping":55},{"user_id":45,"name":"Smiley","steam_id":76561198836523202,"connected_time":321000000000,"state":"active","ping":91},{"user_id":43,"name":"Lucy Lou!","steam_id":76561198078209088,"connected_time":473000000000,"state":"active","ping":62},{"user_id":29,"name":"`o2","steam_id":76561197992030936,"connected_time":1776000000000,"state":"active","ping":53},{"user_id":35,"name":"eWVra2Vy","steam_id":76561198453565942,"connected_time":1035000000000,"state":"active","ping":65},{"user_id":44,"name":"so true","steam_id":76561198293857963,"connected_time":403000000000,"state":"active","ping":128},{"user_id":34,"name":"peachy","steam_id":76561198026664629,"connected_time":1375000000000,"state":"active","ping":49}]},{"server_id":15,"name":"Uncletopia | New York City | 3 | Stopwatch Beta","name_short":"nyc-3","host":"nyc-1.us.uncletopia.com","port":27035,"enabled":true,"region":"us-east","cc":"us","latitude":40.73061,"longitude":-73.93524,"reserved":0,"last_update":"0001-01-01T00:00:00Z","name_a2s":"Uncletopia | New York City | 3 | Stopwatch Beta","protocol":17,"map":"workshop/cp_reckoner_rc6.ugc674719999","folder":"tf","game":"Team Fortress","app_id":440,"player_count":0,"max_players":24,"Bots":0,"server_type":"Dedicated","server_os":"Linux","password":true,"vac":true,"version":"7723704","steam_id":85568392924742820,"keywords":["cp","nocrits","nodmgspread","uncletopia"],"game_id":440,"stv_port":27036,"stv_name":"Uncletopia | New York City | 3 | Stopwatch Beta | STV","players":null},{"server_id":16,"name":"Uncletopia | New York City | 4 | Community","name_short":"nyc-4","host":"nyc-1.us.uncletopia.com","port":27045,"enabled":true,"region":"us-east","cc":"us","latitude":40.73061,"longitude":-73.93524,"reserved":0,"last_update":"0001-01-01T00:00:00Z","name_a2s":"Uncletopia | New York City | 4 | Community","protocol":17,"map":"pl_frontier_final","folder":"tf","game":"Team Fortress","app_id":440,"player_count":3,"max_players":24,"Bots":0,"server_type":"Dedicated","server_os":"Linux","password":true,"vac":true,"version":"7723704","steam_id":85568392924742821,"keywords":["nocrits","nodmgspread","payload","uncletopia"],"game_id":440,"stv_port":27046,"stv_name":"Uncletopia | New York City | 4 | Community | STV","players":[{"user_id":5,"name":"AKAMUROGER","steam_id":76561198316523759,"connected_time":1203000000000,"state":"active","ping":47},{"user_id":6,"name":"Challenger Charles","steam_id":76561198005576553,"connected_time":1053000000000,"state":"active","ping":52},{"user_id":7,"name":"Stay SALTy bby","steam_id":76561198877590581,"connected_time":545000000000,"state":"active","ping":88}]},{"server_id":142,"name":"Uncletopia | São Paulo | 1 | All Maps","name_short":"sao-1","host":"sao-1.br.uncletopia.com","port":27015,"enabled":true,"region":"sa","cc":"br","latitude":-23.533773,"longitude":-46.62529,"reserved":0,"last_update":"0001-01-01T00:00:00Z","name_a2s":"Uncletopia | São Paulo | 1 | All Maps","protocol":17,"map":"koth_highpass","folder":"tf","game":"Team Fortress","app_id":440,"player_count":0,"max_players":24,"Bots":0,"server_type":"Dedicated","server_os":"Linux","password":true,"vac":true,"version":"7723704","steam_id":85568392924469996,"keywords":["cp","nocrits","nodmgspread","uncletopia"],"game_id":440,"stv_port":27016,"stv_name":"Uncletopia | São Paulo | 1 | All Maps | STV","players":null},{"server_id":143,"name":"Uncletopia | São Paulo | 2 | All Maps","name_short":"sao-2","host":"sao-2.br.uncletopia.com","port":27015,"enabled":true,"region":"sa","cc":"br","latitude":-23.533773,"longitude":-46.62529,"reserved":0,"last_update":"0001-01-01T00:00:00Z","name_a2s":"Uncletopia | São Paulo | 2 | All Maps","protocol":17,"map":"koth_cascade","folder":"tf","game":"Team Fortress","app_id":440,"player_count":0,"max_players":24,"Bots":0,"server_type":"Dedicated","server_os":"Linux","password":true,"vac":true,"version":"7723704","steam_id":85568392924485349,"keywords":["cp","nocrits","nodmgspread","uncletopia"],"game_id":440,"stv_port":27016,"stv_name":"Uncletopia | São Paulo | 2 | All Maps | STV","players":null},{"server_id":7,"name":"Uncletopia | Seattle | 1 | All Maps","name_short":"sea-1","host":"sea-1.us.uncletopia.com","port":27015,"enabled":true,"region":"us-west","cc":"us","latitude":47.608013,"longitude":-122.33517,"reserved":0,"last_update":"0001-01-01T00:00:00Z","name_a2s":"Uncletopia | Seattle | 1 | All Maps","protocol":17,"map":"pl_pier","folder":"tf","game":"Team Fortress","app_id":440,"player_count":5,"max_players":24,"Bots":0,"server_type":"Dedicated","server_os":"Linux","password":true,"vac":true,"version":"7723704","steam_id":85568392924469997,"keywords":["nocrits","nodmgspread","payload","uncletopia"],"game_id":440,"stv_port":27016,"stv_name":"Uncletopia | Seattle | 1 | All Maps | STV","players":[{"user_id":14,"name":"shane","steam_id":76561198060491451,"connected_time":549000000000,"state":"active","ping":92},{"user_id":18,"name":"laggy mcstab","steam_id":76561198106379962,"connected_time":230000000000,"state":"active","ping":45},{"user_id":17,"name":"D34dR4bbit","steam_id":76561198167411455,"connected_time":280000000000,"state":"active","ping":45},{"user_id":19,"name":"wintersEmbrace","steam_id":76561198205428892,"connected_time":188000000000,"state":"active","ping":53},{"user_id":21,"name":"Lycanroc  midnight form","steam_id":76561199100107392,"connected_time":58000000000,"state":"active","ping":217}]},{"server_id":119,"name":"Uncletopia | Seattle | 2 | All Maps","name_short":"sea-2","host":"sea-1.us.uncletopia.com","port":27025,"enabled":true,"region":"us-west","cc":"us","latitude":47.608013,"longitude":-122.33517,"reserved":0,"last_update":"0001-01-01T00:00:00Z","name_a2s":"Uncletopia | Seattle | 2 | All Maps","protocol":17,"map":"pl_upward","folder":"tf","game":"Team Fortress","app_id":440,"player_count":24,"max_players":24,"Bots":0,"server_type":"Dedicated","server_os":"Linux","password":true,"vac":true,"version":"7723704","steam_id":85568392924469998,"keywords":["nocrits","nodmgspread","payload","uncletopia"],"game_id":440,"stv_port":27026,"stv_name":"Uncletopia | Seattle | 2 | All Maps | STV","players":[{"user_id":3,"name":"rad killl raccoon","steam_id":76561198980975595,"connected_time":2734000000000,"state":"active","ping":64},{"user_id":4,"name":"gabberGirl99","steam_id":76561198131166135,"connected_time":2732000000000,"state":"active","ping":36},{"user_id":5,"name":"Ducks","steam_id":76561198130038345,"connected_time":2729000000000,"state":"active","ping":58},{"user_id":48,"name":"ThePriceIsRice","steam_id":76561198079069543,"connected_time":405000000000,"state":"active","ping":60},{"user_id":14,"name":"MinusSoup918","steam_id":76561198060902773,"connected_time":2714000000000,"state":"active","ping":91},{"user_id":8,"name":"pyrotechnic","steam_id":76561198043558709,"connected_time":2723000000000,"state":"active","ping":46},{"user_id":46,"name":"Lore","steam_id":76561198098407538,"connected_time":413000000000,"state":"active","ping":99},{"user_id":10,"name":"TüCold","steam_id":76561198111278197,"connected_time":2720000000000,"state":"active","ping":57},{"user_id":11,"name":"delight","steam_id":76561197980280272,"connected_time":2720000000000,"state":"active","ping":46},{"user_id":50,"name":"rorytherednosedreindeer","steam_id":76561198065825165,"connected_time":231000000000,"state":"active","ping":72},{"user_id":15,"name":"Joy in A Box","steam_id":76561198156820753,"connected_time":2707000000000,"state":"active","ping":178},{"user_id":43,"name":"Savant","steam_id":76561197969881916,"connected_time":443000000000,"state":"active","ping":58},{"user_id":53,"name":"goldhed","steam_id":76561198051751133,"connected_time":11000000000,"state":"spawning","ping":62},{"user_id":52,"name":"yo merry chirstmas","steam_id":76561198163265338,"connected_time":206000000000,"state":"active","ping":45},{"user_id":38,"name":"Arsonist Goose","steam_id":76561198147441830,"connected_time":1394000000000,"state":"active","ping":73},{"user_id":20,"name":"Retesaurus","steam_id":76561198045189319,"connected_time":2665000000000,"state":"active","ping":45},{"user_id":21,"name":"Sniff","steam_id":76561198010270922,"connected_time":2662000000000,"state":"active","ping":45},{"user_id":22,"name":"dougrocks421","steam_id":76561198165063918,"connected_time":2650000000000,"state":"active","ping":46},{"user_id":23,"name":"[K.Y.L.L.]Drone #0432 (it)","steam_id":76561198027321950,"connected_time":2643000000000,"state":"active","ping":45},{"user_id":24,"name":"2 Point Tom","steam_id":76561198087617008,"connected_time":2628000000000,"state":"active","ping":49},{"user_id":27,"name":"Soap","steam_id":76561197994893383,"connected_time":2607000000000,"state":"active","ping":49},{"user_id":36,"name":"William P. Ennis","steam_id":76561198073464877,"connected_time":1784000000000,"state":"active","ping":91},{"user_id":29,"name":"jorts","steam_id":76561199041179985,"connected_time":2564000000000,"state":"active","ping":57},{"user_id":42,"name":"The Squid Gamer™","steam_id":76561198340621517,"connected_time":1190000000000,"state":"active","ping":104}]},{"server_id":17,"name":"Uncletopia | San Francisco | 1 | All Maps","name_short":"sfo-1","host":"sfo-1.us.uncletopia.com","port":27015,"enabled":true,"region":"us-west","cc":"us","latitude":37.77397,"longitude":-122.4313,"reserved":0,"last_update":"0001-01-01T00:00:00Z","name_a2s":"Uncletopia | San Francisco | 1 | All Maps","protocol":17,"map":"pl_borneo","folder":"tf","game":"Team Fortress","app_id":440,"player_count":24,"max_players":24,"Bots":0,"server_type":"Dedicated","server_os":"Linux","password":true,"vac":true,"version":"7723704","steam_id":85568392924469999,"keywords":["nocrits","nodmgspread","payload","uncletopia"],"game_id":440,"stv_port":27016,"stv_name":"Uncletopia | San Francisco | 1 | All Maps | STV","players":[{"user_id":35,"name":"darren","steam_id":76561198105664560,"connected_time":1788000000000,"state":"active","ping":60},{"user_id":4,"name":"MegaBron James","steam_id":76561198066091050,"connected_time":2790000000000,"state":"active","ping":74},{"user_id":9,"name":"Frongus","steam_id":76561197979056451,"connected_time":2765000000000,"state":"active","ping":64},{"user_id":7,"name":"lol","steam_id":76561198026491738,"connected_time":2779000000000,"state":"active","ping":64},{"user_id":8,"name":"Soviet Potato","steam_id":76561198068546113,"connected_time":2769000000000,"state":"active","ping":45},{"user_id":10,"name":"Theory-Y","steam_id":76561198116419931,"connected_time":2753000000000,"state":"active","ping":79},{"user_id":11,"name":"A2","steam_id":76561198068266632,"connected_time":2748000000000,"state":"active","ping":94},{"user_id":12,"name":"BIGGS","steam_id":76561198057399996,"connected_time":2743000000000,"state":"active","ping":45},{"user_id":49,"name":"a chicken","steam_id":76561198313121580,"connected_time":389000000000,"state":"active","ping":60},{"user_id":15,"name":"boistopmotion","steam_id":76561199122056821,"connected_time":2714000000000,"state":"active","ping":70},{"user_id":18,"name":"Plasic74x","steam_id":76561199058981206,"connected_time":2687000000000,"state":"active","ping":75},{"user_id":17,"name":"TehSavigeGamer14","steam_id":76561198270963428,"connected_time":2704000000000,"state":"active","ping":50},{"user_id":19,"name":"TheHarmacist","steam_id":76561198068249096,"connected_time":2687000000000,"state":"active","ping":92},{"user_id":43,"name":"bad spy player","steam_id":76561198873699671,"connected_time":1042000000000,"state":"active","ping":62},{"user_id":47,"name":"THIRDPIERCE","steam_id":76561198405366314,"connected_time":879000000000,"state":"active","ping":90},{"user_id":46,"name":"Sinn","steam_id":76561199013434543,"connected_time":961000000000,"state":"active","ping":58},{"user_id":39,"name":"SMS Runn__Jake","steam_id":76561198075505397,"connected_time":1235000000000,"state":"active","ping":120},{"user_id":25,"name":"Divine Kitty","steam_id":76561198293490689,"connected_time":2649000000000,"state":"active","ping":111},{"user_id":38,"name":"Board","steam_id":76561198134326473,"connected_time":1511000000000,"state":"active","ping":92},{"user_id":40,"name":"hoot","steam_id":76561198160455073,"connected_time":1193000000000,"state":"active","ping":87},{"user_id":45,"name":"Dad 2","steam_id":76561198138546187,"connected_time":1015000000000,"state":"active","ping":63},{"user_id":29,"name":"Darkrain","steam_id":76561197987915511,"connected_time":2623000000000,"state":"active","ping":106},{"user_id":48,"name":"TheBrocklobster","steam_id":76561198039682984,"connected_time":403000000000,"state":"active","ping":66},{"user_id":51,"name":"plutonium isotope","steam_id":76561198319442494,"connected_time":87000000000,"state":"active","ping":64}]},{"server_id":18,"name":"Uncletopia | San Francisco | 2 | All Maps","name_short":"sfo-2","host":"sfo-1.us.uncletopia.com","port":27025,"enabled":true,"region":"us-west","cc":"us","latitude":37.77397,"longitude":-122.4313,"reserved":0,"last_update":"0001-01-01T00:00:00Z","name_a2s":"Uncletopia | San Francisco | 2 | All Maps","protocol":17,"map":"pl_swiftwater_final1","folder":"tf","game":"Team Fortress","app_id":440,"player_count":20,"max_players":24,"Bots":0,"server_type":"Dedicated","server_os":"Linux","password":true,"vac":true,"version":"7723704","steam_id":85568392924470000,"keywords":["nocrits","nodmgspread","payload","uncletopia"],"game_id":440,"stv_port":27026,"stv_name":"Uncletopia | San Francisco | 2 | All Maps | STV","players":[{"user_id":46,"name":"lukamine","steam_id":76561198166827208,"connected_time":1143000000000,"state":"active","ping":60},{"user_id":12,"name":"FCKGW-RHQQ2-YXRKT-8TG6W-2B7Q8","steam_id":76561197993138592,"connected_time":2067000000000,"state":"spawning","ping":62},{"user_id":54,"name":"sweaterfan","steam_id":76561199389567214,"connected_time":824000000000,"state":"active","ping":109},{"user_id":13,"name":"Cinna Mon","steam_id":76561198005840633,"connected_time":2000000000000,"state":"active","ping":72},{"user_id":14,"name":"lili.winters","steam_id":76561199391478575,"connected_time":1993000000000,"state":"active","ping":77},{"user_id":63,"name":"Shon","steam_id":76561198170116342,"connected_time":29000000000,"state":"active","ping":55},{"user_id":17,"name":"Raven","steam_id":76561198393887732,"connected_time":1766000000000,"state":"active","ping":82},{"user_id":59,"name":"Seriously Bruh","steam_id":76561198070408485,"connected_time":292000000000,"state":"active","ping":68},{"user_id":50,"name":"Hou Tou Gu","steam_id":76561198041196591,"connected_time":1014000000000,"state":"active","ping":172},{"user_id":64,"name":"Elcram","steam_id":76561198109026978,"connected_time":18000000000,"state":"spawning","ping":154},{"user_id":25,"name":"Cute Gatito","steam_id":76561198351147780,"connected_time":1572000000000,"state":"active","ping":57},{"user_id":41,"name":"\u003c3","steam_id":76561198196829267,"connected_time":1360000000000,"state":"active","ping":60},{"user_id":43,"name":"Nez","steam_id":76561197963109059,"connected_time":1296000000000,"state":"active","ping":70},{"user_id":40,"name":"Lambchop","steam_id":76561198043900363,"connected_time":1374000000000,"state":"active","ping":47},{"user_id":53,"name":"huiei","steam_id":76561198073763735,"connected_time":968000000000,"state":"active","ping":37},{"user_id":60,"name":"Carthage","steam_id":76561198049001571,"connected_time":100000000000,"state":"active","ping":94},{"user_id":34,"name":"jc5000","steam_id":76561198052825211,"connected_time":1467000000000,"state":"spawning","ping":49},{"user_id":62,"name":"KingTinkerer","steam_id":76561198226856548,"connected_time":56000000000,"state":"active","ping":82},{"user_id":45,"name":"O(n)","steam_id":76561198104675984,"connected_time":1165000000000,"state":"active","ping":55},{"user_id":55,"name":"Atlas Fugged :DD","steam_id":76561198018753989,"connected_time":785000000000,"state":"active","ping":75}]},{"server_id":19,"name":"Uncletopia | San Francisco | 3 | Stopwatch Beta","name_short":"sfo-3","host":"sfo-1.us.uncletopia.com","port":27035,"enabled":true,"region":"us-west","cc":"us","latitude":37.77397,"longitude":-122.4313,"reserved":0,"last_update":"0001-01-01T00:00:00Z","name_a2s":"Uncletopia | San Francisco | 3 | Stopwatch Beta","protocol":17,"map":"pl_pier","folder":"tf","game":"Team Fortress","app_id":440,"player_count":2,"max_players":24,"Bots":0,"server_type":"Dedicated","server_os":"Linux","password":true,"vac":true,"version":"7723704","steam_id":85568392924742824,"keywords":["nocrits","nodmgspread","payload","uncletopia"],"game_id":440,"stv_port":27036,"stv_name":"Uncletopia | San Francisco | 3 | Stopwatch Beta | STV","players":[{"user_id":3,"name":"Blake","steam_id":76561198884871311,"connected_time":1177000000000,"state":"active","ping":62},{"user_id":4,"name":"NotAToaster","steam_id":76561198349938357,"connected_time":1115000000000,"state":"active","ping":97}]},{"server_id":20,"name":"Uncletopia | San Francisco | 4 | Community","name_short":"sfo-4","host":"sfo-1.us.uncletopia.com","port":27045,"enabled":true,"region":"us-west","cc":"us","latitude":37.77397,"longitude":-122.4313,"reserved":0,"last_update":"0001-01-01T00:00:00Z","name_a2s":"Uncletopia | San Francisco | 4 | Community","protocol":17,"map":"koth_cascade","folder":"tf","game":"Team Fortress","app_id":440,"player_count":0,"max_players":24,"Bots":0,"server_type":"Dedicated","server_os":"Linux","password":true,"vac":true,"version":"7723704","steam_id":85568392924742826,"keywords":["cp","nocrits","nodmgspread","uncletopia"],"game_id":440,"stv_port":27046,"stv_name":"Uncletopia | San Francisco | 4 | Community | STV","players":null},{"server_id":141,"name":"Uncletopia | Sydney | 1 | All Maps","name_short":"syd-1","host":"syd-1.au.uncletopia.com","port":27015,"enabled":true,"region":"au","cc":"au","latitude":-33.865143,"longitude":151.2099,"reserved":0,"last_update":"0001-01-01T00:00:00Z","name_a2s":"Uncletopia | Sydney | 1 | All Maps","protocol":17,"map":"plr_bananabay","folder":"tf","game":"Team Fortress","app_id":440,"player_count":0,"max_players":24,"Bots":0,"server_type":"Dedicated","server_os":"Linux","password":true,"vac":true,"version":"7723704","steam_id":85568392924470001,"keywords":["nocrits","nodmgspread","payload","uncletopia"],"game_id":440,"stv_port":27016,"stv_name":"Uncletopia | Sydney | 1 | All Maps | STV","players":null},{"server_id":123,"name":"Uncletopia | Sydney | 2 | All Maps","name_short":"syd-2","host":"syd-1.au.uncletopia.com","port":27025,"enabled":true,"region":"au","cc":"au","latitude":-33.865143,"longitude":151.2099,"reserved":0,"last_update":"0001-01-01T00:00:00Z","name_a2s":"Uncletopia | Sydney | 2 | All Maps","protocol":17,"map":"pl_upward","folder":"tf","game":"Team Fortress","app_id":440,"player_count":24,"max_players":24,"Bots":0,"server_type":"Dedicated","server_os":"Linux","password":true,"vac":true,"version":"7723704","steam_id":85568392924470002,"keywords":["nocrits","nodmgspread","payload","uncletopia"],"game_id":440,"stv_port":27026,"stv_name":"Uncletopia | Sydney | 2 | All Maps | STV","players":[{"user_id":112,"name":"MineSweeper2048","steam_id":76561198338746543,"connected_time":1314000000000,"state":"active","ping":50},{"user_id":82,"name":"michael","steam_id":76561198052848358,"connected_time":3558000000000,"state":"active","ping":61},{"user_id":10,"name":"Nyda","steam_id":76561198152311904,"connected_time":9943000000000,"state":"active","ping":54},{"user_id":130,"name":"ToeJam \u0026 Earl Sweatshirt","steam_id":76561198067883394,"connected_time":6000000000,"state":"spawning","ping":72},{"user_id":56,"name":"Zoey","steam_id":76561198126153554,"connected_time":6074000000000,"state":"active","ping":94},{"user_id":121,"name":"renster","steam_id":76561198080683892,"connected_time":823000000000,"state":"active","ping":61},{"user_id":127,"name":"Breakfast","steam_id":76561197971620881,"connected_time":437000000000,"state":"active","ping":57},{"user_id":80,"name":"no teles 4 u","steam_id":76561198018478297,"connected_time":3750000000000,"state":"active","ping":66},{"user_id":75,"name":"CZARFACE","steam_id":76561198151087184,"connected_time":4202000000000,"state":"active","ping":50},{"user_id":111,"name":"Eckavolo","steam_id":76561198294385902,"connected_time":1382000000000,"state":"active","ping":53},{"user_id":97,"name":"Zinc","steam_id":76561198363180447,"connected_time":2432000000000,"state":"active","ping":45},{"user_id":122,"name":"da_fishy_king","steam_id":76561199225178233,"connected_time":760000000000,"state":"active","ping":48},{"user_id":101,"name":"Anisawrus","steam_id":76561198026339834,"connected_time":1857000000000,"state":"active","ping":52},{"user_id":116,"name":"Scout","steam_id":76561198322807454,"connected_time":1031000000000,"state":"active","ping":93},{"user_id":72,"name":"Mr. Blop","steam_id":76561198072273373,"connected_time":4797000000000,"state":"active","ping":60},{"user_id":117,"name":"ToadFungus","steam_id":76561199219667039,"connected_time":1016000000000,"state":"active","ping":104},{"user_id":109,"name":"IamDinosaur","steam_id":76561198081540507,"connected_time":1593000000000,"state":"active","ping":68},{"user_id":124,"name":"gon","steam_id":76561198059906626,"connected_time":598000000000,"state":"active","ping":72},{"user_id":128,"name":"Jonkles","steam_id":76561197988782005,"connected_time":404000000000,"state":"active","ping":44},{"user_id":100,"name":"fuschu","steam_id":76561198125648728,"connected_time":1908000000000,"state":"active","ping":49},{"user_id":98,"name":"giant giovanni","steam_id":76561198813886004,"connected_time":2405000000000,"state":"active","ping":51},{"user_id":91,"name":"man ahhh","steam_id":76561198129577552,"connected_time":3494000000000,"state":"active","ping":85},{"user_id":129,"name":"remy","steam_id":76561198339941317,"connected_time":141000000000,"state":"active","ping":44},{"user_id":115,"name":"sweet","steam_id":76561198075311236,"connected_time":1140000000000,"state":"active","ping":51}]},{"server_id":395,"name":"Uncletopia | Sydney | 3 | All Maps","name_short":"syd-3","host":"syd-1.au.uncletopia.com","port":27035,"enabled":true,"region":"au","cc":"au","latitude":-33.865143,"longitude":151.2099,"reserved":0,"last_update":"0001-01-01T00:00:00Z","name_a2s":"Uncletopia | Sydney | 3 | All Maps","protocol":17,"map":"koth_lakeside_final","folder":"tf","game":"Team Fortress","app_id":440,"player_count":0,"max_players":24,"Bots":0,"server_type":"Dedicated","server_os":"Linux","password":true,"vac":true,"version":"7723704","steam_id":85568392925194467,"keywords":["cp","nocrits","nodmgspread","uncletopia"],"game_id":440,"stv_port":27036,"stv_name":"Uncletopia | Sydney | 3 | All Maps | STV","players":null},{"server_id":396,"name":"Uncletopia | Sydney | 4 | All Maps","name_short":"syd-4","host":"syd-1.au.uncletopia.com","port":27045,"enabled":true,"region":"au","cc":"au","latitude":-33.865143,"longitude":151.2099,"reserved":0,"last_update":"0001-01-01T00:00:00Z","name_a2s":"Uncletopia | Sydney | 4 | All Maps","protocol":17,"map":"cp_snakewater_final1","folder":"tf","game":"Team Fortress","app_id":440,"player_count":0,"max_players":24,"Bots":0,"server_type":"Dedicated","server_os":"Linux","password":true,"vac":true,"version":"7723704","steam_id":85568392925397958,"keywords":["cp","nocrits","nodmgspread","uncletopia"],"game_id":440,"stv_port":27046,"stv_name":"Uncletopia | Sydney | 4 | All Maps | STV","players":null},{"server_id":58,"name":"Uncletopia | Sydney | 5 | No Payload","name_short":"syd-5","host":"syd-1.au.uncletopia.com","port":27055,"enabled":true,"region":"au","cc":"au","latitude":-33.865143,"longitude":151.2099,"reserved":0,"last_update":"0001-01-01T00:00:00Z","name_a2s":"Uncletopia | Sydney | 5 | No Payload","protocol":17,"map":"ctf_turbine","folder":"tf","game":"Team Fortress","app_id":440,"player_count":0,"max_players":24,"Bots":0,"server_type":"Dedicated","server_os":"Linux","password":true,"vac":true,"version":"7723704","steam_id":85568392925397959,"keywords":["ctf","nocrits","nodmgspread","uncletopia"],"game_id":440,"stv_port":27056,"stv_name":"Uncletopia | Sydney | 5 | No Payload | STV","players":null},{"server_id":59,"name":"Uncletopia | Sydney | 6 | Community","name_short":"syd-6","host":"syd-1.au.uncletopia.com","port":27065,"enabled":true,"region":"au","cc":"au","latitude":-33.865143,"longitude":151.2099,"reserved":0,"last_update":"0001-01-01T00:00:00Z","name_a2s":"Uncletopia | Sydney | 6 | Community","protocol":17,"map":"koth_lakeside_final","folder":"tf","game":"Team Fortress","app_id":440,"player_count":0,"max_players":24,"Bots":0,"server_type":"Dedicated","server_os":"Linux","password":true,"vac":true,"version":"7723704","steam_id":85568392925397960,"keywords":["cp","nocrits","nodmgspread","uncletopia"],"game_id":440,"stv_port":27066,"stv_name":"Uncletopia | Sydney | 6 | Community | STV","players":null},{"server_id":49,"name":"Uncletopia | Warsaw | 1 | All Maps","name_short":"waw-1","host":"waw-1.pl.uncletopia.com","port":27015,"enabled":true,"region":"eu","cc":"pl","latitude":52.2297,"longitude":21.017532,"reserved":0,"last_update":"0001-01-01T00:00:00Z","name_a2s":"Uncletopia | Warsaw | 1 | All Maps","protocol":17,"map":"cp_process_final","folder":"tf","game":"Team Fortress","app_id":440,"player_count":0,"max_players":24,"Bots":0,"server_type":"Dedicated","server_os":"Linux","password":true,"vac":true,"version":"7723704","steam_id":85568392925397850,"keywords":["cp","nocrits","nodmgspread","uncletopia"],"game_id":440,"stv_port":27016,"stv_name":"Uncletopia | Warsaw | 1 | All Maps | STV","players":null},{"server_id":50,"name":"Uncletopia | Warsaw | 2 | All Maps","name_short":"waw-2","host":"waw-1.pl.uncletopia.com","port":27025,"enabled":true,"region":"eu","cc":"pl","latitude":52.2297,"longitude":21.017532,"reserved":0,"last_update":"0001-01-01T00:00:00Z","name_a2s":"Uncletopia | Warsaw | 2 | All Maps","protocol":17,"map":"pl_snowycoast","folder":"tf","game":"Team Fortress","app_id":440,"player_count":0,"max_players":24,"Bots":0,"server_type":"Dedicated","server_os":"Linux","password":true,"vac":true,"version":"7723704","steam_id":85568392925397851,"keywords":["nocrits","nodmgspread","payload","uncletopia"],"game_id":440,"stv_port":27026,"stv_name":"Uncletopia | Warsaw | 2 | All Maps | STV","players":null},{"server_id":51,"name":"Uncletopia | Warsaw | 3 | All Maps","name_short":"waw-3","host":"waw-1.pl.uncletopia.com","port":27035,"enabled":true,"region":"eu","cc":"pl","latitude":52.2297,"longitude":21.017532,"reserved":0,"last_update":"0001-01-01T00:00:00Z","name_a2s":"Uncletopia | Warsaw | 3 | All Maps","protocol":17,"map":"koth_lakeside_final","folder":"tf","game":"Team Fortress","app_id":440,"player_count":0,"max_players":24,"Bots":0,"server_type":"Dedicated","server_os":"Linux","password":true,"vac":true,"version":"7723704","steam_id":85568392925397852,"keywords":["cp","nocrits","nodmgspread","uncletopia"],"game_id":440,"stv_port":27036,"stv_name":"Uncletopia | Warsaw | 3 | All Maps | STV","players":null},{"server_id":52,"name":"Uncletopia | Warsaw | 4 | All Maps","name_short":"waw-4","host":"waw-1.pl.uncletopia.com","port":27045,"enabled":true,"region":"eu","cc":"pl","latitude":52.2297,"longitude":21.017532,"reserved":0,"last_update":"0001-01-01T00:00:00Z","name_a2s":"Uncletopia | Warsaw | 4 | All Maps","protocol":17,"map":"pl_upward","folder":"tf","game":"Team Fortress","app_id":440,"player_count":0,"max_players":24,"Bots":0,"server_type":"Dedicated","server_os":"Linux","password":true,"vac":true,"version":"7723704","steam_id":85568392925397853,"keywords":["nocrits","nodmgspread","payload","uncletopia"],"game_id":440,"stv_port":27046,"stv_name":"Uncletopia | Warsaw | 4 | All Maps | STV","players":null},{"server_id":53,"name":"Uncletopia | Warsaw | 5 | No Payload","name_short":"waw-5","host":"waw-1.pl.uncletopia.com","port":27055,"enabled":true,"region":"eu","cc":"pl","latitude":52.2297,"longitude":21.017532,"reserved":0,"last_update":"0001-01-01T00:00:00Z","name_a2s":"Uncletopia | Warsaw | 5 | No Payload","protocol":17,"map":"koth_highpass","folder":"tf","game":"Team Fortress","app_id":440,"player_count":1,"max_players":24,"Bots":0,"server_type":"Dedicated","server_os":"Linux","password":true,"vac":true,"version":"7723704","steam_id":85568392925397854,"keywords":["cp","nocrits","nodmgspread","uncletopia"],"game_id":440,"stv_port":27056,"stv_name":"Uncletopia | Warsaw | 5 | No Payload | STV","players":[{"user_id":3,"name":"lagzer","steam_id":76561198029295449,"connected_time":522000000000,"state":"active","ping":50}]},{"server_id":54,"name":"Uncletopia | Warsaw | 6 | Community","name_short":"waw-6","host":"waw-1.pl.uncletopia.com","port":27065,"enabled":true,"region":"eu","cc":"pl","latitude":52.2297,"longitude":21.017532,"reserved":0,"last_update":"0001-01-01T00:00:00Z","name_a2s":"Uncletopia | Warsaw | 6 | Community","protocol":17,"map":"koth_viaduct","folder":"tf","game":"Team Fortress","app_id":440,"player_count":0,"max_players":24,"Bots":0,"server_type":"Dedicated","server_os":"Linux","password":true,"vac":true,"version":"7723704","steam_id":85568392925397856,"keywords":["cp","nocrits","nodmgspread","uncletopia"],"game_id":440,"stv_port":27066,"stv_name":"Uncletopia | Warsaw | 6 | Community | STV","players":null}]}