{"status":true,"message":"","result":[{"server_id":9,"name":"Uncletopia | Atlanta | 1 | All Maps","name_short":"atl-1","host":"atl-1.us.uncletopia.com","port":27015,"enabled":true,"region":"us-east","cc":"us","latitude":33.753746,"longitude":-84.38633,"reserved":0,"last_update":"0001-01-01T00:00:00Z","name_a2s":"Uncletopia | Atlanta | 1 | All Maps","protocol":17,"map":"pl_pier","folder":"tf","game":"Team Fortress","app_id":440,"player_count":24,"max_players":24,"Bots":0,"server_type":"Dedicated","server_os":"Linux","password":true,"vac":true,"version":"7757534","steam_id":85568392924469982,"keywords":["nocrits","nodmgspread","payload","uncletopia"],"game_id":440,"stv_port":27016,"stv_name":"Uncletopia | Atlanta | 1 | All Maps | STV","players":[{"user_id":118,"name":"FancyBones","steam_id":76561198180198885,"connected_time":11157000000000,"state":"active","ping":69},{"user_id":220,"name":"Lilith","steam_id":76561198125102885,"connected_time":604000000000,"state":"active","ping":62},{"user_id":223,"name":"rose","steam_id":76561198048882285,"connected_time":564000000000,"state":"active","ping":60},{"user_id":198,"name":"atl1icyy","steam_id":76561198968001329,"connected_time":3270000000000,"state":"active","ping":49},{"user_id":148,"name":"Ashes!","steam_id":76561197998475441,"connected_time":8248000000000,"state":"active","ping":73},{"user_id":224,"name":"Punks","steam_id":76561199140940650,"connected_time":433000000000,"state":"active","ping":45},{"user_id":225,"name":"Genetic Komodo (He/Him)","steam_id":76561198174806758,"connected_time":390000000000,"state":"active","ping":60},{"user_id":226,"name":"BreadReceiver","steam_id":76561198862555841,"connected_time":84000000000,"state":"active","ping":67},{"user_id":184,"name":"FheeseWurger Insouptitty","steam_id":76561198130772096,"connected_time":4233000000000,"state":"active","ping":54},{"user_id":187,"name":"Intro Bonito","steam_id":76561198119478838,"connected_time":3834000000000,"state":"active","ping":49},{"user_id":221,"name":"Intestinal Straw","steam_id":76561198082095303,"connected_time":572000000000,"state":"active","ping":71},{"user_id":207,"name":"the-willy12","steam_id":76561199145029672,"connected_time":2606000000000,"state":"active","ping":86},{"user_id":209,"name":"Brown_Dream","steam_id":76561198975766145,"connected_time":1951000000000,"state":"active","ping":79},{"user_id":154,"name":"Dr.Zarann","steam_id":76561198163952958,"connected_time":7732000000000,"state":"active","ping":60},{"user_id":191,"name":"i love machine girl","steam_id":76561199187747394,"connected_time":3741000000000,"state":"active","ping":70},{"user_id":211,"name":"JZ","steam_id":76561198377029198,"connected_time":1871000000000,"state":"active","ping":62},{"user_id":215,"name":"marguerite","steam_id":76561198170873495,"connected_time":1085000000000,"state":"active","ping":60},{"user_id":217,"name":"melancholy","steam_id":76561198024301465,"connected_time":758000000000,"state":"active","ping":46},{"user_id":222,"name":"Oddball","steam_id":76561198040440984,"connected_time":570000000000,"state":"active","ping":89},{"user_id":202,"name":"Just PYE","steam_id":76561199439622967,"connected_time":2664000000000,"state":"active","ping":81},{"user_id":212,"name":"ajm0208","steam_id":76561198125935007,"connected_time":1292000000000,"state":"active","ping":74},{"user_id":219,"name":"lil hog","steam_id":76561199230929836,"connected_time":744000000000,"state":"active","ping":89},{"user_id":228,"name":"freak ya nature","steam_id":76561198310502474,"connected_time":63000000000,"state":"active","ping":60},{"user_id":214,"name":"floofy","steam_id":76561198389769098,"connected_time":1288000000000,"state":"active","ping":86}]},{"server_id":104,"name":"Uncletopia | Atlanta | 2 | All Maps","name_short":"atl-2","host":"atl-1.us.uncletopia.com","port":27025,"enabled":true,"region":"us-east","cc":"us","latitude":33.753746,"longitude":-84.38633,"reserved":0,"last_update":"0001-01-01T00:00:00Z","name_a2s":"Uncletopia | Atlanta | 2 | All Maps","protocol":17,"map":"pl_upward","folder":"tf","game":"Team Fortress","app_id":440,"player_count":24,"max_players":24,"Bots":0,"server_type":"Dedicated","server_os":"Linux","password":true,"vac":true,"version":"7757534","steam_id":85568392924469983,"keywords":["nocrits","nodmgspread","payload","uncletopia"],"game_id":440,"stv_port":27026,"stv_name":"Uncletopia | Atlanta | 2 | All Maps | STV","players":[{"user_id":129,"name":"HE’S IN THE GODDAMN WALLS","steam_id":76561198363267009,"connected_time":10000000000,"state":"spawning","ping":60},{"user_id":61,"name":"The BallSmasher","steam_id":76561198107810115,"connected_time":5744000000000,"state":"active","ping":74},{"user_id":79,"name":"Satori Komeiji","steam_id":76561198158211423,"connected_time":4593000000000,"state":"active","ping":96},{"user_id":24,"name":"Sprinklze","steam_id":76561198163562681,"connected_time":7775000000000,"state":"active","ping":53},{"user_id":86,"name":"Broadsword","steam_id":76561198011160411,"connected_time":4277000000000,"state":"active","ping":61},{"user_id":105,"name":"the taxi driver","steam_id":76561198830243167,"connected_time":2584000000000,"state":"active","ping":97},{"user_id":92,"name":"The Sydney Sleeper Itself","steam_id":76561198180251763,"connected_time":3502000000000,"state":"active","ping":69},{"user_id":93,"name":"taterwaffles","steam_id":76561198034968060,"connected_time":3480000000000,"state":"active","ping":62},{"user_id":124,"name":"Rat Bastard","steam_id":76561198153443658,"connected_time":999000000000,"state":"active","ping":70},{"user_id":122,"name":"whisper","steam_id":76561198116741891,"connected_time":1049000000000,"state":"active","ping":60},{"user_id":128,"name":"El Bondin","steam_id":76561198820792434,"connected_time":625000000000,"state":"active","ping":84},{"user_id":109,"name":"Gummie","steam_id":76561198807069433,"connected_time":2301000000000,"state":"active","ping":81},{"user_id":114,"name":"lalalemons","steam_id":76561198243965308,"connected_time":1593000000000,"state":"active","ping":55},{"user_id":34,"name":"I dont wipe","steam_id":76561198825563040,"connected_time":7049000000000,"state":"active","ping":130},{"user_id":115,"name":"Chaotic Rushu","steam_id":76561198170054407,"connected_time":1588000000000,"state":"active","ping":78},{"user_id":111,"name":"Cad","steam_id":76561198312145232,"connected_time":1948000000000,"state":"active","ping":83},{"user_id":97,"name":"Cuyler","steam_id":76561198119487018,"connected_time":3359000000000,"state":"active","ping":77},{"user_id":127,"name":"Vacuostester58","steam_id":76561198283244105,"connected_time":637000000000,"state":"active","ping":83},{"user_id":102,"name":"Ballistyx","steam_id":76561199210836206,"connected_time":3211000000000,"state":"active","ping":137},{"user_id":103,"name":"DiscoTraveler","steam_id":76561199240168088,"connected_time":3170000000000,"state":"active","ping":76},{"user_id":113,"name":"Transfem Furry \u003c3","steam_id":76561198288036403,"connected_time":1875000000000,"state":"active","ping":106},{"user_id":118,"name":"mineblast99","steam_id":76561199065648954,"connected_time":1445000000000,"state":"active","ping":59},{"user_id":90,"name":"Oopsie Daisy ❋","steam_id":76561198042144492,"connected_time":3637000000000,"state":"active","ping":58},{"user_id":108,"name":"NulleK","steam_id":76561198378240571,"connected_time":2309000000000,"state":"active","ping":102}]},{"server_id":400,"name":"Uncletopia | Atlanta | 3 | Community","name_short":"atl-3","host":"atl-1.us.uncletopia.com","port":27035,"enabled":true,"region":"us-east","cc":"us","latitude":33.753746,"longitude":-84.38633,"reserved":0,"last_update":"0001-01-01T00:00:00Z","name_a2s":"Uncletopia | Atlanta | 3 | Community","protocol":17,"map":"workshop/cp_propaganda_b18.ugc1603743849","folder":"tf","game":"Team Fortress","app_id":440,"player_count":24,"max_players":24,"Bots":0,"server_type":"Dedicated","server_os":"Linux","password":true,"vac":true,"version":"7757534","steam_id":85568392924515187,"keywords":["cp","nocrits","nodmgspread","uncletopia"],"game_id":440,"stv_port":27036,"stv_name":"Uncletopia | Atlanta | 3 | Community | STV","players":[{"user_id":64,"name":"kazoo2","steam_id":76561198260473504,"connected_time":2081000000000,"state":"active","ping":102},{"user_id":97,"name":"Yoru","steam_id":76561198119698950,"connected_time":1375000000000,"state":"active","ping":119},{"user_id":125,"name":"Mannered Masked Man","steam_id":76561198110036132,"connected_time":258000000000,"state":"active","ping":51},{"user_id":98,"name":"Feared Gamer","steam_id":76561198350127514,"connected_time":1341000000000,"state":"active","ping":66},{"user_id":126,"name":"Crustacean Daddy","steam_id":76561198993807061,"connected_time":170000000000,"state":"active","ping":91},{"user_id":14,"name":"Buck","steam_id":76561197993075304,"connected_time":6472000000000,"state":"active","ping":79},{"user_id":123,"name":"Tommy Gruvich","steam_id":76561198047709672,"connected_time":448000000000,"state":"active","ping":69},{"user_id":84,"name":"The World's Softest Sandwich","steam_id":76561198015577707,"connected_time":1739000000000,"state":"active","ping":89},{"user_id":99,"name":"Ltn. What's-his-Nuts","steam_id":76561198133834262,"connected_time":1335000000000,"state":"active","ping":79},{"user_id":109,"name":"DJ Absolute Garbage","steam_id":76561198068000747,"connected_time":1172000000000,"state":"active","ping":65},{"user_id":127,"name":"kman_kangaroo","steam_id":76561199379271462,"connected_time":122000000000,"state":"active","ping":72},{"user_id":122,"name":"89","steam_id":76561198106308056,"connected_time":466000000000,"state":"active","ping":104},{"user_id":115,"name":"Wso1123","steam_id":76561198048040111,"connected_time":1040000000000,"state":"active","ping":99},{"user_id":116,"name":"Hashbrowncow","steam_id":76561198272021902,"connected_time":994000000000,"state":"active","ping":105},{"user_id":49,"name":"Babyface","steam_id":76561199240579044,"connected_time":2541000000000,"state":"active","ping":72},{"user_id":117,"name":"Wylenn","steam_id":76561198041141802,"connected_time":969000000000,"state":"active","ping":87},{"user_id":112,"name":"A_Malebolgia","steam_id":76561198097722818,"connected_time":1122000000000,"state":"active","ping":104},{"user_id":85,"name":"Fresh Lychee","steam_id":76561198045399559,"connected_time":1739000000000,"state":"active","ping":76},{"user_id":96,"name":"*Gage*","steam_id":76561197975233869,"connected_time":1407000000000,"state":"active","ping":86},{"user_id":120,"name":"Pretender","steam_id":76561198103354667,"connected_time":684000000000,"state":"active","ping":80},{"user_id":114,"name":"Astrocircuit","steam_id":76561198014437544,"connected_time":1111000000000,"state":"active","ping":66},{"user_id":68,"name":"hud_saytext_time 0","steam_id":76561198010327228,"connected_time":2000000000000,"state":"active","ping":176},{"user_id":86,"name":"stardust","steam_id":76561198413930183,"connected_time":1703000000000,"state":"active","ping":63},{"user_id":124,"name":"Dan","steam_id":76561198064012288,"connected_time":414000000000,"state":"active","ping":74}]},{"server_id":401,"name":"Uncletopia | Atlanta | 4 | No Payload","name_short":"atl-4","host":"atl-1.us.uncletopia.com","port":27045,"enabled":true,"region":"us-east","cc":"us","latitude":33.753746,"longitude":-84.38633,"reserved":0,"last_update":"0001-01-01T00:00:00Z","name_a2s":"","protocol":0,"map":"","folder":"","game":"","app_id":0,"player_count":0,"max_players":0,"Bots":0,"server_type":"","server_os":"","password":false,"vac":false,"version":"","steam_id":0,"keywords":null,"game_id":0,"stv_port":0,"stv_name":"","players":null},{"server_id":2,"name":"Uncletopia | Chicago | 1 | All Maps","name_short":"chi-1","host":"chi-1.us.uncletopia.com","port":27015,"enabled":true,"region":"us-central","cc":"us","latitude":41.881832,"longitude":-87.62318,"reserved":0,"last_update":"0001-01-01T00:00:00Z","name_a2s":"Uncletopia | Chicago | 1 | All Maps","protocol":17,"map":"cp_gorge","folder":"tf","game":"Team Fortress","app_id":440,"player_count":24,"max_players":24,"Bots":0,"server_type":"Dedicated","server_os":"Linux","password":true,"vac":true,"version":"7757534","steam_id":85568392924469984,"keywords":["cp","nocrits","nodmgspread","uncletopia"],"game_id":440,"stv_port":27016,"stv_name":"Uncletopia | Chicago | 1 | All Maps | STV","players":[{"user_id":500,"name":"{FITH}™ Halcyon","steam_id":76561198049132808,"connected_time":278000000000,"state":"active","ping":80},{"user_id":505,"name":"tacofever","steam_id":76561198010966507,"connected_time":26000000000,"state":"active","ping":128},{"user_id":480,"name":"Spy Gaming","steam_id":76561198453295613,"connected_time":1287000000000,"state":"active","ping":108},{"user_id":504,"name":"Bluedot","steam_id":76561198019909639,"connected_time":31000000000,"state":"active","ping":55},{"user_id":491,"name":"stellatheknave","steam_id":76561198264327844,"connected_time":719000000000,"state":"active","ping":74},{"user_id":453,"name":"HeadwearHijacker","steam_id":76561197979913009,"connected_time":2686000000000,"state":"active","ping":70},{"user_id":496,"name":"Meringue","steam_id":76561198067899943,"connected_time":640000000000,"state":"active","ping":78},{"user_id":468,"name":"Ranger Plague","steam_id":76561198174647666,"connected_time":2055000000000,"state":"active","ping":81},{"user_id":489,"name":"Aeront","steam_id":76561198072032723,"connected_time":809000000000,"state":"active","ping":93},{"user_id":506,"name":"girlboss","steam_id":76561197989019617,"connected_time":23000000000,"state":"active","ping":48},{"user_id":502,"name":"Alexgo","steam_id":76561198044430542,"connected_time":174000000000,"state":"active","ping":99},{"user_id":492,"name":"dvd normal","steam_id":76561198025758036,"connected_time":716000000000,"state":"active","ping":87},{"user_id":501,"name":"Comic","steam_id":76561198391882145,"connected_time":272000000000,"state":"active","ping":42},{"user_id":488,"name":"GhostofDaylight","steam_id":76561198096390904,"connected_time":840000000000,"state":"active","ping":73},{"user_id":471,"name":"innisfree","steam_id":76561198109065124,"connected_time":1753000000000,"state":"active","ping":71},{"user_id":493,"name":"jema","steam_id":76561198276513608,"connected_time":716000000000,"state":"active","ping":168},{"user_id":499,"name":"Veirū Viseris","steam_id":76561197989857176,"connected_time":293000000000,"state":"active","ping":166},{"user_id":487,"name":"TeeTree","steam_id":76561198862307874,"connected_time":878000000000,"state":"active","ping":63},{"user_id":456,"name":"M@verick","steam_id":76561198006363519,"connected_time":2630000000000,"state":"active","ping":74},{"user_id":415,"name":"Lilly","steam_id":76561197982714873,"connected_time":5309000000000,"state":"active","ping":64},{"user_id":498,"name":"blakejack226","steam_id":76561199128917566,"connected_time":347000000000,"state":"active","ping":83},{"user_id":494,"name":"VioletInferno","steam_id":76561199096964288,"connected_time":709000000000,"state":"active","ping":37},{"user_id":406,"name":"InariTPG (They Them)","steam_id":76561198872670782,"connected_time":6334000000000,"state":"active","ping":148},{"user_id":495,"name":"TheCakeisNotAlie","steam_id":76561198943993307,"connected_time":707000000000,"state":"active","ping":75}]},{"server_id":106,"name":"Uncletopia | Chicago | 2 | All Maps","name_short":"chi-2","host":"chi-1.us.uncletopia.com","port":27025,"enabled":true,"region":"us-central","cc":"us","latitude":41.881832,"longitude":-87.62318,"reserved":0,"last_update":"0001-01-01T00:00:00Z","name_a2s":"Uncletopia | Chicago | 2 | All Maps","protocol":17,"map":"cp_snakewater_final1","folder":"tf","game":"Team Fortress","app_id":440,"player_count":24,"max_players":24,"Bots":0,"server_type":"Dedicated","server_os":"Linux","password":true,"vac":true,"version":"7757534","steam_id":85568392924469985,"keywords":["cp","nocrits","nodmgspread","uncletopia"],"game_id":440,"stv_port":27026,"stv_name":"Uncletopia | Chicago | 2 | All Maps | STV","players":[{"user_id":183,"name":"the headphones you lost","steam_id":76561199201098634,"connected_time":4980000000000,"state":"active","ping":56},{"user_id":239,"name":"¬‿¬","steam_id":76561198325526945,"connected_time":1264000000000,"state":"active","ping":68},{"user_id":248,"name":"Cedric","steam_id":76561198072090580,"connected_time":414000000000,"state":"active","ping":119},{"user_id":215,"name":"Recursive Gamer","steam_id":76561198042102952,"connected_time":3022000000000,"state":"active","ping":67},{"user_id":233,"name":"i ate a mini sentry","steam_id":76561199153202930,"connected_time":1595000000000,"state":"active","ping":120},{"user_id":213,"name":"Nidon","steam_id":76561199005871202,"connected_time":3055000000000,"state":"active","ping":129},{"user_id":209,"name":"raidlps","steam_id":76561199208003679,"connected_time":3205000000000,"state":"active","ping":81},{"user_id":247,"name":"Ros","steam_id":76561199055963822,"connected_time":461000000000,"state":"active","ping":76},{"user_id":251,"name":"rx","steam_id":76561198026393621,"connected_time":263000000000,"state":"active","ping":88},{"user_id":216,"name":"papa guacamole","steam_id":76561198167665608,"connected_time":3011000000000,"state":"active","ping":66},{"user_id":210,"name":"TheJmqn","steam_id":76561198304346612,"connected_time":3201000000000,"state":"active","ping":49},{"user_id":249,"name":"banana97286","steam_id":76561199367847817,"connected_time":407000000000,"state":"active","ping":65},{"user_id":243,"name":"sansa musa","steam_id":76561198163723555,"connected_time":1048000000000,"state":"active","ping":74},{"user_id":246,"name":"Xii","steam_id":76561198860209947,"connected_time":654000000000,"state":"active","ping":50},{"user_id":250,"name":"Communist Killing Candy Cactus\ufffd","steam_id":76561198074980635,"connected_time":387000000000,"state":"active","ping":130},{"user_id":206,"name":"Al'","steam_id":76561198105420574,"connected_time":3625000000000,"state":"active","ping":66},{"user_id":225,"name":"Path_The_Finder","steam_id":76561198380416031,"connected_time":2402000000000,"state":"active","ping":93},{"user_id":252,"name":"Sasu","steam_id":76561198893447505,"connected_time":89000000000,"state":"active","ping":77},{"user_id":219,"name":"Crystallixed","steam_id":76561198072263515,"connected_time":2974000000000,"state":"active","ping":81},{"user_id":202,"name":"dr sex, md (sexologist)","steam_id":76561198115874625,"connected_time":3774000000000,"state":"active","ping":71},{"user_id":203,"name":"uhooter","steam_id":76561198007829078,"connected_time":3755000000000,"state":"active","ping":51},{"user_id":220,"name":"Dendrozia","steam_id":76561198125067655,"connected_time":2967000000000,"state":"active","ping":91},{"user_id":229,"name":"drevott74","steam_id":76561199262592779,"connected_time":1794000000000,"state":"active","ping":113},{"user_id":237,"name":"Jamrag","steam_id":76561199031241776,"connected_time":1559000000000,"state":"active","ping":76}]},{"server_id":402,"name":"Uncletopia | Chicago | 3 | All Maps","name_short":"chi-3","host":"chi-1.us.uncletopia.com","port":27035,"enabled":true,"region":"us-central","cc":"us","latitude":41.881832,"longitude":-87.62318,"reserved":0,"last_update":"0001-01-01T00:00:00Z","name_a2s":"Uncletopia | Chicago | 3 | All Maps","protocol":17,"map":"pl_pier","folder":"tf","game":"Team Fortress","app_id":440,"player_count":24,"max_players":24,"Bots":0,"server_type":"Dedicated","server_os":"Linux","password":true,"vac":true,"version":"7757534","steam_id":85568392924515191,"keywords":["nocrits","nodmgspread","payload","uncletopia"],"game_id":440,"stv_port":27036,"stv_name":"Uncletopia | Chicago | 3 | All Maps | STV","players":[{"user_id":154,"name":"Diarrhea Gaming","steam_id":76561198090589784,"connected_time":565000000000,"state":"active","ping":85},{"user_id":156,"name":"mepng","steam_id":76561199018758598,"connected_time":388000000000,"state":"active","ping":88},{"user_id":141,"name":"Tommy Pickles (Very Cool)","steam_id":76561198391261463,"connected_time":1480000000000,"state":"active","ping":65},{"user_id":152,"name":"Koishi","steam_id":76561198054541054,"connected_time":640000000000,"state":"active","ping":49},{"user_id":105,"name":"Cousin Corn on the Cob","steam_id":76561198049837377,"connected_time":3637000000000,"state":"active","ping":47},{"user_id":140,"name":"Korota","steam_id":76561198095891641,"connected_time":1501000000000,"state":"active","ping":50},{"user_id":143,"name":"Proto","steam_id":76561197984119828,"connected_time":1140000000000,"state":"active","ping":89},{"user_id":125,"name":"Emberdened","steam_id":76561199163688421,"connected_time":2158000000000,"state":"active","ping":90},{"user_id":130,"name":"Ether","steam_id":76561198054806528,"connected_time":1807000000000,"state":"active","ping":72},{"user_id":153,"name":"Rockcrusher","steam_id":76561199012666353,"connected_time":635000000000,"state":"active","ping":56},{"user_id":148,"name":"Noudele","steam_id":76561198164370912,"connected_time":817000000000,"state":"active","ping":119},{"user_id":158,"name":"Denny's Grand Slam Breakfast","steam_id":76561198011603359,"connected_time":141000000000,"state":"active","ping":77},{"user_id":144,"name":"Dewgong (real)","steam_id":76561198045999391,"connected_time":1117000000000,"state":"active","ping":66},{"user_id":159,"name":"Gumba21","steam_id":76561199167640179,"connected_time":115000000000,"state":"active","ping":83},{"user_id":98,"name":"zefir","steam_id":76561198041348890,"connected_time":4667000000000,"state":"active","ping":49},{"user_id":163,"name":"lactose father","steam_id":76561199408853457,"connected_time":74000000000,"state":"active","ping":190},{"user_id":155,"name":"chikmslaad","steam_id":76561198871478705,"connected_time":433000000000,"state":"active","ping":86},{"user_id":137,"name":"Father","steam_id":76561197961561251,"connected_time":1687000000000,"state":"active","ping":76},{"user_id":133,"name":"CJspellsfish","steam_id":76561198277342368,"connected_time":1793000000000,"state":"active","ping":78},{"user_id":134,"name":"River Rat","steam_id":76561198116383976,"connected_time":1781000000000,"state":"active","ping":109},{"user_id":118,"name":"Dededoo","steam_id":76561198279033471,"connected_time":2447000000000,"state":"active","ping":96},{"user_id":162,"name":"The local hobo","steam_id":76561198289650060,"connected_time":102000000000,"state":"active","ping":102},{"user_id":106,"name":"Yummy Kabobz","steam_id":76561198067661705,"connected_time":3373000000000,"state":"active","ping":65},{"user_id":139,"name":"Tony Alamo","steam_id":76561198044414707,"connected_time":1565000000000,"state":"active","ping":72}]},{"server_id":403,"name":"Uncletopia | Chicago | 4 | All Maps","name_short":"chi-4","host":"chi-1.us.uncletopia.com","port":27045,"enabled":true,"region":"us-central","cc":"us","latitude":41.881832,"longitude":-87.62318,"reserved":0,"last_update":"0001-01-01T00:00:00Z","name_a2s":"Uncletopia | Chicago | 4 | All Maps","protocol":17,"map":"pl_snowycoast","folder":"tf","game":"Team Fortress","app_id":440,"player_count":25,"max_players":24,"Bots":0,"server_type":"Dedicated","server_os":"Linux","password":true,"vac":true,"version":"7757534","steam_id":85568392924515193,"keywords":["nocrits","nodmgspread","payload","uncletopia"],"game_id":440,"stv_port":27046,"stv_name":"Uncletopia | Chicago | 4 | All Maps | STV","players":[{"user_id":521,"name":"xiii","steam_id":76561198079416036,"connected_time":5640000000000,"state":"active","ping":40},{"user_id":586,"name":"Muffledshad869","steam_id":76561199078547596,"connected_time":1091000000000,"state":"active","ping":61},{"user_id":574,"name":"Schmingus","steam_id":76561199476148332,"connected_time":1536000000000,"state":"active","ping":108},{"user_id":589,"name":"RyInc","steam_id":76561198874261643,"connected_time":580000000000,"state":"active","ping":45},{"user_id":595,"name":"CommanderXeno","steam_id":76561198259326276,"connected_time":82000000000,"state":"active","ping":77},{"user_id":577,"name":"Lord Aben","steam_id":76561198135266770,"connected_time":1290000000000,"state":"active","ping":44},{"user_id":582,"name":"Cheese","steam_id":76561199207081299,"connected_time":1258000000000,"state":"active","ping":127},{"user_id":596,"name":"❤Breadshot (She)❤","steam_id":76561199005756738,"connected_time":71000000000,"state":"active","ping":58},{"user_id":597,"name":"CringeIsaac","steam_id":76561199082217398,"connected_time":62000000000,"state":"active","ping":176},{"user_id":598,"name":"Pot Head Pixie","steam_id":76561198083024504,"connected_time":55000000000,"state":"spawning","ping":56},{"user_id":571,"name":"Ursus Ludius","steam_id":76561198025470722,"connected_time":1636000000000,"state":"active","ping":151},{"user_id":578,"name":"_Lusty_ | #savetf2","steam_id":76561198876948142,"connected_time":1290000000000,"state":"active","ping":60},{"user_id":599,"name":"0","steam_id":76561198994761483,"connected_time":49000000000,"state":"active","ping":89},{"user_id":564,"name":"Nuwrox1","steam_id":76561198406951007,"connected_time":2283000000000,"state":"active","ping":62},{"user_id":580,"name":"name","steam_id":76561199153026367,"connected_time":1281000000000,"state":"active","ping":127},{"user_id":584,"name":"BrendenMad","steam_id":76561198031250581,"connected_time":1192000000000,"state":"active","ping":54},{"user_id":581,"name":"spruce","steam_id":76561198081684676,"connected_time":1273000000000,"state":"active","ping":134},{"user_id":588,"name":"sumireko kinnie","steam_id":76561198061868020,"connected_time":901000000000,"state":"active","ping":139},{"user_id":526,"name":"liftin'","steam_id":76561199089515791,"connected_time":5597000000000,"state":"active","ping":97},{"user_id":600,"name":"jacktangent","steam_id":76561198846704532,"connected_time":38000000000,"state":"active","ping":145},{"user_id":593,"name":"Nexus","steam_id":76561198187929865,"connected_time":310000000000,"state":"active","ping":45},{"user_id":601,"name":"ElectronX","steam_id":76561198116034988,"connected_time":32000000000,"state":"active","ping":107},{"user_id":539,"name":"Average Midwesterner","steam_id":76561198041101188,"connected_time":4682000000000,"state":"active","ping":47},{"user_id":527,"name":"Testosteroblerone","steam_id":76561199031278496,"connected_time":5450000000000,"state":"active","ping":84},{"user_id":602,"name":"Benis Gonzalez","steam_id":76561198799391259,"connected_time":3000000000,"state":"spawning","ping":121}]},{"server_id":36,"name":"Uncletopia | Chicago | 5 | All Maps","name_short":"chi-5","host":"chi-2.us.uncletopia.com","port":27015,"enabled":true,"region":"us-central","cc":"us","latitude":41.881832,"longitude":-87.62318,"reserved":0,"last_update":"0001-01-01T00:00:00Z","name_a2s":"Uncletopia | Chicago | 5 | All Maps","protocol":17,"map":"pl_snowycoast","folder":"tf","game":"Team Fortress","app_id":440,"player_count":24,"max_players":24,"Bots":0,"server_type":"Dedicated","server_os":"Linux","password":true,"vac":true,"version":"7757534","steam_id":85568392924866362,"keywords":["nocrits","nodmgspread","payload","uncletopia"],"game_id":440,"stv_port":27016,"stv_name":"Uncletopia | Chicago | 5 | All Maps | STV","players":[{"user_id":118,"name":"JakeWub","steam_id":76561198065571708,"connected_time":1671000000000,"state":"active","ping":78},{"user_id":94,"name":"an unimportant NPC","steam_id":76561198840484105,"connected_time":3076000000000,"state":"active","ping":71},{"user_id":113,"name":"churupinha","steam_id":76561198850465476,"connected_time":1817000000000,"state":"active","ping":163},{"user_id":128,"name":"TOOL fan","steam_id":76561198272021214,"connected_time":947000000000,"state":"active","ping":104},{"user_id":137,"name":"Crossing Jupiter","steam_id":76561198030126031,"connected_time":538000000000,"state":"active","ping":69},{"user_id":115,"name":"Juan Pablo Gonzalez 2023","steam_id":76561199197961413,"connected_time":1748000000000,"state":"active","ping":60},{"user_id":119,"name":"bash -lc ./asshat.sh","steam_id":76561198004584315,"connected_time":1658000000000,"state":"active","ping":69},{"user_id":75,"name":"DatFluffyPancake","steam_id":76561198271958697,"connected_time":4332000000000,"state":"active","ping":80},{"user_id":120,"name":"Scita","steam_id":76561198066861559,"connected_time":1647000000000,"state":"active","ping":76},{"user_id":112,"name":"Gaminglast","steam_id":76561198362927765,"connected_time":1851000000000,"state":"active","ping":128},{"user_id":121,"name":"IPlayGamez","steam_id":76561198041387508,"connected_time":1644000000000,"state":"active","ping":72},{"user_id":133,"name":"Jeeper","steam_id":76561198155583692,"connected_time":663000000000,"state":"active","ping":79},{"user_id":129,"name":"god approaches","steam_id":76561198081617990,"connected_time":930000000000,"state":"active","ping":105},{"user_id":85,"name":"Deanster5000","steam_id":76561199447568640,"connected_time":3732000000000,"state":"active","ping":61},{"user_id":86,"name":"10KO!","steam_id":76561199134895220,"connected_time":3691000000000,"state":"active","ping":80},{"user_id":41,"name":"Synergy","steam_id":76561198098630198,"connected_time":5876000000000,"state":"active","ping":91},{"user_id":122,"name":"Jitters","steam_id":76561198078898336,"connected_time":1642000000000,"state":"active","ping":52},{"user_id":123,"name":"❤♡･ﾟBubbles･ﾟ♡❤","steam_id":76561198041057042,"connected_time":1633000000000,"state":"active","ping":59},{"user_id":104,"name":"Ta5K","steam_id":76561198939558155,"connected_time":2266000000000,"state":"active","ping":48},{"user_id":134,"name":"roma","steam_id":76561198028811916,"connected_time":663000000000,"state":"active","ping":60},{"user_id":127,"name":"mountain*✩‧₊˚","steam_id":76561198078395002,"connected_time":1566000000000,"state":"active","ping":78},{"user_id":126,"name":"Mr Doctor","steam_id":76561199014497193,"connected_time":1602000000000,"state":"active","ping":72},{"user_id":136,"name":"Green/Black Weezer CD#36","steam_id":76561198851520459,"connected_time":648000000000,"state":"active","ping":78},{"user_id":117,"name":"stfu im vibin rn","steam_id":76561198069407799,"connected_time":1714000000000,"state":"active","ping":77}]},{"server_id":37,"name":"Uncletopia | Chicago | 6 | All Maps","name_short":"chi-6","host":"chi-2.us.uncletopia.com","port":27025,"enabled":true,"region":"us-central","cc":"us","latitude":41.881832,"longitude":-87.62318,"reserved":0,"last_update":"0001-01-01T00:00:00Z","name_a2s":"Uncletopia | Chicago | 6 | All Maps","protocol":17,"map":"cp_powerhouse","folder":"tf","game":"Team Fortress","app_id":440,"player_count":23,"max_players":24,"Bots":0,"server_type":"Dedicated","server_os":"Linux","password":true,"vac":true,"version":"7757534","steam_id":85568392924866363,"keywords":["cp","nocrits","nodmgspread","uncletopia"],"game_id":440,"stv_port":27026,"stv_name":"Uncletopia | Chicago | 6 | All Maps | STV","players":[{"user_id":180,"name":"SethToast","steam_id":76561198404633529,"connected_time":949000000000,"state":"active","ping":51},{"user_id":148,"name":"DiamondEpsilon","steam_id":76561198203883311,"connected_time":2480000000000,"state":"active","ping":86},{"user_id":185,"name":"λlsitri2404","steam_id":76561199111954037,"connected_time":511000000000,"state":"active","ping":172},{"user_id":181,"name":"ChebJeb","steam_id":76561198981377081,"connected_time":901000000000,"state":"active","ping":75},{"user_id":172,"name":"smk","steam_id":76561198068027379,"connected_time":1226000000000,"state":"active","ping":165},{"user_id":186,"name":"Ivan I","steam_id":76561198341781527,"connected_time":502000000000,"state":"active","ping":73},{"user_id":174,"name":"Sergeant Joker #savetf2","steam_id":76561198854616604,"connected_time":1207000000000,"state":"active","ping":63},{"user_id":175,"name":"Big Eggus","steam_id":76561198268626523,"connected_time":1207000000000,"state":"active","ping":70},{"user_id":189,"name":"Crazy__Biscuit","steam_id":76561198399851872,"connected_time":178000000000,"state":"active","ping":58},{"user_id":163,"name":"tin foil hat","steam_id":76561198083607304,"connected_time":2061000000000,"state":"active","ping":60},{"user_id":183,"name":"6kre_1t","steam_id":76561198106157810,"connected_time":886000000000,"state":"active","ping":60},{"user_id":155,"name":"TypicalGiftig","steam_id":76561198170372495,"connected_time":2258000000000,"state":"active","ping":71},{"user_id":179,"name":"Finchy22","steam_id":76561198063355600,"connected_time":1071000000000,"state":"active","ping":60},{"user_id":157,"name":"Worst Scenario","steam_id":76561199052130229,"connected_time":2249000000000,"state":"active","ping":60},{"user_id":162,"name":"grate_fiter-232","steam_id":76561198073424589,"connected_time":2119000000000,"state":"active","ping":62},{"user_id":188,"name":"Madd Maxx","steam_id":76561198339584998,"connected_time":350000000000,"state":"active","ping":85},{"user_id":140,"name":"logitchy","steam_id":76561199062753505,"connected_time":4002000000000,"state":"active","ping":53},{"user_id":158,"name":"Onion My Ate Dog My","steam_id":76561198155848925,"connected_time":2232000000000,"state":"active","ping":74},{"user_id":184,"name":"broghafam","steam_id":76561199084913446,"connected_time":760000000000,"state":"active","ping":56},{"user_id":159,"name":"Shen (c1a0)","steam_id":76561198135616766,"connected_time":2228000000000,"state":"active","ping":90},{"user_id":164,"name":"Evil babies (with guns)","steam_id":76561198085815757,"connected_time":2052000000000,"state":"active","ping":76},{"user_id":192,"name":"Rin \"Hindwing\" Redtail","steam_id":76561199074865638,"connected_time":51000000000,"state":"active","ping":74},{"user_id":135,"name":"Sire Salty","steam_id":76561198079639072,"connected_time":4346000000000,"state":"active","ping":61}]},{"server_id":38,"name":"Uncletopia | Chicago | 7 | Stopwatch Beta","name_short":"chi-7","host":"chi-2.us.uncletopia.com","port":27035,"enabled":true,"region":"us-central","cc":"us","latitude":41.881832,"longitude":-87.62318,"reserved":0,"last_update":"0001-01-01T00:00:00Z","name_a2s":"Uncletopia | Chicago | 7 | Stopwatch Beta","protocol":17,"map":"workshop/koth_ramjam_rc1.ugc459778887","folder":"tf","game":"Team Fortress","app_id":440,"player_count":24,"max_players":24,"Bots":0,"server_type":"Dedicated","server_os":"Linux","password":true,"vac":true,"version":"7757534","steam_id":85568392924866364,"keywords":["cp","nocrits","nodmgspread","uncletopia"],"game_id":440,"stv_port":27036,"stv_name":"Uncletopia | Chicago | 7 | Stopwatch Beta | STV","players":[{"user_id":12,"name":"I Exist","steam_id":76561199229739789,"connected_time":1518000000000,"state":"active","ping":85},{"user_id":39,"name":"Professor Succ","steam_id":76561198105520850,"connected_time":713000000000,"state":"active","ping":75},{"user_id":14,"name":"scary bionicle","steam_id":76561198086645454,"connected_time":1464000000000,"state":"active","ping":76},{"user_id":28,"name":"memes.us.memes","steam_id":76561198194728506,"connected_time":1258000000000,"state":"active","ping":75},{"user_id":21,"name":"VOIDWALKER_JOHN","steam_id":76561198117356654,"connected_time":1399000000000,"state":"active","ping":131},{"user_id":18,"name":"Trick","steam_id":76561199010111250,"connected_time":1412000000000,"state":"active","ping":71},{"user_id":19,"name":"triangular crouton","steam_id":76561198325559624,"connected_time":1408000000000,"state":"active","ping":94},{"user_id":50,"name":"carcin","steam_id":76561198042271448,"connected_time":125000000000,"state":"active","ping":59},{"user_id":40,"name":"venus","steam_id":76561198211308328,"connected_time":646000000000,"state":"active","ping":60},{"user_id":23,"name":"Retrace","steam_id":76561198080620966,"connected_time":1367000000000,"state":"active","ping":76},{"user_id":29,"name":"Happy","steam_id":76561198141742299,"connected_time":1257000000000,"state":"active","ping":102},{"user_id":30,"name":"Chafn","steam_id":76561197969386702,"connected_time":1242000000000,"state":"active","ping":101},{"user_id":43,"name":"Heisenberg","steam_id":76561198084212164,"connected_time":535000000000,"state":"active","ping":95},{"user_id":45,"name":"Cocksneed Fartin","steam_id":76561198126675787,"connected_time":375000000000,"state":"active","ping":77},{"user_id":46,"name":"logna","steam_id":76561198977633937,"connected_time":333000000000,"state":"active","ping":61},{"user_id":32,"name":"Freddy Fatass","steam_id":76561199240301565,"connected_time":1223000000000,"state":"active","ping":57},{"user_id":33,"name":"Pinder","steam_id":76561198176708643,"connected_time":1144000000000,"state":"active","ping":98},{"user_id":38,"name":"TaBunnie","steam_id":76561198197894178,"connected_time":961000000000,"state":"active","ping":72},{"user_id":35,"name":"seanbernard551","steam_id":76561199079560769,"connected_time":1080000000000,"state":"active","ping":81},{"user_id":36,"name":"BasicPeaches","steam_id":76561198190890150,"connected_time":1039000000000,"state":"active","ping":83},{"user_id":41,"name":"yrrej","steam_id":76561198311004039,"connected_time":609000000000,"state":"active","ping":85},{"user_id":42,"name":"chrischrischris3018@yahoo.com","steam_id":76561198137316053,"connected_time":583000000000,"state":"active","ping":74},{"user_id":47,"name":"ƐՌѴƳ","steam_id":76561198099470277,"connected_time":312000000000,"state":"active","ping":83},{"user_id":48,"name":"Barlon","steam_id":76561198023717515,"connected_time":298000000000,"state":"active","ping":82}]},{"server_id":39,"name":"Uncletopia | Chicago | 8 | Community","name_short":"chi-8","host":"chi-2.us.uncletopia.com","port":27045,"enabled":true,"region":"us-central","cc":"us","latitude":41.881832,"longitude":-87.62318,"reserved":0,"last_update":"0001-01-01T00:00:00Z","name_a2s":"Uncletopia | Chicago | 8 | Community","protocol":17,"map":"workshop/rd_asteroid_redux_b1.ugc2154902912","folder":"tf","game":"Team Fortress","app_id":440,"player_count":3,"max_players":24,"Bots":0,"server_type":"Dedicated","server_os":"Linux","password":true,"vac":true,"version":"7757534","steam_id":85568392924866365,"keywords":["beta","nocrits","nodmgspread","rd","uncletopia"],"game_id":440,"stv_port":27046,"stv_name":"Uncletopia | Chicago | 8 | Community | STV","players":[{"user_id":8,"name":"TacticalDuckie","steam_id":76561198275769295,"connected_time":850000000000,"state":"active","ping":74},{"user_id":9,"name":"superkahles","steam_id":76561198844096180,"connected_time":839000000000,"state":"active","ping":78},{"user_id":10,"name":"Tripping on ibuprofen","steam_id":76561198802147518,"connected_time":15000000000,"state":"active","ping":57}]},{"server_id":8,"name":"Uncletopia | Dallas | 1 | All Maps","name_short":"dal-1","host":"dal-1.us.uncletopia.com","port":27015,"enabled":true,"region":"us-central","cc":"us","latitude":32.779167,"longitude":-96.80889,"reserved":0,"last_update":"0001-01-01T00:00:00Z","name_a2s":"Uncletopia | Dallas | 1 | All Maps","protocol":17,"map":"cp_sunshine","folder":"tf","game":"Team Fortress","app_id":440,"player_count":24,"max_players":24,"Bots":0,"server_type":"Dedicated","server_os":"Linux","password":true,"vac":true,"version":"7757534","steam_id":85568392924469986,"keywords":["cp","nocrits","nodmgspread","uncletopia"],"game_id":440,"stv_port":27016,"stv_name":"Uncletopia | Dallas | 1 | All Maps | STV","players":[{"user_id":254,"name":"darktheif54","steam_id":76561198043650119,"connected_time":4110000000000,"state":"active","ping":110},{"user_id":272,"name":"Daggz","steam_id":76561198821879886,"connected_time":3628000000000,"state":"active","ping":111},{"user_id":318,"name":"BOUZENZEL","steam_id":76561198095000722,"connected_time":502000000000,"state":"active","ping":39},{"user_id":267,"name":"FluttyPutty","steam_id":76561198218446556,"connected_time":3920000000000,"state":"active","ping":63},{"user_id":321,"name":"mentos14","steam_id":76561198097993629,"connected_time":456000000000,"state":"active","ping":76},{"user_id":317,"name":"Large Charles","steam_id":76561197999663001,"connected_time":529000000000,"state":"active","ping":61},{"user_id":229,"name":"spy","steam_id":76561198937717599,"connected_time":5571000000000,"state":"active","ping":43},{"user_id":306,"name":"bottom pride burger","steam_id":76561198322247602,"connected_time":814000000000,"state":"active","ping":87},{"user_id":223,"name":"Dylan","steam_id":76561198265522923,"connected_time":5965000000000,"state":"active","ping":45},{"user_id":316,"name":"warrior","steam_id":76561198074500319,"connected_time":567000000000,"state":"active","ping":100},{"user_id":268,"name":"Shamrock Shake Oct.10.2020 @8pm","steam_id":76561198833313201,"connected_time":3798000000000,"state":"active","ping":84},{"user_id":301,"name":"OCDkitty","steam_id":76561198266296221,"connected_time":932000000000,"state":"active","ping":45},{"user_id":296,"name":"Regice","steam_id":76561198049860998,"connected_time":1613000000000,"state":"active","ping":45},{"user_id":249,"name":"K2f","steam_id":76561198049600563,"connected_time":4182000000000,"state":"active","ping":79},{"user_id":298,"name":"Cofi","steam_id":76561199026721822,"connected_time":1407000000000,"state":"active","ping":87},{"user_id":270,"name":"Joe Swanson","steam_id":76561199089907740,"connected_time":3725000000000,"state":"active","ping":75},{"user_id":292,"name":"El Camino","steam_id":76561197992848313,"connected_time":1989000000000,"state":"active","ping":86},{"user_id":257,"name":"BNTF","steam_id":76561198062740087,"connected_time":4090000000000,"state":"active","ping":77},{"user_id":335,"name":"seriousbirb","steam_id":76561199047851076,"connected_time":5000000000,"state":"spawning","ping":104},{"user_id":266,"name":"FoamyPirate.h","steam_id":76561197970312151,"connected_time":3933000000000,"state":"active","ping":77},{"user_id":299,"name":"Remy the rat","steam_id":76561198080519558,"connected_time":1402000000000,"state":"active","ping":58},{"user_id":277,"name":"tarbops","steam_id":76561198442050962,"connected_time":3103000000000,"state":"active","ping":62},{"user_id":304,"name":"clint","steam_id":76561198156836862,"connected_time":866000000000,"state":"active","ping":65},{"user_id":313,"name":"Rare_Igor","steam_id":76561198329611355,"connected_time":627000000000,"state":"active","ping":61}]},{"server_id":108,"name":"Uncletopia | Dallas | 2 | All Maps","name_short":"dal-2","host":"dal-1.us.uncletopia.com","port":27025,"enabled":true,"region":"us-central","cc":"us","latitude":32.779167,"longitude":-96.80889,"reserved":0,"last_update":"0001-01-01T00:00:00Z","name_a2s":"Uncletopia | Dallas | 2 | All Maps","protocol":17,"map":"cp_sunshine","folder":"tf","game":"Team Fortress","app_id":440,"player_count":7,"max_players":24,"Bots":0,"server_type":"Dedicated","server_os":"Linux","password":true,"vac":true,"version":"7757534","steam_id":85568392924469988,"keywords":["cp","nocrits","nodmgspread","uncletopia"],"game_id":440,"stv_port":27026,"stv_name":"Uncletopia | Dallas | 2 | All Maps | STV","players":[{"user_id":214,"name":"Level 1 Dispenser","steam_id":76561198865512016,"connected_time":1032000000000,"state":"active","ping":57},{"user_id":232,"name":"lana_del_Rei.com","steam_id":76561198172447621,"connected_time":147000000000,"state":"active","ping":71},{"user_id":230,"name":"oneman army","steam_id":76561198384248669,"connected_time":195000000000,"state":"active","ping":202},{"user_id":235,"name":"Obsidian Comet","steam_id":76561198046907540,"connected_time":37000000000,"state":"spawning","ping":74},{"user_id":236,"name":"Hormone Tyrant","steam_id":76561198057571424,"connected_time":5000000000,"state":"spawning","ping":79},{"user_id":228,"name":"Ironboy","steam_id":76561198421623862,"connected_time":322000000000,"state":"active","ping":118},{"user_id":197,"name":"iluvtoust","steam_id":76561198869269207,"connected_time":2777000000000,"state":"active","ping":42}]},{"server_id":5,"name":"Uncletopia | Frankfurt | 1 | All Maps","name_short":"frk-1","host":"frk-1.de.uncletopia.com","port":27015,"enabled":true,"region":"eu","cc":"de","latitude":50.110924,"longitude":8.682127,"reserved":0,"last_update":"0001-01-01T00:00:00Z","name_a2s":"Uncletopia | Frankfurt | 1 | All Maps","protocol":17,"map":"koth_viaduct","folder":"tf","game":"Team Fortress","app_id":440,"player_count":0,"max_players":24,"Bots":0,"server_type":"Dedicated","server_os":"Linux","password":true,"vac":true,"version":"7757534","steam_id":85568392924469989,"keywords":["cp","nocrits","nodmgspread","uncletopia"],"game_id":440,"stv_port":27016,"stv_name":"Uncletopia | Frankfurt | 1 | All Maps | STV","players":null},{"server_id":110,"name":"Uncletopia | Frankfurt | 2 | All Maps","name_short":"frk-2","host":"frk-1.de.uncletopia.com","port":27025,"enabled":true,"region":"eu","cc":"de","latitude":50.110924,"longitude":8.682127,"reserved":0,"last_update":"0001-01-01T00:00:00Z","name_a2s":"Uncletopia | Frankfurt | 2 | All Maps","protocol":17,"map":"koth_nucleus","folder":"tf","game":"Team Fortress","app_id":440,"player_count":24,"max_players":24,"Bots":0,"server_type":"Dedicated","server_os":"Linux","password":true,"vac":true,"version":"7757534","steam_id":85568392924469990,"keywords":["cp","nocrits","nodmgspread","uncletopia"],"game_id":440,"stv_port":27026,"stv_name":"Uncletopia | Frankfurt | 2 | All Maps | STV","players":[{"user_id":511,"name":"Zogg","steam_id":76561198352683491,"connected_time":454000000000,"state":"active","ping":54},{"user_id":500,"name":"MAKENTAKEN","steam_id":76561199127359587,"connected_time":857000000000,"state":"active","ping":97},{"user_id":480,"name":"New","steam_id":76561198402195911,"connected_time":2187000000000,"state":"active","ping":111},{"user_id":489,"name":"Edgy Name","steam_id":76561198378270820,"connected_time":1645000000000,"state":"active","ping":64},{"user_id":502,"name":"Barbiehunter #SaveTF2","steam_id":76561198071630928,"connected_time":814000000000,"state":"active","ping":59},{"user_id":446,"name":"spooks","steam_id":76561198048205059,"connected_time":4152000000000,"state":"active","ping":99},{"user_id":497,"name":"Regular","steam_id":76561198135365325,"connected_time":1183000000000,"state":"active","ping":73},{"user_id":447,"name":"[waffles]","steam_id":76561198951206047,"connected_time":4091000000000,"state":"active","ping":80},{"user_id":517,"name":"Watermelon","steam_id":76561198078349914,"connected_time":114000000000,"state":"active","ping":60},{"user_id":493,"name":"LeoAvocado","steam_id":76561198990298263,"connected_time":1497000000000,"state":"active","ping":169},{"user_id":449,"name":"spearfishNL","steam_id":76561199077022985,"connected_time":4066000000000,"state":"active","ping":56},{"user_id":507,"name":"Clubs","steam_id":76561198059235131,"connected_time":593000000000,"state":"active","ping":162},{"user_id":494,"name":"i am speed","steam_id":76561198437700328,"connected_time":1495000000000,"state":"active","ping":79},{"user_id":514,"name":"Skuld","steam_id":76561198064734905,"connected_time":361000000000,"state":"active","ping":90},{"user_id":509,"name":"『Dorarhim』","steam_id":76561198220232352,"connected_time":524000000000,"state":"active","ping":52},{"user_id":467,"name":"rob","steam_id":76561198122211848,"connected_time":3027000000000,"state":"active","ping":103},{"user_id":479,"name":"Charrky","steam_id":76561198054398642,"connected_time":2244000000000,"state":"active","ping":56},{"user_id":486,"name":"nedilya","steam_id":76561198039692077,"connected_time":1901000000000,"state":"active","ping":57},{"user_id":481,"name":"rebalint","steam_id":76561198283840674,"connected_time":2105000000000,"state":"active","ping":91},{"user_id":491,"name":"player","steam_id":76561198054474684,"connected_time":1600000000000,"state":"active","ping":75},{"user_id":516,"name":"Dor_atar","steam_id":76561198973980542,"connected_time":258000000000,"state":"active","ping":71},{"user_id":510,"name":"kotamine","steam_id":76561198068907991,"connected_time":516000000000,"state":"active","ping":70},{"user_id":499,"name":".::[SerafeTTiN]::.","steam_id":76561198009471724,"connected_time":935000000000,"state":"active","ping":95},{"user_id":471,"name":"Mi Manchi","steam_id":76561198171573129,"connected_time":2774000000000,"state":"active","ping":60}]},{"server_id":308,"name":"Uncletopia | Frankfurt | 3 | All Maps","name_short":"frk-3","host":"frk-1.de.uncletopia.com","port":27035,"enabled":true,"region":"eu","cc":"de","latitude":50.110924,"longitude":8.682127,"reserved":0,"last_update":"0001-01-01T00:00:00Z","name_a2s":"Uncletopia | Frankfurt | 3 | All Maps","protocol":17,"map":"pl_frontier_final","folder":"tf","game":"Team Fortress","app_id":440,"player_count":24,"max_players":24,"Bots":0,"server_type":"Dedicated","server_os":"Linux","password":true,"vac":true,"version":"7757534","steam_id":85568392924504274,"keywords":["nocrits","nodmgspread","payload","uncletopia"],"game_id":440,"stv_port":27036,"stv_name":"Uncletopia | Frankfurt | 3 | All Maps | STV","players":[{"user_id":576,"name":"Shwupas","steam_id":76561198045493529,"connected_time":418000000000,"state":"active","ping":57},{"user_id":519,"name":"frosty","steam_id":76561198094560834,"connected_time":6021000000000,"state":"active","ping":64},{"user_id":547,"name":"cinny","steam_id":76561198832112629,"connected_time":3565000000000,"state":"active","ping":80},{"user_id":551,"name":"Winter Guy","steam_id":76561198326593298,"connected_time":3372000000000,"state":"active","ping":118},{"user_id":569,"name":"RNTenant","steam_id":76561198081863650,"connected_time":708000000000,"state":"active","ping":78},{"user_id":553,"name":"็","steam_id":76561198254030118,"connected_time":3362000000000,"state":"active","ping":54},{"user_id":549,"name":"Egor Pomidor","steam_id":76561199175688390,"connected_time":3402000000000,"state":"active","ping":75},{"user_id":565,"name":"Earthman","steam_id":76561198137424821,"connected_time":1741000000000,"state":"active","ping":57},{"user_id":526,"name":"ANDROMEDA","steam_id":76561199213073534,"connected_time":5392000000000,"state":"active","ping":73},{"user_id":574,"name":"lettuce at 58p","steam_id":76561199401283123,"connected_time":503000000000,"state":"active","ping":61},{"user_id":528,"name":"kaelan","steam_id":76561198001425310,"connected_time":5368000000000,"state":"active","ping":75},{"user_id":444,"name":"wasto-/-™","steam_id":76561198102888038,"connected_time":10787000000000,"state":"active","ping":53},{"user_id":572,"name":"tallen","steam_id":76561198061708595,"connected_time":662000000000,"state":"active","ping":85},{"user_id":559,"name":"puck","steam_id":76561198121260981,"connected_time":2560000000000,"state":"active","ping":60},{"user_id":507,"name":"cursedbygod♡","steam_id":76561198318291047,"connected_time":7206000000000,"state":"active","ping":118},{"user_id":541,"name":"shadow39344","steam_id":76561198090639618,"connected_time":4490000000000,"state":"active","ping":57},{"user_id":566,"name":"unwashed_c0ck","steam_id":76561198049312442,"connected_time":1730000000000,"state":"active","ping":62},{"user_id":533,"name":"Clitorina","steam_id":76561198077570815,"connected_time":5133000000000,"state":"active","ping":58},{"user_id":557,"name":"howabe","steam_id":76561197996486818,"connected_time":2823000000000,"state":"active","ping":52},{"user_id":567,"name":"biohazard.pt","steam_id":76561198088367808,"connected_time":1729000000000,"state":"active","ping":83},{"user_id":546,"name":"Spanns","steam_id":76561197998349793,"connected_time":4035000000000,"state":"active","ping":74},{"user_id":575,"name":"Goose of Wisdom","steam_id":76561198233465044,"connected_time":494000000000,"state":"active","ping":154},{"user_id":562,"name":"Shadow","steam_id":76561198916616778,"connected_time":2021000000000,"state":"active","ping":96},{"user_id":570,"name":"a Regurar Barroon","steam_id":76561198834913692,"connected_time":704000000000,"state":"active","ping":67}]},{"server_id":309,"name":"Uncletopia | Frankfurt | 4 | All Maps","name_short":"frk-4","host":"frk-1.de.uncletopia.com","port":27045,"enabled":true,"region":"eu","cc":"de","latitude":50.110924,"longitude":8.682127,"reserved":0,"last_update":"0001-01-01T00:00:00Z","name_a2s":"Uncletopia | Frankfurt | 4 | All Maps","protocol":17,"map":"cp_sunshine","folder":"tf","game":"Team Fortress","app_id":440,"player_count":24,"max_players":24,"Bots":0,"server_type":"Dedicated","server_os":"Linux","password":true,"vac":true,"version":"7757534","steam_id":85568392924504275,"keywords":["cp","nocrits","nodmgspread","uncletopia"],"game_id":440,"stv_port":27046,"stv_name":"Uncletopia | Frankfurt | 4 | All Maps | STV","players":[{"user_id":458,"name":"AWJ ˆ-ˆ","steam_id":76561198053628243,"connected_time":2718000000000,"state":"active","ping":52},{"user_id":455,"name":"teddy","steam_id":76561198007436837,"connected_time":2798000000000,"state":"active","ping":45},{"user_id":471,"name":"yoursbzt","steam_id":76561198201866574,"connected_time":826000000000,"state":"active","ping":85},{"user_id":466,"name":"tiiyama","steam_id":76561198046196005,"connected_time":1382000000000,"state":"active","ping":41},{"user_id":468,"name":"Syll","steam_id":76561198040736202,"connected_time":1191000000000,"state":"active","ping":84},{"user_id":423,"name":"♥ Aura ♥","steam_id":76561198066258544,"connected_time":6183000000000,"state":"active","ping":58},{"user_id":457,"name":"♦Silvia♦","steam_id":76561198373039444,"connected_time":2773000000000,"state":"active","ping":113},{"user_id":474,"name":"Purps","steam_id":76561198053886680,"connected_time":303000000000,"state":"active","ping":53},{"user_id":446,"name":"TidB","steam_id":76561198055342304,"connected_time":4329000000000,"state":"active","ping":59},{"user_id":403,"name":"Ziemniaczki z koperkiem","steam_id":76561198829123464,"connected_time":7773000000000,"state":"active","ping":76},{"user_id":467,"name":"T K","steam_id":76561198134256917,"connected_time":1354000000000,"state":"active","ping":60},{"user_id":442,"name":"Tekky","steam_id":76561197990987315,"connected_time":4468000000000,"state":"active","ping":56},{"user_id":476,"name":"lugiagaurdien","steam_id":76561198894274440,"connected_time":126000000000,"state":"active","ping":60},{"user_id":443,"name":"konkubino","steam_id":76561198028756615,"connected_time":4459000000000,"state":"active","ping":83},{"user_id":469,"name":"Qwertuss","steam_id":76561198026305366,"connected_time":1003000000000,"state":"active","ping":62},{"user_id":444,"name":"ReaperGreen","steam_id":76561198282335874,"connected_time":4458000000000,"state":"active","ping":55},{"user_id":465,"name":"Minimi","steam_id":76561198873850443,"connected_time":1585000000000,"state":"active","ping":52},{"user_id":475,"name":"the indomitable human spirit","steam_id":76561199444971686,"connected_time":194000000000,"state":"active","ping":57},{"user_id":453,"name":"Ansari","steam_id":76561198074982971,"connected_time":2963000000000,"state":"active","ping":55},{"user_id":416,"name":"Kotlet schabowy","steam_id":76561198048983509,"connected_time":7075000000000,"state":"active","ping":81},{"user_id":477,"name":"Ampior","steam_id":76561198808630323,"connected_time":99000000000,"state":"active","ping":83},{"user_id":461,"name":"davegrohl","steam_id":76561198138458704,"connected_time":2544000000000,"state":"active","ping":73},{"user_id":464,"name":"Pinkchup","steam_id":76561198106802803,"connected_time":1945000000000,"state":"active","ping":75},{"user_id":431,"name":"transgender e-girl","steam_id":76561198168589809,"connected_time":5708000000000,"state":"active","ping":66}]},{"server_id":310,"name":"Uncletopia | Frankfurt | 5 | All Maps","name_short":"frk-5","host":"frk-1.de.uncletopia.com","port":27055,"enabled":true,"region":"eu","cc":"de","latitude":50.110924,"longitude":8.682127,"reserved":0,"last_update":"0001-01-01T00:00:00Z","name_a2s":"Uncletopia | Frankfurt | 5 | All Maps","protocol":17,"map":"cp_snakewater_final1","folder":"tf","game":"Team Fortress","app_id":440,"player_count":24,"max_players":24,"Bots":0,"server_type":"Dedicated","server_os":"Linux","password":true,"vac":true,"version":"7757534","steam_id":85568392924504277,"keywords":["cp","nocrits","nodmgspread","uncletopia"],"game_id":440,"stv_port":27056,"stv_name":"Uncletopia | Frankfurt | 5 | All Maps | STV","players":[{"user_id":518,"name":"Zurgling Goraan","steam_id":76561198098415374,"connected_time":1666000000000,"state":"active","ping":99},{"user_id":503,"name":"Economic crisis","steam_id":76561198063562843,"connected_time":2658000000000,"state":"active","ping":51},{"user_id":513,"name":"wioslo","steam_id":76561198376326060,"connected_time":1817000000000,"state":"active","ping":89},{"user_id":535,"name":"noodlehairronaldoprime","steam_id":76561199471954402,"connected_time":169000000000,"state":"active","ping":64},{"user_id":536,"name":"eeeeee","steam_id":76561198017786875,"connected_time":161000000000,"state":"active","ping":58},{"user_id":532,"name":"Red Dynamite","steam_id":76561199073167935,"connected_time":601000000000,"state":"active","ping":189},{"user_id":529,"name":"sinologist","steam_id":76561198080912087,"connected_time":1084000000000,"state":"active","ping":59},{"user_id":531,"name":"anders McFlanders","steam_id":76561198022811995,"connected_time":828000000000,"state":"active","ping":63},{"user_id":524,"name":"the","steam_id":76561198079277466,"connected_time":1233000000000,"state":"active","ping":62},{"user_id":533,"name":"Jack","steam_id":76561198325505238,"connected_time":542000000000,"state":"active","ping":74},{"user_id":515,"name":"recoil","steam_id":76561199168419398,"connected_time":1770000000000,"state":"active","ping":78},{"user_id":534,"name":"Hasamnas","steam_id":76561199125038537,"connected_time":190000000000,"state":"active","ping":65},{"user_id":506,"name":"zak","steam_id":76561197998895428,"connected_time":2610000000000,"state":"active","ping":60},{"user_id":537,"name":"Deckard","steam_id":76561198004704647,"connected_time":141000000000,"state":"active","ping":80},{"user_id":521,"name":"Sirzen","steam_id":76561198170155434,"connected_time":1614000000000,"state":"active","ping":57},{"user_id":507,"name":"Lessoz","steam_id":76561199211572036,"connected_time":2519000000000,"state":"active","ping":96},{"user_id":492,"name":"Bromoneto","steam_id":76561198876695014,"connected_time":3060000000000,"state":"active","ping":68},{"user_id":530,"name":"rigel_","steam_id":76561198148640847,"connected_time":878000000000,"state":"active","ping":75},{"user_id":538,"name":"dust","steam_id":76561198293557665,"connected_time":140000000000,"state":"active","ping":110},{"user_id":510,"name":"alphawarrior999","steam_id":76561199001580062,"connected_time":1860000000000,"state":"active","ping":150},{"user_id":511,"name":"X45Y","steam_id":76561198112534025,"connected_time":1836000000000,"state":"active","ping":45},{"user_id":478,"name":"Dr. Grey","steam_id":76561198036320370,"connected_time":3952000000000,"state":"active","ping":90},{"user_id":523,"name":"Lyra","steam_id":76561198043601838,"connected_time":1587000000000,"state":"active","ping":75},{"user_id":527,"name":"eNine the FOREVER","steam_id":76561198890193313,"connected_time":1191000000000,"state":"active","ping":71}]},{"server_id":311,"name":"Uncletopia | Frankfurt | 6 | All Maps","name_short":"frk-6","host":"frk-1.de.uncletopia.com","port":27065,"enabled":true,"region":"eu","cc":"de","latitude":50.110924,"longitude":8.682127,"reserved":0,"last_update":"0001-01-01T00:00:00Z","name_a2s":"Uncletopia | Frankfurt | 6 | All Maps","protocol":17,"map":"cp_process_final","folder":"tf","game":"Team Fortress","app_id":440,"player_count":23,"max_players":24,"Bots":0,"server_type":"Dedicated","server_os":"Linux","password":true,"vac":true,"version":"7757534","steam_id":85568392924504278,"keywords":["cp","nocrits","nodmgspread","uncletopia"],"game_id":440,"stv_port":27066,"stv_name":"Uncletopia | Frankfurt | 6 | All Maps | STV","players":[{"user_id":404,"name":"mt","steam_id":76561197961319303,"connected_time":1076000000000,"state":"active","ping":47},{"user_id":405,"name":"Utkunator","steam_id":76561198967463151,"connected_time":1059000000000,"state":"active","ping":137},{"user_id":407,"name":"Zox","steam_id":76561198214232577,"connected_time":1034000000000,"state":"active","ping":59},{"user_id":346,"name":"✪ m_br3","steam_id":76561198044981990,"connected_time":4900000000000,"state":"active","ping":64},{"user_id":420,"name":"Myrmodion","steam_id":76561198054746247,"connected_time":532000000000,"state":"active","ping":57},{"user_id":368,"name":"Jonathan","steam_id":76561198087988880,"connected_time":3963000000000,"state":"active","ping":44},{"user_id":349,"name":"Maru","steam_id":76561198030931030,"connected_time":4855000000000,"state":"active","ping":67},{"user_id":414,"name":"❤ shrimpee❤ | [she/they]","steam_id":76561198303128670,"connected_time":735000000000,"state":"active","ping":59},{"user_id":408,"name":"Salih","steam_id":76561198287934839,"connected_time":1006000000000,"state":"active","ping":60},{"user_id":370,"name":"Baba Foss","steam_id":76561198002302019,"connected_time":3888000000000,"state":"active","ping":69},{"user_id":359,"name":"X-tis","steam_id":76561198043837480,"connected_time":4481000000000,"state":"active","ping":76},{"user_id":415,"name":"Nithle","steam_id":76561198025372740,"connected_time":697000000000,"state":"active","ping":46},{"user_id":353,"name":"Fat Pigeon","steam_id":76561198817940142,"connected_time":4777000000000,"state":"active","ping":52},{"user_id":411,"name":"multiflex","steam_id":76561198049639319,"connected_time":928000000000,"state":"active","ping":74},{"user_id":422,"name":"Grumtsior","steam_id":76561198043563111,"connected_time":464000000000,"state":"active","ping":63},{"user_id":412,"name":"i n n o","steam_id":76561199230689289,"connected_time":877000000000,"state":"active","ping":78},{"user_id":426,"name":":\u003ezem","steam_id":76561198864329072,"connected_time":387000000000,"state":"active","ping":114},{"user_id":417,"name":"Edison Trent","steam_id":76561198067133145,"connected_time":664000000000,"state":"active","ping":54},{"user_id":423,"name":"Dark Wizart","steam_id":76561198377689439,"connected_time":460000000000,"state":"active","ping":72},{"user_id":427,"name":"Udinese Dion","steam_id":76561198067931573,"connected_time":331000000000,"state":"active","ping":48},{"user_id":424,"name":"f3ejb","steam_id":76561198970454091,"connected_time":421000000000,"state":"active","ping":50},{"user_id":425,"name":"Rintse","steam_id":76561198065679312,"connected_time":414000000000,"state":"active","ping":47},{"user_id":401,"name":"FoxyTheFish","steam_id":76561199074190919,"connected_time":1330000000000,"state":"active","ping":56}]},{"server_id":23,"name":"Uncletopia | Frankfurt | 7 | Stopwatch Beta","name_short":"frk-7","host":"frk-1.de.uncletopia.com","port":27075,"enabled":true,"region":"eu","cc":"de","latitude":50.110924,"longitude":8.682127,"reserved":0,"last_update":"0001-01-01T00:00:00Z","name_a2s":"Uncletopia | Frankfurt | 7 | Stopwatch Beta","protocol":17,"map":"cp_gullywash_final1","folder":"tf","game":"Team Fortress","app_id":440,"player_count":0,"max_players":24,"Bots":0,"server_type":"Dedicated","server_os":"Linux","password":true,"vac":true,"version":"7757534","steam_id":85568392924742827,"keywords":["cp","nocrits","nodmgspread","uncletopia"],"game_id":440,"stv_port":27076,"stv_name":"Uncletopia | Frankfurt | 7 | Stopwatch Beta | STV","players":null},{"server_id":24,"name":"Uncletopia | Frankfurt | 8 | Community","name_short":"frk-8","host":"frk-1.de.uncletopia.com","port":27085,"enabled":true,"region":"eu","cc":"de","latitude":50.110924,"longitude":8.682127,"reserved":0,"last_update":"0001-01-01T00:00:00Z","name_a2s":"Uncletopia | Frankfurt | 8 | Community","protocol":17,"map":"workshop/pl_boundary_final1.ugc456799153","folder":"tf","game":"Team Fortress","app_id":440,"player_count":0,"max_players":24,"Bots":0,"server_type":"Dedicated","server_os":"Linux","password":true,"vac":true,"version":"7757534","steam_id":85568392924742828,"keywords":["nocrits","nodmgspread","payload","uncletopia"],"game_id":440,"stv_port":27086,"stv_name":"Uncletopia | Frankfurt | 8 | Community | STV","players":null},{"server_id":202,"name":"Uncletopia | Hong Kong | 1 | All Maps","name_short":"hgk-1","host":"hgk-1.hk.uncletopia.com","port":27015,"enabled":true,"region":"asia","cc":"hk","latitude":22.302711,"longitude":114.177216,"reserved":0,"last_update":"0001-01-01T00:00:00Z","name_a2s":"Uncletopia | Hong Kong | 1 | All Maps","protocol":17,"map":"cp_altitude","folder":"tf","game":"Team Fortress","app_id":440,"player_count":0,"max_players":24,"Bots":0,"server_type":"Dedicated","server_os":"Linux","password":true,"vac":true,"version":"7757534","steam_id":85568392924494504,"keywords":["cp","nocrits","nodmgspread","uncletopia"],"game_id":440,"stv_port":27016,"stv_name":"Uncletopia | Hong Kong | 1 | All Maps | STV","players":null},{"server_id":1,"name":"Uncletopia | Los Angeles | 1 | All Maps","name_short":"lax-1","host":"lax-1.us.uncletopia.com","port":27015,"enabled":true,"region":"us-west","cc":"us","latitude":33.94279,"longitude":-118.41004,"reserved":0,"last_update":"0001-01-01T00:00:00Z","name_a2s":"Uncletopia | Los Angeles | 1 | All Maps","protocol":17,"map":"koth_lakeside_final","folder":"tf","game":"Team Fortress","app_id":440,"player_count":0,"max_players":24,"Bots":0,"server_type":"Dedicated","server_os":"Linux","password":true,"vac":true,"version":"7757534","steam_id":85568392924469991,"keywords":["cp","nocrits","nodmgspread","uncletopia"],"game_id":440,"stv_port":27016,"stv_name":"Uncletopia | Los Angeles | 1 | All Maps | STV","players":null},{"server_id":112,"name":"Uncletopia | Los Angeles | 2 | All Maps","name_short":"lax-2","host":"lax-1.us.uncletopia.com","port":27025,"enabled":true,"region":"us-west","cc":"us","latitude":33.94279,"longitude":-118.41004,"reserved":0,"last_update":"0001-01-01T00:00:00Z","name_a2s":"Uncletopia | Los Angeles | 2 | All Maps","protocol":17,"map":"pl_upward","folder":"tf","game":"Team Fortress","app_id":440,"player_count":24,"max_players":24,"Bots":0,"server_type":"Dedicated","server_os":"Linux","password":true,"vac":true,"version":"7757534","steam_id":85568392924469992,"keywords":["nocrits","nodmgspread","payload","uncletopia"],"game_id":440,"stv_port":27026,"stv_name":"Uncletopia | Los Angeles | 2 | All Maps | STV","players":[{"user_id":123,"name":"花の派手な鼻","steam_id":76561198042735130,"connected_time":702000000000,"state":"active","ping":85},{"user_id":117,"name":"KnockOutClock","steam_id":76561199436877307,"connected_time":1301000000000,"state":"active","ping":51},{"user_id":101,"name":"sans dimmadome","steam_id":76561198182611798,"connected_time":2562000000000,"state":"active","ping":88},{"user_id":98,"name":"GKumo","steam_id":76561198023175868,"connected_time":2584000000000,"state":"active","ping":62},{"user_id":128,"name":"ThePalmTopSushi","steam_id":76561198847076153,"connected_time":156000000000,"state":"active","ping":51},{"user_id":113,"name":"a chicken","steam_id":76561198313121580,"connected_time":1856000000000,"state":"active","ping":44},{"user_id":119,"name":"Uprightmoss7528","steam_id":76561199200138486,"connected_time":1033000000000,"state":"active","ping":65},{"user_id":121,"name":"Mousemoon","steam_id":76561198170220290,"connected_time":905000000000,"state":"active","ping":35},{"user_id":96,"name":"Crotonga","steam_id":76561198077178900,"connected_time":2623000000000,"state":"active","ping":102},{"user_id":77,"name":"jessicamustdie \u003c3","steam_id":76561198045230921,"connected_time":3139000000000,"state":"active","ping":166},{"user_id":130,"name":"Mr.Mrausky","steam_id":76561199120622265,"connected_time":41000000000,"state":"active","ping":86},{"user_id":108,"name":"CDI_FrEAk","steam_id":76561198004708244,"connected_time":1910000000000,"state":"active","ping":60},{"user_id":118,"name":"m","steam_id":76561198344312142,"connected_time":1198000000000,"state":"active","ping":50},{"user_id":106,"name":"skelly702","steam_id":76561198384117003,"connected_time":2214000000000,"state":"active","ping":41},{"user_id":125,"name":"WM1 PYRO","steam_id":76561198045893896,"connected_time":650000000000,"state":"active","ping":93},{"user_id":122,"name":"emusaurus rex","steam_id":76561198991938829,"connected_time":740000000000,"state":"active","ping":56},{"user_id":97,"name":"AmericanComrade2","steam_id":76561198864406557,"connected_time":2610000000000,"state":"active","ping":119},{"user_id":126,"name":"spikehamza","steam_id":76561198996539622,"connected_time":633000000000,"state":"active","ping":52},{"user_id":129,"name":"Jaydyn","steam_id":76561198140326797,"connected_time":81000000000,"state":"active","ping":121},{"user_id":116,"name":"AmIPlayingHeavy?","steam_id":76561198423047856,"connected_time":1379000000000,"state":"active","ping":42},{"user_id":79,"name":"VOY BOT","steam_id":76561199094836444,"connected_time":3126000000000,"state":"active","ping":117},{"user_id":107,"name":"BOR XOR","steam_id":76561198063294776,"connected_time":2090000000000,"state":"active","ping":76},{"user_id":109,"name":"John16Mark","steam_id":76561198119445407,"connected_time":1910000000000,"state":"active","ping":104},{"user_id":112,"name":"Chad the Sex Haver","steam_id":76561198058236528,"connected_time":1884000000000,"state":"active","ping":46}]},{"server_id":324,"name":"Uncletopia | Los Angeles | 3 | All Maps","name_short":"lax-3","host":"lax-1.us.uncletopia.com","port":27035,"enabled":true,"region":"us-west","cc":"us","latitude":33.94279,"longitude":-118.41004,"reserved":0,"last_update":"0001-01-01T00:00:00Z","name_a2s":"Uncletopia | Los Angeles | 3 | All Maps","protocol":17,"map":"pl_barnblitz","folder":"tf","game":"Team Fortress","app_id":440,"player_count":0,"max_players":24,"Bots":0,"server_type":"Dedicated","server_os":"Linux","password":true,"vac":true,"version":"7757534","steam_id":85568392924510198,"keywords":["nocrits","nodmgspread","payload","uncletopia"],"game_id":440,"stv_port":27036,"stv_name":"Uncletopia | Los Angeles | 3 | All Maps | STV","players":null},{"server_id":25,"name":"Uncletopia | Los Angeles | 4 | Stopwatch Beta","name_short":"lax-4","host":"lax-1.us.uncletopia.com","port":27045,"enabled":true,"region":"us-west","cc":"us","latitude":33.94279,"longitude":-118.41004,"reserved":0,"last_update":"0001-01-01T00:00:00Z","name_a2s":"Uncletopia | Los Angeles | 4 | Stopwatch Beta","protocol":17,"map":"pl_swiftwater_final1","folder":"tf","game":"Team Fortress","app_id":440,"player_count":0,"max_players":24,"Bots":0,"server_type":"Dedicated","server_os":"Linux","password":true,"vac":true,"version":"7757534","steam_id":85568392924510199,"keywords":["nocrits","nodmgspread","payload","uncletopia"],"game_id":440,"stv_port":27046,"stv_name":"Uncletopia | Los Angeles | 4 | Stopwatch Beta | STV","players":null},{"server_id":11,"name":"Uncletopia | London | 1 | All Maps","name_short":"lon-1","host":"lon-1.uk.uncletopia.com","port":27015,"enabled":true,"region":"eu","cc":"gb","latitude":51.509865,"longitude":-0.118092,"reserved":0,"last_update":"0001-01-01T00:00:00Z","name_a2s":"Uncletopia | London | 1 | All Maps","protocol":17,"map":"cp_sunshine","folder":"tf","game":"Team Fortress","app_id":440,"player_count":24,"max_players":24,"Bots":0,"server_type":"Dedicated","server_os":"Linux","password":true,"vac":true,"version":"7757534","steam_id":85568392924367362,"keywords":["cp","nocrits","nodmgspread","uncletopia"],"game_id":440,"stv_port":27016,"stv_name":"Uncletopia | London | 1 | All Maps | STV","players":[{"user_id":849,"name":"toino_PT","steam_id":76561199008999046,"connected_time":543000000000,"state":"active","ping":83},{"user_id":837,"name":"FunnyCool","steam_id":76561198029843142,"connected_time":1098000000000,"state":"active","ping":52},{"user_id":850,"name":"CarBombEnthusiast","steam_id":76561199448185434,"connected_time":527000000000,"state":"active","ping":68},{"user_id":851,"name":"Bod Dog","steam_id":76561198080631634,"connected_time":513000000000,"state":"active","ping":57},{"user_id":810,"name":"Testicular torsion","steam_id":76561198119547399,"connected_time":2640000000000,"state":"active","ping":72},{"user_id":852,"name":"MIKA","steam_id":76561198312451814,"connected_time":433000000000,"state":"active","ping":72},{"user_id":832,"name":"InsectKing","steam_id":76561199013519071,"connected_time":1571000000000,"state":"active","ping":38},{"user_id":821,"name":"AmPretzel","steam_id":76561198289877555,"connected_time":1980000000000,"state":"active","ping":92},{"user_id":823,"name":"trollos gaming","steam_id":76561199184809518,"connected_time":1927000000000,"state":"active","ping":84},{"user_id":856,"name":"Noob_with_source","steam_id":76561198870362103,"connected_time":362000000000,"state":"active","ping":55},{"user_id":848,"name":"MatesThePlayer","steam_id":76561198066156449,"connected_time":732000000000,"state":"active","ping":64},{"user_id":818,"name":"BSantos57","steam_id":76561198000597094,"connected_time":2187000000000,"state":"active","ping":90},{"user_id":853,"name":"is pepsi ok?","steam_id":76561197983286644,"connected_time":408000000000,"state":"active","ping":145},{"user_id":839,"name":"Rohnus","steam_id":76561198074049934,"connected_time":1067000000000,"state":"active","ping":55},{"user_id":854,"name":"Blobbaz","steam_id":76561198031076278,"connected_time":408000000000,"state":"active","ping":54},{"user_id":847,"name":"bottle knight","steam_id":76561199259786987,"connected_time":829000000000,"state":"active","ping":60},{"user_id":857,"name":"tanyathsus","steam_id":76561198089522447,"connected_time":332000000000,"state":"active","ping":62},{"user_id":858,"name":"LawrenceFishdom","steam_id":76561199190918059,"connected_time":329000000000,"state":"active","ping":58},{"user_id":841,"name":"☁ Lou1smeister ☁","steam_id":76561198004032968,"connected_time":1013000000000,"state":"active","ping":63},{"user_id":842,"name":"Poptart From Mars","steam_id":76561197979930960,"connected_time":1012000000000,"state":"active","ping":168},{"user_id":843,"name":"hamez1740","steam_id":76561198868217493,"connected_time":986000000000,"state":"active","ping":81},{"user_id":859,"name":"FuneralDJ (semen demon)","steam_id":76561198105320071,"connected_time":324000000000,"state":"active","ping":40},{"user_id":757,"name":"Buk Lau","steam_id":76561197993573576,"connected_time":6918000000000,"state":"active","ping":95},{"user_id":834,"name":"Morisan","steam_id":76561198043153528,"connected_time":1523000000000,"state":"active","ping":38}]},{"server_id":114,"name":"Uncletopia | London | 2 | All Maps","name_short":"lon-2","host":"lon-1.uk.uncletopia.com","port":27025,"enabled":true,"region":"eu","cc":"gb","latitude":51.509865,"longitude":-0.118092,"reserved":0,"last_update":"0001-01-01T00:00:00Z","name_a2s":"Uncletopia | London | 2 | All Maps","protocol":17,"map":"ctf_turbine","folder":"tf","game":"Team Fortress","app_id":440,"player_count":24,"max_players":24,"Bots":0,"server_type":"Dedicated","server_os":"Linux","password":true,"vac":true,"version":"7757534","steam_id":85568392924470941,"keywords":["ctf","nocrits","nodmgspread","uncletopia"],"game_id":440,"stv_port":27026,"stv_name":"Uncletopia | London | 2 | All Maps | STV","players":[{"user_id":441,"name":"=flashpoint=","steam_id":76561197976774456,"connected_time":2936000000000,"state":"active","ping":43},{"user_id":405,"name":"Zerfesh","steam_id":76561198117534358,"connected_time":5484000000000,"state":"active","ping":100},{"user_id":434,"name":"Some Guy","steam_id":76561198137335527,"connected_time":3611000000000,"state":"active","ping":52},{"user_id":428,"name":"Pershing[GER]","steam_id":76561197970330818,"connected_time":3816000000000,"state":"active","ping":68},{"user_id":456,"name":"Dispenser(Dispenser)","steam_id":76561199211831658,"connected_time":2213000000000,"state":"active","ping":65},{"user_id":465,"name":"Loby","steam_id":76561198168361056,"connected_time":575000000000,"state":"active","ping":80},{"user_id":466,"name":"powej","steam_id":76561198056381418,"connected_time":566000000000,"state":"active","ping":41},{"user_id":462,"name":"Drekadóttir","steam_id":76561198119979169,"connected_time":1409000000000,"state":"active","ping":71},{"user_id":439,"name":"homeinvasion$","steam_id":76561199111905021,"connected_time":3129000000000,"state":"active","ping":117},{"user_id":467,"name":"Raldow","steam_id":76561198021389301,"connected_time":509000000000,"state":"active","ping":56},{"user_id":468,"name":"Zagreus","steam_id":76561198166442542,"connected_time":503000000000,"state":"active","ping":74},{"user_id":443,"name":"Luxuride","steam_id":76561199079011869,"connected_time":2873000000000,"state":"active","ping":73},{"user_id":469,"name":"Abit","steam_id":76561198032786948,"connected_time":485000000000,"state":"active","ping":74},{"user_id":444,"name":"HAXXEPOD","steam_id":76561198064440700,"connected_time":2868000000000,"state":"active","ping":75},{"user_id":349,"name":"Angelatine","steam_id":76561198101624996,"connected_time":7777000000000,"state":"active","ping":95},{"user_id":473,"name":"that fat croc from donkey kong","steam_id":76561198159172495,"connected_time":322000000000,"state":"active","ping":75},{"user_id":474,"name":"d u k k i","steam_id":76561198071807437,"connected_time":291000000000,"state":"active","ping":87},{"user_id":471,"name":"lun4tic","steam_id":76561198850496647,"connected_time":469000000000,"state":"active","ping":64},{"user_id":447,"name":"Sam of Hamwitch","steam_id":76561198386405711,"connected_time":2804000000000,"state":"active","ping":58},{"user_id":453,"name":"Bullet","steam_id":76561198827294634,"connected_time":2520000000000,"state":"active","ping":88},{"user_id":464,"name":"Whiter Wlat","steam_id":76561198408012164,"connected_time":701000000000,"state":"active","ping":67},{"user_id":475,"name":"Crazy Bath Salt Sniffer","steam_id":76561199147501514,"connected_time":265000000000,"state":"active","ping":72},{"user_id":476,"name":"Rask","steam_id":76561198052934944,"connected_time":103000000000,"state":"active","ping":89},{"user_id":454,"name":"Grillem Dafoe","steam_id":76561198306874574,"connected_time":2498000000000,"state":"active","ping":66}]},{"server_id":320,"name":"Uncletopia | London | 3 | All Maps","name_short":"lon-3","host":"lon-1.uk.uncletopia.com","port":27035,"enabled":true,"region":"eu","cc":"gb","latitude":51.509865,"longitude":-0.118092,"reserved":0,"last_update":"0001-01-01T00:00:00Z","name_a2s":"Uncletopia | London | 3 | All Maps","protocol":17,"map":"pl_thundermountain","folder":"tf","game":"Team Fortress","app_id":440,"player_count":24,"max_players":24,"Bots":0,"server_type":"Dedicated","server_os":"Linux","password":true,"vac":true,"version":"7757534","steam_id":85568392924510192,"keywords":["nocrits","nodmgspread","payload","uncletopia"],"game_id":440,"stv_port":27036,"stv_name":"Uncletopia | London | 3 | All Maps | STV","players":[{"user_id":559,"name":"Lowy","steam_id":76561198031470048,"connected_time":4647000000000,"state":"active","ping":49},{"user_id":624,"name":"James Crenis","steam_id":76561198045535251,"connected_time":96000000000,"state":"active","ping":53},{"user_id":586,"name":"джегеми хэпкингс","steam_id":76561198131531394,"connected_time":2502000000000,"state":"active","ping":101},{"user_id":587,"name":"Ricky Dicky Grimes","steam_id":76561198065506317,"connected_time":2466000000000,"state":"active","ping":72},{"user_id":613,"name":"SKFBoge","steam_id":76561198269038278,"connected_time":315000000000,"state":"active","ping":83},{"user_id":505,"name":"ZanzibarPalm","steam_id":76561198059508828,"connected_time":8076000000000,"state":"active","ping":57},{"user_id":614,"name":"mmonkay","steam_id":76561198397360709,"connected_time":314000000000,"state":"active","ping":45},{"user_id":605,"name":"Puzzles","steam_id":76561198137106459,"connected_time":1244000000000,"state":"active","ping":47},{"user_id":615,"name":"dip","steam_id":76561198187118434,"connected_time":311000000000,"state":"active","ping":52},{"user_id":611,"name":"\"Insert profile name\"","steam_id":76561198299691414,"connected_time":774000000000,"state":"active","ping":49},{"user_id":599,"name":"Have A Blessed Day","steam_id":76561198030956814,"connected_time":1523000000000,"state":"active","ping":67},{"user_id":617,"name":"666sammy","steam_id":76561198016607625,"connected_time":304000000000,"state":"active","ping":87},{"user_id":595,"name":"Dewotter","steam_id":76561198007653168,"connected_time":1852000000000,"state":"active","ping":60},{"user_id":625,"name":"DooWooD","steam_id":76561198335810106,"connected_time":94000000000,"state":"active","ping":74},{"user_id":600,"name":"WeegeePJ","steam_id":76561199383362382,"connected_time":1385000000000,"state":"active","ping":132},{"user_id":618,"name":"minespweper","steam_id":76561199096919345,"connected_time":303000000000,"state":"active","ping":86},{"user_id":497,"name":"hipster_doofus","steam_id":76561197970902697,"connected_time":8734000000000,"state":"active","ping":55},{"user_id":622,"name":"RudiPrico4","steam_id":76561199014381495,"connected_time":235000000000,"state":"active","ping":59},{"user_id":583,"name":"nyanezt","steam_id":76561198253734265,"connected_time":3249000000000,"state":"active","ping":111},{"user_id":619,"name":"Casted","steam_id":76561199224054775,"connected_time":292000000000,"state":"active","ping":85},{"user_id":623,"name":"Seilfemit","steam_id":76561198175556403,"connected_time":167000000000,"state":"active","ping":72},{"user_id":593,"name":"george B","steam_id":76561198104933135,"connected_time":2319000000000,"state":"active","ping":76},{"user_id":621,"name":"Pancakeman","steam_id":76561198127682294,"connected_time":258000000000,"state":"active","ping":79},{"user_id":626,"name":"skill","steam_id":76561198106012909,"connected_time":77000000000,"state":"active","ping":82}]},{"server_id":321,"name":"Uncletopia | London | 4 | All Maps","name_short":"lon-4","host":"lon-1.uk.uncletopia.com","port":27045,"enabled":true,"region":"eu","cc":"gb","latitude":51.509865,"longitude":-0.118092,"reserved":0,"last_update":"0001-01-01T00:00:00Z","name_a2s":"Uncletopia | London | 4 | All Maps","protocol":17,"map":"koth_lakeside_final","folder":"tf","game":"Team Fortress","app_id":440,"player_count":0,"max_players":24,"Bots":0,"server_type":"Dedicated","server_os":"Linux","password":true,"vac":true,"version":"7757534","steam_id":85568392924510193,"keywords":["cp","nocrits","nodmgspread","uncletopia"],"game_id":440,"stv_port":27046,"stv_name":"Uncletopia | London | 4 | All Maps | STV","players":null},{"server_id":21,"name":"Uncletopia | London | 5 | All Maps","name_short":"lon-5","host":"lon-1.uk.uncletopia.com","port":27055,"enabled":true,"region":"eu","cc":"gb","latitude":51.509865,"longitude":-0.118092,"reserved":0,"last_update":"0001-01-01T00:00:00Z","name_a2s":"Uncletopia | London | 5 | All Maps","protocol":17,"map":"pl_snowycoast","folder":"tf","game":"Team Fortress","app_id":440,"player_count":22,"max_players":24,"Bots":0,"server_type":"Dedicated","server_os":"Linux","password":true,"vac":true,"version":"7757534","steam_id":85568392924742829,"keywords":["nocrits","nodmgspread","payload","uncletopia"],"game_id":440,"stv_port":27056,"stv_name":"Uncletopia | London | 5 | All Maps | STV","players":[{"user_id":83,"name":"Khazton","steam_id":76561197985241877,"connected_time":2956000000000,"state":"active","ping":110},{"user_id":52,"name":"LongLongMan","steam_id":76561198093088030,"connected_time":4331000000000,"state":"active","ping":54},{"user_id":105,"name":"TylowStar","steam_id":76561198357107806,"connected_time":1171000000000,"state":"active","ping":74},{"user_id":27,"name":"Nemium","steam_id":76561198070757635,"connected_time":6672000000000,"state":"active","ping":70},{"user_id":53,"name":"Blu_PT17","steam_id":76561198837856126,"connected_time":4314000000000,"state":"active","ping":55},{"user_id":88,"name":"Harpenden, Harpenden, Harpenden","steam_id":76561198118138546,"connected_time":2400000000000,"state":"active","ping":44},{"user_id":101,"name":"Son Goku","steam_id":76561199383437138,"connected_time":1256000000000,"state":"active","ping":120},{"user_id":117,"name":"jt7","steam_id":76561198073655162,"connected_time":264000000000,"state":"active","ping":82},{"user_id":112,"name":"thespe","steam_id":76561198088225107,"connected_time":518000000000,"state":"active","ping":98},{"user_id":86,"name":"Cabbch","steam_id":76561198045955679,"connected_time":2542000000000,"state":"active","ping":53},{"user_id":100,"name":"Benny the Ball","steam_id":76561198043104532,"connected_time":1267000000000,"state":"active","ping":39},{"user_id":113,"name":"Silverstorm","steam_id":76561198118175267,"connected_time":479000000000,"state":"active","ping":68},{"user_id":90,"name":"Dozer","steam_id":76561197998742338,"connected_time":2224000000000,"state":"active","ping":51},{"user_id":114,"name":"john fortress","steam_id":76561198013237629,"connected_time":408000000000,"state":"active","ping":89},{"user_id":78,"name":"5tv^","steam_id":76561198063129586,"connected_time":3176000000000,"state":"active","ping":60},{"user_id":106,"name":"Killer Queen","steam_id":76561198860424456,"connected_time":1163000000000,"state":"active","ping":65},{"user_id":103,"name":"A Shiny Meat Bicycle","steam_id":76561198358757709,"connected_time":1215000000000,"state":"active","ping":170},{"user_id":79,"name":"Davey","steam_id":76561198256879107,"connected_time":3115000000000,"state":"active","ping":77},{"user_id":84,"name":"LOBZIK","steam_id":76561198114830120,"connected_time":2947000000000,"state":"active","ping":80},{"user_id":115,"name":"ldshwt","steam_id":76561198090364357,"connected_time":389000000000,"state":"active","ping":61},{"user_id":116,"name":"After8","steam_id":76561198090750865,"connected_time":383000000000,"state":"active","ping":75},{"user_id":111,"name":"Skyfoogle","steam_id":76561198027177883,"connected_time":646000000000,"state":"active","ping":57}]},{"server_id":22,"name":"Uncletopia | London | 6 | All Maps","name_short":"lon-6","host":"lon-1.uk.uncletopia.com","port":27065,"enabled":true,"region":"eu","cc":"gb","latitude":51.509865,"longitude":-0.118092,"reserved":0,"last_update":"0001-01-01T00:00:00Z","name_a2s":"Uncletopia | London | 6 | All Maps","protocol":17,"map":"koth_highpass","folder":"tf","game":"Team Fortress","app_id":440,"player_count":0,"max_players":24,"Bots":0,"server_type":"Dedicated","server_os":"Linux","password":true,"vac":true,"version":"7757534","steam_id":85568392924742830,"keywords":["cp","nocrits","nodmgspread","uncletopia"],"game_id":440,"stv_port":27066,"stv_name":"Uncletopia | London | 6 | All Maps | STV","players":null},{"server_id":40,"name":"Uncletopia | London | 7 | No Payload","name_short":"lon-7","host":"lon-1.uk.uncletopia.com","port":27075,"enabled":true,"region":"eu","cc":"gb","latitude":51.509865,"longitude":-0.118092,"reserved":0,"last_update":"0001-01-01T00:00:00Z","name_a2s":"Uncletopia | London | 7 | No Payload","protocol":17,"map":"koth_king","folder":"tf","game":"Team Fortress","app_id":440,"player_count":3,"max_players":24,"Bots":0,"server_type":"Dedicated","server_os":"Linux","password":true,"vac":true,"version":"7757534","steam_id":85568392924964314,"keywords":["cp","nocrits","nodmgspread","uncletopia"],"game_id":440,"stv_port":27076,"stv_name":"Uncletopia | London | 7 | No Payload | STV","players":[{"user_id":36,"name":"Truegr","steam_id":76561198811912339,"connected_time":3150000000000,"state":"active","ping":55},{"user_id":39,"name":"MrFudge","steam_id":76561198867969637,"connected_time":1328000000000,"state":"active","ping":151},{"user_id":40,"name":"mesoni","steam_id":76561199141290973,"connected_time":783000000000,"state":"active","ping":85}]},{"server_id":41,"name":"Uncletopia | London | 8 | Community","name_short":"lon-8","host":"lon-1.uk.uncletopia.com","port":27085,"enabled":true,"region":"eu","cc":"gb","latitude":51.509865,"longitude":-0.118092,"reserved":0,"last_update":"0001-01-01T00:00:00Z","name_a2s":"Uncletopia | London | 8 | Community","protocol":17,"map":"workshop/koth_trenchfoot_b1a.ugc731436616","folder":"tf","game":"Team Fortress","app_id":440,"player_count":23,"max_players":24,"Bots":0,"server_type":"Dedicated","server_os":"Linux","password":true,"vac":true,"version":"7757534","steam_id":85568392924964315,"keywords":["cp","nocrits","nodmgspread","uncletopia"],"game_id":440,"stv_port":27086,"stv_name":"Uncletopia | London | 8 | Community | STV","players":[{"user_id":166,"name":"Rowan Atkinson","steam_id":76561199378865926,"connected_time":1972000000000,"state":"active","ping":83},{"user_id":153,"name":"badacz ♉ ⅜ ☪ ㊔ ♘","steam_id":76561198065849447,"connected_time":2821000000000,"state":"active","ping":101},{"user_id":187,"name":"Buru","steam_id":76561198024146649,"connected_time":183000000000,"state":"active","ping":50},{"user_id":176,"name":"Sketchthekiller91","steam_id":76561197972578692,"connected_time":853000000000,"state":"active","ping":41},{"user_id":141,"name":"Kleiner Engel","steam_id":76561198009922500,"connected_time":3790000000000,"state":"active","ping":61},{"user_id":188,"name":"MordyQ","steam_id":76561198025613597,"connected_time":101000000000,"state":"active","ping":125},{"user_id":128,"name":"Spetse","steam_id":76561197990649972,"connected_time":4558000000000,"state":"active","ping":90},{"user_id":157,"name":"SomeGuyWithCoffee","steam_id":76561198137465619,"connected_time":2488000000000,"state":"active","ping":98},{"user_id":124,"name":"b r o m b's","steam_id":76561198037793028,"connected_time":4845000000000,"state":"active","ping":106},{"user_id":172,"name":"Ape","steam_id":76561198322703872,"connected_time":1448000000000,"state":"active","ping":67},{"user_id":125,"name":"Nickrome","steam_id":76561198055399721,"connected_time":4837000000000,"state":"active","ping":58},{"user_id":189,"name":"RenBot","steam_id":76561198049352074,"connected_time":82000000000,"state":"active","ping":63},{"user_id":175,"name":"Baki ඞ","steam_id":76561198193615529,"connected_time":1105000000000,"state":"active","ping":65},{"user_id":180,"name":"TryX","steam_id":76561199356781475,"connected_time":712000000000,"state":"active","ping":74},{"user_id":190,"name":"Taharaki","steam_id":76561198131746120,"connected_time":1000000000,"state":"spawning","ping":60},{"user_id":181,"name":"MrDerp121","steam_id":76561198060827332,"connected_time":683000000000,"state":"active","ping":38},{"user_id":191,"name":"The Big Iron","steam_id":76561198117276391,"connected_time":0,"state":"spawning","ping":60},{"user_id":177,"name":"freestrider","steam_id":76561199094927658,"connected_time":840000000000,"state":"active","ping":62},{"user_id":83,"name":"cock wizard","steam_id":76561198045826293,"connected_time":7029000000000,"state":"active","ping":31},{"user_id":152,"name":"Skarabeusz","steam_id":76561198026527875,"connected_time":2885000000000,"state":"active","ping":73},{"user_id":169,"name":"Jack.Orlando","steam_id":76561198802400236,"connected_time":1836000000000,"state":"active","ping":83},{"user_id":183,"name":"Hawke","steam_id":76561198054489600,"connected_time":651000000000,"state":"active","ping":74},{"user_id":184,"name":"Yuzu","steam_id":76561198121694613,"connected_time":636000000000,"state":"active","ping":49}]},{"server_id":300,"name":"Uncletopia | Montréal | 1 | All Maps","name_short":"mtl-1","host":"mtl-1.ca.uncletopia.com","port":27015,"enabled":true,"region":"us-east","cc":"ca","latitude":45.50889,"longitude":-73.56167,"reserved":0,"last_update":"0001-01-01T00:00:00Z","name_a2s":"Uncletopia | Montréal | 1 | All Maps","protocol":17,"map":"pl_pier","folder":"tf","game":"Team Fortress","app_id":440,"player_count":24,"max_players":24,"Bots":0,"server_type":"Dedicated","server_os":"Linux","password":true,"vac":true,"version":"7757534","steam_id":85568392924500087,"keywords":["nocrits","nodmgspread","payload","uncletopia"],"game_id":440,"stv_port":27016,"stv_name":"Uncletopia | Montréal | 1 | All Maps | STV","players":[{"user_id":6,"name":"t.tv/stabslive","steam_id":76561198293116584,"connected_time":3735000000000,"state":"active","ping":80},{"user_id":7,"name":"former minion lover","steam_id":76561198202990635,"connected_time":3719000000000,"state":"active","ping":146},{"user_id":55,"name":"O'Gealbain","steam_id":76561198415527151,"connected_time":550000000000,"state":"active","ping":72},{"user_id":54,"name":"shaoer","steam_id":76561198071376804,"connected_time":576000000000,"state":"active","ping":88},{"user_id":10,"name":"Jared In Target","steam_id":76561198372449718,"connected_time":3707000000000,"state":"active","ping":78},{"user_id":18,"name":"ethereal's hopes and dreams:","steam_id":76561199039337171,"connected_time":3448000000000,"state":"active","ping":75},{"user_id":12,"name":"Minion Hater","steam_id":76561197987805095,"connected_time":3681000000000,"state":"active","ping":114},{"user_id":29,"name":"Chief Diggery K.","steam_id":76561198066629137,"connected_time":2882000000000,"state":"active","ping":117},{"user_id":49,"name":"thomasdee725!!!!","steam_id":76561199189526173,"connected_time":1114000000000,"state":"active","ping":85},{"user_id":15,"name":":]","steam_id":76561198271892201,"connected_time":3657000000000,"state":"active","ping":148},{"user_id":16,"name":"Saul Goofman","steam_id":76561199454432147,"connected_time":3577000000000,"state":"active","ping":63},{"user_id":42,"name":"gravid baby","steam_id":76561198318646867,"connected_time":1803000000000,"state":"active","ping":45},{"user_id":21,"name":"Mowsferatu","steam_id":76561198041901707,"connected_time":3381000000000,"state":"active","ping":100},{"user_id":40,"name":"Kyūso","steam_id":76561198839782061,"connected_time":2038000000000,"state":"active","ping":63},{"user_id":41,"name":"SweetieArcade","steam_id":76561198905898588,"connected_time":1975000000000,"state":"active","ping":64},{"user_id":47,"name":"Kasane","steam_id":76561198209006780,"connected_time":1199000000000,"state":"active","ping":72},{"user_id":25,"name":"Bad Rollout","steam_id":76561197971948876,"connected_time":3072000000000,"state":"active","ping":89},{"user_id":52,"name":"Lesbian Chungus","steam_id":76561198055964295,"connected_time":934000000000,"state":"active","ping":57},{"user_id":28,"name":"Jadthegamerofgames","steam_id":76561198310575719,"connected_time":2945000000000,"state":"active","ping":38},{"user_id":51,"name":"Peepster","steam_id":76561198297854733,"connected_time":1100000000000,"state":"active","ping":89},{"user_id":57,"name":"emseaeye","steam_id":76561198161499803,"connected_time":251000000000,"state":"active","ping":55},{"user_id":33,"name":"CaptainK","steam_id":76561198018979695,"connected_time":2781000000000,"state":"active","ping":105},{"user_id":48,"name":"Matt","steam_id":76561198263644467,"connected_time":1181000000000,"state":"active","ping":141},{"user_id":35,"name":"Nic0","steam_id":76561198305690218,"connected_time":2767000000000,"state":"active","ping":53}]},{"server_id":301,"name":"Uncletopia | Montréal | 2 | All Maps","name_short":"mtl-2","host":"mtl-1.ca.uncletopia.com","port":27025,"enabled":true,"region":"us-east","cc":"ca","latitude":45.50889,"longitude":-73.56167,"reserved":0,"last_update":"0001-01-01T00:00:00Z","name_a2s":"Uncletopia | Montréal | 2 | All Maps","protocol":17,"map":"pl_swiftwater_final1","folder":"tf","game":"Team Fortress","app_id":440,"player_count":0,"max_players":24,"Bots":0,"server_type":"Dedicated","server_os":"Linux","password":true,"vac":true,"version":"7757534","steam_id":85568392924500088,"keywords":["nocrits","nodmgspread","payload","uncletopia"],"game_id":440,"stv_port":27026,"stv_name":"Uncletopia | Montréal | 2 | All Maps | STV","players":null},{"server_id":302,"name":"Uncletopia | Montréal | 3 | All Maps","name_short":"mtl-3","host":"mtl-1.ca.uncletopia.com","port":27035,"enabled":true,"region":"us-east","cc":"ca","latitude":45.50889,"longitude":-73.56167,"reserved":0,"last_update":"0001-01-01T00:00:00Z","name_a2s":"Uncletopia | Montréal | 3 | All Maps","protocol":17,"map":"pl_swiftwater_final1","folder":"tf","game":"Team Fortress","app_id":440,"player_count":0,"max_players":24,"Bots":0,"server_type":"Dedicated","server_os":"Linux","password":true,"vac":true,"version":"7757534","steam_id":85568392924500089,"keywords":["nocrits","nodmgspread","payload","uncletopia"],"game_id":440,"stv_port":27036,"stv_name":"Uncletopia | Montréal | 3 | All Maps | STV","players":null},{"server_id":303,"name":"Uncletopia | Montréal | 4 | No Payload","name_short":"mtl-4","host":"mtl-1.ca.uncletopia.com","port":27045,"enabled":true,"region":"us-east","cc":"ca","latitude":45.50889,"longitude":-73.56167,"reserved":0,"last_update":"0001-01-01T00:00:00Z","name_a2s":"Uncletopia | Montréal | 4 | No Payload","protocol":17,"map":"pl_pier","folder":"tf","game":"Team Fortress","app_id":440,"player_count":0,"max_players":24,"Bots":0,"server_type":"Dedicated","server_os":"Linux","password":true,"vac":true,"version":"7757534","steam_id":85568392924500090,"keywords":["nocrits","nodmgspread","payload","uncletopia"],"game_id":440,"stv_port":27046,"stv_name":"Uncletopia | Montréal | 4 | No Payload | STV","players":null},{"server_id":13,"name":"Uncletopia | New York City | 1 | All Maps","name_short":"nyc-1","host":"nyc-1.us.uncletopia.com","port":27015,"enabled":true,"region":"us-east","cc":"us","latitude":40.73061,"longitude":-73.93524,"reserved":0,"last_update":"0001-01-01T00:00:00Z","name_a2s":"Uncletopia | New York City | 1 | All Maps","protocol":17,"map":"plr_pipeline","folder":"tf","game":"Team Fortress","app_id":440,"player_count":24,"max_players":24,"Bots":0,"server_type":"Dedicated","server_os":"Linux","password":true,"vac":true,"version":"7757534","steam_id":85568392924469993,"keywords":["nocrits","nodmgspread","payload","uncletopia"],"game_id":440,"stv_port":27016,"stv_name":"Uncletopia | New York City | 1 | All Maps | STV","players":[{"user_id":300,"name":"mangoMasher","steam_id":76561198058479479,"connected_time":1326000000000,"state":"active","ping":71},{"user_id":257,"name":"Fine Wine","steam_id":76561198125528334,"connected_time":5244000000000,"state":"active","ping":59},{"user_id":318,"name":"Aristotle Voulton","steam_id":76561198100174923,"connected_time":262000000000,"state":"active","ping":81},{"user_id":315,"name":"holyblade12","steam_id":76561198090842572,"connected_time":795000000000,"state":"active","ping":41},{"user_id":267,"name":"Juanelo","steam_id":76561199096390505,"connected_time":4611000000000,"state":"active","ping":94},{"user_id":226,"name":"Pablo","steam_id":76561198357313490,"connected_time":7141000000000,"state":"active","ping":60},{"user_id":316,"name":"BearAteMahoney","steam_id":76561198020439356,"connected_time":592000000000,"state":"active","ping":53},{"user_id":317,"name":"QWERTY_KKL","steam_id":76561199156419203,"connected_time":503000000000,"state":"active","ping":67},{"user_id":299,"name":"Cheese Sandwich","steam_id":76561198154238064,"connected_time":1367000000000,"state":"active","ping":162},{"user_id":312,"name":"KingNeptune","steam_id":76561198965549228,"connected_time":876000000000,"state":"active","ping":57},{"user_id":282,"name":"wizzyfan109","steam_id":76561198086193212,"connected_time":2877000000000,"state":"active","ping":44},{"user_id":287,"name":"circles","steam_id":76561198079061817,"connected_time":2761000000000,"state":"active","ping":68},{"user_id":266,"name":"Ramadan Steve","steam_id":76561198138568488,"connected_time":4654000000000,"state":"active","ping":57},{"user_id":303,"name":"Ironfyn","steam_id":76561198256850182,"connected_time":1232000000000,"state":"active","ping":65},{"user_id":307,"name":"Hex Obscurial","steam_id":76561199069454985,"connected_time":1139000000000,"state":"active","ping":109},{"user_id":258,"name":"LOITUMA","steam_id":76561198105669920,"connected_time":5166000000000,"state":"active","ping":119},{"user_id":308,"name":"it's quite simple","steam_id":76561199447681710,"connected_time":1130000000000,"state":"active","ping":83},{"user_id":252,"name":"Sapphireblitz","steam_id":76561198272635379,"connected_time":5475000000000,"state":"active","ping":67},{"user_id":290,"name":"Azuknow","steam_id":76561199229518180,"connected_time":2562000000000,"state":"active","ping":71},{"user_id":319,"name":"Xavi","steam_id":76561198337783795,"connected_time":33000000000,"state":"spawning","ping":60},{"user_id":295,"name":"Inzy","steam_id":76561198040927193,"connected_time":2102000000000,"state":"active","ping":63},{"user_id":313,"name":"IroncladLandship","steam_id":76561198064261291,"connected_time":864000000000,"state":"active","ping":81},{"user_id":286,"name":"Training Arc","steam_id":76561198038832034,"connected_time":2809000000000,"state":"active","ping":123},{"user_id":311,"name":"Kaboob","steam_id":76561199121870665,"connected_time":996000000000,"state":"active","ping":68}]},{"server_id":14,"name":"Uncletopia | New York City | 2 | All Maps","name_short":"nyc-2","host":"nyc-1.us.uncletopia.com","port":27025,"enabled":true,"region":"us-east","cc":"us","latitude":40.73061,"longitude":-73.93524,"reserved":0,"last_update":"0001-01-01T00:00:00Z","name_a2s":"Uncletopia | New York City | 2 | All Maps","protocol":17,"map":"pl_borneo","folder":"tf","game":"Team Fortress","app_id":440,"player_count":24,"max_players":24,"Bots":0,"server_type":"Dedicated","server_os":"Linux","password":true,"vac":true,"version":"7757534","steam_id":85568392924469994,"keywords":["nocrits","nodmgspread","payload","uncletopia"],"game_id":440,"stv_port":27026,"stv_name":"Uncletopia | New York City | 2 | All Maps | STV","players":[{"user_id":323,"name":"Defiant Statement.","steam_id":76561199101373436,"connected_time":5778000000000,"state":"active","ping":66},{"user_id":386,"name":"DededeMain | trade.tf","steam_id":76561198310951632,"connected_time":2274000000000,"state":"active","ping":65},{"user_id":403,"name":"the doo doo man","steam_id":76561198057076267,"connected_time":830000000000,"state":"active","ping":75},{"user_id":419,"name":"Albino Jellyfish","steam_id":76561198208561097,"connected_time":42000000000,"state":"spawning","ping":51},{"user_id":404,"name":"Tom Clancy","steam_id":76561198133781894,"connected_time":811000000000,"state":"active","ping":85},{"user_id":405,"name":"B0otstrut beel","steam_id":76561198202457221,"connected_time":805000000000,"state":"active","ping":55},{"user_id":400,"name":"CSharp","steam_id":76561199185191710,"connected_time":1044000000000,"state":"active","ping":174},{"user_id":357,"name":"yougotsauled","steam_id":76561198880754695,"connected_time":3875000000000,"state":"active","ping":45},{"user_id":406,"name":"ToyBox #SaveTF2","steam_id":76561199074735423,"connected_time":791000000000,"state":"active","ping":64},{"user_id":418,"name":"yellow diamonds","steam_id":76561198046913048,"connected_time":90000000000,"state":"active","ping":73},{"user_id":383,"name":"psycho himejoshi gamer","steam_id":76561198070458704,"connected_time":2604000000000,"state":"active","ping":45},{"user_id":371,"name":"trollos (real)","steam_id":76561199195097493,"connected_time":3154000000000,"state":"active","ping":56},{"user_id":326,"name":"MILF Gaming","steam_id":76561198155378170,"connected_time":5736000000000,"state":"active","ping":43},{"user_id":408,"name":"Polar","steam_id":76561198043108060,"connected_time":790000000000,"state":"active","ping":65},{"user_id":420,"name":"chicken coup d'état","steam_id":76561198069586736,"connected_time":22000000000,"state":"active","ping":52},{"user_id":410,"name":"ZeitGeist","steam_id":76561198148724163,"connected_time":776000000000,"state":"active","ping":134},{"user_id":343,"name":"Mayor McCheese","steam_id":76561198055417680,"connected_time":5003000000000,"state":"active","ping":86},{"user_id":364,"name":"can we get much higher?","steam_id":76561198359456881,"connected_time":3429000000000,"state":"active","ping":62},{"user_id":389,"name":"abed","steam_id":76561198072856511,"connected_time":2053000000000,"state":"active","ping":90},{"user_id":396,"name":"Gandalf Gaming","steam_id":76561198368151490,"connected_time":1225000000000,"state":"active","ping":49},{"user_id":347,"name":"go birds","steam_id":76561198083700067,"connected_time":4928000000000,"state":"active","ping":88},{"user_id":398,"name":"A Puppy","steam_id":76561198828184456,"connected_time":1212000000000,"state":"active","ping":48},{"user_id":391,"name":"MonkeyDUzumaki","steam_id":76561198079426367,"connected_time":1961000000000,"state":"active","ping":85},{"user_id":417,"name":"Dooble donk man look at me donk","steam_id":76561198225523596,"connected_time":205000000000,"state":"active","ping":132}]},{"server_id":15,"name":"Uncletopia | New York City | 3 | Stopwatch Beta","name_short":"nyc-3","host":"nyc-1.us.uncletopia.com","port":27035,"enabled":true,"region":"us-east","cc":"us","latitude":40.73061,"longitude":-73.93524,"reserved":0,"last_update":"0001-01-01T00:00:00Z","name_a2s":"Uncletopia | New York City | 3 | Stopwatch Beta","protocol":17,"map":"workshop/koth_bagel_rc6.ugc2514036946","folder":"tf","game":"Team Fortress","app_id":440,"player_count":0,"max_players":24,"Bots":0,"server_type":"Dedicated","server_os":"Linux","password":true,"vac":true,"version":"7757534","steam_id":85568392924742820,"keywords":["cp","nocrits","nodmgspread","uncletopia"],"game_id":440,"stv_port":27036,"stv_name":"Uncletopia | New York City | 3 | Stopwatch Beta | STV","players":null},{"server_id":16,"name":"Uncletopia | New York City | 4 | Community","name_short":"nyc-4","host":"nyc-1.us.uncletopia.com","port":27045,"enabled":true,"region":"us-east","cc":"us","latitude":40.73061,"longitude":-73.93524,"reserved":0,"last_update":"0001-01-01T00:00:00Z","name_a2s":"Uncletopia | New York City | 4 | Community","protocol":17,"map":"workshop/koth_synthetic_rc6a.ugc1549817316","folder":"tf","game":"Team Fortress","app_id":440,"player_count":0,"max_players":24,"Bots":0,"server_type":"Dedicated","server_os":"Linux","password":true,"vac":true,"version":"7757534","steam_id":85568392924742821,"keywords":["cp","nocrits","nodmgspread","uncletopia"],"game_id":440,"stv_port":27046,"stv_name":"Uncletopia | New York City | 4 | Community | STV","players":null},{"server_id":142,"name":"Uncletopia | São Paulo | 1 | All Maps","name_short":"sao-1","host":"sao-1.br.uncletopia.com","port":27015,"enabled":true,"region":"sa","cc":"br","latitude":-23.533773,"longitude":-46.62529,"reserved":0,"last_update":"0001-01-01T00:00:00Z","name_a2s":"Uncletopia | São Paulo | 1 | All Maps","protocol":17,"map":"pl_frontier_final","folder":"tf","game":"Team Fortress","app_id":440,"player_count":0,"max_players":24,"Bots":0,"server_type":"Dedicated","server_os":"Linux","password":true,"vac":true,"version":"7757534","steam_id":85568392924469996,"keywords":["nocrits","nodmgspread","payload","uncletopia"],"game_id":440,"stv_port":27016,"stv_name":"Uncletopia | São Paulo | 1 | All Maps | STV","players":null},{"server_id":143,"name":"Uncletopia | São Paulo | 2 | All Maps","name_short":"sao-2","host":"sao-2.br.uncletopia.com","port":27015,"enabled":true,"region":"sa","cc":"br","latitude":-23.533773,"longitude":-46.62529,"reserved":0,"last_update":"0001-01-01T00:00:00Z","name_a2s":"Uncletopia | São Paulo | 2 | All Maps","protocol":17,"map":"pl_upward","folder":"tf","game":"Team Fortress","app_id":440,"player_count":24,"max_players":24,"Bots":0,"server_type":"Dedicated","server_os":"Linux","password":true,"vac":true,"version":"7757534","steam_id":85568392924485349,"keywords":["nocrits","nodmgspread","payload","uncletopia"],"game_id":440,"stv_port":27016,"stv_name":"Uncletopia | São Paulo | 2 | All Maps | STV","players":[{"user_id":175,"name":"nunca.estoy","steam_id":76561198108612088,"connected_time":2120000000000,"state":"active","ping":73},{"user_id":152,"name":"CATS","steam_id":76561198103172108,"connected_time":3963000000000,"state":"active","ping":58},{"user_id":189,"name":"me comí toda la compota","steam_id":76561198234197784,"connected_time":488000000000,"state":"active","ping":80},{"user_id":158,"name":"kaoru mitoma","steam_id":76561198143438576,"connected_time":3116000000000,"state":"active","ping":44},{"user_id":192,"name":"i can't pipe","steam_id":76561199099522619,"connected_time":132000000000,"state":"active","ping":188},{"user_id":181,"name":"Viloni","steam_id":76561198416608316,"connected_time":1521000000000,"state":"active","ping":74},{"user_id":190,"name":"Gustavocoste","steam_id":76561198233692404,"connected_time":391000000000,"state":"active","ping":43},{"user_id":83,"name":"mimimito","steam_id":76561198002565927,"connected_time":8906000000000,"state":"active","ping":41},{"user_id":184,"name":"Ortega","steam_id":76561198018882166,"connected_time":1013000000000,"state":"active","ping":59},{"user_id":85,"name":"videogames","steam_id":76561198012204309,"connected_time":8867000000000,"state":"active","ping":44},{"user_id":87,"name":"Pathetic","steam_id":76561198051056987,"connected_time":8809000000000,"state":"active","ping":61},{"user_id":92,"name":"Cherry Cupcake","steam_id":76561198012448942,"connected_time":8721000000000,"state":"active","ping":44},{"user_id":183,"name":"vitinho games","steam_id":76561198805893728,"connected_time":1106000000000,"state":"active","ping":46},{"user_id":172,"name":"Burilo","steam_id":76561198014445055,"connected_time":2345000000000,"state":"active","ping":51},{"user_id":145,"name":"cezarmr2","steam_id":76561199228585372,"connected_time":5085000000000,"state":"active","ping":122},{"user_id":173,"name":"El Pibe Tito","steam_id":76561197989936090,"connected_time":2345000000000,"state":"active","ping":70},{"user_id":155,"name":"Kaiser","steam_id":76561199168194896,"connected_time":3487000000000,"state":"active","ping":71},{"user_id":102,"name":"flamingo","steam_id":76561198854099251,"connected_time":7918000000000,"state":"active","ping":68},{"user_id":187,"name":"Cara da Old Spice(Old Spice Guy","steam_id":76561198081925177,"connected_time":701000000000,"state":"active","ping":64},{"user_id":105,"name":"niruma","steam_id":76561198067799345,"connected_time":7869000000000,"state":"active","ping":45},{"user_id":176,"name":":^)","steam_id":76561198276113571,"connected_time":2099000000000,"state":"active","ping":42},{"user_id":185,"name":"you stole my land","steam_id":76561198041563280,"connected_time":977000000000,"state":"active","ping":189},{"user_id":178,"name":"Derretimento Geral 2017","steam_id":76561198194300069,"connected_time":1865000000000,"state":"active","ping":42},{"user_id":180,"name":"Proto","steam_id":76561198131548429,"connected_time":1613000000000,"state":"active","ping":52}]},{"server_id":7,"name":"Uncletopia | Seattle | 1 | All Maps","name_short":"sea-1","host":"sea-1.us.uncletopia.com","port":27015,"enabled":true,"region":"us-west","cc":"us","latitude":47.608013,"longitude":-122.33517,"reserved":0,"last_update":"0001-01-01T00:00:00Z","name_a2s":"Uncletopia | Seattle | 1 | All Maps","protocol":17,"map":"pl_upward","folder":"tf","game":"Team Fortress","app_id":440,"player_count":24,"max_players":24,"Bots":0,"server_type":"Dedicated","server_os":"Linux","password":true,"vac":true,"version":"7757534","steam_id":85568392924469997,"keywords":["nocrits","nodmgspread","payload","uncletopia"],"game_id":440,"stv_port":27016,"stv_name":"Uncletopia | Seattle | 1 | All Maps | STV","players":[{"user_id":371,"name":"Raniel Dicciardo","steam_id":76561198053859538,"connected_time":93000000000,"state":"active","ping":77},{"user_id":342,"name":"makeshift_burrito","steam_id":76561198042510825,"connected_time":2364000000000,"state":"active","ping":69},{"user_id":358,"name":"Ring A Ding","steam_id":76561199205871164,"connected_time":1557000000000,"state":"active","ping":141},{"user_id":351,"name":"The Champagne of Mayonnaise","steam_id":76561197961107982,"connected_time":1908000000000,"state":"active","ping":89},{"user_id":347,"name":"YahYeeterson","steam_id":76561198120480906,"connected_time":2134000000000,"state":"active","ping":67},{"user_id":368,"name":"Padre Pat","steam_id":76561198392985381,"connected_time":659000000000,"state":"active","ping":101},{"user_id":370,"name":"Maid 'n' China","steam_id":76561198423392976,"connected_time":149000000000,"state":"active","ping":1070},{"user_id":324,"name":"Robert E.T.","steam_id":76561197986439371,"connected_time":3815000000000,"state":"active","ping":50},{"user_id":320,"name":"The Dokkan Dance","steam_id":76561198855935442,"connected_time":4218000000000,"state":"active","ping":60},{"user_id":364,"name":"ClosetBotany","steam_id":76561198088324821,"connected_time":909000000000,"state":"active","ping":46},{"user_id":312,"name":"Fh","steam_id":76561198000903511,"connected_time":4692000000000,"state":"active","ping":69},{"user_id":353,"name":"Milkman™","steam_id":76561198061638747,"connected_time":1855000000000,"state":"active","ping":115},{"user_id":361,"name":"LILIUM","steam_id":76561198086591493,"connected_time":921000000000,"state":"active","ping":90},{"user_id":373,"name":"Florist","steam_id":76561198009121060,"connected_time":38000000000,"state":"active","ping":45},{"user_id":363,"name":"Dimple #TF2Center","steam_id":76561198980324190,"connected_time":917000000000,"state":"active","ping":47},{"user_id":355,"name":"Strawberry","steam_id":76561198973740497,"connected_time":1731000000000,"state":"active","ping":129},{"user_id":302,"name":"Ducks","steam_id":76561198130038345,"connected_time":6183000000000,"state":"active","ping":67},{"user_id":356,"name":"i cant aim","steam_id":76561198065873462,"connected_time":1713000000000,"state":"active","ping":77},{"user_id":344,"name":"bbbbb","steam_id":76561198095480838,"connected_time":2198000000000,"state":"active","ping":50},{"user_id":337,"name":"jayeskae","steam_id":76561198144220801,"connected_time":3113000000000,"state":"active","ping":48},{"user_id":366,"name":"Fillibuster_","steam_id":76561198047843618,"connected_time":870000000000,"state":"active","ping":104},{"user_id":360,"name":"PlumpCactus","steam_id":76561199195718367,"connected_time":1324000000000,"state":"active","ping":58},{"user_id":365,"name":"man behind the slaughter (F2P)","steam_id":76561198854070384,"connected_time":885000000000,"state":"active","ping":169},{"user_id":300,"name":"Lesbian Futa Mommy","steam_id":76561198130479030,"connected_time":6375000000000,"state":"active","ping":59}]},{"server_id":119,"name":"Uncletopia | Seattle | 2 | All Maps","name_short":"sea-2","host":"sea-1.us.uncletopia.com","port":27025,"enabled":true,"region":"us-west","cc":"us","latitude":47.608013,"longitude":-122.33517,"reserved":0,"last_update":"0001-01-01T00:00:00Z","name_a2s":"Uncletopia | Seattle | 2 | All Maps","protocol":17,"map":"koth_lakeside_final","folder":"tf","game":"Team Fortress","app_id":440,"player_count":24,"max_players":24,"Bots":0,"server_type":"Dedicated","server_os":"Linux","password":true,"vac":true,"version":"7757534","steam_id":85568392924469998,"keywords":["cp","nocrits","nodmgspread","uncletopia"],"game_id":440,"stv_port":27026,"stv_name":"Uncletopia | Seattle | 2 | All Maps | STV","players":[{"user_id":209,"name":"chanoc","steam_id":76561198026734746,"connected_time":2108000000000,"state":"active","ping":65},{"user_id":200,"name":"achoo","steam_id":76561198009091066,"connected_time":3248000000000,"state":"active","ping":46},{"user_id":128,"name":"Felipe Ramirez 2013","steam_id":76561198150497397,"connected_time":9379000000000,"state":"active","ping":77},{"user_id":231,"name":"moopmop","steam_id":76561198065224965,"connected_time":645000000000,"state":"active","ping":60},{"user_id":232,"name":"Gato","steam_id":76561198063521721,"connected_time":493000000000,"state":"active","ping":104},{"user_id":167,"name":"BreadQuest","steam_id":76561198082425960,"connected_time":5825000000000,"state":"active","ping":43},{"user_id":240,"name":"Wychlord02","steam_id":76561198002099068,"connected_time":24000000000,"state":"active","ping":111},{"user_id":235,"name":"Landjrin","steam_id":76561198415410003,"connected_time":273000000000,"state":"active","ping":75},{"user_id":197,"name":"Nexo Fighter","steam_id":76561199187418090,"connected_time":3434000000000,"state":"active","ping":176},{"user_id":151,"name":"pipis","steam_id":76561198140971525,"connected_time":7765000000000,"state":"active","ping":108},{"user_id":201,"name":"WitchyPorcupine","steam_id":76561198271676310,"connected_time":3247000000000,"state":"active","ping":45},{"user_id":208,"name":"kodynotcody","steam_id":76561198340685758,"connected_time":2192000000000,"state":"active","ping":58},{"user_id":210,"name":"The dreaded jar","steam_id":76561199087010656,"connected_time":2097000000000,"state":"active","ping":56},{"user_id":211,"name":"Thor engineer is a bloody spy!","steam_id":76561198384098648,"connected_time":2055000000000,"state":"active","ping":187},{"user_id":156,"name":"asphalt eater","steam_id":76561198844273999,"connected_time":7664000000000,"state":"active","ping":43},{"user_id":224,"name":"dougrocks421","steam_id":76561198165063918,"connected_time":1056000000000,"state":"active","ping":32},{"user_id":216,"name":"Doppelgänger","steam_id":76561198036730436,"connected_time":1931000000000,"state":"active","ping":86},{"user_id":186,"name":"times table","steam_id":76561198341452558,"connected_time":4348000000000,"state":"active","ping":242},{"user_id":230,"name":"gabagool","steam_id":76561198882758067,"connected_time":693000000000,"state":"active","ping":91},{"user_id":226,"name":"Boyaredeen","steam_id":76561198880492636,"connected_time":754000000000,"state":"active","ping":59},{"user_id":236,"name":"big booty birtha","steam_id":76561198996674933,"connected_time":246000000000,"state":"active","ping":58},{"user_id":238,"name":"Klitz Drunkunt Penischmidt (Sta","steam_id":76561198050582941,"connected_time":179000000000,"state":"active","ping":107},{"user_id":233,"name":"Farseer Ulwithy","steam_id":76561197965179245,"connected_time":476000000000,"state":"active","ping":100},{"user_id":237,"name":"Hannibal Lecture","steam_id":76561198329087915,"connected_time":204000000000,"state":"active","ping":84}]},{"server_id":406,"name":"Uncletopia | Seattle | 3 | Stopwatch Beta","name_short":"sea-3","host":"sea-1.us.uncletopia.com","port":27035,"enabled":true,"region":"us-west","cc":"us","latitude":47.608013,"longitude":-122.33517,"reserved":0,"last_update":"0001-01-01T00:00:00Z","name_a2s":"Uncletopia | Seattle | 3 | Stopwatch Beta","protocol":17,"map":"workshop/pl_vigil_rc9.ugc1266210012","folder":"tf","game":"Team Fortress","app_id":440,"player_count":0,"max_players":24,"Bots":0,"server_type":"Dedicated","server_os":"Linux","password":true,"vac":true,"version":"7757534","steam_id":85568392924515217,"keywords":["nocrits","nodmgspread","payload","uncletopia"],"game_id":440,"stv_port":27036,"stv_name":"Uncletopia | Seattle | 3 | Stopwatch Beta | STV","players":null},{"server_id":17,"name":"Uncletopia | San Francisco | 1 | All Maps","name_short":"sfo-1","host":"sfo-1.us.uncletopia.com","port":27015,"enabled":true,"region":"us-west","cc":"us","latitude":37.77397,"longitude":-122.4313,"reserved":0,"last_update":"0001-01-01T00:00:00Z","name_a2s":"Uncletopia | San Francisco | 1 | All Maps","protocol":17,"map":"pl_barnblitz","folder":"tf","game":"Team Fortress","app_id":440,"player_count":24,"max_players":24,"Bots":0,"server_type":"Dedicated","server_os":"Linux","password":true,"vac":true,"version":"7757534","steam_id":85568392924469999,"keywords":["nocrits","nodmgspread","payload","uncletopia"],"game_id":440,"stv_port":27016,"stv_name":"Uncletopia | San Francisco | 1 | All Maps | STV","players":[{"user_id":282,"name":"Eremital","steam_id":76561198069557669,"connected_time":4637000000000,"state":"active","ping":65},{"user_id":356,"name":"WalkinMan","steam_id":76561198047941142,"connected_time":383000000000,"state":"active","ping":36},{"user_id":355,"name":"Krog","steam_id":76561198871105696,"connected_time":543000000000,"state":"active","ping":75},{"user_id":336,"name":"An Unhappy Clown","steam_id":76561198175516514,"connected_time":1136000000000,"state":"active","ping":83},{"user_id":334,"name":"Dr. drips","steam_id":76561198209380493,"connected_time":1585000000000,"state":"active","ping":106},{"user_id":343,"name":"Cheese","steam_id":76561199435683727,"connected_time":955000000000,"state":"active","ping":118},{"user_id":349,"name":"Also UbeR","steam_id":76561198166926843,"connected_time":820000000000,"state":"active","ping":60},{"user_id":350,"name":"TV","steam_id":76561198177326926,"connected_time":803000000000,"state":"active","ping":117},{"user_id":353,"name":"RockyDog0919","steam_id":76561199128993341,"connected_time":635000000000,"state":"active","ping":47},{"user_id":321,"name":"VixianUwU","steam_id":76561198948815060,"connected_time":2698000000000,"state":"active","ping":77},{"user_id":156,"name":"zpalmtree","steam_id":76561198134307620,"connected_time":13386000000000,"state":"active","ping":120},{"user_id":307,"name":"worker","steam_id":76561198039608940,"connected_time":3343000000000,"state":"active","ping":84},{"user_id":352,"name":"❤ Ashley ❤","steam_id":76561198056428303,"connected_time":762000000000,"state":"active","ping":50},{"user_id":331,"name":"NYT","steam_id":76561198041151763,"connected_time":1740000000000,"state":"active","ping":109},{"user_id":344,"name":"Soothsayer","steam_id":76561198051750641,"connected_time":942000000000,"state":"active","ping":66},{"user_id":358,"name":"kivee","steam_id":76561198838223023,"connected_time":112000000000,"state":"active","ping":108},{"user_id":345,"name":"Medicated Thembo","steam_id":76561198035868181,"connected_time":935000000000,"state":"active","ping":74},{"user_id":342,"name":"❄ Alice ♥","steam_id":76561198869945051,"connected_time":1008000000000,"state":"active","ping":103},{"user_id":351,"name":"H","steam_id":76561199034215138,"connected_time":763000000000,"state":"active","ping":71},{"user_id":359,"name":"Fujiwara no Mokou","steam_id":76561198063315650,"connected_time":108000000000,"state":"active","ping":91},{"user_id":346,"name":"Jambi","steam_id":76561198846091685,"connected_time":934000000000,"state":"active","ping":76},{"user_id":243,"name":"BurningKev","steam_id":76561198057688837,"connected_time":7972000000000,"state":"active","ping":77},{"user_id":318,"name":"canakblasteran","steam_id":76561199472518822,"connected_time":2802000000000,"state":"active","ping":82},{"user_id":332,"name":"Horse","steam_id":76561199112075552,"connected_time":1740000000000,"state":"active","ping":111}]},{"server_id":18,"name":"Uncletopia | San Francisco | 2 | All Maps","name_short":"sfo-2","host":"sfo-1.us.uncletopia.com","port":27025,"enabled":true,"region":"us-west","cc":"us","latitude":37.77397,"longitude":-122.4313,"reserved":0,"last_update":"0001-01-01T00:00:00Z","name_a2s":"Uncletopia | San Francisco | 2 | All Maps","protocol":17,"map":"koth_highpass","folder":"tf","game":"Team Fortress","app_id":440,"player_count":2,"max_players":24,"Bots":0,"server_type":"Dedicated","server_os":"Linux","password":true,"vac":true,"version":"7757534","steam_id":85568392924470000,"keywords":["cp","nocrits","nodmgspread","uncletopia"],"game_id":440,"stv_port":27026,"stv_name":"Uncletopia | San Francisco | 2 | All Maps | STV","players":[{"user_id":10,"name":"Engynier Gaimeang (F2P)","steam_id":76561199013888779,"connected_time":1618000000000,"state":"active","ping":54},{"user_id":21,"name":"OH JIMMY I'M HOME #SaveTf2","steam_id":76561198396658806,"connected_time":229000000000,"state":"active","ping":56}]},{"server_id":19,"name":"Uncletopia | San Francisco | 3 | Stopwatch Beta","name_short":"sfo-3","host":"sfo-1.us.uncletopia.com","port":27035,"enabled":true,"region":"us-west","cc":"us","latitude":37.77397,"longitude":-122.4313,"reserved":0,"last_update":"0001-01-01T00:00:00Z","name_a2s":"Uncletopia | San Francisco | 3 | Stopwatch Beta","protocol":17,"map":"cp_granary","folder":"tf","game":"Team Fortress","app_id":440,"player_count":0,"max_players":24,"Bots":0,"server_type":"Dedicated","server_os":"Linux","password":true,"vac":true,"version":"7757534","steam_id":85568392924742824,"keywords":["cp","nocrits","nodmgspread","uncletopia"],"game_id":440,"stv_port":27036,"stv_name":"Uncletopia | San Francisco | 3 | Stopwatch Beta | STV","players":null},{"server_id":20,"name":"Uncletopia | San Francisco | 4 | Community","name_short":"sfo-4","host":"sfo-1.us.uncletopia.com","port":27045,"enabled":true,"region":"us-west","cc":"us","latitude":37.77397,"longitude":-122.4313,"reserved":0,"last_update":"0001-01-01T00:00:00Z","name_a2s":"Uncletopia | San Francisco | 4 | Community","protocol":17,"map":"workshop/pl_boundary_final1.ugc456799153","folder":"tf","game":"Team Fortress","app_id":440,"player_count":0,"max_players":24,"Bots":0,"server_type":"Dedicated","server_os":"Linux","password":true,"vac":true,"version":"7757534","steam_id":85568392924742826,"keywords":["nocrits","nodmgspread","payload","uncletopia"],"game_id":440,"stv_port":27046,"stv_name":"Uncletopia | San Francisco | 4 | Community | STV","players":null},{"server_id":141,"name":"Uncletopia | Sydney | 1 | All Maps","name_short":"syd-1","host":"syd-1.au.uncletopia.com","port":27015,"enabled":true,"region":"au","cc":"au","latitude":-33.865143,"longitude":151.2099,"reserved":0,"last_update":"0001-01-01T00:00:00Z","name_a2s":"Uncletopia | Sydney | 1 | All Maps","protocol":17,"map":"pl_upward","folder":"tf","game":"Team Fortress","app_id":440,"player_count":3,"max_players":24,"Bots":0,"server_type":"Dedicated","server_os":"Linux","password":true,"vac":true,"version":"7757534","steam_id":85568392924470001,"keywords":["nocrits","nodmgspread","payload","uncletopia"],"game_id":440,"stv_port":27016,"stv_name":"Uncletopia | Sydney | 1 | All Maps | STV","players":[{"user_id":3,"name":"justaordinarygamer","steam_id":76561199132864695,"connected_time":1075000000000,"state":"active","ping":90},{"user_id":4,"name":"TheCardboardKing","steam_id":76561199099769110,"connected_time":988000000000,"state":"active","ping":57},{"user_id":5,"name":"Bird Spy From Tf2","steam_id":76561199026240631,"connected_time":64000000000,"state":"active","ping":61}]},{"server_id":123,"name":"Uncletopia | Sydney | 2 | All Maps","name_short":"syd-2","host":"syd-1.au.uncletopia.com","port":27025,"enabled":true,"region":"au","cc":"au","latitude":-33.865143,"longitude":151.2099,"reserved":0,"last_update":"0001-01-01T00:00:00Z","name_a2s":"Uncletopia | Sydney | 2 | All Maps","protocol":17,"map":"koth_lakeside_final","folder":"tf","game":"Team Fortress","app_id":440,"player_count":0,"max_players":24,"Bots":0,"server_type":"Dedicated","server_os":"Linux","password":true,"vac":true,"version":"7757534","steam_id":85568392924470002,"keywords":["cp","nocrits","nodmgspread","uncletopia"],"game_id":440,"stv_port":27026,"stv_name":"Uncletopia | Sydney | 2 | All Maps | STV","players":null},{"server_id":395,"name":"Uncletopia | Sydney | 3 | All Maps","name_short":"syd-3","host":"syd-1.au.uncletopia.com","port":27035,"enabled":true,"region":"au","cc":"au","latitude":-33.865143,"longitude":151.2099,"reserved":0,"last_update":"0001-01-01T00:00:00Z","name_a2s":"Uncletopia | Sydney | 3 | All Maps","protocol":17,"map":"pl_swiftwater_final1","folder":"tf","game":"Team Fortress","app_id":440,"player_count":0,"max_players":24,"Bots":0,"server_type":"Dedicated","server_os":"Linux","password":true,"vac":true,"version":"7757534","steam_id":85568392925194467,"keywords":["nocrits","nodmgspread","payload","uncletopia"],"game_id":440,"stv_port":27036,"stv_name":"Uncletopia | Sydney | 3 | All Maps | STV","players":null},{"server_id":396,"name":"Uncletopia | Sydney | 4 | All Maps","name_short":"syd-4","host":"syd-1.au.uncletopia.com","port":27045,"enabled":true,"region":"au","cc":"au","latitude":-33.865143,"longitude":151.2099,"reserved":0,"last_update":"0001-01-01T00:00:00Z","name_a2s":"Uncletopia | Sydney | 4 | All Maps","protocol":17,"map":"koth_highpass","folder":"tf","game":"Team Fortress","app_id":440,"player_count":0,"max_players":24,"Bots":0,"server_type":"Dedicated","server_os":"Linux","password":true,"vac":true,"version":"7757534","steam_id":85568392925397958,"keywords":["cp","nocrits","nodmgspread","uncletopia"],"game_id":440,"stv_port":27046,"stv_name":"Uncletopia | Sydney | 4 | All Maps | STV","players":null},{"server_id":58,"name":"Uncletopia | Sydney | 5 | Stopwatch Beta","name_short":"syd-5","host":"syd-1.au.uncletopia.com","port":27055,"enabled":true,"region":"au","cc":"au","latitude":-33.865143,"longitude":151.2099,"reserved":0,"last_update":"0001-01-01T00:00:00Z","name_a2s":"Uncletopia | Sydney | 5 | Stopwatch Beta","protocol":17,"map":"koth_cascade","folder":"tf","game":"Team Fortress","app_id":440,"player_count":0,"max_players":24,"Bots":0,"server_type":"Dedicated","server_os":"Linux","password":true,"vac":true,"version":"7757534","steam_id":85568392925397959,"keywords":["cp","nocrits","nodmgspread","uncletopia"],"game_id":440,"stv_port":27056,"stv_name":"Uncletopia | Sydney | 5 | Stopwatch Beta | STV","players":null},{"server_id":59,"name":"Uncletopia | Sydney | 6 | Community","name_short":"syd-6","host":"syd-1.au.uncletopia.com","port":27065,"enabled":true,"region":"au","cc":"au","latitude":-33.865143,"longitude":151.2099,"reserved":0,"last_update":"0001-01-01T00:00:00Z","name_a2s":"Uncletopia | Sydney | 6 | Community","protocol":17,"map":"cp_snakewater_final1","folder":"tf","game":"Team Fortress","app_id":440,"player_count":0,"max_players":24,"Bots":0,"server_type":"Dedicated","server_os":"Linux","password":true,"vac":true,"version":"7757534","steam_id":85568392925397960,"keywords":["cp","nocrits","nodmgspread","uncletopia"],"game_id":440,"stv_port":27066,"stv_name":"Uncletopia | Sydney | 6 | Community | STV","players":null},{"server_id":49,"name":"Uncletopia | Warsaw | 1 | All Maps","name_short":"waw-1","host":"waw-1.pl.uncletopia.com","port":27015,"enabled":true,"region":"eu","cc":"pl","latitude":52.2297,"longitude":21.017532,"reserved":0,"last_update":"0001-01-01T00:00:00Z","name_a2s":"","protocol":0,"map":"","folder":"","game":"","app_id":0,"player_count":0,"max_players":0,"Bots":0,"server_type":"","server_os":"","password":false,"vac":false,"version":"","steam_id":0,"keywords":null,"game_id":0,"stv_port":0,"stv_name":"","players":null},{"server_id":50,"name":"Uncletopia | Warsaw | 2 | All Maps","name_short":"waw-2","host":"waw-1.pl.uncletopia.com","port":27025,"enabled":true,"region":"eu","cc":"pl","latitude":52.2297,"longitude":21.017532,"reserved":0,"last_update":"0001-01-01T00:00:00Z","name_a2s":"Uncletopia | Warsaw | 2 | All Maps","protocol":17,"map":"koth_lakeside_final","folder":"tf","game":"Team Fortress","app_id":440,"player_count":0,"max_players":24,"Bots":0,"server_type":"Dedicated","server_os":"Linux","password":true,"vac":true,"version":"7757534","steam_id":85568392925397851,"keywords":["cp","nocrits","nodmgspread","uncletopia"],"game_id":440,"stv_port":27026,"stv_name":"Uncletopia | Warsaw | 2 | All Maps | STV","players":null},{"server_id":51,"name":"Uncletopia | Warsaw | 3 | All Maps","name_short":"waw-3","host":"waw-1.pl.uncletopia.com","port":27035,"enabled":true,"region":"eu","cc":"pl","latitude":52.2297,"longitude":21.017532,"reserved":0,"last_update":"0001-01-01T00:00:00Z","name_a2s":"Uncletopia | Warsaw | 3 | All Maps","protocol":17,"map":"pl_snowycoast","folder":"tf","game":"Team Fortress","app_id":440,"player_count":0,"max_players":24,"Bots":0,"server_type":"Dedicated","server_os":"Linux","password":true,"vac":true,"version":"7757534","steam_id":85568392925397852,"keywords":["nocrits","nodmgspread","payload","uncletopia"],"game_id":440,"stv_port":27036,"stv_name":"Uncletopia | Warsaw | 3 | All Maps | STV","players":null},{"server_id":52,"name":"Uncletopia | Warsaw | 4 | All Maps","name_short":"waw-4","host":"waw-1.pl.uncletopia.com","port":27045,"enabled":true,"region":"eu","cc":"pl","latitude":52.2297,"longitude":21.017532,"reserved":0,"last_update":"0001-01-01T00:00:00Z","name_a2s":"Uncletopia | Warsaw | 4 | All Maps","protocol":17,"map":"koth_lakeside_final","folder":"tf","game":"Team Fortress","app_id":440,"player_count":0,"max_players":24,"Bots":0,"server_type":"Dedicated","server_os":"Linux","password":true,"vac":true,"version":"7757534","steam_id":85568392925397853,"keywords":["cp","nocrits","nodmgspread","uncletopia"],"game_id":440,"stv_port":27046,"stv_name":"Uncletopia | Warsaw | 4 | All Maps | STV","players":null},{"server_id":53,"name":"Uncletopia | Warsaw | 5 | Stopwatch Beta","name_short":"waw-5","host":"waw-1.pl.uncletopia.com","port":27055,"enabled":true,"region":"eu","cc":"pl","latitude":52.2297,"longitude":21.017532,"reserved":0,"last_update":"0001-01-01T00:00:00Z","name_a2s":"Uncletopia | Warsaw | 5 | Stopwatch Beta","protocol":17,"map":"workshop/koth_bagel_rc6.ugc2514036946","folder":"tf","game":"Team Fortress","app_id":440,"player_count":0,"max_players":24,"Bots":0,"server_type":"Dedicated","server_os":"Linux","password":true,"vac":true,"version":"7757534","steam_id":85568392925397854,"keywords":["cp","nocrits","nodmgspread","uncletopia"],"game_id":440,"stv_port":27056,"stv_name":"Uncletopia | Warsaw | 5 | Stopwatch Beta | STV","players":null},{"server_id":54,"name":"Uncletopia | Warsaw | 6 | Community","name_short":"waw-6","host":"waw-1.pl.uncletopia.com","port":27065,"enabled":true,"region":"eu","cc":"pl","latitude":52.2297,"longitude":21.017532,"reserved":0,"last_update":"0001-01-01T00:00:00Z","name_a2s":"Uncletopia | Warsaw | 6 | Community","protocol":17,"map":"workshop/koth_kemptown_rc1.ugc767410655","folder":"tf","game":"Team Fortress","app_id":440,"player_count":0,"max_players":24,"Bots":0,"server_type":"Dedicated","server_os":"Linux","password":true,"vac":true,"version":"7757534","steam_id":85568392925397856,"keywords":["cp","nocrits","nodmgspread","uncletopia"],"game_id":440,"stv_port":27066,"stv_name":"Uncletopia | Warsaw | 6 | Community | STV","players":null}]}