{"status":true,"message":"","result":[{"server_id":9,"name":"Uncletopia | Atlanta | 1 | All Maps","name_short":"atl-1","host":"atl-1.us.uncletopia.com","port":27015,"enabled":true,"region":"us-east","cc":"us","latitude":33.753746,"longitude":-84.38633,"reserved":0,"last_update":"0001-01-01T00:00:00Z","name_a2s":"Uncletopia | Atlanta | 1 | All Maps","protocol":17,"map":"pl_upward","folder":"tf","game":"Team Fortress","app_id":440,"player_count":24,"max_players":24,"Bots":0,"server_type":"Dedicated","server_os":"Linux","password":true,"vac":true,"version":"7961495","steam_id":85568392924469982,"keywords":["nocrits","nodmgspread","payload","uncletopia"],"game_id":440,"stv_port":27016,"stv_name":"Uncletopia | Atlanta | 1 | All Maps | STV","players":[{"user_id":210,"name":"Renota","steam_id":76561198058224488,"connected_time":587000000000,"state":"active","ping":84},{"user_id":198,"name":"ECCO","steam_id":76561198002821513,"connected_time":2188000000000,"state":"active","ping":74},{"user_id":211,"name":"Reiner","steam_id":76561199201762178,"connected_time":297000000000,"state":"active","ping":86},{"user_id":184,"name":"shane938","steam_id":76561198117541261,"connected_time":3375000000000,"state":"active","ping":47},{"user_id":194,"name":"Button","steam_id":76561199209694624,"connected_time":2314000000000,"state":"active","ping":34},{"user_id":203,"name":"imng","steam_id":76561198014988031,"connected_time":870000000000,"state":"active","ping":45},{"user_id":199,"name":"Oldwest1234","steam_id":76561198079594993,"connected_time":2164000000000,"state":"active","ping":63},{"user_id":193,"name":"uthgarthegiant","steam_id":76561198348616230,"connected_time":2403000000000,"state":"active","ping":71},{"user_id":213,"name":"Mog","steam_id":76561198025575870,"connected_time":115000000000,"state":"active","ping":77},{"user_id":138,"name":"Punchy","steam_id":76561198200000641,"connected_time":5836000000000,"state":"active","ping":55},{"user_id":168,"name":"zacmattsmith","steam_id":76561199027704149,"connected_time":4476000000000,"state":"active","ping":81},{"user_id":189,"name":"strategic dier","steam_id":76561197999257178,"connected_time":2938000000000,"state":"active","ping":76},{"user_id":200,"name":"Gregory","steam_id":76561198188140871,"connected_time":2127000000000,"state":"active","ping":62},{"user_id":216,"name":"Freyja","steam_id":76561198207412177,"connected_time":52000000000,"state":"active","ping":90},{"user_id":206,"name":"jras","steam_id":76561198159797901,"connected_time":797000000000,"state":"active","ping":73},{"user_id":144,"name":"Killbasa","steam_id":76561198064868400,"connected_time":5154000000000,"state":"active","ping":77},{"user_id":180,"name":"guy","steam_id":76561198079925551,"connected_time":3405000000000,"state":"active","ping":77},{"user_id":212,"name":"twizted","steam_id":76561197960407274,"connected_time":276000000000,"state":"active","ping":73},{"user_id":215,"name":"mrappledumb","steam_id":76561199133590774,"connected_time":61000000000,"state":"active","ping":80},{"user_id":145,"name":"Ashes!","steam_id":76561197998475441,"connected_time":5012000000000,"state":"active","ping":71},{"user_id":173,"name":"Twisty Fresh Pretzel","steam_id":76561198137027826,"connected_time":4182000000000,"state":"active","ping":49},{"user_id":52,"name":"Aku+","steam_id":76561198813782795,"connected_time":14325000000000,"state":"active","ping":169},{"user_id":208,"name":"ChocoMcFudgeCake","steam_id":76561197994591295,"connected_time":795000000000,"state":"active","ping":78},{"user_id":209,"name":"AMistake","steam_id":76561199379196708,"connected_time":790000000000,"state":"active","ping":44}]},{"server_id":104,"name":"Uncletopia | Atlanta | 2 | All Maps","name_short":"atl-2","host":"atl-1.us.uncletopia.com","port":27025,"enabled":true,"region":"us-east","cc":"us","latitude":33.753746,"longitude":-84.38633,"reserved":0,"last_update":"0001-01-01T00:00:00Z","name_a2s":"Uncletopia | Atlanta | 2 | All Maps","protocol":17,"map":"pl_badwater","folder":"tf","game":"Team Fortress","app_id":440,"player_count":24,"max_players":24,"Bots":0,"server_type":"Dedicated","server_os":"Linux","password":true,"vac":true,"version":"7961495","steam_id":85568392924469983,"keywords":["nocrits","nodmgspread","payload","uncletopia"],"game_id":440,"stv_port":27026,"stv_name":"Uncletopia | Atlanta | 2 | All Maps | STV","players":[{"user_id":7,"name":"Resident Goober","steam_id":76561199205471969,"connected_time":4722000000000,"state":"active","ping":69},{"user_id":6,"name":"AidenNimitz","steam_id":76561198117377908,"connected_time":4786000000000,"state":"active","ping":57},{"user_id":22,"name":"smile4","steam_id":76561199506818749,"connected_time":3346000000000,"state":"active","ping":68},{"user_id":14,"name":"ALonelyGhostE","steam_id":76561198184787290,"connected_time":3951000000000,"state":"active","ping":88},{"user_id":65,"name":"Sicko Mode (Chris Pratt Cover)","steam_id":76561198315786174,"connected_time":912000000000,"state":"active","ping":74},{"user_id":47,"name":"VelocityCubeR","steam_id":76561198044351011,"connected_time":1869000000000,"state":"active","ping":74},{"user_id":72,"name":"JRST","steam_id":76561198337373097,"connected_time":243000000000,"state":"active","ping":62},{"user_id":62,"name":"Yam Jazzy Jim","steam_id":76561198000788950,"connected_time":1409000000000,"state":"active","ping":86},{"user_id":35,"name":"GingerToePics","steam_id":76561199418178639,"connected_time":2565000000000,"state":"active","ping":57},{"user_id":68,"name":"kermitcreeper(ZAZA)","steam_id":76561199222829972,"connected_time":800000000000,"state":"active","ping":75},{"user_id":37,"name":"Electroid","steam_id":76561199092263960,"connected_time":2323000000000,"state":"active","ping":47},{"user_id":63,"name":"Try Gardening","steam_id":76561198120311340,"connected_time":1039000000000,"state":"active","ping":67},{"user_id":43,"name":"Drygongames","steam_id":76561198250418424,"connected_time":2141000000000,"state":"active","ping":86},{"user_id":54,"name":"basilberry","steam_id":76561198145275937,"connected_time":1726000000000,"state":"active","ping":101},{"user_id":66,"name":"Bim","steam_id":76561198155979811,"connected_time":912000000000,"state":"active","ping":60},{"user_id":46,"name":"Yummy Kabobz","steam_id":76561198067661705,"connected_time":1990000000000,"state":"active","ping":59},{"user_id":48,"name":"Lolxdloldx","steam_id":76561198136887125,"connected_time":1849000000000,"state":"active","ping":93},{"user_id":52,"name":"MrRedRandom","steam_id":76561199476645213,"connected_time":1750000000000,"state":"active","ping":73},{"user_id":67,"name":"Boxxed","steam_id":76561198255787237,"connected_time":871000000000,"state":"active","ping":75},{"user_id":70,"name":"_copkilla.B1G$L1M€.zaddY_","steam_id":76561198283687382,"connected_time":758000000000,"state":"active","ping":106},{"user_id":71,"name":"D(b) Hell","steam_id":76561198067869016,"connected_time":758000000000,"state":"active","ping":66},{"user_id":57,"name":"Anomet","steam_id":76561198060246255,"connected_time":1715000000000,"state":"active","ping":59},{"user_id":58,"name":"Serenue","steam_id":76561199040361250,"connected_time":1711000000000,"state":"active","ping":95},{"user_id":61,"name":"Monkey Mode","steam_id":76561197961267543,"connected_time":1438000000000,"state":"active","ping":65}]},{"server_id":400,"name":"Uncletopia | Atlanta | 3 | Stopwatch","name_short":"atl-3","host":"atl-1.us.uncletopia.com","port":27035,"enabled":true,"region":"us-east","cc":"us","latitude":33.753746,"longitude":-84.38633,"reserved":0,"last_update":"0001-01-01T00:00:00Z","name_a2s":"Uncletopia | Atlanta | 3 | Stopwatch","protocol":17,"map":"workshop/koth_clearcut_b15.ugc2107050255","folder":"tf","game":"Team Fortress","app_id":440,"player_count":0,"max_players":24,"Bots":0,"server_type":"Dedicated","server_os":"Linux","password":true,"vac":true,"version":"7961495","steam_id":85568392924515187,"keywords":["cp","nocrits","nodmgspread","uncletopia"],"game_id":440,"stv_port":27036,"stv_name":"Uncletopia | Atlanta | 3 | Stopwatch | STV","players":null},{"server_id":401,"name":"Uncletopia | Atlanta | 4 | Community","name_short":"atl-4","host":"atl-1.us.uncletopia.com","port":27045,"enabled":true,"region":"us-east","cc":"us","latitude":33.753746,"longitude":-84.38633,"reserved":0,"last_update":"0001-01-01T00:00:00Z","name_a2s":"Uncletopia | Atlanta | 4 | Community","protocol":17,"map":"workshop/koth_slaughter_rc1.ugc1712845210","folder":"tf","game":"Team Fortress","app_id":440,"player_count":0,"max_players":24,"Bots":0,"server_type":"Dedicated","server_os":"Linux","password":true,"vac":true,"version":"7961495","steam_id":85568392924515188,"keywords":["cp","nocrits","nodmgspread","uncletopia"],"game_id":440,"stv_port":27046,"stv_name":"Uncletopia | Atlanta | 4 | Community | STV","players":null},{"server_id":2,"name":"Uncletopia | Chicago | 1 | All Maps","name_short":"chi-1","host":"chi-1.us.uncletopia.com","port":27015,"enabled":true,"region":"us-central","cc":"us","latitude":41.881832,"longitude":-87.62318,"reserved":0,"last_update":"0001-01-01T00:00:00Z","name_a2s":"Uncletopia | Chicago | 1 | All Maps","protocol":17,"map":"cp_sunshine","folder":"tf","game":"Team Fortress","app_id":440,"player_count":24,"max_players":24,"Bots":0,"server_type":"Dedicated","server_os":"Linux","password":true,"vac":true,"version":"7961495","steam_id":85568392924469984,"keywords":["cp","nocrits","nodmgspread","uncletopia"],"game_id":440,"stv_port":27016,"stv_name":"Uncletopia | Chicago | 1 | All Maps | STV","players":[{"user_id":367,"name":"Soda","steam_id":76561198219209367,"connected_time":4686000000000,"state":"active","ping":72},{"user_id":383,"name":"money getting 1 percenter","steam_id":76561198012796388,"connected_time":3151000000000,"state":"active","ping":48},{"user_id":404,"name":"Cy4nideCutie\u003c3","steam_id":76561198126686695,"connected_time":2358000000000,"state":"active","ping":74},{"user_id":395,"name":"mootier","steam_id":76561198030365192,"connected_time":2744000000000,"state":"active","ping":63},{"user_id":433,"name":"chok","steam_id":76561198242016100,"connected_time":202000000000,"state":"active","ping":91},{"user_id":390,"name":"spire lft noobcomer","steam_id":76561198367664346,"connected_time":2765000000000,"state":"active","ping":56},{"user_id":417,"name":"Mr Bootylicious","steam_id":76561199075353403,"connected_time":1413000000000,"state":"active","ping":57},{"user_id":418,"name":"OrangeShoes","steam_id":76561197971249940,"connected_time":1412000000000,"state":"active","ping":62},{"user_id":424,"name":"costum","steam_id":76561198197086561,"connected_time":1165000000000,"state":"active","ping":52},{"user_id":411,"name":"TheKyleB","steam_id":76561198202515104,"connected_time":1543000000000,"state":"active","ping":33},{"user_id":430,"name":"Housecoat Hero","steam_id":76561197981290558,"connected_time":454000000000,"state":"active","ping":51},{"user_id":382,"name":"troll","steam_id":76561198082680563,"connected_time":3406000000000,"state":"active","ping":51},{"user_id":397,"name":"TƎC","steam_id":76561198237180318,"connected_time":2706000000000,"state":"active","ping":63},{"user_id":432,"name":"Hulk Hogan Gaming","steam_id":76561199013166433,"connected_time":307000000000,"state":"active","ping":66},{"user_id":406,"name":"jb","steam_id":76561198038607085,"connected_time":2101000000000,"state":"active","ping":70},{"user_id":434,"name":"FinnaBust","steam_id":76561198397669078,"connected_time":83000000000,"state":"active","ping":63},{"user_id":425,"name":"women fish me","steam_id":76561198153245906,"connected_time":963000000000,"state":"active","ping":70},{"user_id":415,"name":"Snom","steam_id":76561198333827920,"connected_time":1477000000000,"state":"active","ping":77},{"user_id":365,"name":"Ball Juggler","steam_id":76561198031675881,"connected_time":4734000000000,"state":"active","ping":43},{"user_id":416,"name":"leumas","steam_id":76561198240408540,"connected_time":1466000000000,"state":"active","ping":57},{"user_id":407,"name":"THORNFIELDGAMER","steam_id":76561199087167473,"connected_time":1578000000000,"state":"active","ping":75},{"user_id":423,"name":"Siz","steam_id":76561198072962154,"connected_time":1201000000000,"state":"active","ping":61},{"user_id":426,"name":"Kalioc","steam_id":76561198042557843,"connected_time":938000000000,"state":"active","ping":89},{"user_id":391,"name":"elpful","steam_id":76561198189659530,"connected_time":2765000000000,"state":"active","ping":77}]},{"server_id":106,"name":"Uncletopia | Chicago | 2 | All Maps","name_short":"chi-2","host":"chi-1.us.uncletopia.com","port":27025,"enabled":true,"region":"us-central","cc":"us","latitude":41.881832,"longitude":-87.62318,"reserved":0,"last_update":"0001-01-01T00:00:00Z","name_a2s":"Uncletopia | Chicago | 2 | All Maps","protocol":17,"map":"cp_dustbowl","folder":"tf","game":"Team Fortress","app_id":440,"player_count":0,"max_players":24,"Bots":0,"server_type":"Dedicated","server_os":"Linux","password":true,"vac":true,"version":"7961495","steam_id":85568392924469985,"keywords":["cp","nocrits","nodmgspread","uncletopia"],"game_id":440,"stv_port":27026,"stv_name":"Uncletopia | Chicago | 2 | All Maps | STV","players":null},{"server_id":402,"name":"Uncletopia | Chicago | 3 | All Maps","name_short":"chi-3","host":"chi-1.us.uncletopia.com","port":27035,"enabled":true,"region":"us-central","cc":"us","latitude":41.881832,"longitude":-87.62318,"reserved":0,"last_update":"0001-01-01T00:00:00Z","name_a2s":"Uncletopia | Chicago | 3 | All Maps","protocol":17,"map":"plr_pipeline","folder":"tf","game":"Team Fortress","app_id":440,"player_count":1,"max_players":24,"Bots":0,"server_type":"Dedicated","server_os":"Linux","password":true,"vac":true,"version":"7961495","steam_id":85568392924515191,"keywords":["nocrits","nodmgspread","payload","uncletopia"],"game_id":440,"stv_port":27036,"stv_name":"Uncletopia | Chicago | 3 | All Maps | STV","players":[{"user_id":9,"name":"thatoneguywithcats","steam_id":76561199158225577,"connected_time":142000000000,"state":"active","ping":62}]},{"server_id":403,"name":"Uncletopia | Chicago | 4 | All Maps","name_short":"chi-4","host":"chi-1.us.uncletopia.com","port":27045,"enabled":true,"region":"us-central","cc":"us","latitude":41.881832,"longitude":-87.62318,"reserved":0,"last_update":"0001-01-01T00:00:00Z","name_a2s":"Uncletopia | Chicago | 4 | All Maps","protocol":17,"map":"pl_rumford_event","folder":"tf","game":"Team Fortress","app_id":440,"player_count":0,"max_players":24,"Bots":0,"server_type":"Dedicated","server_os":"Linux","password":true,"vac":true,"version":"7961495","steam_id":85568392924515193,"keywords":["nocrits","nodmgspread","payload","uncletopia"],"game_id":440,"stv_port":27046,"stv_name":"Uncletopia | Chicago | 4 | All Maps | STV","players":null},{"server_id":36,"name":"Uncletopia | Chicago | 5 | All Maps","name_short":"chi-5","host":"chi-2.us.uncletopia.com","port":27015,"enabled":true,"region":"us-central","cc":"us","latitude":41.881832,"longitude":-87.62318,"reserved":0,"last_update":"0001-01-01T00:00:00Z","name_a2s":"Uncletopia | Chicago | 5 | All Maps","protocol":17,"map":"cp_sunshine","folder":"tf","game":"Team Fortress","app_id":440,"player_count":0,"max_players":24,"Bots":0,"server_type":"Dedicated","server_os":"Linux","password":true,"vac":true,"version":"7961495","steam_id":85568392924866362,"keywords":["cp","nocrits","nodmgspread","uncletopia"],"game_id":440,"stv_port":27016,"stv_name":"Uncletopia | Chicago | 5 | All Maps | STV","players":null},{"server_id":37,"name":"Uncletopia | Chicago | 6 | All Maps","name_short":"chi-6","host":"chi-2.us.uncletopia.com","port":27025,"enabled":true,"region":"us-central","cc":"us","latitude":41.881832,"longitude":-87.62318,"reserved":0,"last_update":"0001-01-01T00:00:00Z","name_a2s":"Uncletopia | Chicago | 6 | All Maps","protocol":17,"map":"cp_altitude","folder":"tf","game":"Team Fortress","app_id":440,"player_count":24,"max_players":24,"Bots":0,"server_type":"Dedicated","server_os":"Linux","password":true,"vac":true,"version":"7961495","steam_id":85568392924866363,"keywords":["cp","nocrits","nodmgspread","uncletopia"],"game_id":440,"stv_port":27026,"stv_name":"Uncletopia | Chicago | 6 | All Maps | STV","players":[{"user_id":313,"name":"Piss God","steam_id":76561198090504334,"connected_time":1216000000000,"state":"active","ping":58},{"user_id":305,"name":"Phoenix","steam_id":76561198068722818,"connected_time":1736000000000,"state":"active","ping":59},{"user_id":311,"name":"ZombieSlayer77","steam_id":76561199023974356,"connected_time":1280000000000,"state":"active","ping":75},{"user_id":271,"name":"SpongedSocks","steam_id":76561198374009086,"connected_time":4197000000000,"state":"active","ping":60},{"user_id":276,"name":"Orb","steam_id":76561198353963523,"connected_time":3727000000000,"state":"active","ping":91},{"user_id":301,"name":"Hovg9000","steam_id":76561199191556710,"connected_time":1907000000000,"state":"active","ping":74},{"user_id":253,"name":"Fresnel","steam_id":76561198266960876,"connected_time":5505000000000,"state":"active","ping":42},{"user_id":307,"name":"Java_Siege_","steam_id":76561199090000728,"connected_time":1658000000000,"state":"active","ping":66},{"user_id":314,"name":"donnie | iysmitl.xyz","steam_id":76561198148956323,"connected_time":1146000000000,"state":"active","ping":67},{"user_id":309,"name":"I'mWalkerHere","steam_id":76561199310055450,"connected_time":1482000000000,"state":"active","ping":77},{"user_id":291,"name":"Mentally Ill Woman","steam_id":76561198072030567,"connected_time":2631000000000,"state":"active","ping":59},{"user_id":293,"name":"absurdly high number of gecs","steam_id":76561198022806102,"connected_time":2596000000000,"state":"active","ping":38},{"user_id":315,"name":"Tom","steam_id":76561198070630154,"connected_time":1120000000000,"state":"active","ping":76},{"user_id":326,"name":"Lord.nata69","steam_id":76561198239933094,"connected_time":267000000000,"state":"active","ping":51},{"user_id":327,"name":"TheLonliestThelonius","steam_id":76561198097657243,"connected_time":136000000000,"state":"active","ping":72},{"user_id":266,"name":"magnos62564","steam_id":76561198356968225,"connected_time":4610000000000,"state":"active","ping":164},{"user_id":308,"name":"Ninjoth","steam_id":76561198038611753,"connected_time":1657000000000,"state":"active","ping":71},{"user_id":316,"name":"mynamajeff","steam_id":76561198202151516,"connected_time":1083000000000,"state":"active","ping":60},{"user_id":322,"name":"chikin.sauce","steam_id":76561198042464635,"connected_time":478000000000,"state":"active","ping":83},{"user_id":319,"name":"pinglefingle","steam_id":76561198216580197,"connected_time":541000000000,"state":"active","ping":72},{"user_id":231,"name":"Kerpal45","steam_id":76561198153340350,"connected_time":7758000000000,"state":"active","ping":90},{"user_id":318,"name":"/dev/null","steam_id":76561198042144148,"connected_time":560000000000,"state":"active","ping":60},{"user_id":325,"name":"Tony Slark","steam_id":76561198151256410,"connected_time":314000000000,"state":"active","ping":148},{"user_id":297,"name":"Defender hunter","steam_id":76561198041458028,"connected_time":2356000000000,"state":"active","ping":175}]},{"server_id":38,"name":"Uncletopia | Chicago | 7 | Stopwatch","name_short":"chi-7","host":"chi-2.us.uncletopia.com","port":27035,"enabled":true,"region":"us-central","cc":"us","latitude":41.881832,"longitude":-87.62318,"reserved":0,"last_update":"0001-01-01T00:00:00Z","name_a2s":"Uncletopia | Chicago | 7 | Stopwatch","protocol":17,"map":"cp_snakewater_final1","folder":"tf","game":"Team Fortress","app_id":440,"player_count":0,"max_players":24,"Bots":0,"server_type":"Dedicated","server_os":"Linux","password":true,"vac":true,"version":"7961495","steam_id":85568392924866364,"keywords":["cp","nocrits","nodmgspread","uncletopia"],"game_id":440,"stv_port":27036,"stv_name":"Uncletopia | Chicago | 7 | Stopwatch | STV","players":null},{"server_id":39,"name":"Uncletopia | Chicago | 8 | Community","name_short":"chi-8","host":"chi-2.us.uncletopia.com","port":27045,"enabled":true,"region":"us-central","cc":"us","latitude":41.881832,"longitude":-87.62318,"reserved":0,"last_update":"0001-01-01T00:00:00Z","name_a2s":"Uncletopia | Chicago | 8 | Community","protocol":17,"map":"workshop/koth_slaughter_rc1.ugc1712845210","folder":"tf","game":"Team Fortress","app_id":440,"player_count":0,"max_players":24,"Bots":0,"server_type":"Dedicated","server_os":"Linux","password":true,"vac":true,"version":"7961495","steam_id":85568392924866365,"keywords":["cp","nocrits","nodmgspread","uncletopia"],"game_id":440,"stv_port":27046,"stv_name":"Uncletopia | Chicago | 8 | Community | STV","players":null},{"server_id":8,"name":"Uncletopia | Dallas | 1 | All Maps","name_short":"dal-1","host":"dal-1.us.uncletopia.com","port":27015,"enabled":true,"region":"us-central","cc":"us","latitude":32.779167,"longitude":-96.80889,"reserved":0,"last_update":"0001-01-01T00:00:00Z","name_a2s":"Uncletopia | Dallas | 1 | All Maps","protocol":17,"map":"pl_pier","folder":"tf","game":"Team Fortress","app_id":440,"player_count":24,"max_players":24,"Bots":0,"server_type":"Dedicated","server_os":"Linux","password":true,"vac":true,"version":"7961495","steam_id":85568392924469986,"keywords":["nocrits","nodmgspread","payload","uncletopia"],"game_id":440,"stv_port":27016,"stv_name":"Uncletopia | Dallas | 1 | All Maps | STV","players":[{"user_id":276,"name":"righty","steam_id":76561198045260412,"connected_time":371000000000,"state":"active","ping":76},{"user_id":216,"name":"Pancho","steam_id":76561198155847264,"connected_time":5548000000000,"state":"active","ping":56},{"user_id":261,"name":"Goldensliv","steam_id":76561198161673891,"connected_time":1614000000000,"state":"active","ping":73},{"user_id":275,"name":"freesia","steam_id":76561198127525888,"connected_time":397000000000,"state":"active","ping":45},{"user_id":255,"name":"get scrongled, idiot","steam_id":76561198115874625,"connected_time":2240000000000,"state":"active","ping":96},{"user_id":278,"name":"SAGE(सगे*)","steam_id":76561198811114074,"connected_time":151000000000,"state":"active","ping":46},{"user_id":279,"name":"DMM","steam_id":76561198065426171,"connected_time":10000000000,"state":"active","ping":57},{"user_id":265,"name":"Frog","steam_id":76561199165825711,"connected_time":1083000000000,"state":"active","ping":89},{"user_id":245,"name":"The Black Ghost of Chip Skylark","steam_id":76561199486430601,"connected_time":2927000000000,"state":"active","ping":64},{"user_id":277,"name":"An Engineer","steam_id":76561198110381643,"connected_time":262000000000,"state":"active","ping":46},{"user_id":270,"name":"Brandino!","steam_id":76561198000446932,"connected_time":926000000000,"state":"active","ping":92},{"user_id":264,"name":"Crλf227","steam_id":76561198196211121,"connected_time":1178000000000,"state":"active","ping":66},{"user_id":269,"name":"darrell","steam_id":76561199108915133,"connected_time":964000000000,"state":"active","ping":62},{"user_id":165,"name":"mrpineapple070","steam_id":76561199088278757,"connected_time":9053000000000,"state":"active","ping":65},{"user_id":272,"name":"T. Bombadil","steam_id":76561198364152168,"connected_time":771000000000,"state":"active","ping":134},{"user_id":218,"name":"Anonymoose","steam_id":76561198862312405,"connected_time":5335000000000,"state":"active","ping":63},{"user_id":246,"name":"HeroOfTime","steam_id":76561199096218001,"connected_time":2922000000000,"state":"active","ping":83},{"user_id":228,"name":"Glühbirne","steam_id":76561198189278869,"connected_time":4552000000000,"state":"active","ping":67},{"user_id":262,"name":"Sprit ♥","steam_id":76561198268780781,"connected_time":1470000000000,"state":"active","ping":74},{"user_id":248,"name":"gretchling","steam_id":76561198046111695,"connected_time":2820000000000,"state":"active","ping":47},{"user_id":280,"name":"PTR","steam_id":76561198237253772,"connected_time":8000000000,"state":"spawning","ping":51},{"user_id":267,"name":"Shattered Glass","steam_id":76561198116835391,"connected_time":1003000000000,"state":"active","ping":90},{"user_id":221,"name":"motherfucker 2.0","steam_id":76561198141189209,"connected_time":5298000000000,"state":"active","ping":56},{"user_id":239,"name":"DlTTO","steam_id":76561199427026752,"connected_time":3178000000000,"state":"active","ping":90}]},{"server_id":108,"name":"Uncletopia | Dallas | 2 | All Maps","name_short":"dal-2","host":"dal-1.us.uncletopia.com","port":27025,"enabled":true,"region":"us-central","cc":"us","latitude":32.779167,"longitude":-96.80889,"reserved":0,"last_update":"0001-01-01T00:00:00Z","name_a2s":"Uncletopia | Dallas | 2 | All Maps","protocol":17,"map":"pl_borneo","folder":"tf","game":"Team Fortress","app_id":440,"player_count":13,"max_players":24,"Bots":0,"server_type":"Dedicated","server_os":"Linux","password":true,"vac":true,"version":"7961495","steam_id":85568392924469988,"keywords":["nocrits","nodmgspread","payload","uncletopia"],"game_id":440,"stv_port":27026,"stv_name":"Uncletopia | Dallas | 2 | All Maps | STV","players":[{"user_id":11,"name":"Colonel Knacker","steam_id":76561198151578423,"connected_time":818000000000,"state":"active","ping":45},{"user_id":10,"name":"Shisho","steam_id":76561198800199201,"connected_time":852000000000,"state":"active","ping":36},{"user_id":12,"name":"RPGnoob","steam_id":76561198384913758,"connected_time":743000000000,"state":"active","ping":47},{"user_id":13,"name":"Temujin","steam_id":76561198030936583,"connected_time":560000000000,"state":"active","ping":76},{"user_id":14,"name":"uncletopia dallas 2 player","steam_id":76561198412786186,"connected_time":559000000000,"state":"active","ping":48},{"user_id":15,"name":"Noire","steam_id":76561198149370109,"connected_time":545000000000,"state":"active","ping":88},{"user_id":16,"name":"aisu","steam_id":76561198043768507,"connected_time":331000000000,"state":"active","ping":76},{"user_id":17,"name":"Lex","steam_id":76561198069948353,"connected_time":258000000000,"state":"active","ping":52},{"user_id":18,"name":"schnedwob","steam_id":76561197999146588,"connected_time":245000000000,"state":"active","ping":38},{"user_id":22,"name":"frenemy","steam_id":76561198011363677,"connected_time":111000000000,"state":"active","ping":60},{"user_id":20,"name":"Ginger Jesus","steam_id":76561198052386458,"connected_time":214000000000,"state":"active","ping":77},{"user_id":21,"name":"Chocolate","steam_id":76561198133253767,"connected_time":203000000000,"state":"active","ping":58},{"user_id":23,"name":"jay","steam_id":76561198256309753,"connected_time":67000000000,"state":"active","ping":199}]},{"server_id":404,"name":"Uncletopia | Dallas | 3 | All Maps","name_short":"dal-3","host":"dal-1.us.uncletopia.com","port":27035,"enabled":true,"region":"us-central","cc":"us","latitude":32.779167,"longitude":-96.80889,"reserved":0,"last_update":"0001-01-01T00:00:00Z","name_a2s":"Uncletopia | Dallas | 3 | All Maps","protocol":17,"map":"cp_coldfront","folder":"tf","game":"Team Fortress","app_id":440,"player_count":0,"max_players":24,"Bots":0,"server_type":"Dedicated","server_os":"Linux","password":true,"vac":true,"version":"7961495","steam_id":85568392924515219,"keywords":["cp","nocrits","nodmgspread","uncletopia"],"game_id":440,"stv_port":27036,"stv_name":"Uncletopia | Dallas | 3 | All Maps | STV","players":null},{"server_id":405,"name":"Uncletopia | Dallas | 4 | Community","name_short":"dal-4","host":"dal-1.us.uncletopia.com","port":27045,"enabled":true,"region":"us-central","cc":"us","latitude":32.779167,"longitude":-96.80889,"reserved":0,"last_update":"0001-01-01T00:00:00Z","name_a2s":"Uncletopia | Dallas | 4 | Community","protocol":17,"map":"workshop/pl_fifthcurve_rc1.ugc648227046","folder":"tf","game":"Team Fortress","app_id":440,"player_count":0,"max_players":24,"Bots":0,"server_type":"Dedicated","server_os":"Linux","password":true,"vac":true,"version":"7961495","steam_id":85568392924515220,"keywords":["nocrits","nodmgspread","payload","uncletopia"],"game_id":440,"stv_port":27046,"stv_name":"Uncletopia | Dallas | 4 | Community | STV","players":null},{"server_id":5,"name":"Uncletopia | Frankfurt | 1 | All Maps","name_short":"frk-1","host":"frk-1.de.uncletopia.com","port":27015,"enabled":true,"region":"eu","cc":"de","latitude":50.110924,"longitude":8.682127,"reserved":0,"last_update":"0001-01-01T00:00:00Z","name_a2s":"Uncletopia | Frankfurt | 1 | All Maps","protocol":17,"map":"cp_altitude","folder":"tf","game":"Team Fortress","app_id":440,"player_count":13,"max_players":24,"Bots":0,"server_type":"Dedicated","server_os":"Linux","password":true,"vac":true,"version":"7961495","steam_id":85568392924469989,"keywords":["cp","nocrits","nodmgspread","uncletopia"],"game_id":440,"stv_port":27016,"stv_name":"Uncletopia | Frankfurt | 1 | All Maps | STV","players":[{"user_id":481,"name":"✚Чыж✚","steam_id":76561198273074492,"connected_time":96000000000,"state":"active","ping":89},{"user_id":463,"name":"b0g","steam_id":76561198051124946,"connected_time":1753000000000,"state":"active","ping":62},{"user_id":458,"name":"Master coitus","steam_id":76561198050416948,"connected_time":2061000000000,"state":"active","ping":44},{"user_id":464,"name":"GüçlüAYraNsAĞ","steam_id":76561199184988396,"connected_time":1747000000000,"state":"active","ping":82},{"user_id":473,"name":"Carl","steam_id":76561198045638738,"connected_time":891000000000,"state":"active","ping":57},{"user_id":477,"name":"MoistMomMauler","steam_id":76561198069359049,"connected_time":739000000000,"state":"active","ping":75},{"user_id":471,"name":"Finnish Farmer","steam_id":76561198205366043,"connected_time":1147000000000,"state":"active","ping":69},{"user_id":474,"name":"cheriberry","steam_id":76561198093577036,"connected_time":889000000000,"state":"active","ping":45},{"user_id":467,"name":"deez","steam_id":76561198831476915,"connected_time":1698000000000,"state":"active","ping":51},{"user_id":445,"name":"The SPy","steam_id":76561198392505656,"connected_time":3657000000000,"state":"active","ping":48},{"user_id":480,"name":"Rigby","steam_id":76561198021552128,"connected_time":131000000000,"state":"active","ping":78},{"user_id":454,"name":"manure merchant","steam_id":76561198010109316,"connected_time":2380000000000,"state":"active","ping":52},{"user_id":449,"name":"Mayor Wank from Wanker Town","steam_id":76561197998253588,"connected_time":3391000000000,"state":"active","ping":47}]},{"server_id":110,"name":"Uncletopia | Frankfurt | 2 | All Maps","name_short":"frk-2","host":"frk-1.de.uncletopia.com","port":27025,"enabled":true,"region":"eu","cc":"de","latitude":50.110924,"longitude":8.682127,"reserved":0,"last_update":"0001-01-01T00:00:00Z","name_a2s":"Uncletopia | Frankfurt | 2 | All Maps","protocol":17,"map":"cp_gorge","folder":"tf","game":"Team Fortress","app_id":440,"player_count":18,"max_players":24,"Bots":0,"server_type":"Dedicated","server_os":"Linux","password":true,"vac":true,"version":"7961495","steam_id":85568392924469990,"keywords":["cp","nocrits","nodmgspread","uncletopia"],"game_id":440,"stv_port":27026,"stv_name":"Uncletopia | Frankfurt | 2 | All Maps | STV","players":[{"user_id":466,"name":"p8ps","steam_id":76561199137042715,"connected_time":139000000000,"state":"active","ping":77},{"user_id":401,"name":"Ash","steam_id":76561198272001890,"connected_time":5194000000000,"state":"active","ping":45},{"user_id":380,"name":"fifionet","steam_id":76561198026618085,"connected_time":6557000000000,"state":"active","ping":60},{"user_id":447,"name":"Blake","steam_id":76561198034050682,"connected_time":1813000000000,"state":"active","ping":63},{"user_id":460,"name":"Random Crit","steam_id":76561198066978791,"connected_time":393000000000,"state":"active","ping":63},{"user_id":462,"name":"Kolodziej","steam_id":76561198088672385,"connected_time":272000000000,"state":"active","ping":60},{"user_id":402,"name":"TrippyPerson","steam_id":76561198805044643,"connected_time":5174000000000,"state":"active","ping":68},{"user_id":421,"name":"Keke","steam_id":76561198161351567,"connected_time":3811000000000,"state":"active","ping":56},{"user_id":464,"name":"UEFA psyop","steam_id":76561198097712283,"connected_time":197000000000,"state":"active","ping":89},{"user_id":422,"name":"Pahvi-Make","steam_id":76561198126135559,"connected_time":3800000000000,"state":"active","ping":92},{"user_id":381,"name":"maslowski02","steam_id":76561199410835527,"connected_time":6555000000000,"state":"active","ping":51},{"user_id":448,"name":"Siegmeyer","steam_id":76561198328543549,"connected_time":1800000000000,"state":"active","ping":84},{"user_id":426,"name":"Leviticus Cornwall","steam_id":76561197993702685,"connected_time":3613000000000,"state":"active","ping":78},{"user_id":416,"name":"asd_","steam_id":76561198060417920,"connected_time":3918000000000,"state":"active","ping":79},{"user_id":468,"name":"Dies Irae","steam_id":76561198949138533,"connected_time":86000000000,"state":"active","ping":79},{"user_id":469,"name":"_Pinki00","steam_id":76561198981500931,"connected_time":73000000000,"state":"active","ping":80},{"user_id":446,"name":"Uncle Ben","steam_id":76561198032568298,"connected_time":1829000000000,"state":"active","ping":68},{"user_id":409,"name":"DiracDeltaFunction","steam_id":76561199201624841,"connected_time":5054000000000,"state":"active","ping":73}]},{"server_id":308,"name":"Uncletopia | Frankfurt | 3 | All Maps","name_short":"frk-3","host":"frk-1.de.uncletopia.com","port":27035,"enabled":true,"region":"eu","cc":"de","latitude":50.110924,"longitude":8.682127,"reserved":0,"last_update":"0001-01-01T00:00:00Z","name_a2s":"Uncletopia | Frankfurt | 3 | All Maps","protocol":17,"map":"pl_upward","folder":"tf","game":"Team Fortress","app_id":440,"player_count":24,"max_players":24,"Bots":0,"server_type":"Dedicated","server_os":"Linux","password":true,"vac":true,"version":"7961495","steam_id":85568392924504274,"keywords":["nocrits","nodmgspread","payload","uncletopia"],"game_id":440,"stv_port":27036,"stv_name":"Uncletopia | Frankfurt | 3 | All Maps | STV","players":[{"user_id":208,"name":"kana","steam_id":76561198002343512,"connected_time":292000000000,"state":"active","ping":77},{"user_id":179,"name":"_420_StopItDudeCmon","steam_id":76561197997146481,"connected_time":1890000000000,"state":"active","ping":41},{"user_id":197,"name":"LEGEND FUMO.","steam_id":76561198061033903,"connected_time":886000000000,"state":"active","ping":50},{"user_id":202,"name":"Sir Kiops","steam_id":76561198022769275,"connected_time":600000000000,"state":"active","ping":101},{"user_id":151,"name":"Armand","steam_id":76561198236126774,"connected_time":3918000000000,"state":"active","ping":45},{"user_id":209,"name":"Witcher","steam_id":76561198073550998,"connected_time":172000000000,"state":"active","ping":60},{"user_id":164,"name":"Djingis Khan","steam_id":76561197967864460,"connected_time":3114000000000,"state":"active","ping":46},{"user_id":210,"name":"inV AsuX TF2Cases.com","steam_id":76561197990333289,"connected_time":150000000000,"state":"active","ping":71},{"user_id":204,"name":"Not A Fake Uncletopia Server","steam_id":76561198152871288,"connected_time":526000000000,"state":"active","ping":61},{"user_id":205,"name":"^1","steam_id":76561198880042335,"connected_time":508000000000,"state":"active","ping":89},{"user_id":140,"name":"Arturias","steam_id":76561198188720263,"connected_time":4822000000000,"state":"active","ping":54},{"user_id":112,"name":"cacsm","steam_id":76561199175492954,"connected_time":6847000000000,"state":"active","ping":79},{"user_id":198,"name":"Saint","steam_id":76561198003296382,"connected_time":868000000000,"state":"active","ping":60},{"user_id":214,"name":"MR BUBBLES","steam_id":76561198019005259,"connected_time":62000000000,"state":"active","ping":79},{"user_id":215,"name":"Lemon","steam_id":76561198188535947,"connected_time":47000000000,"state":"active","ping":60},{"user_id":212,"name":"tomydjoh","steam_id":76561198077421906,"connected_time":125000000000,"state":"active","ping":50},{"user_id":167,"name":"Duff","steam_id":76561198144573381,"connected_time":3077000000000,"state":"active","ping":60},{"user_id":168,"name":"DEFENDOR62","steam_id":76561199386703896,"connected_time":3065000000000,"state":"active","ping":46},{"user_id":152,"name":"After8","steam_id":76561198090750865,"connected_time":3900000000000,"state":"active","ping":61},{"user_id":183,"name":"Gator","steam_id":76561198065624683,"connected_time":1262000000000,"state":"active","ping":69},{"user_id":213,"name":"Real (Real)","steam_id":76561198323425034,"connected_time":108000000000,"state":"active","ping":61},{"user_id":216,"name":"Carlo","steam_id":76561198276491098,"connected_time":47000000000,"state":"active","ping":51},{"user_id":185,"name":"Towercat","steam_id":76561198013141793,"connected_time":1197000000000,"state":"active","ping":51},{"user_id":176,"name":"frostfry","steam_id":76561198102198123,"connected_time":2577000000000,"state":"active","ping":60}]},{"server_id":309,"name":"Uncletopia | Frankfurt | 4 | All Maps","name_short":"frk-4","host":"frk-1.de.uncletopia.com","port":27045,"enabled":true,"region":"eu","cc":"de","latitude":50.110924,"longitude":8.682127,"reserved":0,"last_update":"0001-01-01T00:00:00Z","name_a2s":"Uncletopia | Frankfurt | 4 | All Maps","protocol":17,"map":"cp_dustbowl","folder":"tf","game":"Team Fortress","app_id":440,"player_count":23,"max_players":24,"Bots":0,"server_type":"Dedicated","server_os":"Linux","password":true,"vac":true,"version":"7961495","steam_id":85568392924504275,"keywords":["cp","nocrits","nodmgspread","uncletopia"],"game_id":440,"stv_port":27046,"stv_name":"Uncletopia | Frankfurt | 4 | All Maps | STV","players":[{"user_id":261,"name":"The_K!ller[ÐK]","steam_id":76561197994600832,"connected_time":487000000000,"state":"active","ping":60},{"user_id":259,"name":"Fildtez[ÐK]","steam_id":76561197994274572,"connected_time":505000000000,"state":"active","ping":60},{"user_id":239,"name":"Kenny","steam_id":76561198994898206,"connected_time":1556000000000,"state":"active","ping":75},{"user_id":252,"name":"Rumpiel","steam_id":76561198254303347,"connected_time":1195000000000,"state":"active","ping":64},{"user_id":216,"name":"Hey, I´m Andy!","steam_id":76561198060337777,"connected_time":3884000000000,"state":"active","ping":60},{"user_id":262,"name":"Royal Russian","steam_id":76561198996059646,"connected_time":478000000000,"state":"active","ping":67},{"user_id":272,"name":"bAdmon","steam_id":76561197961785793,"connected_time":152000000000,"state":"active","ping":52},{"user_id":90,"name":"DocTwoEight","steam_id":76561198153488940,"connected_time":13128000000000,"state":"active","ping":59},{"user_id":212,"name":"Hercules","steam_id":76561198041164170,"connected_time":4152000000000,"state":"active","ping":59},{"user_id":264,"name":"Jahusi!*","steam_id":76561197992445165,"connected_time":429000000000,"state":"active","ping":52},{"user_id":232,"name":"Huskai","steam_id":76561198141512362,"connected_time":2194000000000,"state":"active","ping":45},{"user_id":242,"name":"Ecton","steam_id":76561198025103720,"connected_time":1485000000000,"state":"active","ping":58},{"user_id":265,"name":"shit monster","steam_id":76561199501869602,"connected_time":391000000000,"state":"active","ping":75},{"user_id":266,"name":"Accident","steam_id":76561198115160396,"connected_time":368000000000,"state":"active","ping":69},{"user_id":231,"name":"Tre3","steam_id":76561198054795379,"connected_time":2197000000000,"state":"active","ping":53},{"user_id":249,"name":"Yodawg","steam_id":76561198261933946,"connected_time":1292000000000,"state":"active","ping":45},{"user_id":267,"name":"BD[PL]","steam_id":76561198115995871,"connected_time":338000000000,"state":"active","ping":75},{"user_id":268,"name":"Retarded Asian Programmer","steam_id":76561198852826853,"connected_time":336000000000,"state":"active","ping":49},{"user_id":145,"name":"sticks","steam_id":76561198127099299,"connected_time":9872000000000,"state":"active","ping":54},{"user_id":269,"name":"Onion Drugs","steam_id":76561198441194331,"connected_time":335000000000,"state":"active","ping":100},{"user_id":270,"name":"Roblin24","steam_id":76561198991674513,"connected_time":302000000000,"state":"active","ping":54},{"user_id":248,"name":"Mega","steam_id":76561197970389664,"connected_time":1369000000000,"state":"active","ping":44},{"user_id":235,"name":"gaming (official)","steam_id":76561198106012909,"connected_time":2182000000000,"state":"active","ping":60}]},{"server_id":310,"name":"Uncletopia | Frankfurt | 5 | All Maps","name_short":"frk-5","host":"frk-1.de.uncletopia.com","port":27055,"enabled":true,"region":"eu","cc":"de","latitude":50.110924,"longitude":8.682127,"reserved":0,"last_update":"0001-01-01T00:00:00Z","name_a2s":"Uncletopia | Frankfurt | 5 | All Maps","protocol":17,"map":"koth_highpass","folder":"tf","game":"Team Fortress","app_id":440,"player_count":0,"max_players":24,"Bots":0,"server_type":"Dedicated","server_os":"Linux","password":true,"vac":true,"version":"7961495","steam_id":85568392924504277,"keywords":["cp","nocrits","nodmgspread","uncletopia"],"game_id":440,"stv_port":27056,"stv_name":"Uncletopia | Frankfurt | 5 | All Maps | STV","players":null},{"server_id":311,"name":"Uncletopia | Frankfurt | 6 | All Maps","name_short":"frk-6","host":"frk-1.de.uncletopia.com","port":27065,"enabled":true,"region":"eu","cc":"de","latitude":50.110924,"longitude":8.682127,"reserved":0,"last_update":"0001-01-01T00:00:00Z","name_a2s":"Uncletopia | Frankfurt | 6 | All Maps","protocol":17,"map":"cp_standin_final","folder":"tf","game":"Team Fortress","app_id":440,"player_count":17,"max_players":24,"Bots":0,"server_type":"Dedicated","server_os":"Linux","password":true,"vac":true,"version":"7961495","steam_id":85568392924504278,"keywords":["cp","nocrits","nodmgspread","uncletopia"],"game_id":440,"stv_port":27066,"stv_name":"Uncletopia | Frankfurt | 6 | All Maps | STV","players":[{"user_id":491,"name":"right testicle","steam_id":76561198083957876,"connected_time":103000000000,"state":"active","ping":83},{"user_id":443,"name":"HaylingZar","steam_id":76561198053559897,"connected_time":2495000000000,"state":"active","ping":74},{"user_id":488,"name":"SunZi","steam_id":76561198139243535,"connected_time":472000000000,"state":"active","ping":77},{"user_id":414,"name":"sokige","steam_id":76561198167112371,"connected_time":3990000000000,"state":"active","ping":90},{"user_id":492,"name":"☆bladee☆dior☆f/w2016☆","steam_id":76561198082352159,"connected_time":101000000000,"state":"active","ping":75},{"user_id":472,"name":"Isak","steam_id":76561198085959762,"connected_time":998000000000,"state":"active","ping":79},{"user_id":493,"name":"disabled chimp","steam_id":76561198132062857,"connected_time":79000000000,"state":"active","ping":59},{"user_id":494,"name":"Tiad","steam_id":76561198283421457,"connected_time":49000000000,"state":"active","ping":45},{"user_id":461,"name":"ay","steam_id":76561198033695429,"connected_time":1460000000000,"state":"active","ping":59},{"user_id":480,"name":"PASTAMANIA!","steam_id":76561197967858558,"connected_time":800000000000,"state":"active","ping":47},{"user_id":478,"name":"Tony","steam_id":76561198128993838,"connected_time":890000000000,"state":"active","ping":60},{"user_id":479,"name":"Waltism","steam_id":76561199447676489,"connected_time":828000000000,"state":"active","ping":70},{"user_id":481,"name":"Lådan :3","steam_id":76561198071000575,"connected_time":749000000000,"state":"active","ping":62},{"user_id":482,"name":"Duktigafred","steam_id":76561199211222396,"connected_time":747000000000,"state":"active","ping":52},{"user_id":466,"name":"Cosmetic brain","steam_id":76561198055936410,"connected_time":1284000000000,"state":"active","ping":75},{"user_id":464,"name":"Skatnaset","steam_id":76561198298457353,"connected_time":1316000000000,"state":"active","ping":63},{"user_id":470,"name":"Why?","steam_id":76561199102201832,"connected_time":1090000000000,"state":"active","ping":55}]},{"server_id":23,"name":"Uncletopia | Frankfurt | 7 | Stopwatch","name_short":"frk-7","host":"frk-1.de.uncletopia.com","port":27075,"enabled":true,"region":"eu","cc":"de","latitude":50.110924,"longitude":8.682127,"reserved":0,"last_update":"0001-01-01T00:00:00Z","name_a2s":"Uncletopia | Frankfurt | 7 | Stopwatch","protocol":17,"map":"workshop/koth_bagel_rc6.ugc2514036946","folder":"tf","game":"Team Fortress","app_id":440,"player_count":0,"max_players":24,"Bots":0,"server_type":"Dedicated","server_os":"Linux","password":true,"vac":true,"version":"7961495","steam_id":85568392924742827,"keywords":["cp","nocrits","nodmgspread","uncletopia"],"game_id":440,"stv_port":27076,"stv_name":"Uncletopia | Frankfurt | 7 | Stopwatch | STV","players":null},{"server_id":24,"name":"Uncletopia | Frankfurt | 8 | Community","name_short":"frk-8","host":"frk-1.de.uncletopia.com","port":27085,"enabled":true,"region":"eu","cc":"de","latitude":50.110924,"longitude":8.682127,"reserved":0,"last_update":"0001-01-01T00:00:00Z","name_a2s":"Uncletopia | Frankfurt | 8 | Community","protocol":17,"map":"workshop/cp_snowbase_b21.ugc2081770490","folder":"tf","game":"Team Fortress","app_id":440,"player_count":0,"max_players":24,"Bots":0,"server_type":"Dedicated","server_os":"Linux","password":true,"vac":true,"version":"7961495","steam_id":85568392924742828,"keywords":["cp","nocrits","nodmgspread","uncletopia"],"game_id":440,"stv_port":27086,"stv_name":"Uncletopia | Frankfurt | 8 | Community | STV","players":null},{"server_id":202,"name":"Uncletopia | Hong Kong | 1 | All Maps","name_short":"hgk-1","host":"hgk-1.hk.uncletopia.com","port":27015,"enabled":true,"region":"asia","cc":"hk","latitude":22.302711,"longitude":114.177216,"reserved":0,"last_update":"0001-01-01T00:00:00Z","name_a2s":"Uncletopia | Hong Kong | 1 | All Maps","protocol":17,"map":"pl_borneo","folder":"tf","game":"Team Fortress","app_id":440,"player_count":0,"max_players":24,"Bots":0,"server_type":"Dedicated","server_os":"Linux","password":true,"vac":true,"version":"7961495","steam_id":85568392924494504,"keywords":["nocrits","nodmgspread","payload","uncletopia"],"game_id":440,"stv_port":27016,"stv_name":"Uncletopia | Hong Kong | 1 | All Maps | STV","players":null},{"server_id":1,"name":"Uncletopia | Los Angeles | 1 | All Maps","name_short":"lax-1","host":"lax-1.us.uncletopia.com","port":27015,"enabled":true,"region":"us-west","cc":"us","latitude":33.94279,"longitude":-118.41004,"reserved":0,"last_update":"0001-01-01T00:00:00Z","name_a2s":"Uncletopia | Los Angeles | 1 | All Maps","protocol":17,"map":"pl_upward","folder":"tf","game":"Team Fortress","app_id":440,"player_count":22,"max_players":24,"Bots":0,"server_type":"Dedicated","server_os":"Linux","password":true,"vac":true,"version":"7961495","steam_id":85568392924469991,"keywords":["nocrits","nodmgspread","payload","uncletopia"],"game_id":440,"stv_port":27016,"stv_name":"Uncletopia | Los Angeles | 1 | All Maps | STV","players":[{"user_id":49,"name":"Typh","steam_id":76561198315344079,"connected_time":8236000000000,"state":"active","ping":104},{"user_id":120,"name":"summerlis","steam_id":76561198165324438,"connected_time":1212000000000,"state":"active","ping":39},{"user_id":128,"name":"batt","steam_id":76561198150007983,"connected_time":209000000000,"state":"active","ping":57},{"user_id":113,"name":"SunkenSole9132","steam_id":76561198359562446,"connected_time":2060000000000,"state":"active","ping":61},{"user_id":121,"name":"life","steam_id":76561198227112556,"connected_time":1204000000000,"state":"active","ping":57},{"user_id":130,"name":"Frank","steam_id":76561198428759980,"connected_time":58000000000,"state":"active","ping":60},{"user_id":103,"name":"KaosInfinite","steam_id":76561198009126350,"connected_time":3368000000000,"state":"active","ping":39},{"user_id":61,"name":"you just got dyked on","steam_id":76561198018977723,"connected_time":7278000000000,"state":"active","ping":75},{"user_id":110,"name":"Clyde","steam_id":76561198158206236,"connected_time":2593000000000,"state":"active","ping":162},{"user_id":94,"name":"June","steam_id":76561198141803658,"connected_time":3693000000000,"state":"active","ping":45},{"user_id":18,"name":"aBigPoo","steam_id":76561198425027856,"connected_time":9693000000000,"state":"active","ping":51},{"user_id":123,"name":"Lucky","steam_id":76561198124910662,"connected_time":1180000000000,"state":"active","ping":53},{"user_id":124,"name":"American freedom bird","steam_id":76561198366142388,"connected_time":1160000000000,"state":"active","ping":49},{"user_id":87,"name":"hammythegreat #SaveTF2","steam_id":76561198079526946,"connected_time":5134000000000,"state":"active","ping":105},{"user_id":125,"name":"K1ngBurrito","steam_id":76561198134344529,"connected_time":1157000000000,"state":"active","ping":59},{"user_id":85,"name":"Eden","steam_id":76561198081284664,"connected_time":5367000000000,"state":"active","ping":57},{"user_id":55,"name":"HopeTheNeko","steam_id":76561199159285465,"connected_time":7964000000000,"state":"active","ping":50},{"user_id":111,"name":"Captain Buggy","steam_id":76561198024444448,"connected_time":2537000000000,"state":"active","ping":64},{"user_id":93,"name":"Sir BrainDamage the V of Serbia","steam_id":76561198846344452,"connected_time":4026000000000,"state":"active","ping":60},{"user_id":114,"name":"Happy Bucket","steam_id":76561198066053527,"connected_time":1517000000000,"state":"active","ping":60},{"user_id":131,"name":"ElShaggy","steam_id":76561198148870214,"connected_time":45000000000,"state":"active","ping":46},{"user_id":116,"name":"BigBubble42","steam_id":76561198136286123,"connected_time":1273000000000,"state":"active","ping":59}]},{"server_id":112,"name":"Uncletopia | Los Angeles | 2 | All Maps","name_short":"lax-2","host":"lax-1.us.uncletopia.com","port":27025,"enabled":true,"region":"us-west","cc":"us","latitude":33.94279,"longitude":-118.41004,"reserved":0,"last_update":"0001-01-01T00:00:00Z","name_a2s":"Uncletopia | Los Angeles | 2 | All Maps","protocol":17,"map":"koth_cascade","folder":"tf","game":"Team Fortress","app_id":440,"player_count":0,"max_players":24,"Bots":0,"server_type":"Dedicated","server_os":"Linux","password":true,"vac":true,"version":"7961495","steam_id":85568392924469992,"keywords":["cp","nocrits","nodmgspread","uncletopia"],"game_id":440,"stv_port":27026,"stv_name":"Uncletopia | Los Angeles | 2 | All Maps | STV","players":null},{"server_id":324,"name":"Uncletopia | Los Angeles | 3 | All Maps","name_short":"lax-3","host":"lax-1.us.uncletopia.com","port":27035,"enabled":true,"region":"us-west","cc":"us","latitude":33.94279,"longitude":-118.41004,"reserved":0,"last_update":"0001-01-01T00:00:00Z","name_a2s":"Uncletopia | Los Angeles | 3 | All Maps","protocol":17,"map":"pl_badwater","folder":"tf","game":"Team Fortress","app_id":440,"player_count":0,"max_players":24,"Bots":0,"server_type":"Dedicated","server_os":"Linux","password":true,"vac":true,"version":"7961495","steam_id":85568392924510198,"keywords":["nocrits","nodmgspread","payload","uncletopia"],"game_id":440,"stv_port":27036,"stv_name":"Uncletopia | Los Angeles | 3 | All Maps | STV","players":null},{"server_id":25,"name":"Uncletopia | Los Angeles | 4 | Stopwatch","name_short":"lax-4","host":"lax-1.us.uncletopia.com","port":27045,"enabled":true,"region":"us-west","cc":"us","latitude":33.94279,"longitude":-118.41004,"reserved":0,"last_update":"0001-01-01T00:00:00Z","name_a2s":"Uncletopia | Los Angeles | 4 | Stopwatch","protocol":17,"map":"pl_upward","folder":"tf","game":"Team Fortress","app_id":440,"player_count":0,"max_players":24,"Bots":0,"server_type":"Dedicated","server_os":"Linux","password":true,"vac":true,"version":"7961495","steam_id":85568392924510199,"keywords":["nocrits","nodmgspread","payload","uncletopia"],"game_id":440,"stv_port":27046,"stv_name":"Uncletopia | Los Angeles | 4 | Stopwatch | STV","players":null},{"server_id":11,"name":"Uncletopia | London | 1 | All Maps","name_short":"lon-1","host":"lon-1.uk.uncletopia.com","port":27015,"enabled":true,"region":"eu","cc":"gb","latitude":51.509865,"longitude":-0.118092,"reserved":0,"last_update":"0001-01-01T00:00:00Z","name_a2s":"Uncletopia | London | 1 | All Maps","protocol":17,"map":"cp_process_final","folder":"tf","game":"Team Fortress","app_id":440,"player_count":24,"max_players":24,"Bots":0,"server_type":"Dedicated","server_os":"Linux","password":true,"vac":true,"version":"7961495","steam_id":85568392924367362,"keywords":["cp","nocrits","nodmgspread","uncletopia"],"game_id":440,"stv_port":27016,"stv_name":"Uncletopia | London | 1 | All Maps | STV","players":[{"user_id":387,"name":"soil.dirt.earth","steam_id":76561198014377623,"connected_time":3294000000000,"state":"active","ping":30},{"user_id":366,"name":"Czechmated","steam_id":76561198075648001,"connected_time":4997000000000,"state":"active","ping":48},{"user_id":276,"name":"Son Goku","steam_id":76561199383437138,"connected_time":11645000000000,"state":"active","ping":120},{"user_id":437,"name":"froglids","steam_id":76561198045466919,"connected_time":450000000000,"state":"active","ping":73},{"user_id":410,"name":"getpost","steam_id":76561198260064876,"connected_time":1430000000000,"state":"active","ping":77},{"user_id":440,"name":"I Love Filtered Water","steam_id":76561198016042113,"connected_time":183000000000,"state":"active","ping":84},{"user_id":413,"name":"Joe","steam_id":76561198145639903,"connected_time":1408000000000,"state":"active","ping":83},{"user_id":431,"name":"sp00ky","steam_id":76561199181412601,"connected_time":530000000000,"state":"active","ping":149},{"user_id":367,"name":"impossible whopper eater","steam_id":76561198058641805,"connected_time":4990000000000,"state":"active","ping":59},{"user_id":442,"name":"FLEXXX","steam_id":76561198210670927,"connected_time":90000000000,"state":"active","ping":65},{"user_id":370,"name":"sab","steam_id":76561197992945483,"connected_time":4965000000000,"state":"active","ping":58},{"user_id":417,"name":"Gym teacher","steam_id":76561198382706733,"connected_time":1062000000000,"state":"active","ping":64},{"user_id":429,"name":"Symbols","steam_id":76561198057259825,"connected_time":569000000000,"state":"active","ping":40},{"user_id":438,"name":"Monkey","steam_id":76561198048385029,"connected_time":375000000000,"state":"active","ping":47},{"user_id":443,"name":"jermany!","steam_id":76561198126599355,"connected_time":21000000000,"state":"spawning","ping":52},{"user_id":419,"name":"Swip3r","steam_id":76561198039789772,"connected_time":977000000000,"state":"active","ping":38},{"user_id":434,"name":"mr.resetti","steam_id":76561198974520642,"connected_time":481000000000,"state":"active","ping":64},{"user_id":392,"name":"child cruncher","steam_id":76561199376433147,"connected_time":2572000000000,"state":"active","ping":37},{"user_id":427,"name":"Turek","steam_id":76561198280066503,"connected_time":602000000000,"state":"active","ping":81},{"user_id":441,"name":"Bill_nye_epic","steam_id":76561199216249214,"connected_time":149000000000,"state":"active","ping":147},{"user_id":436,"name":"MENTABETAI","steam_id":76561198049728799,"connected_time":472000000000,"state":"active","ping":75},{"user_id":432,"name":"Ptahotep","steam_id":76561198008708645,"connected_time":529000000000,"state":"active","ping":54},{"user_id":408,"name":"lily.exe","steam_id":76561198049840460,"connected_time":1441000000000,"state":"active","ping":47},{"user_id":435,"name":"Lers","steam_id":76561198061619788,"connected_time":480000000000,"state":"active","ping":44}]},{"server_id":114,"name":"Uncletopia | London | 2 | All Maps","name_short":"lon-2","host":"lon-1.uk.uncletopia.com","port":27025,"enabled":true,"region":"eu","cc":"gb","latitude":51.509865,"longitude":-0.118092,"reserved":0,"last_update":"0001-01-01T00:00:00Z","name_a2s":"Uncletopia | London | 2 | All Maps","protocol":17,"map":"pl_snowycoast","folder":"tf","game":"Team Fortress","app_id":440,"player_count":24,"max_players":24,"Bots":0,"server_type":"Dedicated","server_os":"Linux","password":true,"vac":true,"version":"7961495","steam_id":85568392924470941,"keywords":["nocrits","nodmgspread","payload","uncletopia"],"game_id":440,"stv_port":27026,"stv_name":"Uncletopia | London | 2 | All Maps | STV","players":[{"user_id":452,"name":"-","steam_id":76561198382509396,"connected_time":2510000000000,"state":"active","ping":57},{"user_id":440,"name":"SynthBox3","steam_id":76561199094075745,"connected_time":3082000000000,"state":"active","ping":95},{"user_id":476,"name":"Joo ♦","steam_id":76561197987609203,"connected_time":488000000000,"state":"active","ping":71},{"user_id":441,"name":"Archer","steam_id":76561198132860299,"connected_time":3061000000000,"state":"active","ping":50},{"user_id":492,"name":"Urfangonultasadana","steam_id":76561199389286151,"connected_time":206000000000,"state":"active","ping":88},{"user_id":475,"name":"AftiksPL","steam_id":76561198875182686,"connected_time":494000000000,"state":"active","ping":92},{"user_id":493,"name":"ttv.SweetReverb","steam_id":76561198039256402,"connected_time":151000000000,"state":"active","ping":118},{"user_id":494,"name":"BeanyBen","steam_id":76561198150585233,"connected_time":72000000000,"state":"active","ping":65},{"user_id":450,"name":"Egor Pomidor","steam_id":76561199175688390,"connected_time":2578000000000,"state":"active","ping":87},{"user_id":428,"name":"[FP] Shiken","steam_id":76561198257905663,"connected_time":4116000000000,"state":"active","ping":66},{"user_id":491,"name":"ThornDrayton","steam_id":76561198141985675,"connected_time":210000000000,"state":"active","ping":38},{"user_id":477,"name":"Purrplehaze","steam_id":76561198297604298,"connected_time":473000000000,"state":"active","ping":65},{"user_id":263,"name":"Marcel","steam_id":76561198348686648,"connected_time":14571000000000,"state":"active","ping":46},{"user_id":458,"name":"mirek CASEDROP eu *******","steam_id":76561198226673084,"connected_time":2172000000000,"state":"active","ping":78},{"user_id":466,"name":"Saucisse","steam_id":76561198119955969,"connected_time":953000000000,"state":"active","ping":46},{"user_id":418,"name":"Beep","steam_id":76561198120500488,"connected_time":4710000000000,"state":"active","ping":50},{"user_id":479,"name":"Brian","steam_id":76561198077756206,"connected_time":440000000000,"state":"active","ping":44},{"user_id":405,"name":"Sploigy","steam_id":76561197985773614,"connected_time":5225000000000,"state":"active","ping":61},{"user_id":459,"name":"waj","steam_id":76561198053628243,"connected_time":2171000000000,"state":"active","ping":46},{"user_id":460,"name":"TOP G","steam_id":76561198138928548,"connected_time":2168000000000,"state":"active","ping":63},{"user_id":481,"name":"Fallen_Scholar","steam_id":76561198055468709,"connected_time":422000000000,"state":"active","ping":53},{"user_id":487,"name":"Locke","steam_id":76561198339408300,"connected_time":358000000000,"state":"active","ping":86},{"user_id":419,"name":"[FP] Rune","steam_id":76561198030842879,"connected_time":4704000000000,"state":"active","ping":43},{"user_id":484,"name":"Karahu","steam_id":76561198060426885,"connected_time":392000000000,"state":"active","ping":75}]},{"server_id":320,"name":"Uncletopia | London | 3 | All Maps","name_short":"lon-3","host":"lon-1.uk.uncletopia.com","port":27035,"enabled":true,"region":"eu","cc":"gb","latitude":51.509865,"longitude":-0.118092,"reserved":0,"last_update":"0001-01-01T00:00:00Z","name_a2s":"Uncletopia | London | 3 | All Maps","protocol":17,"map":"cp_gorge","folder":"tf","game":"Team Fortress","app_id":440,"player_count":16,"max_players":24,"Bots":0,"server_type":"Dedicated","server_os":"Linux","password":true,"vac":true,"version":"7961495","steam_id":85568392924510192,"keywords":["cp","nocrits","nodmgspread","uncletopia"],"game_id":440,"stv_port":27036,"stv_name":"Uncletopia | London | 3 | All Maps | STV","players":[{"user_id":206,"name":"compact disc","steam_id":76561198154677956,"connected_time":1244000000000,"state":"active","ping":72},{"user_id":220,"name":"Fkc","steam_id":76561198007018507,"connected_time":107000000000,"state":"active","ping":43},{"user_id":222,"name":"dudes who can juggle","steam_id":76561198188642265,"connected_time":56000000000,"state":"active","ping":48},{"user_id":217,"name":"Malikov","steam_id":76561198242904600,"connected_time":402000000000,"state":"active","ping":128},{"user_id":219,"name":"God is serb","steam_id":76561198966246028,"connected_time":142000000000,"state":"active","ping":91},{"user_id":137,"name":"kornetov.vitalya","steam_id":76561199286034833,"connected_time":6015000000000,"state":"active","ping":90},{"user_id":202,"name":"puncake4you","steam_id":76561198366512937,"connected_time":1442000000000,"state":"active","ping":48},{"user_id":148,"name":"yuno appreciator","steam_id":76561198083286511,"connected_time":5491000000000,"state":"active","ping":43},{"user_id":169,"name":"Sugardaddy_pep","steam_id":76561198807512589,"connected_time":4056000000000,"state":"active","ping":70},{"user_id":199,"name":"LizaЯdlЧ","steam_id":76561198176750238,"connected_time":2241000000000,"state":"active","ping":67},{"user_id":192,"name":"Pterodactyl P. Jones","steam_id":76561198017513012,"connected_time":2474000000000,"state":"active","ping":50},{"user_id":204,"name":"my mom","steam_id":76561199225201569,"connected_time":1336000000000,"state":"active","ping":112},{"user_id":212,"name":"MattJettskie","steam_id":76561199229493583,"connected_time":748000000000,"state":"active","ping":146},{"user_id":196,"name":"Faris NyanNyan","steam_id":76561198044604742,"connected_time":2362000000000,"state":"active","ping":43},{"user_id":183,"name":"rainman","steam_id":76561198059761822,"connected_time":2722000000000,"state":"active","ping":53},{"user_id":211,"name":"bug","steam_id":76561198118412910,"connected_time":932000000000,"state":"active","ping":48}]},{"server_id":321,"name":"Uncletopia | London | 4 | All Maps","name_short":"lon-4","host":"lon-1.uk.uncletopia.com","port":27045,"enabled":true,"region":"eu","cc":"gb","latitude":51.509865,"longitude":-0.118092,"reserved":0,"last_update":"0001-01-01T00:00:00Z","name_a2s":"Uncletopia | London | 4 | All Maps","protocol":17,"map":"cp_process_final","folder":"tf","game":"Team Fortress","app_id":440,"player_count":20,"max_players":24,"Bots":0,"server_type":"Dedicated","server_os":"Linux","password":true,"vac":true,"version":"7961495","steam_id":85568392924510193,"keywords":["cp","nocrits","nodmgspread","uncletopia"],"game_id":440,"stv_port":27046,"stv_name":"Uncletopia | London | 4 | All Maps | STV","players":[{"user_id":374,"name":"Woman (Real)","steam_id":76561199151823932,"connected_time":7587000000000,"state":"active","ping":67},{"user_id":463,"name":"Space Rimmer","steam_id":76561198069243201,"connected_time":92000000000,"state":"active","ping":45},{"user_id":440,"name":"Lux","steam_id":76561198060417740,"connected_time":2873000000000,"state":"active","ping":45},{"user_id":376,"name":"xavier","steam_id":76561198076494034,"connected_time":7397000000000,"state":"active","ping":48},{"user_id":424,"name":"Eric Catman","steam_id":76561198802117294,"connected_time":3915000000000,"state":"active","ping":53},{"user_id":466,"name":"KnugenIV","steam_id":76561198127091993,"connected_time":43000000000,"state":"active","ping":97},{"user_id":464,"name":"sowakarana","steam_id":76561199405633261,"connected_time":91000000000,"state":"active","ping":45},{"user_id":445,"name":"BlackSuperhero","steam_id":76561199500033132,"connected_time":2008000000000,"state":"active","ping":107},{"user_id":453,"name":"D4NTheProtogen","steam_id":76561198206460789,"connected_time":895000000000,"state":"active","ping":46},{"user_id":426,"name":"BTD","steam_id":76561199046044993,"connected_time":3810000000000,"state":"active","ping":60},{"user_id":465,"name":"Lyell","steam_id":76561198350329389,"connected_time":80000000000,"state":"active","ping":75},{"user_id":446,"name":"U;j5ua;YB2_amRe3","steam_id":76561198068429874,"connected_time":2000000000000,"state":"active","ping":174},{"user_id":467,"name":"IJN Amagi","steam_id":76561198090874324,"connected_time":28000000000,"state":"active","ping":92},{"user_id":468,"name":"sanctioned","steam_id":76561198851157897,"connected_time":17000000000,"state":"active","ping":109},{"user_id":429,"name":"alex","steam_id":76561199281389958,"connected_time":3447000000000,"state":"active","ping":52},{"user_id":455,"name":"Bobirulez","steam_id":76561198009125458,"connected_time":765000000000,"state":"active","ping":65},{"user_id":439,"name":"Fran","steam_id":76561199070516960,"connected_time":3166000000000,"state":"active","ping":74},{"user_id":454,"name":"lord-carlos","steam_id":76561198025150761,"connected_time":810000000000,"state":"active","ping":65},{"user_id":400,"name":"Bajas","steam_id":76561198179339326,"connected_time":5513000000000,"state":"active","ping":90},{"user_id":450,"name":"Udinese Dion","steam_id":76561198067931573,"connected_time":1353000000000,"state":"active","ping":61}]},{"server_id":21,"name":"Uncletopia | London | 5 | All Maps","name_short":"lon-5","host":"lon-1.uk.uncletopia.com","port":27055,"enabled":true,"region":"eu","cc":"gb","latitude":51.509865,"longitude":-0.118092,"reserved":0,"last_update":"0001-01-01T00:00:00Z","name_a2s":"Uncletopia | London | 5 | All Maps","protocol":17,"map":"pl_borneo","folder":"tf","game":"Team Fortress","app_id":440,"player_count":18,"max_players":24,"Bots":0,"server_type":"Dedicated","server_os":"Linux","password":true,"vac":true,"version":"7961495","steam_id":85568392924742829,"keywords":["nocrits","nodmgspread","payload","uncletopia"],"game_id":440,"stv_port":27056,"stv_name":"Uncletopia | London | 5 | All Maps | STV","players":[{"user_id":311,"name":"Scrungly Bingus","steam_id":76561198106868468,"connected_time":1642000000000,"state":"active","ping":53},{"user_id":306,"name":"AIDS","steam_id":76561198111124604,"connected_time":1901000000000,"state":"active","ping":55},{"user_id":342,"name":"cuddles","steam_id":76561198805181599,"connected_time":54000000000,"state":"active","ping":39},{"user_id":248,"name":"Mysterious Stranger","steam_id":76561199029796289,"connected_time":5630000000000,"state":"active","ping":153},{"user_id":324,"name":"Morale -10","steam_id":76561198046932043,"connected_time":1074000000000,"state":"active","ping":64},{"user_id":337,"name":"flamingosaurus","steam_id":76561198051455397,"connected_time":404000000000,"state":"active","ping":35},{"user_id":343,"name":"Smiley","steam_id":76561198842378679,"connected_time":47000000000,"state":"active","ping":137},{"user_id":326,"name":"3L","steam_id":76561198007208996,"connected_time":1042000000000,"state":"active","ping":85},{"user_id":338,"name":"Tanner Jarring","steam_id":76561198172024365,"connected_time":311000000000,"state":"active","ping":134},{"user_id":283,"name":"hauntaholic ☆","steam_id":76561198315371425,"connected_time":3733000000000,"state":"active","ping":47},{"user_id":285,"name":"SirVitek","steam_id":76561198142961758,"connected_time":3729000000000,"state":"active","ping":95},{"user_id":270,"name":"Shapeshifter","steam_id":76561198052898368,"connected_time":4729000000000,"state":"active","ping":75},{"user_id":340,"name":"Scr0b ʕᵔᴥᵔʔ","steam_id":76561198100855323,"connected_time":118000000000,"state":"active","ping":56},{"user_id":307,"name":"Malsi","steam_id":76561199061284165,"connected_time":1882000000000,"state":"active","ping":69},{"user_id":331,"name":"Kentucky Fried Crab","steam_id":76561198035586715,"connected_time":895000000000,"state":"active","ping":122},{"user_id":333,"name":"ssx tricky \\\\\\ dryg","steam_id":76561197994299134,"connected_time":637000000000,"state":"active","ping":58},{"user_id":341,"name":"A Table","steam_id":76561198056456470,"connected_time":115000000000,"state":"active","ping":72},{"user_id":288,"name":"7-8 венерологов","steam_id":76561199149307190,"connected_time":3609000000000,"state":"active","ping":100}]},{"server_id":22,"name":"Uncletopia | London | 6 | All Maps","name_short":"lon-6","host":"lon-1.uk.uncletopia.com","port":27065,"enabled":true,"region":"eu","cc":"gb","latitude":51.509865,"longitude":-0.118092,"reserved":0,"last_update":"0001-01-01T00:00:00Z","name_a2s":"Uncletopia | London | 6 | All Maps","protocol":17,"map":"cp_powerhouse","folder":"tf","game":"Team Fortress","app_id":440,"player_count":24,"max_players":24,"Bots":0,"server_type":"Dedicated","server_os":"Linux","password":true,"vac":true,"version":"7961495","steam_id":85568392924742830,"keywords":["cp","nocrits","nodmgspread","uncletopia"],"game_id":440,"stv_port":27066,"stv_name":"Uncletopia | London | 6 | All Maps | STV","players":[{"user_id":370,"name":"Diamhair","steam_id":76561198109020178,"connected_time":728000000000,"state":"active","ping":65},{"user_id":350,"name":"new chair who dis","steam_id":76561198105348049,"connected_time":3569000000000,"state":"active","ping":76},{"user_id":337,"name":"Violet","steam_id":76561198079388610,"connected_time":4073000000000,"state":"active","ping":60},{"user_id":351,"name":"BigZZZ","steam_id":76561197998461614,"connected_time":3553000000000,"state":"active","ping":50},{"user_id":346,"name":"Nuko_atlantic_flame","steam_id":76561199143922333,"connected_time":3587000000000,"state":"active","ping":53},{"user_id":347,"name":"man of wealth and taste","steam_id":76561198047828651,"connected_time":3580000000000,"state":"active","ping":44},{"user_id":377,"name":"Snowmotion","steam_id":76561198075022454,"connected_time":416000000000,"state":"active","ping":60},{"user_id":324,"name":"Nurdbot","steam_id":76561197972640060,"connected_time":5374000000000,"state":"active","ping":45},{"user_id":375,"name":"petit eucalyptus","steam_id":76561198009695107,"connected_time":521000000000,"state":"active","ping":45},{"user_id":356,"name":"heavy sings (real)","steam_id":76561199023804405,"connected_time":3314000000000,"state":"active","ping":69},{"user_id":378,"name":"Crazyyk","steam_id":76561198882313836,"connected_time":367000000000,"state":"active","ping":47},{"user_id":348,"name":"kuno","steam_id":76561198068081430,"connected_time":3578000000000,"state":"active","ping":43},{"user_id":361,"name":"Iris","steam_id":76561198430295815,"connected_time":2221000000000,"state":"active","ping":61},{"user_id":374,"name":"R8N - Obismal","steam_id":76561198007482714,"connected_time":540000000000,"state":"active","ping":76},{"user_id":355,"name":"Supercoxylac","steam_id":76561198376300138,"connected_time":3344000000000,"state":"active","ping":54},{"user_id":340,"name":"finbar","steam_id":76561198056812396,"connected_time":3981000000000,"state":"active","ping":76},{"user_id":364,"name":"Markass","steam_id":76561198840047682,"connected_time":1957000000000,"state":"active","ping":58},{"user_id":367,"name":"maniac-baker","steam_id":76561198076966730,"connected_time":1633000000000,"state":"active","ping":43},{"user_id":376,"name":"Arc","steam_id":76561198805049375,"connected_time":475000000000,"state":"active","ping":59},{"user_id":366,"name":"...","steam_id":76561199102883421,"connected_time":1889000000000,"state":"active","ping":118},{"user_id":328,"name":"niandits","steam_id":76561198419798900,"connected_time":4708000000000,"state":"active","ping":134},{"user_id":349,"name":"heatburn","steam_id":76561198019001992,"connected_time":3576000000000,"state":"active","ping":52},{"user_id":309,"name":"tapeworms!","steam_id":76561198069649097,"connected_time":6235000000000,"state":"active","ping":44},{"user_id":380,"name":"☛☚","steam_id":76561199154193088,"connected_time":254000000000,"state":"active","ping":79}]},{"server_id":40,"name":"Uncletopia | London | 7 | Stopwatch","name_short":"lon-7","host":"lon-1.uk.uncletopia.com","port":27075,"enabled":true,"region":"eu","cc":"gb","latitude":51.509865,"longitude":-0.118092,"reserved":0,"last_update":"0001-01-01T00:00:00Z","name_a2s":"Uncletopia | London | 7 | Stopwatch","protocol":17,"map":"workshop/koth_clearcut_b15.ugc2107050255","folder":"tf","game":"Team Fortress","app_id":440,"player_count":3,"max_players":24,"Bots":0,"server_type":"Dedicated","server_os":"Linux","password":true,"vac":true,"version":"7961495","steam_id":85568392924964314,"keywords":["cp","nocrits","nodmgspread","uncletopia"],"game_id":440,"stv_port":27076,"stv_name":"Uncletopia | London | 7 | Stopwatch | STV","players":[{"user_id":22,"name":"Deemaské","steam_id":76561199225833593,"connected_time":1111000000000,"state":"active","ping":55},{"user_id":20,"name":"Tx_madmash \u0026 knuckles","steam_id":76561198924656512,"connected_time":2194000000000,"state":"active","ping":101},{"user_id":23,"name":"Fus in Boots","steam_id":76561198053897722,"connected_time":342000000000,"state":"active","ping":44}]},{"server_id":41,"name":"Uncletopia | London | 8 | Community","name_short":"lon-8","host":"lon-1.uk.uncletopia.com","port":27085,"enabled":true,"region":"eu","cc":"gb","latitude":51.509865,"longitude":-0.118092,"reserved":0,"last_update":"0001-01-01T00:00:00Z","name_a2s":"Uncletopia | London | 8 | Community","protocol":17,"map":"workshop/pl_badwater_pro_v12.ugc2142942074","folder":"tf","game":"Team Fortress","app_id":440,"player_count":2,"max_players":24,"Bots":0,"server_type":"Dedicated","server_os":"Linux","password":true,"vac":true,"version":"7961495","steam_id":85568392924964315,"keywords":["nocrits","nodmgspread","payload","uncletopia"],"game_id":440,"stv_port":27086,"stv_name":"Uncletopia | London | 8 | Community | STV","players":[{"user_id":34,"name":"Fleak","steam_id":76561197998892190,"connected_time":2189000000000,"state":"active","ping":30},{"user_id":35,"name":"noah","steam_id":76561199146429428,"connected_time":2136000000000,"state":"active","ping":49}]},{"server_id":300,"name":"Uncletopia | Montréal | 1 | One Thousand Uncles","name_short":"mtl-1","host":"mtl-1.ca.uncletopia.com","port":27015,"enabled":true,"region":"us-east","cc":"ca","latitude":45.50889,"longitude":-73.56167,"reserved":0,"last_update":"0001-01-01T00:00:00Z","name_a2s":"Uncletopia | Montréal | 1 | One Thousand Uncles","protocol":17,"map":"pl_chilly","folder":"tf","game":"Team Fortress","app_id":440,"player_count":0,"max_players":32,"Bots":0,"server_type":"Dedicated","server_os":"Linux","password":true,"vac":true,"version":"7961495","steam_id":85568392924500087,"keywords":["alltalk","danepve","increased_maxplayers","norespawntime","payload","uncletopia"],"game_id":440,"stv_port":0,"stv_name":"","players":null},{"server_id":301,"name":"Uncletopia | Montréal | 2 | One Thousand Uncles","name_short":"mtl-2","host":"mtl-1.ca.uncletopia.com","port":27025,"enabled":true,"region":"us-east","cc":"ca","latitude":45.50889,"longitude":-73.56167,"reserved":0,"last_update":"0001-01-01T00:00:00Z","name_a2s":"Uncletopia | Montréal | 2 | One Thousand Uncles","protocol":17,"map":"pl_chilly","folder":"tf","game":"Team Fortress","app_id":440,"player_count":0,"max_players":32,"Bots":0,"server_type":"Dedicated","server_os":"Linux","password":true,"vac":true,"version":"7961495","steam_id":85568392924500088,"keywords":["alltalk","danepve","increased_maxplayers","norespawntime","payload","uncletopia"],"game_id":440,"stv_port":0,"stv_name":"","players":null},{"server_id":302,"name":"Uncletopia | Montréal | 3 | One Thousand Uncles","name_short":"mtl-3","host":"mtl-1.ca.uncletopia.com","port":27035,"enabled":true,"region":"us-east","cc":"ca","latitude":45.50889,"longitude":-73.56167,"reserved":0,"last_update":"0001-01-01T00:00:00Z","name_a2s":"Uncletopia | Montréal | 3 | One Thousand Uncles","protocol":17,"map":"pl_upward","folder":"tf","game":"Team Fortress","app_id":440,"player_count":23,"max_players":32,"Bots":16,"server_type":"Dedicated","server_os":"Linux","password":true,"vac":true,"version":"7961495","steam_id":85568392924500089,"keywords":["alltalk","bots","danepve","increased_maxplayers","norespawntime","payload","uncletopia"],"game_id":440,"stv_port":0,"stv_name":"","players":[{"user_id":130,"name":"Why not Zoidberg?","steam_id":76561197982207556,"connected_time":234000000000,"state":"active","ping":75},{"user_id":120,"name":"４０ ＦＰＳ","steam_id":76561198272394965,"connected_time":2068000000000,"state":"active","ping":150},{"user_id":129,"name":"Cat","steam_id":76561198132362099,"connected_time":627000000000,"state":"active","ping":119},{"user_id":131,"name":"Busta-Ma-Balls","steam_id":76561198005777658,"connected_time":173000000000,"state":"active","ping":57},{"user_id":132,"name":"YOU ARE S L E E P Y","steam_id":76561198133858463,"connected_time":154000000000,"state":"active","ping":60},{"user_id":97,"name":"samallwise","steam_id":76561199011855102,"connected_time":3322000000000,"state":"active","ping":46},{"user_id":118,"name":"Majoras","steam_id":76561199228369854,"connected_time":2767000000000,"state":"active","ping":204}]},{"server_id":13,"name":"Uncletopia | New York City | 1 | All Maps","name_short":"nyc-1","host":"nyc-1.us.uncletopia.com","port":27015,"enabled":true,"region":"us-east","cc":"us","latitude":40.73061,"longitude":-73.93524,"reserved":0,"last_update":"0001-01-01T00:00:00Z","name_a2s":"Uncletopia | New York City | 1 | All Maps","protocol":17,"map":"pl_badwater","folder":"tf","game":"Team Fortress","app_id":440,"player_count":24,"max_players":24,"Bots":0,"server_type":"Dedicated","server_os":"Linux","password":true,"vac":true,"version":"7961495","steam_id":85568392924469993,"keywords":["nocrits","nodmgspread","payload","uncletopia"],"game_id":440,"stv_port":27016,"stv_name":"Uncletopia | New York City | 1 | All Maps | STV","players":[{"user_id":106,"name":"Squiddysquibbles","steam_id":76561198268476001,"connected_time":123000000000,"state":"active","ping":46},{"user_id":108,"name":"ToyBox","steam_id":76561199074735423,"connected_time":72000000000,"state":"spawning","ping":47},{"user_id":84,"name":"YuhFukingGoatMoutMuduhSkuntYuh","steam_id":76561198057472334,"connected_time":2228000000000,"state":"active","ping":59},{"user_id":71,"name":"NaughtyLink","steam_id":76561198003958657,"connected_time":3236000000000,"state":"active","ping":90},{"user_id":109,"name":"AquaTail_T","steam_id":76561198857751933,"connected_time":13000000000,"state":"active","ping":45},{"user_id":14,"name":"dicksnip","steam_id":76561198356515396,"connected_time":7036000000000,"state":"active","ping":93},{"user_id":75,"name":"chrissweep","steam_id":76561198072826791,"connected_time":2685000000000,"state":"active","ping":51},{"user_id":38,"name":"emotional suppport e-cigarette","steam_id":76561198172120615,"connected_time":5916000000000,"state":"active","ping":43},{"user_id":52,"name":"ndvr (femboy (REAL))","steam_id":76561199379200102,"connected_time":5140000000000,"state":"active","ping":34},{"user_id":96,"name":"El Bondin","steam_id":76561198820792434,"connected_time":991000000000,"state":"active","ping":105},{"user_id":59,"name":"Raizen","steam_id":76561199092445367,"connected_time":4059000000000,"state":"active","ping":60},{"user_id":103,"name":"castronaut2000","steam_id":76561198263221039,"connected_time":351000000000,"state":"active","ping":49},{"user_id":107,"name":"BumpofNight","steam_id":76561198011581312,"connected_time":82000000000,"state":"active","ping":66},{"user_id":93,"name":"Young Sheldon Tik-Tok Clip","steam_id":76561198253927199,"connected_time":1274000000000,"state":"active","ping":151},{"user_id":85,"name":"poppies","steam_id":76561199057269867,"connected_time":2136000000000,"state":"active","ping":118},{"user_id":87,"name":"Fredrick","steam_id":76561197981419964,"connected_time":1864000000000,"state":"active","ping":32},{"user_id":79,"name":"Bother","steam_id":76561198336750909,"connected_time":2453000000000,"state":"active","ping":45},{"user_id":72,"name":"Shack","steam_id":76561198035503322,"connected_time":2920000000000,"state":"active","ping":56},{"user_id":68,"name":"Kritzburgh","steam_id":76561198149466938,"connected_time":3384000000000,"state":"active","ping":52},{"user_id":100,"name":"Hazeyboi","steam_id":76561198130687838,"connected_time":756000000000,"state":"active","ping":120},{"user_id":110,"name":"Tlaloc","steam_id":76561198375215983,"connected_time":7000000000,"state":"spawning","ping":110},{"user_id":104,"name":"TheBrocklobster","steam_id":76561198039682984,"connected_time":279000000000,"state":"active","ping":107},{"user_id":101,"name":"Whimsical Bruh","steam_id":76561199069973423,"connected_time":676000000000,"state":"active","ping":67},{"user_id":111,"name":"CDBeans","steam_id":76561198046990367,"connected_time":2000000000,"state":"spawning","ping":66}]},{"server_id":14,"name":"Uncletopia | New York City | 2 | All Maps","name_short":"nyc-2","host":"nyc-1.us.uncletopia.com","port":27025,"enabled":true,"region":"us-east","cc":"us","latitude":40.73061,"longitude":-73.93524,"reserved":0,"last_update":"0001-01-01T00:00:00Z","name_a2s":"Uncletopia | New York City | 2 | All Maps","protocol":17,"map":"cp_dustbowl","folder":"tf","game":"Team Fortress","app_id":440,"player_count":0,"max_players":24,"Bots":0,"server_type":"Dedicated","server_os":"Linux","password":true,"vac":true,"version":"7961495","steam_id":85568392924469994,"keywords":["cp","nocrits","nodmgspread","uncletopia"],"game_id":440,"stv_port":27026,"stv_name":"Uncletopia | New York City | 2 | All Maps | STV","players":null},{"server_id":15,"name":"Uncletopia | New York City | 3 | Stopwatch","name_short":"nyc-3","host":"nyc-1.us.uncletopia.com","port":27035,"enabled":true,"region":"us-east","cc":"us","latitude":40.73061,"longitude":-73.93524,"reserved":0,"last_update":"0001-01-01T00:00:00Z","name_a2s":"Uncletopia | New York City | 3 | Stopwatch","protocol":17,"map":"cp_snakewater_final1","folder":"tf","game":"Team Fortress","app_id":440,"player_count":0,"max_players":24,"Bots":0,"server_type":"Dedicated","server_os":"Linux","password":true,"vac":true,"version":"7961495","steam_id":85568392924742820,"keywords":["cp","nocrits","nodmgspread","uncletopia"],"game_id":440,"stv_port":27036,"stv_name":"Uncletopia | New York City | 3 | Stopwatch | STV","players":null},{"server_id":16,"name":"Uncletopia | New York City | 4 | Community","name_short":"nyc-4","host":"nyc-1.us.uncletopia.com","port":27045,"enabled":true,"region":"us-east","cc":"us","latitude":40.73061,"longitude":-73.93524,"reserved":0,"last_update":"0001-01-01T00:00:00Z","name_a2s":"Uncletopia | New York City | 4 | Community","protocol":17,"map":"workshop/pl_highwood_b13.ugc1769496557","folder":"tf","game":"Team Fortress","app_id":440,"player_count":0,"max_players":24,"Bots":0,"server_type":"Dedicated","server_os":"Linux","password":true,"vac":true,"version":"7961495","steam_id":85568392924742821,"keywords":["nocrits","nodmgspread","payload","uncletopia"],"game_id":440,"stv_port":27046,"stv_name":"Uncletopia | New York City | 4 | Community | STV","players":null},{"server_id":142,"name":"Uncletopia | São Paulo | 1 | All Maps","name_short":"sao-1","host":"sao-1.br.uncletopia.com","port":27015,"enabled":true,"region":"sa","cc":"br","latitude":-23.533773,"longitude":-46.62529,"reserved":0,"last_update":"0001-01-01T00:00:00Z","name_a2s":"Uncletopia | São Paulo | 1 | All Maps","protocol":17,"map":"cp_granary","folder":"tf","game":"Team Fortress","app_id":440,"player_count":0,"max_players":24,"Bots":0,"server_type":"Dedicated","server_os":"Linux","password":true,"vac":true,"version":"7961495","steam_id":85568392924469996,"keywords":["cp","nocrits","nodmgspread","uncletopia"],"game_id":440,"stv_port":27016,"stv_name":"Uncletopia | São Paulo | 1 | All Maps | STV","players":null},{"server_id":143,"name":"Uncletopia | São Paulo | 2 | Community","name_short":"sao-2","host":"sao-2.br.uncletopia.com","port":27015,"enabled":true,"region":"sa","cc":"br","latitude":-23.533773,"longitude":-46.62529,"reserved":0,"last_update":"0001-01-01T00:00:00Z","name_a2s":"Uncletopia | São Paulo | 2 | Community","protocol":17,"map":"workshop/cp_mannbase_rc2a.ugc1900737467","folder":"tf","game":"Team Fortress","app_id":440,"player_count":0,"max_players":24,"Bots":0,"server_type":"Dedicated","server_os":"Linux","password":true,"vac":true,"version":"7961495","steam_id":85568392924485349,"keywords":["cp","nocrits","nodmgspread","uncletopia"],"game_id":440,"stv_port":27016,"stv_name":"Uncletopia | São Paulo | 2 | Community | STV","players":null},{"server_id":7,"name":"Uncletopia | Seattle | 1 | All Maps","name_short":"sea-1","host":"sea-1.us.uncletopia.com","port":27015,"enabled":true,"region":"us-west","cc":"us","latitude":47.608013,"longitude":-122.33517,"reserved":0,"last_update":"0001-01-01T00:00:00Z","name_a2s":"Uncletopia | Seattle | 1 | All Maps","protocol":17,"map":"pl_borneo","folder":"tf","game":"Team Fortress","app_id":440,"player_count":24,"max_players":24,"Bots":0,"server_type":"Dedicated","server_os":"Linux","password":true,"vac":true,"version":"7961495","steam_id":85568392924469997,"keywords":["nocrits","nodmgspread","payload","uncletopia"],"game_id":440,"stv_port":27016,"stv_name":"Uncletopia | Seattle | 1 | All Maps | STV","players":[{"user_id":111,"name":"sagekiss","steam_id":76561198038831240,"connected_time":956000000000,"state":"active","ping":53},{"user_id":120,"name":"Trapilicious","steam_id":76561198061430457,"connected_time":198000000000,"state":"active","ping":109},{"user_id":103,"name":"o o o o o o o o o","steam_id":76561197993757506,"connected_time":1324000000000,"state":"active","ping":65},{"user_id":118,"name":"SecurityCamera","steam_id":76561198117266792,"connected_time":445000000000,"state":"active","ping":90},{"user_id":104,"name":"backspace1","steam_id":76561198192531745,"connected_time":1255000000000,"state":"active","ping":69},{"user_id":105,"name":"Greskrendtregk","steam_id":76561197969553142,"connected_time":1211000000000,"state":"active","ping":56},{"user_id":100,"name":"Captain Underbelly","steam_id":76561198811270935,"connected_time":1417000000000,"state":"active","ping":60},{"user_id":40,"name":"FOX News goblin","steam_id":76561198167648580,"connected_time":6007000000000,"state":"active","ping":72},{"user_id":121,"name":"Darkgigglemonster","steam_id":76561198870649125,"connected_time":198000000000,"state":"active","ping":86},{"user_id":117,"name":"Skabbety","steam_id":76561198168044257,"connected_time":535000000000,"state":"active","ping":44},{"user_id":106,"name":"Curse of the Blackened Eye","steam_id":76561198097175164,"connected_time":1074000000000,"state":"active","ping":114},{"user_id":101,"name":"The Caretaker","steam_id":76561198125241411,"connected_time":1414000000000,"state":"active","ping":94},{"user_id":115,"name":"es","steam_id":76561198006892337,"connected_time":612000000000,"state":"active","ping":65},{"user_id":102,"name":"CartierYT","steam_id":76561199119485917,"connected_time":1408000000000,"state":"active","ping":99},{"user_id":60,"name":"Nom Skirrett","steam_id":76561198014600788,"connected_time":4819000000000,"state":"active","ping":74},{"user_id":122,"name":"Shark Sandwich","steam_id":76561198025007938,"connected_time":184000000000,"state":"active","ping":45},{"user_id":62,"name":"tmm (theManMan)","steam_id":76561199488457138,"connected_time":4749000000000,"state":"active","ping":54},{"user_id":90,"name":"Linus","steam_id":76561198084279797,"connected_time":2879000000000,"state":"active","ping":75},{"user_id":123,"name":"Lactose ๑ﭥ","steam_id":76561198208256987,"connected_time":154000000000,"state":"active","ping":57},{"user_id":97,"name":"Vincent Van Bro","steam_id":76561197966919802,"connected_time":1698000000000,"state":"active","ping":48},{"user_id":95,"name":"Byte The Protogen","steam_id":76561199229871383,"connected_time":2275000000000,"state":"active","ping":86},{"user_id":124,"name":"ARMORED CORE 6 IS REAAAAAAAAAL","steam_id":76561198013513217,"connected_time":134000000000,"state":"active","ping":103},{"user_id":110,"name":"Firedust19","steam_id":76561198153238631,"connected_time":986000000000,"state":"active","ping":90},{"user_id":73,"name":"Shrew","steam_id":76561198085421224,"connected_time":4452000000000,"state":"active","ping":36}]},{"server_id":119,"name":"Uncletopia | Seattle | 2 | All Maps","name_short":"sea-2","host":"sea-1.us.uncletopia.com","port":27025,"enabled":true,"region":"us-west","cc":"us","latitude":47.608013,"longitude":-122.33517,"reserved":0,"last_update":"0001-01-01T00:00:00Z","name_a2s":"Uncletopia | Seattle | 2 | All Maps","protocol":17,"map":"koth_lakeside_final","folder":"tf","game":"Team Fortress","app_id":440,"player_count":0,"max_players":24,"Bots":0,"server_type":"Dedicated","server_os":"Linux","password":true,"vac":true,"version":"7961495","steam_id":85568392924469998,"keywords":["cp","nocrits","nodmgspread","uncletopia"],"game_id":440,"stv_port":27026,"stv_name":"Uncletopia | Seattle | 2 | All Maps | STV","players":null},{"server_id":406,"name":"Uncletopia | Seattle | 3 | Stopwatch","name_short":"sea-3","host":"sea-1.us.uncletopia.com","port":27035,"enabled":true,"region":"us-west","cc":"us","latitude":47.608013,"longitude":-122.33517,"reserved":0,"last_update":"0001-01-01T00:00:00Z","name_a2s":"Uncletopia | Seattle | 3 | Stopwatch","protocol":17,"map":"workshop/pl_barnblitz_pro7.ugc582280235","folder":"tf","game":"Team Fortress","app_id":440,"player_count":0,"max_players":24,"Bots":0,"server_type":"Dedicated","server_os":"Linux","password":true,"vac":true,"version":"7961495","steam_id":85568392924515217,"keywords":["nocrits","nodmgspread","payload","uncletopia"],"game_id":440,"stv_port":27036,"stv_name":"Uncletopia | Seattle | 3 | Stopwatch | STV","players":null},{"server_id":17,"name":"Uncletopia | San Francisco | 1 | All Maps","name_short":"sfo-1","host":"sfo-1.us.uncletopia.com","port":27015,"enabled":true,"region":"us-west","cc":"us","latitude":37.77397,"longitude":-122.4313,"reserved":0,"last_update":"0001-01-01T00:00:00Z","name_a2s":"Uncletopia | San Francisco | 1 | All Maps","protocol":17,"map":"koth_highpass","folder":"tf","game":"Team Fortress","app_id":440,"player_count":0,"max_players":24,"Bots":0,"server_type":"Dedicated","server_os":"Linux","password":true,"vac":true,"version":"7961495","steam_id":85568392924469999,"keywords":["cp","nocrits","nodmgspread","uncletopia"],"game_id":440,"stv_port":27016,"stv_name":"Uncletopia | San Francisco | 1 | All Maps | STV","players":null},{"server_id":18,"name":"Uncletopia | San Francisco | 2 | All Maps","name_short":"sfo-2","host":"sfo-1.us.uncletopia.com","port":27025,"enabled":true,"region":"us-west","cc":"us","latitude":37.77397,"longitude":-122.4313,"reserved":0,"last_update":"0001-01-01T00:00:00Z","name_a2s":"Uncletopia | San Francisco | 2 | All Maps","protocol":17,"map":"cp_dustbowl","folder":"tf","game":"Team Fortress","app_id":440,"player_count":0,"max_players":24,"Bots":0,"server_type":"Dedicated","server_os":"Linux","password":true,"vac":true,"version":"7961495","steam_id":85568392924470000,"keywords":["cp","nocrits","nodmgspread","uncletopia"],"game_id":440,"stv_port":27026,"stv_name":"Uncletopia | San Francisco | 2 | All Maps | STV","players":null},{"server_id":19,"name":"Uncletopia | San Francisco | 3 | Stopwatch","name_short":"sfo-3","host":"sfo-1.us.uncletopia.com","port":27035,"enabled":true,"region":"us-west","cc":"us","latitude":37.77397,"longitude":-122.4313,"reserved":0,"last_update":"0001-01-01T00:00:00Z","name_a2s":"Uncletopia | San Francisco | 3 | Stopwatch","protocol":17,"map":"workshop/koth_product_final.ugc454272353","folder":"tf","game":"Team Fortress","app_id":440,"player_count":0,"max_players":24,"Bots":0,"server_type":"Dedicated","server_os":"Linux","password":true,"vac":true,"version":"7961495","steam_id":85568392924742824,"keywords":["cp","nocrits","nodmgspread","uncletopia"],"game_id":440,"stv_port":27036,"stv_name":"Uncletopia | San Francisco | 3 | Stopwatch | STV","players":null},{"server_id":20,"name":"Uncletopia | San Francisco | 4 | Community","name_short":"sfo-4","host":"sfo-1.us.uncletopia.com","port":27045,"enabled":true,"region":"us-west","cc":"us","latitude":37.77397,"longitude":-122.4313,"reserved":0,"last_update":"0001-01-01T00:00:00Z","name_a2s":"Uncletopia | San Francisco | 4 | Community","protocol":17,"map":"workshop/pl_cactuscanyon_redux_final2.ugc2579644293","folder":"tf","game":"Team Fortress","app_id":440,"player_count":0,"max_players":24,"Bots":0,"server_type":"Dedicated","server_os":"Linux","password":true,"vac":true,"version":"7961495","steam_id":85568392924742826,"keywords":["nocrits","nodmgspread","payload","uncletopia"],"game_id":440,"stv_port":27046,"stv_name":"Uncletopia | San Francisco | 4 | Community | STV","players":null},{"server_id":141,"name":"Uncletopia | Sydney | 1 | All Maps","name_short":"syd-1","host":"syd-1.au.uncletopia.com","port":27015,"enabled":true,"region":"au","cc":"au","latitude":-33.865143,"longitude":151.2099,"reserved":0,"last_update":"0001-01-01T00:00:00Z","name_a2s":"Uncletopia | Sydney | 1 | All Maps","protocol":17,"map":"cp_snakewater_final1","folder":"tf","game":"Team Fortress","app_id":440,"player_count":0,"max_players":24,"Bots":0,"server_type":"Dedicated","server_os":"Linux","password":true,"vac":true,"version":"7961495","steam_id":85568392924470001,"keywords":["cp","nocrits","nodmgspread","uncletopia"],"game_id":440,"stv_port":27016,"stv_name":"Uncletopia | Sydney | 1 | All Maps | STV","players":null},{"server_id":123,"name":"Uncletopia | Sydney | 2 | All Maps","name_short":"syd-2","host":"syd-1.au.uncletopia.com","port":27025,"enabled":true,"region":"au","cc":"au","latitude":-33.865143,"longitude":151.2099,"reserved":0,"last_update":"0001-01-01T00:00:00Z","name_a2s":"Uncletopia | Sydney | 2 | All Maps","protocol":17,"map":"cp_fastlane","folder":"tf","game":"Team Fortress","app_id":440,"player_count":0,"max_players":24,"Bots":0,"server_type":"Dedicated","server_os":"Linux","password":true,"vac":true,"version":"7961495","steam_id":85568392924470002,"keywords":["cp","nocrits","nodmgspread","uncletopia"],"game_id":440,"stv_port":27026,"stv_name":"Uncletopia | Sydney | 2 | All Maps | STV","players":null},{"server_id":395,"name":"Uncletopia | Sydney | 3 | All Maps","name_short":"syd-3","host":"syd-1.au.uncletopia.com","port":27035,"enabled":true,"region":"au","cc":"au","latitude":-33.865143,"longitude":151.2099,"reserved":0,"last_update":"0001-01-01T00:00:00Z","name_a2s":"Uncletopia | Sydney | 3 | All Maps","protocol":17,"map":"cp_metalworks","folder":"tf","game":"Team Fortress","app_id":440,"player_count":0,"max_players":24,"Bots":0,"server_type":"Dedicated","server_os":"Linux","password":true,"vac":true,"version":"7961495","steam_id":85568392925194467,"keywords":["cp","nocrits","nodmgspread","uncletopia"],"game_id":440,"stv_port":27036,"stv_name":"Uncletopia | Sydney | 3 | All Maps | STV","players":null},{"server_id":396,"name":"Uncletopia | Sydney | 4 | All Maps","name_short":"syd-4","host":"syd-1.au.uncletopia.com","port":27045,"enabled":true,"region":"au","cc":"au","latitude":-33.865143,"longitude":151.2099,"reserved":0,"last_update":"0001-01-01T00:00:00Z","name_a2s":"Uncletopia | Sydney | 4 | All Maps","protocol":17,"map":"koth_cascade","folder":"tf","game":"Team Fortress","app_id":440,"player_count":0,"max_players":24,"Bots":0,"server_type":"Dedicated","server_os":"Linux","password":true,"vac":true,"version":"7961495","steam_id":85568392925397958,"keywords":["cp","nocrits","nodmgspread","uncletopia"],"game_id":440,"stv_port":27046,"stv_name":"Uncletopia | Sydney | 4 | All Maps | STV","players":null},{"server_id":58,"name":"Uncletopia | Sydney | 5 | Stopwatch","name_short":"syd-5","host":"syd-1.au.uncletopia.com","port":27055,"enabled":true,"region":"au","cc":"au","latitude":-33.865143,"longitude":151.2099,"reserved":0,"last_update":"0001-01-01T00:00:00Z","name_a2s":"Uncletopia | Sydney | 5 | Stopwatch","protocol":17,"map":"workshop/koth_product_final.ugc454272353","folder":"tf","game":"Team Fortress","app_id":440,"player_count":0,"max_players":24,"Bots":0,"server_type":"Dedicated","server_os":"Linux","password":true,"vac":true,"version":"7961495","steam_id":85568392925397959,"keywords":["cp","nocrits","nodmgspread","uncletopia"],"game_id":440,"stv_port":27056,"stv_name":"Uncletopia | Sydney | 5 | Stopwatch | STV","players":null},{"server_id":59,"name":"Uncletopia | Sydney | 6 | Community","name_short":"syd-6","host":"syd-1.au.uncletopia.com","port":27065,"enabled":true,"region":"au","cc":"au","latitude":-33.865143,"longitude":151.2099,"reserved":0,"last_update":"0001-01-01T00:00:00Z","name_a2s":"Uncletopia | Sydney | 6 | Community","protocol":17,"map":"workshop/koth_trenchfoot_ab1.ugc731436616","folder":"tf","game":"Team Fortress","app_id":440,"player_count":0,"max_players":24,"Bots":0,"server_type":"Dedicated","server_os":"Linux","password":true,"vac":true,"version":"7961495","steam_id":85568392925397960,"keywords":["cp","nocrits","nodmgspread","uncletopia"],"game_id":440,"stv_port":27066,"stv_name":"Uncletopia | Sydney | 6 | Community | STV","players":null},{"server_id":49,"name":"Uncletopia | Warsaw | 1 | One Thousand Uncles","name_short":"waw-1","host":"waw-1.pl.uncletopia.com","port":27015,"enabled":true,"region":"eu","cc":"pl","latitude":52.2297,"longitude":21.017532,"reserved":0,"last_update":"0001-01-01T00:00:00Z","name_a2s":"Uncletopia | Warsaw | 1 | One Thousand Uncles","protocol":17,"map":"cp_dustbowl","folder":"tf","game":"Team Fortress","app_id":440,"player_count":29,"max_players":32,"Bots":16,"server_type":"Dedicated","server_os":"Linux","password":true,"vac":true,"version":"7961495","steam_id":85568392925397850,"keywords":["alltalk","bots","cp","danepve","increased_maxplayers","norespawntime","uncletopia"],"game_id":440,"stv_port":0,"stv_name":"","players":[{"user_id":519,"name":"Red wine gaming","steam_id":76561198134378108,"connected_time":4057000000000,"state":"active","ping":92},{"user_id":501,"name":"åldepth","steam_id":76561198427965963,"connected_time":4187000000000,"state":"active","ping":99},{"user_id":493,"name":"[HK]我係香港人","steam_id":76561198165376815,"connected_time":5383000000000,"state":"active","ping":76},{"user_id":522,"name":"PuPuruPuruPumPu","steam_id":76561198391950490,"connected_time":3640000000000,"state":"active","ping":103},{"user_id":567,"name":"The f2p enjoyer","steam_id":76561199100077788,"connected_time":429000000000,"state":"active","ping":70},{"user_id":569,"name":"Matbanan","steam_id":76561198228537672,"connected_time":109000000000,"state":"active","ping":72},{"user_id":550,"name":"DENON{MK}","steam_id":76561198031664819,"connected_time":1953000000000,"state":"active","ping":119},{"user_id":564,"name":"Lucas096br","steam_id":76561198350760997,"connected_time":714000000000,"state":"active","ping":310},{"user_id":532,"name":"aaaaaa","steam_id":76561198086304421,"connected_time":2981000000000,"state":"active","ping":91},{"user_id":525,"name":"Phantom","steam_id":76561199161244218,"connected_time":3531000000000,"state":"active","ping":59},{"user_id":556,"name":"Swati","steam_id":76561198051360169,"connected_time":1225000000000,"state":"active","ping":195},{"user_id":558,"name":"Lukas","steam_id":76561198009118452,"connected_time":909000000000,"state":"active","ping":64},{"user_id":563,"name":"Valoxi","steam_id":76561197995042938,"connected_time":735000000000,"state":"active","ping":77}]},{"server_id":50,"name":"Uncletopia | Warsaw | 2 | One Thousand Uncles","name_short":"waw-2","host":"waw-1.pl.uncletopia.com","port":27025,"enabled":true,"region":"eu","cc":"pl","latitude":52.2297,"longitude":21.017532,"reserved":0,"last_update":"0001-01-01T00:00:00Z","name_a2s":"Uncletopia | Warsaw | 2 | One Thousand Uncles","protocol":17,"map":"pl_thundermountain","folder":"tf","game":"Team Fortress","app_id":440,"player_count":0,"max_players":32,"Bots":0,"server_type":"Dedicated","server_os":"Linux","password":true,"vac":true,"version":"7961495","steam_id":85568392925397851,"keywords":["alltalk","danepve","increased_maxplayers","norespawntime","payload","uncletopia"],"game_id":440,"stv_port":0,"stv_name":"","players":null},{"server_id":51,"name":"Uncletopia | Warsaw | 3 | All Maps","name_short":"waw-3","host":"waw-1.pl.uncletopia.com","port":27035,"enabled":true,"region":"eu","cc":"pl","latitude":52.2297,"longitude":21.017532,"reserved":0,"last_update":"0001-01-01T00:00:00Z","name_a2s":"Uncletopia | Warsaw | 3 | All Maps","protocol":17,"map":"cp_sunshine","folder":"tf","game":"Team Fortress","app_id":440,"player_count":0,"max_players":24,"Bots":0,"server_type":"Dedicated","server_os":"Linux","password":true,"vac":true,"version":"7961495","steam_id":85568392925397852,"keywords":["cp","nocrits","nodmgspread","uncletopia"],"game_id":440,"stv_port":27036,"stv_name":"Uncletopia | Warsaw | 3 | All Maps | STV","players":null},{"server_id":52,"name":"Uncletopia | Warsaw | 4 | All Maps","name_short":"waw-4","host":"waw-1.pl.uncletopia.com","port":27045,"enabled":true,"region":"eu","cc":"pl","latitude":52.2297,"longitude":21.017532,"reserved":0,"last_update":"0001-01-01T00:00:00Z","name_a2s":"Uncletopia | Warsaw | 4 | All Maps","protocol":17,"map":"koth_cascade","folder":"tf","game":"Team Fortress","app_id":440,"player_count":0,"max_players":24,"Bots":0,"server_type":"Dedicated","server_os":"Linux","password":true,"vac":true,"version":"7961495","steam_id":85568392925397853,"keywords":["cp","nocrits","nodmgspread","uncletopia"],"game_id":440,"stv_port":27046,"stv_name":"Uncletopia | Warsaw | 4 | All Maps | STV","players":null},{"server_id":53,"name":"Uncletopia | Warsaw | 5 | Stopwatch","name_short":"waw-5","host":"waw-1.pl.uncletopia.com","port":27055,"enabled":true,"region":"eu","cc":"pl","latitude":52.2297,"longitude":21.017532,"reserved":0,"last_update":"0001-01-01T00:00:00Z","name_a2s":"Uncletopia | Warsaw | 5 | Stopwatch","protocol":17,"map":"koth_highpass","folder":"tf","game":"Team Fortress","app_id":440,"player_count":0,"max_players":24,"Bots":0,"server_type":"Dedicated","server_os":"Linux","password":true,"vac":true,"version":"7961495","steam_id":85568392925397854,"keywords":["cp","nocrits","nodmgspread","uncletopia"],"game_id":440,"stv_port":27056,"stv_name":"Uncletopia | Warsaw | 5 | Stopwatch | STV","players":null},{"server_id":54,"name":"Uncletopia | Warsaw | 6 | Community","name_short":"waw-6","host":"waw-1.pl.uncletopia.com","port":27065,"enabled":true,"region":"eu","cc":"pl","latitude":52.2297,"longitude":21.017532,"reserved":0,"last_update":"0001-01-01T00:00:00Z","name_a2s":"Uncletopia | Warsaw | 6 | Community","protocol":17,"map":"workshop/rd_asteroid_redux_b1.ugc2154902912","folder":"tf","game":"Team Fortress","app_id":440,"player_count":0,"max_players":24,"Bots":0,"server_type":"Dedicated","server_os":"Linux","password":true,"vac":true,"version":"7961495","steam_id":85568392925397856,"keywords":["beta","nocrits","nodmgspread","rd","uncletopia"],"game_id":440,"stv_port":27066,"stv_name":"Uncletopia | Warsaw | 6 | Community | STV","players":null}]}