{"status":true,"message":"","result":[{"server_id":9,"name":"Uncletopia | Atlanta | 1 | All Maps","name_short":"atl-1","host":"atl-1.us.uncletopia.com","port":27015,"enabled":true,"region":"us-east","cc":"us","latitude":33.753746,"longitude":-84.38633,"reserved":0,"last_update":"0001-01-01T00:00:00Z","name_a2s":"Uncletopia | Atlanta | 1 | All Maps","protocol":17,"map":"pl_pier","folder":"tf","game":"Team Fortress","app_id":440,"player_count":23,"max_players":24,"Bots":0,"server_type":"Dedicated","server_os":"Linux","password":true,"vac":true,"version":"7757534","steam_id":85568392924469982,"keywords":["nocrits","nodmgspread","payload","uncletopia"],"game_id":440,"stv_port":27016,"stv_name":"Uncletopia | Atlanta | 1 | All Maps | STV","players":[{"user_id":455,"name":"Shmoopy","steam_id":76561198030459152,"connected_time":5193000000000,"state":"active","ping":62},{"user_id":483,"name":"Chipy","steam_id":76561198119367479,"connected_time":1826000000000,"state":"active","ping":66},{"user_id":484,"name":"Yoru","steam_id":76561198119698950,"connected_time":1814000000000,"state":"active","ping":116},{"user_id":481,"name":"RED1 | Le4n!!!","steam_id":76561198045522596,"connected_time":2472000000000,"state":"active","ping":72},{"user_id":499,"name":"Pimastr","steam_id":76561198230996464,"connected_time":119000000000,"state":"active","ping":86},{"user_id":426,"name":"floofy","steam_id":76561198389769098,"connected_time":6965000000000,"state":"active","ping":89},{"user_id":445,"name":"JasonIsGold79","steam_id":76561198101441539,"connected_time":6704000000000,"state":"active","ping":79},{"user_id":471,"name":"Miramar","steam_id":76561198022057653,"connected_time":3582000000000,"state":"active","ping":86},{"user_id":494,"name":"GreenApples","steam_id":76561198120559543,"connected_time":1174000000000,"state":"active","ping":104},{"user_id":490,"name":"Bart Harley Jarvis","steam_id":76561199215811448,"connected_time":1447000000000,"state":"active","ping":93},{"user_id":472,"name":"Karma","steam_id":76561198030565234,"connected_time":3520000000000,"state":"active","ping":69},{"user_id":497,"name":"mammoth!?","steam_id":76561198066881911,"connected_time":868000000000,"state":"active","ping":52},{"user_id":482,"name":"Spiderfight1","steam_id":76561199189991528,"connected_time":2119000000000,"state":"active","ping":76},{"user_id":433,"name":"ash","steam_id":76561198127890645,"connected_time":6827000000000,"state":"active","ping":71},{"user_id":393,"name":"Crescent","steam_id":76561198095124633,"connected_time":9269000000000,"state":"active","ping":49},{"user_id":469,"name":"B-Side Babies","steam_id":76561197992591984,"connected_time":3594000000000,"state":"active","ping":77},{"user_id":496,"name":"Baconator","steam_id":76561198941700660,"connected_time":1002000000000,"state":"active","ping":68},{"user_id":478,"name":"Mickey","steam_id":76561197976868960,"connected_time":3402000000000,"state":"active","ping":168},{"user_id":480,"name":"☙ Corrupt ❧","steam_id":76561197977631915,"connected_time":3057000000000,"state":"active","ping":72},{"user_id":498,"name":"RED1 | Lylith","steam_id":76561198386687546,"connected_time":867000000000,"state":"active","ping":51},{"user_id":417,"name":"Brown_Dream","steam_id":76561198975766145,"connected_time":7350000000000,"state":"active","ping":72},{"user_id":414,"name":"Nimrod","steam_id":76561198835225774,"connected_time":7657000000000,"state":"active","ping":80},{"user_id":466,"name":"bred","steam_id":76561198063116981,"connected_time":4024000000000,"state":"active","ping":77}]},{"server_id":400,"name":"Uncletopia | Atlanta | 3 | Stopwatch Beta","name_short":"atl-3","host":"atl-1.us.uncletopia.com","port":27035,"enabled":true,"region":"us-east","cc":"us","latitude":33.753746,"longitude":-84.38633,"reserved":0,"last_update":"0001-01-01T00:00:00Z","name_a2s":"Uncletopia | Atlanta | 3 | Stopwatch Beta","protocol":17,"map":"koth_lakeside_final","folder":"tf","game":"Team Fortress","app_id":440,"player_count":0,"max_players":24,"Bots":0,"server_type":"Dedicated","server_os":"Linux","password":true,"vac":true,"version":"7757534","steam_id":85568392924515187,"keywords":["cp","nocrits","nodmgspread","uncletopia"],"game_id":440,"stv_port":27036,"stv_name":"Uncletopia | Atlanta | 3 | Stopwatch Beta | STV","players":null},{"server_id":401,"name":"Uncletopia | Atlanta | 4 | No Payload","name_short":"atl-4","host":"atl-1.us.uncletopia.com","port":27045,"enabled":true,"region":"us-east","cc":"us","latitude":33.753746,"longitude":-84.38633,"reserved":0,"last_update":"0001-01-01T00:00:00Z","name_a2s":"Uncletopia | Atlanta | 4 | No Payload","protocol":17,"map":"pl_pier","folder":"tf","game":"Team Fortress","app_id":440,"player_count":0,"max_players":24,"Bots":0,"server_type":"Dedicated","server_os":"Linux","password":true,"vac":true,"version":"7723704","steam_id":85568392924515188,"keywords":["nocrits","nodmgspread","payload","uncletopia"],"game_id":440,"stv_port":27046,"stv_name":"Uncletopia | Atlanta | 4 | No Payload | STV","players":null},{"server_id":2,"name":"Uncletopia | Chicago | 1 | All Maps","name_short":"chi-1","host":"chi-1.us.uncletopia.com","port":27015,"enabled":true,"region":"us-central","cc":"us","latitude":41.881832,"longitude":-87.62318,"reserved":0,"last_update":"0001-01-01T00:00:00Z","name_a2s":"Uncletopia | Chicago | 1 | All Maps","protocol":17,"map":"pl_thundermountain","folder":"tf","game":"Team Fortress","app_id":440,"player_count":24,"max_players":24,"Bots":0,"server_type":"Dedicated","server_os":"Linux","password":true,"vac":true,"version":"7757534","steam_id":85568392924469984,"keywords":["nocrits","nodmgspread","payload","uncletopia"],"game_id":440,"stv_port":27016,"stv_name":"Uncletopia | Chicago | 1 | All Maps | STV","players":[{"user_id":629,"name":"Rex","steam_id":76561198138365053,"connected_time":5203000000000,"state":"active","ping":130},{"user_id":679,"name":"viedoamegs","steam_id":76561198025295263,"connected_time":956000000000,"state":"active","ping":77},{"user_id":631,"name":"TheTruthOfTheCessationOfDukkha","steam_id":76561198214370515,"connected_time":4850000000000,"state":"active","ping":72},{"user_id":670,"name":"Samsiel","steam_id":76561198094134951,"connected_time":1441000000000,"state":"active","ping":93},{"user_id":649,"name":"Thatoneguybunchanumbers","steam_id":76561198028039160,"connected_time":2999000000000,"state":"active","ping":83},{"user_id":558,"name":".JIFF","steam_id":76561198045181760,"connected_time":12919000000000,"state":"active","ping":59},{"user_id":636,"name":"Thog","steam_id":76561198093699060,"connected_time":4787000000000,"state":"active","ping":73},{"user_id":565,"name":"blob","steam_id":76561198122375328,"connected_time":11685000000000,"state":"active","ping":68},{"user_id":671,"name":"Little Shuriken","steam_id":76561199020477560,"connected_time":1372000000000,"state":"active","ping":109},{"user_id":630,"name":"{[F.H]} Hydroida","steam_id":76561197999797274,"connected_time":4979000000000,"state":"active","ping":58},{"user_id":666,"name":"catrinaisahuman","steam_id":76561198281355729,"connected_time":1926000000000,"state":"active","ping":67},{"user_id":672,"name":"ROGUE-PLANET","steam_id":76561198116023052,"connected_time":1359000000000,"state":"active","ping":67},{"user_id":681,"name":"Strike Force Lightning","steam_id":76561198271519776,"connected_time":801000000000,"state":"active","ping":77},{"user_id":673,"name":"Bwizz245","steam_id":76561198151474774,"connected_time":1326000000000,"state":"active","ping":67},{"user_id":669,"name":"Ebee","steam_id":76561198389831507,"connected_time":1572000000000,"state":"active","ping":73},{"user_id":653,"name":"rem","steam_id":76561198951649783,"connected_time":2785000000000,"state":"active","ping":67},{"user_id":683,"name":"xXx1337ChimkinNugGaymer420xXx","steam_id":76561198149063013,"connected_time":716000000000,"state":"active","ping":61},{"user_id":687,"name":"scrapheap","steam_id":76561198202407087,"connected_time":406000000000,"state":"active","ping":74},{"user_id":657,"name":"Moshi Man","steam_id":76561198038249762,"connected_time":2691000000000,"state":"active","ping":52},{"user_id":684,"name":"IZISOO","steam_id":76561198970380577,"connected_time":703000000000,"state":"active","ping":69},{"user_id":685,"name":"im the beef","steam_id":76561198069506128,"connected_time":673000000000,"state":"active","ping":54},{"user_id":645,"name":"Gabinator32","steam_id":76561198872467183,"connected_time":3669000000000,"state":"active","ping":50},{"user_id":606,"name":"Lia_Rein","steam_id":76561198151569597,"connected_time":8400000000000,"state":"active","ping":146},{"user_id":660,"name":"Hey","steam_id":76561198447517893,"connected_time":2534000000000,"state":"active","ping":76}]},{"server_id":106,"name":"Uncletopia | Chicago | 2 | All Maps","name_short":"chi-2","host":"chi-1.us.uncletopia.com","port":27025,"enabled":true,"region":"us-central","cc":"us","latitude":41.881832,"longitude":-87.62318,"reserved":0,"last_update":"0001-01-01T00:00:00Z","name_a2s":"Uncletopia | Chicago | 2 | All Maps","protocol":17,"map":"koth_highpass","folder":"tf","game":"Team Fortress","app_id":440,"player_count":16,"max_players":24,"Bots":0,"server_type":"Dedicated","server_os":"Linux","password":true,"vac":true,"version":"7757534","steam_id":85568392924469985,"keywords":["cp","nocrits","nodmgspread","uncletopia"],"game_id":440,"stv_port":27026,"stv_name":"Uncletopia | Chicago | 2 | All Maps | STV","players":[{"user_id":942,"name":"i Am Shitting Myself","steam_id":76561199129002905,"connected_time":1472000000000,"state":"connecting","ping":79},{"user_id":945,"name":"Menachem","steam_id":76561198041226420,"connected_time":1290000000000,"state":"connecting","ping":62},{"user_id":961,"name":"Zelumie","steam_id":76561198147335801,"connected_time":354000000000,"state":"connecting","ping":65},{"user_id":963,"name":"gobbie FASTNESS","steam_id":76561198026865054,"connected_time":3000000000,"state":"connecting","ping":134},{"user_id":959,"name":"Zarik","steam_id":76561197967269007,"connected_time":469000000000,"state":"connecting","ping":97},{"user_id":929,"name":"Oscidor","steam_id":76561198362839738,"connected_time":2117000000000,"state":"connecting","ping":97},{"user_id":946,"name":"Red_Hatkins","steam_id":76561198214004105,"connected_time":1284000000000,"state":"connecting","ping":110},{"user_id":951,"name":"PANDER","steam_id":76561198021732844,"connected_time":1032000000000,"state":"connecting","ping":81},{"user_id":941,"name":"Jayden","steam_id":76561198039459992,"connected_time":1696000000000,"state":"connecting","ping":75},{"user_id":893,"name":"Chunko","steam_id":76561198064629980,"connected_time":4074000000000,"state":"connecting","ping":84},{"user_id":940,"name":"Karma's Camera","steam_id":76561198059385185,"connected_time":1779000000000,"state":"connecting","ping":83},{"user_id":953,"name":"stinkiest smelliest gamer ever","steam_id":76561198014593467,"connected_time":1003000000000,"state":"connecting","ping":70},{"user_id":955,"name":"Oddjob","steam_id":76561198976160793,"connected_time":881000000000,"state":"connecting","ping":93},{"user_id":956,"name":"guy","steam_id":76561198196443262,"connected_time":825000000000,"state":"connecting","ping":133},{"user_id":960,"name":"PLATYPUS","steam_id":76561198255796625,"connected_time":461000000000,"state":"connecting","ping":135},{"user_id":958,"name":"Farseer Ulwithy","steam_id":76561197965179245,"connected_time":747000000000,"state":"connecting","ping":81}]},{"server_id":402,"name":"Uncletopia | Chicago | 3 | All Maps","name_short":"chi-3","host":"chi-1.us.uncletopia.com","port":27035,"enabled":true,"region":"us-central","cc":"us","latitude":41.881832,"longitude":-87.62318,"reserved":0,"last_update":"0001-01-01T00:00:00Z","name_a2s":"Uncletopia | Chicago | 3 | All Maps","protocol":17,"map":"pl_frontier_final","folder":"tf","game":"Team Fortress","app_id":440,"player_count":23,"max_players":24,"Bots":0,"server_type":"Dedicated","server_os":"Linux","password":true,"vac":true,"version":"7757534","steam_id":85568392924515191,"keywords":["nocrits","nodmgspread","payload","uncletopia"],"game_id":440,"stv_port":27036,"stv_name":"Uncletopia | Chicago | 3 | All Maps | STV","players":[{"user_id":258,"name":"ShadowDragon0125","steam_id":76561198343849022,"connected_time":2380000000000,"state":"active","ping":79},{"user_id":282,"name":"Roken","steam_id":76561198037836282,"connected_time":336000000000,"state":"active","ping":73},{"user_id":256,"name":"elsa \u003c3","steam_id":76561198982584470,"connected_time":2769000000000,"state":"active","ping":69},{"user_id":261,"name":"Patisserie","steam_id":76561198239169752,"connected_time":2290000000000,"state":"active","ping":50},{"user_id":221,"name":"Public Library Gamer","steam_id":76561198066405611,"connected_time":5787000000000,"state":"active","ping":90},{"user_id":263,"name":"Scout","steam_id":76561198149172070,"connected_time":2226000000000,"state":"active","ping":63},{"user_id":239,"name":"PhantomOc3lot","steam_id":76561198097648222,"connected_time":3980000000000,"state":"active","ping":76},{"user_id":288,"name":"Kangroe","steam_id":76561198346844814,"connected_time":63000000000,"state":"active","ping":75},{"user_id":277,"name":"pablo","steam_id":76561198395577807,"connected_time":978000000000,"state":"active","ping":55},{"user_id":276,"name":"trans they gender she/her/they/","steam_id":76561198212470305,"connected_time":1097000000000,"state":"active","ping":73},{"user_id":203,"name":"Fantastic","steam_id":76561198079088978,"connected_time":6663000000000,"state":"active","ping":45},{"user_id":265,"name":"gromit","steam_id":76561198037746805,"connected_time":2200000000000,"state":"active","ping":68},{"user_id":278,"name":"M.L.JEW","steam_id":76561198997375055,"connected_time":964000000000,"state":"active","ping":78},{"user_id":273,"name":"Lore","steam_id":76561198098407538,"connected_time":1786000000000,"state":"active","ping":58},{"user_id":287,"name":"snyc'd","steam_id":76561198009818412,"connected_time":81000000000,"state":"active","ping":75},{"user_id":255,"name":"shadowjango","steam_id":76561198001475833,"connected_time":2883000000000,"state":"active","ping":62},{"user_id":284,"name":"tomboytysen","steam_id":76561198149641643,"connected_time":245000000000,"state":"active","ping":78},{"user_id":269,"name":"kametro4","steam_id":76561198835430429,"connected_time":2029000000000,"state":"active","ping":78},{"user_id":285,"name":"CrazyMush","steam_id":76561198141783855,"connected_time":230000000000,"state":"active","ping":64},{"user_id":260,"name":"Casaaterrizador","steam_id":76561199388911950,"connected_time":2321000000000,"state":"active","ping":109},{"user_id":280,"name":"xZackAttack27x","steam_id":76561198035446639,"connected_time":886000000000,"state":"active","ping":63},{"user_id":207,"name":"AquaEclipse","steam_id":76561198225964744,"connected_time":6632000000000,"state":"active","ping":76},{"user_id":259,"name":"Vulpes","steam_id":76561198038929334,"connected_time":2358000000000,"state":"active","ping":60}]},{"server_id":403,"name":"Uncletopia | Chicago | 4 | All Maps","name_short":"chi-4","host":"chi-1.us.uncletopia.com","port":27045,"enabled":true,"region":"us-central","cc":"us","latitude":41.881832,"longitude":-87.62318,"reserved":0,"last_update":"0001-01-01T00:00:00Z","name_a2s":"Uncletopia | Chicago | 4 | All Maps","protocol":17,"map":"pl_snowycoast","folder":"tf","game":"Team Fortress","app_id":440,"player_count":24,"max_players":24,"Bots":0,"server_type":"Dedicated","server_os":"Linux","password":true,"vac":true,"version":"7757534","steam_id":85568392924515193,"keywords":["nocrits","nodmgspread","payload","uncletopia"],"game_id":440,"stv_port":27046,"stv_name":"Uncletopia | Chicago | 4 | All Maps | STV","players":[{"user_id":516,"name":"MasterGeek.MX","steam_id":76561198063355220,"connected_time":3491000000000,"state":"active","ping":130},{"user_id":543,"name":"Eduardo","steam_id":76561198236519984,"connected_time":1509000000000,"state":"active","ping":96},{"user_id":555,"name":"OFFTHEGMAILPERC","steam_id":76561198132068284,"connected_time":1031000000000,"state":"active","ping":65},{"user_id":512,"name":"NovaSc6ut","steam_id":76561198277163301,"connected_time":3700000000000,"state":"active","ping":61},{"user_id":544,"name":"Ferioth","steam_id":76561197997993090,"connected_time":1371000000000,"state":"active","ping":66},{"user_id":545,"name":"The Winter Medic","steam_id":76561198197112922,"connected_time":1337000000000,"state":"active","ping":76},{"user_id":538,"name":"Ninjalox2","steam_id":76561198143205376,"connected_time":2218000000000,"state":"active","ping":79},{"user_id":539,"name":"lost in spaaaaace","steam_id":76561199085974120,"connected_time":2135000000000,"state":"active","ping":70},{"user_id":546,"name":"Silvercoat's Stargazer","steam_id":76561198399525329,"connected_time":1326000000000,"state":"active","ping":79},{"user_id":561,"name":"POSERKILLERBUG||||||||||||||||","steam_id":76561198126386686,"connected_time":319000000000,"state":"active","ping":56},{"user_id":511,"name":"Psychic_Crow","steam_id":76561198057502095,"connected_time":3873000000000,"state":"active","ping":66},{"user_id":560,"name":"Missing Minus","steam_id":76561198120822928,"connected_time":339000000000,"state":"active","ping":60},{"user_id":562,"name":"Vladikr1","steam_id":76561198401495362,"connected_time":236000000000,"state":"active","ping":62},{"user_id":547,"name":"Divio","steam_id":76561197995200088,"connected_time":1285000000000,"state":"active","ping":74},{"user_id":510,"name":"Cpapi","steam_id":76561198027779564,"connected_time":4004000000000,"state":"active","ping":54},{"user_id":548,"name":"Rental","steam_id":76561198027786602,"connected_time":1282000000000,"state":"active","ping":80},{"user_id":553,"name":"Loxic","steam_id":76561198043617388,"connected_time":1059000000000,"state":"active","ping":88},{"user_id":550,"name":"skaj","steam_id":76561198082278586,"connected_time":1100000000000,"state":"active","ping":73},{"user_id":552,"name":"i'm a fireball","steam_id":76561198138221795,"connected_time":1069000000000,"state":"active","ping":71},{"user_id":459,"name":"Feel the bern","steam_id":76561198078824519,"connected_time":7406000000000,"state":"active","ping":97},{"user_id":554,"name":"p1ckl","steam_id":76561198152818418,"connected_time":1052000000000,"state":"active","ping":86},{"user_id":557,"name":"Cocksneed Fartin","steam_id":76561198126675787,"connected_time":970000000000,"state":"active","ping":104},{"user_id":558,"name":"SIMAX","steam_id":76561199243011400,"connected_time":962000000000,"state":"active","ping":77},{"user_id":559,"name":"ku74n32","steam_id":76561199238578809,"connected_time":888000000000,"state":"active","ping":100}]},{"server_id":36,"name":"Uncletopia | Chicago | 5 | All Maps","name_short":"chi-5","host":"chi-2.us.uncletopia.com","port":27015,"enabled":true,"region":"us-central","cc":"us","latitude":41.881832,"longitude":-87.62318,"reserved":0,"last_update":"0001-01-01T00:00:00Z","name_a2s":"Uncletopia | Chicago | 5 | All Maps","protocol":17,"map":"pl_upward","folder":"tf","game":"Team Fortress","app_id":440,"player_count":22,"max_players":24,"Bots":0,"server_type":"Dedicated","server_os":"Linux","password":true,"vac":true,"version":"7757534","steam_id":85568392924866362,"keywords":["nocrits","nodmgspread","payload","uncletopia"],"game_id":440,"stv_port":27016,"stv_name":"Uncletopia | Chicago | 5 | All Maps | STV","players":[{"user_id":261,"name":"TeaPirate [TTC]","steam_id":76561197993068398,"connected_time":427000000000,"state":"active","ping":72},{"user_id":262,"name":"Phat_nibba29","steam_id":76561198165661855,"connected_time":421000000000,"state":"active","ping":94},{"user_id":215,"name":"Twan (a770 lagger)","steam_id":76561197991064908,"connected_time":4741000000000,"state":"active","ping":66},{"user_id":221,"name":"Unusual Albert","steam_id":76561198986836562,"connected_time":3458000000000,"state":"active","ping":73},{"user_id":267,"name":"Aunty Frazzle","steam_id":76561198145596626,"connected_time":284000000000,"state":"active","ping":104},{"user_id":222,"name":"powobop","steam_id":76561198799389634,"connected_time":3454000000000,"state":"active","ping":75},{"user_id":223,"name":"gyroFSnoob","steam_id":76561198158404683,"connected_time":3407000000000,"state":"active","ping":80},{"user_id":242,"name":"Tick","steam_id":76561198184161214,"connected_time":2591000000000,"state":"active","ping":49},{"user_id":263,"name":"Inevitable","steam_id":76561198210050169,"connected_time":420000000000,"state":"active","ping":78},{"user_id":265,"name":"Quatts","steam_id":76561198051482153,"connected_time":372000000000,"state":"active","ping":56},{"user_id":266,"name":"AzuriousAlex","steam_id":76561198158026405,"connected_time":333000000000,"state":"active","ping":82},{"user_id":260,"name":"SaulMan","steam_id":76561198131929494,"connected_time":986000000000,"state":"active","ping":52},{"user_id":270,"name":"bad spy player","steam_id":76561198873699671,"connected_time":126000000000,"state":"active","ping":108},{"user_id":251,"name":"flexer_2000","steam_id":76561198084422657,"connected_time":2229000000000,"state":"active","ping":98},{"user_id":271,"name":"Captain Doge","steam_id":76561199259807967,"connected_time":56000000000,"state":"active","ping":1055},{"user_id":231,"name":"boobylover77","steam_id":76561198334511480,"connected_time":3176000000000,"state":"active","ping":80},{"user_id":247,"name":"deech","steam_id":76561198066429444,"connected_time":2270000000000,"state":"active","ping":73},{"user_id":248,"name":"silly","steam_id":76561198311564850,"connected_time":2260000000000,"state":"active","ping":117},{"user_id":234,"name":"brian eno","steam_id":76561198109901138,"connected_time":3144000000000,"state":"active","ping":81},{"user_id":249,"name":"{King}.Muffin(Tettk)","steam_id":76561198039646364,"connected_time":2259000000000,"state":"active","ping":116},{"user_id":268,"name":"Discourse","steam_id":76561198984286678,"connected_time":228000000000,"state":"active","ping":55},{"user_id":255,"name":"Caretnose","steam_id":76561198021762583,"connected_time":1799000000000,"state":"active","ping":50}]},{"server_id":37,"name":"Uncletopia | Chicago | 6 | All Maps","name_short":"chi-6","host":"chi-2.us.uncletopia.com","port":27025,"enabled":true,"region":"us-central","cc":"us","latitude":41.881832,"longitude":-87.62318,"reserved":0,"last_update":"0001-01-01T00:00:00Z","name_a2s":"Uncletopia | Chicago | 6 | All Maps","protocol":17,"map":"pl_pier","folder":"tf","game":"Team Fortress","app_id":440,"player_count":24,"max_players":24,"Bots":0,"server_type":"Dedicated","server_os":"Linux","password":true,"vac":true,"version":"7757534","steam_id":85568392924866363,"keywords":["nocrits","nodmgspread","payload","uncletopia"],"game_id":440,"stv_port":27026,"stv_name":"Uncletopia | Chicago | 6 | All Maps | STV","players":[{"user_id":584,"name":"cyclops","steam_id":76561197970370198,"connected_time":2511000000000,"state":"active","ping":51},{"user_id":610,"name":"rorywashere /ᐠ - ˕ -マ Ⳋ","steam_id":76561198065825165,"connected_time":732000000000,"state":"active","ping":124},{"user_id":591,"name":"Dr.KombatPhD.ttv","steam_id":76561198263847667,"connected_time":1888000000000,"state":"active","ping":62},{"user_id":553,"name":"façade","steam_id":76561199157009256,"connected_time":4098000000000,"state":"active","ping":86},{"user_id":585,"name":"Waxing Green Gibus","steam_id":76561198269228580,"connected_time":2480000000000,"state":"active","ping":67},{"user_id":599,"name":"Giantbob","steam_id":76561199043760220,"connected_time":1400000000000,"state":"active","ping":120},{"user_id":594,"name":"Wizard02","steam_id":76561198178293623,"connected_time":1782000000000,"state":"active","ping":90},{"user_id":604,"name":"Gurk","steam_id":76561197998571259,"connected_time":1145000000000,"state":"active","ping":158},{"user_id":587,"name":"dash23™","steam_id":76561198314951185,"connected_time":2438000000000,"state":"active","ping":101},{"user_id":588,"name":"a crazy hobo","steam_id":76561198289650060,"connected_time":2362000000000,"state":"active","ping":83},{"user_id":605,"name":"gwy","steam_id":76561198277458653,"connected_time":1120000000000,"state":"active","ping":96},{"user_id":608,"name":"donkeymucles","steam_id":76561199388275529,"connected_time":1012000000000,"state":"active","ping":76},{"user_id":611,"name":"connor.g.gay","steam_id":76561199381603075,"connected_time":696000000000,"state":"active","ping":68},{"user_id":577,"name":"hashmap","steam_id":76561198043794014,"connected_time":2953000000000,"state":"active","ping":49},{"user_id":562,"name":"crs22","steam_id":76561198120149196,"connected_time":3884000000000,"state":"active","ping":59},{"user_id":595,"name":"Switch","steam_id":76561197982035284,"connected_time":1731000000000,"state":"active","ping":83},{"user_id":601,"name":"Yuki","steam_id":76561198095257163,"connected_time":1308000000000,"state":"active","ping":132},{"user_id":597,"name":"a soul must somehow strive","steam_id":76561198096806703,"connected_time":1595000000000,"state":"active","ping":74},{"user_id":542,"name":"Visual Depression","steam_id":76561198825918366,"connected_time":6008000000000,"state":"active","ping":106},{"user_id":565,"name":"3-13","steam_id":76561198063929021,"connected_time":3798000000000,"state":"active","ping":81},{"user_id":612,"name":"Aussi","steam_id":76561198140732688,"connected_time":13000000000,"state":"active","ping":71},{"user_id":590,"name":"joethefool","steam_id":76561199015436319,"connected_time":2269000000000,"state":"active","ping":87},{"user_id":564,"name":"Techo","steam_id":76561199169405285,"connected_time":3841000000000,"state":"active","ping":106},{"user_id":609,"name":"p9 jorts","steam_id":76561199041179985,"connected_time":912000000000,"state":"active","ping":116}]},{"server_id":38,"name":"Uncletopia | Chicago | 7 | Stopwatch Beta","name_short":"chi-7","host":"chi-2.us.uncletopia.com","port":27035,"enabled":true,"region":"us-central","cc":"us","latitude":41.881832,"longitude":-87.62318,"reserved":0,"last_update":"0001-01-01T00:00:00Z","name_a2s":"Uncletopia | Chicago | 7 | Stopwatch Beta","protocol":17,"map":"workshop/pl_barnblitz_pro7.ugc582280235","folder":"tf","game":"Team Fortress","app_id":440,"player_count":0,"max_players":24,"Bots":0,"server_type":"Dedicated","server_os":"Linux","password":true,"vac":true,"version":"7757534","steam_id":85568392924866364,"keywords":["nocrits","nodmgspread","payload","uncletopia"],"game_id":440,"stv_port":27036,"stv_name":"Uncletopia | Chicago | 7 | Stopwatch Beta | STV","players":null},{"server_id":39,"name":"Uncletopia | Chicago | 8 | Community","name_short":"chi-8","host":"chi-2.us.uncletopia.com","port":27045,"enabled":true,"region":"us-central","cc":"us","latitude":41.881832,"longitude":-87.62318,"reserved":0,"last_update":"0001-01-01T00:00:00Z","name_a2s":"Uncletopia | Chicago | 8 | Community","protocol":17,"map":"workshop/koth_slaughter_rc1.ugc1712845210","folder":"tf","game":"Team Fortress","app_id":440,"player_count":2,"max_players":24,"Bots":0,"server_type":"Dedicated","server_os":"Linux","password":true,"vac":true,"version":"7757534","steam_id":85568392924866365,"keywords":["cp","nocrits","nodmgspread","uncletopia"],"game_id":440,"stv_port":27046,"stv_name":"Uncletopia | Chicago | 8 | Community | STV","players":[{"user_id":397,"name":"VidzCMC","steam_id":76561198848142973,"connected_time":2161000000000,"state":"active","ping":53},{"user_id":388,"name":"[shx]","steam_id":76561198070159233,"connected_time":4103000000000,"state":"active","ping":44}]},{"server_id":8,"name":"Uncletopia | Dallas | 1 | All Maps","name_short":"dal-1","host":"dal-1.us.uncletopia.com","port":27015,"enabled":true,"region":"us-central","cc":"us","latitude":32.779167,"longitude":-96.80889,"reserved":0,"last_update":"0001-01-01T00:00:00Z","name_a2s":"Uncletopia | Dallas | 1 | All Maps","protocol":17,"map":"pl_barnblitz","folder":"tf","game":"Team Fortress","app_id":440,"player_count":3,"max_players":24,"Bots":0,"server_type":"Dedicated","server_os":"Linux","password":true,"vac":true,"version":"7757534","steam_id":85568392924469986,"keywords":["nocrits","nodmgspread","payload","uncletopia"],"game_id":440,"stv_port":27016,"stv_name":"Uncletopia | Dallas | 1 | All Maps | STV","players":[{"user_id":595,"name":"Mayo_","steam_id":76561198289375121,"connected_time":2127000000000,"state":"active","ping":45},{"user_id":584,"name":"Etomb","steam_id":76561198210017208,"connected_time":2576000000000,"state":"active","ping":97},{"user_id":596,"name":"Grassman (Cc)","steam_id":76561198026488532,"connected_time":2010000000000,"state":"active","ping":89}]},{"server_id":108,"name":"Uncletopia | Dallas | 2 | All Maps","name_short":"dal-2","host":"dal-1.us.uncletopia.com","port":27025,"enabled":true,"region":"us-central","cc":"us","latitude":32.779167,"longitude":-96.80889,"reserved":0,"last_update":"0001-01-01T00:00:00Z","name_a2s":"Uncletopia | Dallas | 2 | All Maps","protocol":17,"map":"pl_upward","folder":"tf","game":"Team Fortress","app_id":440,"player_count":21,"max_players":24,"Bots":0,"server_type":"Dedicated","server_os":"Linux","password":true,"vac":true,"version":"7757534","steam_id":85568392924469988,"keywords":["nocrits","nodmgspread","payload","uncletopia"],"game_id":440,"stv_port":27026,"stv_name":"Uncletopia | Dallas | 2 | All Maps | STV","players":[{"user_id":432,"name":"Soggy","steam_id":76561198987208120,"connected_time":277000000000,"state":"active","ping":89},{"user_id":399,"name":"just2pale","steam_id":76561198046793289,"connected_time":3950000000000,"state":"active","ping":51},{"user_id":427,"name":"barbara","steam_id":76561198072417792,"connected_time":844000000000,"state":"active","ping":90},{"user_id":386,"name":"Harold","steam_id":76561198057317770,"connected_time":4235000000000,"state":"active","ping":65},{"user_id":367,"name":"rizzard of oz","steam_id":76561198040907214,"connected_time":6152000000000,"state":"active","ping":62},{"user_id":416,"name":"bo scrungulus","steam_id":76561198038036122,"connected_time":2072000000000,"state":"active","ping":60},{"user_id":370,"name":"Gundam Guy","steam_id":76561198178453993,"connected_time":5232000000000,"state":"active","ping":68},{"user_id":436,"name":"LORDMARF","steam_id":76561198143122675,"connected_time":7000000000,"state":"spawning","ping":44},{"user_id":435,"name":"Mister Mudkip","steam_id":76561198018632103,"connected_time":115000000000,"state":"active","ping":59},{"user_id":429,"name":"gherkin","steam_id":76561198083688737,"connected_time":597000000000,"state":"active","ping":93},{"user_id":419,"name":"Hotsaucebauce","steam_id":76561199070938363,"connected_time":1925000000000,"state":"active","ping":101},{"user_id":387,"name":"DAS SCHNITZELSTIEN","steam_id":76561198051137159,"connected_time":4221000000000,"state":"active","ping":113},{"user_id":428,"name":"moe","steam_id":76561198929586245,"connected_time":821000000000,"state":"active","ping":91},{"user_id":388,"name":"crits","steam_id":76561199044356107,"connected_time":4213000000000,"state":"active","ping":61},{"user_id":354,"name":"Tako","steam_id":76561199264073138,"connected_time":7461000000000,"state":"spawning","ping":67},{"user_id":430,"name":"Certified Hood Classic","steam_id":76561199086159354,"connected_time":583000000000,"state":"active","ping":45},{"user_id":391,"name":"PirateJet","steam_id":76561198050858744,"connected_time":4196000000000,"state":"active","ping":74},{"user_id":433,"name":"Pitch Stick","steam_id":76561198800287853,"connected_time":257000000000,"state":"active","ping":138},{"user_id":402,"name":"Len","steam_id":76561199141913673,"connected_time":3765000000000,"state":"active","ping":65},{"user_id":431,"name":"miner","steam_id":76561198073035221,"connected_time":529000000000,"state":"active","ping":83},{"user_id":425,"name":"Kelpy G","steam_id":76561198105330587,"connected_time":1148000000000,"state":"active","ping":53}]},{"server_id":5,"name":"Uncletopia | Frankfurt | 1 | All Maps","name_short":"frk-1","host":"frk-1.de.uncletopia.com","port":27015,"enabled":true,"region":"eu","cc":"de","latitude":50.110924,"longitude":8.682127,"reserved":0,"last_update":"0001-01-01T00:00:00Z","name_a2s":"Uncletopia | Frankfurt | 1 | All Maps","protocol":17,"map":"pl_badwater","folder":"tf","game":"Team Fortress","app_id":440,"player_count":0,"max_players":24,"Bots":0,"server_type":"Dedicated","server_os":"Linux","password":true,"vac":true,"version":"7757534","steam_id":85568392924469989,"keywords":["nocrits","nodmgspread","payload","uncletopia"],"game_id":440,"stv_port":27016,"stv_name":"Uncletopia | Frankfurt | 1 | All Maps | STV","players":null},{"server_id":110,"name":"Uncletopia | Frankfurt | 2 | All Maps","name_short":"frk-2","host":"frk-1.de.uncletopia.com","port":27025,"enabled":true,"region":"eu","cc":"de","latitude":50.110924,"longitude":8.682127,"reserved":0,"last_update":"0001-01-01T00:00:00Z","name_a2s":"Uncletopia | Frankfurt | 2 | All Maps","protocol":17,"map":"cp_altitude","folder":"tf","game":"Team Fortress","app_id":440,"player_count":0,"max_players":24,"Bots":0,"server_type":"Dedicated","server_os":"Linux","password":true,"vac":true,"version":"7757534","steam_id":85568392924469990,"keywords":["cp","nocrits","nodmgspread","uncletopia"],"game_id":440,"stv_port":27026,"stv_name":"Uncletopia | Frankfurt | 2 | All Maps | STV","players":null},{"server_id":308,"name":"Uncletopia | Frankfurt | 3 | All Maps","name_short":"frk-3","host":"frk-1.de.uncletopia.com","port":27035,"enabled":true,"region":"eu","cc":"de","latitude":50.110924,"longitude":8.682127,"reserved":0,"last_update":"0001-01-01T00:00:00Z","name_a2s":"Uncletopia | Frankfurt | 3 | All Maps","protocol":17,"map":"pl_barnblitz","folder":"tf","game":"Team Fortress","app_id":440,"player_count":0,"max_players":24,"Bots":0,"server_type":"Dedicated","server_os":"Linux","password":true,"vac":true,"version":"7757534","steam_id":85568392924504274,"keywords":["nocrits","nodmgspread","payload","uncletopia"],"game_id":440,"stv_port":27036,"stv_name":"Uncletopia | Frankfurt | 3 | All Maps | STV","players":null},{"server_id":309,"name":"Uncletopia | Frankfurt | 4 | All Maps","name_short":"frk-4","host":"frk-1.de.uncletopia.com","port":27045,"enabled":true,"region":"eu","cc":"de","latitude":50.110924,"longitude":8.682127,"reserved":0,"last_update":"0001-01-01T00:00:00Z","name_a2s":"Uncletopia | Frankfurt | 4 | All Maps","protocol":17,"map":"pl_snowycoast","folder":"tf","game":"Team Fortress","app_id":440,"player_count":0,"max_players":24,"Bots":0,"server_type":"Dedicated","server_os":"Linux","password":true,"vac":true,"version":"7757534","steam_id":85568392924504275,"keywords":["nocrits","nodmgspread","payload","uncletopia"],"game_id":440,"stv_port":27046,"stv_name":"Uncletopia | Frankfurt | 4 | All Maps | STV","players":null},{"server_id":310,"name":"Uncletopia | Frankfurt | 5 | All Maps","name_short":"frk-5","host":"frk-1.de.uncletopia.com","port":27055,"enabled":true,"region":"eu","cc":"de","latitude":50.110924,"longitude":8.682127,"reserved":0,"last_update":"0001-01-01T00:00:00Z","name_a2s":"Uncletopia | Frankfurt | 5 | All Maps","protocol":17,"map":"cp_altitude","folder":"tf","game":"Team Fortress","app_id":440,"player_count":0,"max_players":24,"Bots":0,"server_type":"Dedicated","server_os":"Linux","password":true,"vac":true,"version":"7757534","steam_id":85568392924504277,"keywords":["cp","nocrits","nodmgspread","uncletopia"],"game_id":440,"stv_port":27056,"stv_name":"Uncletopia | Frankfurt | 5 | All Maps | STV","players":null},{"server_id":311,"name":"Uncletopia | Frankfurt | 6 | All Maps","name_short":"frk-6","host":"frk-1.de.uncletopia.com","port":27065,"enabled":true,"region":"eu","cc":"de","latitude":50.110924,"longitude":8.682127,"reserved":0,"last_update":"0001-01-01T00:00:00Z","name_a2s":"Uncletopia | Frankfurt | 6 | All Maps","protocol":17,"map":"koth_highpass","folder":"tf","game":"Team Fortress","app_id":440,"player_count":0,"max_players":24,"Bots":0,"server_type":"Dedicated","server_os":"Linux","password":true,"vac":true,"version":"7757534","steam_id":85568392924504278,"keywords":["cp","nocrits","nodmgspread","uncletopia"],"game_id":440,"stv_port":27066,"stv_name":"Uncletopia | Frankfurt | 6 | All Maps | STV","players":null},{"server_id":23,"name":"Uncletopia | Frankfurt | 7 | Stopwatch Beta","name_short":"frk-7","host":"frk-1.de.uncletopia.com","port":27075,"enabled":true,"region":"eu","cc":"de","latitude":50.110924,"longitude":8.682127,"reserved":0,"last_update":"0001-01-01T00:00:00Z","name_a2s":"Uncletopia | Frankfurt | 7 | Stopwatch Beta","protocol":17,"map":"pl_borneo","folder":"tf","game":"Team Fortress","app_id":440,"player_count":0,"max_players":24,"Bots":0,"server_type":"Dedicated","server_os":"Linux","password":true,"vac":true,"version":"7757534","steam_id":85568392924742827,"keywords":["nocrits","nodmgspread","payload","uncletopia"],"game_id":440,"stv_port":27076,"stv_name":"Uncletopia | Frankfurt | 7 | Stopwatch Beta | STV","players":null},{"server_id":24,"name":"Uncletopia | Frankfurt | 8 | Community","name_short":"frk-8","host":"frk-1.de.uncletopia.com","port":27085,"enabled":true,"region":"eu","cc":"de","latitude":50.110924,"longitude":8.682127,"reserved":0,"last_update":"0001-01-01T00:00:00Z","name_a2s":"Uncletopia | Frankfurt | 8 | Community","protocol":17,"map":"koth_cascade","folder":"tf","game":"Team Fortress","app_id":440,"player_count":0,"max_players":24,"Bots":0,"server_type":"Dedicated","server_os":"Linux","password":true,"vac":true,"version":"7757534","steam_id":85568392924742828,"keywords":["cp","nocrits","nodmgspread","uncletopia"],"game_id":440,"stv_port":27086,"stv_name":"Uncletopia | Frankfurt | 8 | Community | STV","players":null},{"server_id":202,"name":"Uncletopia | Hong Kong | 1 | All Maps","name_short":"hgk-1","host":"hgk-1.hk.uncletopia.com","port":27015,"enabled":true,"region":"asia","cc":"hk","latitude":22.302711,"longitude":114.177216,"reserved":0,"last_update":"0001-01-01T00:00:00Z","name_a2s":"Uncletopia | Hong Kong | 1 | All Maps","protocol":17,"map":"pl_badwater","folder":"tf","game":"Team Fortress","app_id":440,"player_count":24,"max_players":24,"Bots":0,"server_type":"Dedicated","server_os":"Linux","password":true,"vac":true,"version":"7757534","steam_id":85568392924494504,"keywords":["nocrits","nodmgspread","payload","uncletopia"],"game_id":440,"stv_port":27016,"stv_name":"Uncletopia | Hong Kong | 1 | All Maps | STV","players":[{"user_id":26,"name":"timmy.1366","steam_id":76561199065433547,"connected_time":5593000000000,"state":"active","ping":77},{"user_id":27,"name":"Noyour","steam_id":76561198323259830,"connected_time":5551000000000,"state":"active","ping":113},{"user_id":62,"name":"tsugirinafu","steam_id":76561199226227211,"connected_time":2914000000000,"state":"active","ping":113},{"user_id":76,"name":"Marika","steam_id":76561198212649929,"connected_time":1196000000000,"state":"active","ping":125},{"user_id":64,"name":"Ian","steam_id":76561198159334435,"connected_time":2739000000000,"state":"active","ping":155},{"user_id":35,"name":"Steve","steam_id":76561198429235506,"connected_time":4692000000000,"state":"active","ping":73},{"user_id":81,"name":"Cloud","steam_id":76561198272454184,"connected_time":903000000000,"state":"active","ping":90},{"user_id":71,"name":"P","steam_id":76561198304514505,"connected_time":1680000000000,"state":"active","ping":76},{"user_id":41,"name":"煙海 | Enkai","steam_id":76561198050460825,"connected_time":4074000000000,"state":"active","ping":75},{"user_id":37,"name":"Hanta","steam_id":76561199031390218,"connected_time":4380000000000,"state":"active","ping":121},{"user_id":72,"name":"Dunce","steam_id":76561198097350308,"connected_time":1551000000000,"state":"active","ping":78},{"user_id":80,"name":"qb","steam_id":76561198412329672,"connected_time":1067000000000,"state":"active","ping":84},{"user_id":40,"name":"floatingdeadfish","steam_id":76561198414875516,"connected_time":4116000000000,"state":"active","ping":81},{"user_id":82,"name":"Skylar","steam_id":76561198434815618,"connected_time":787000000000,"state":"active","ping":36},{"user_id":85,"name":"[HF]butt","steam_id":76561198061628689,"connected_time":385000000000,"state":"active","ping":52},{"user_id":83,"name":"LudE","steam_id":76561198828840546,"connected_time":786000000000,"state":"active","ping":90},{"user_id":86,"name":"ɔuᗡඞ ɟƨuᒐ","steam_id":76561199031283970,"connected_time":141000000000,"state":"active","ping":85},{"user_id":87,"name":"Seiko Shinohara.png","steam_id":76561198089493039,"connected_time":88000000000,"state":"active","ping":85},{"user_id":79,"name":"flying rocket","steam_id":76561199401766251,"connected_time":1126000000000,"state":"active","ping":78},{"user_id":51,"name":"Urotsuki","steam_id":76561198074339034,"connected_time":3394000000000,"state":"active","ping":75},{"user_id":68,"name":"I'm going to eat your ass","steam_id":76561198313605970,"connected_time":2316000000000,"state":"active","ping":102},{"user_id":88,"name":"DemoniKitty","steam_id":76561199384799830,"connected_time":42000000000,"state":"active","ping":69},{"user_id":56,"name":"uptriste","steam_id":76561198158666692,"connected_time":3159000000000,"state":"active","ping":38},{"user_id":89,"name":"C++","steam_id":76561198317422233,"connected_time":3000000000,"state":"spawning","ping":76}]},{"server_id":1,"name":"Uncletopia | Los Angeles | 1 | All Maps","name_short":"lax-1","host":"lax-1.us.uncletopia.com","port":27015,"enabled":true,"region":"us-west","cc":"us","latitude":33.94279,"longitude":-118.41004,"reserved":0,"last_update":"0001-01-01T00:00:00Z","name_a2s":"Uncletopia | Los Angeles | 1 | All Maps","protocol":17,"map":"pl_badwater","folder":"tf","game":"Team Fortress","app_id":440,"player_count":0,"max_players":24,"Bots":0,"server_type":"Dedicated","server_os":"Linux","password":true,"vac":true,"version":"7757534","steam_id":85568392924469991,"keywords":["nocrits","nodmgspread","payload","uncletopia"],"game_id":440,"stv_port":27016,"stv_name":"Uncletopia | Los Angeles | 1 | All Maps | STV","players":null},{"server_id":112,"name":"Uncletopia | Los Angeles | 2 | All Maps","name_short":"lax-2","host":"lax-1.us.uncletopia.com","port":27025,"enabled":true,"region":"us-west","cc":"us","latitude":33.94279,"longitude":-118.41004,"reserved":0,"last_update":"0001-01-01T00:00:00Z","name_a2s":"Uncletopia | Los Angeles | 2 | All Maps","protocol":17,"map":"koth_cascade","folder":"tf","game":"Team Fortress","app_id":440,"player_count":0,"max_players":24,"Bots":0,"server_type":"Dedicated","server_os":"Linux","password":true,"vac":true,"version":"7757534","steam_id":85568392924469992,"keywords":["cp","nocrits","nodmgspread","uncletopia"],"game_id":440,"stv_port":27026,"stv_name":"Uncletopia | Los Angeles | 2 | All Maps | STV","players":null},{"server_id":324,"name":"Uncletopia | Los Angeles | 3 | All Maps","name_short":"lax-3","host":"lax-1.us.uncletopia.com","port":27035,"enabled":true,"region":"us-west","cc":"us","latitude":33.94279,"longitude":-118.41004,"reserved":0,"last_update":"0001-01-01T00:00:00Z","name_a2s":"Uncletopia | Los Angeles | 3 | All Maps","protocol":17,"map":"koth_highpass","folder":"tf","game":"Team Fortress","app_id":440,"player_count":0,"max_players":24,"Bots":0,"server_type":"Dedicated","server_os":"Linux","password":true,"vac":true,"version":"7757534","steam_id":85568392924510198,"keywords":["cp","nocrits","nodmgspread","uncletopia"],"game_id":440,"stv_port":27036,"stv_name":"Uncletopia | Los Angeles | 3 | All Maps | STV","players":null},{"server_id":25,"name":"Uncletopia | Los Angeles | 4 | Stopwatch Beta","name_short":"lax-4","host":"lax-1.us.uncletopia.com","port":27045,"enabled":true,"region":"us-west","cc":"us","latitude":33.94279,"longitude":-118.41004,"reserved":0,"last_update":"0001-01-01T00:00:00Z","name_a2s":"Uncletopia | Los Angeles | 4 | Stopwatch Beta","protocol":17,"map":"koth_viaduct","folder":"tf","game":"Team Fortress","app_id":440,"player_count":0,"max_players":24,"Bots":0,"server_type":"Dedicated","server_os":"Linux","password":true,"vac":true,"version":"7757534","steam_id":85568392924510199,"keywords":["cp","nocrits","nodmgspread","uncletopia"],"game_id":440,"stv_port":27046,"stv_name":"Uncletopia | Los Angeles | 4 | Stopwatch Beta | STV","players":null},{"server_id":11,"name":"Uncletopia | London | 1 | All Maps","name_short":"lon-1","host":"lon-1.uk.uncletopia.com","port":27015,"enabled":true,"region":"eu","cc":"gb","latitude":51.509865,"longitude":-0.118092,"reserved":0,"last_update":"0001-01-01T00:00:00Z","name_a2s":"Uncletopia | London | 1 | All Maps","protocol":17,"map":"pl_pier","folder":"tf","game":"Team Fortress","app_id":440,"player_count":0,"max_players":24,"Bots":0,"server_type":"Dedicated","server_os":"Linux","password":true,"vac":true,"version":"7757534","steam_id":85568392924367362,"keywords":["nocrits","nodmgspread","payload","uncletopia"],"game_id":440,"stv_port":27016,"stv_name":"Uncletopia | London | 1 | All Maps | STV","players":null},{"server_id":114,"name":"Uncletopia | London | 2 | All Maps","name_short":"lon-2","host":"lon-1.uk.uncletopia.com","port":27025,"enabled":true,"region":"eu","cc":"gb","latitude":51.509865,"longitude":-0.118092,"reserved":0,"last_update":"0001-01-01T00:00:00Z","name_a2s":"Uncletopia | London | 2 | All Maps","protocol":17,"map":"pl_borneo","folder":"tf","game":"Team Fortress","app_id":440,"player_count":0,"max_players":24,"Bots":0,"server_type":"Dedicated","server_os":"Linux","password":true,"vac":true,"version":"7757534","steam_id":85568392924470941,"keywords":["nocrits","nodmgspread","payload","uncletopia"],"game_id":440,"stv_port":27026,"stv_name":"Uncletopia | London | 2 | All Maps | STV","players":null},{"server_id":320,"name":"Uncletopia | London | 3 | All Maps","name_short":"lon-3","host":"lon-1.uk.uncletopia.com","port":27035,"enabled":true,"region":"eu","cc":"gb","latitude":51.509865,"longitude":-0.118092,"reserved":0,"last_update":"0001-01-01T00:00:00Z","name_a2s":"Uncletopia | London | 3 | All Maps","protocol":17,"map":"pl_badwater","folder":"tf","game":"Team Fortress","app_id":440,"player_count":0,"max_players":24,"Bots":0,"server_type":"Dedicated","server_os":"Linux","password":true,"vac":true,"version":"7757534","steam_id":85568392924510192,"keywords":["nocrits","nodmgspread","payload","uncletopia"],"game_id":440,"stv_port":27036,"stv_name":"Uncletopia | London | 3 | All Maps | STV","players":null},{"server_id":321,"name":"Uncletopia | London | 4 | All Maps","name_short":"lon-4","host":"lon-1.uk.uncletopia.com","port":27045,"enabled":true,"region":"eu","cc":"gb","latitude":51.509865,"longitude":-0.118092,"reserved":0,"last_update":"0001-01-01T00:00:00Z","name_a2s":"Uncletopia | London | 4 | All Maps","protocol":17,"map":"cp_snakewater_final1","folder":"tf","game":"Team Fortress","app_id":440,"player_count":0,"max_players":24,"Bots":0,"server_type":"Dedicated","server_os":"Linux","password":true,"vac":true,"version":"7757534","steam_id":85568392924510193,"keywords":["cp","nocrits","nodmgspread","uncletopia"],"game_id":440,"stv_port":27046,"stv_name":"Uncletopia | London | 4 | All Maps | STV","players":null},{"server_id":21,"name":"Uncletopia | London | 5 | All Maps","name_short":"lon-5","host":"lon-1.uk.uncletopia.com","port":27055,"enabled":true,"region":"eu","cc":"gb","latitude":51.509865,"longitude":-0.118092,"reserved":0,"last_update":"0001-01-01T00:00:00Z","name_a2s":"Uncletopia | London | 5 | All Maps","protocol":17,"map":"pl_snowycoast","folder":"tf","game":"Team Fortress","app_id":440,"player_count":0,"max_players":24,"Bots":0,"server_type":"Dedicated","server_os":"Linux","password":true,"vac":true,"version":"7757534","steam_id":85568392924742829,"keywords":["nocrits","nodmgspread","payload","uncletopia"],"game_id":440,"stv_port":27056,"stv_name":"Uncletopia | London | 5 | All Maps | STV","players":null},{"server_id":22,"name":"Uncletopia | London | 6 | All Maps","name_short":"lon-6","host":"lon-1.uk.uncletopia.com","port":27065,"enabled":true,"region":"eu","cc":"gb","latitude":51.509865,"longitude":-0.118092,"reserved":0,"last_update":"0001-01-01T00:00:00Z","name_a2s":"Uncletopia | London | 6 | All Maps","protocol":17,"map":"pl_snowycoast","folder":"tf","game":"Team Fortress","app_id":440,"player_count":5,"max_players":24,"Bots":0,"server_type":"Dedicated","server_os":"Linux","password":true,"vac":true,"version":"7757534","steam_id":85568392924742830,"keywords":["nocrits","nodmgspread","payload","uncletopia"],"game_id":440,"stv_port":27066,"stv_name":"Uncletopia | London | 6 | All Maps | STV","players":[{"user_id":15,"name":"vfrc","steam_id":76561198430631575,"connected_time":7000000000,"state":"active","ping":205},{"user_id":13,"name":"true","steam_id":76561198031145243,"connected_time":48000000000,"state":"active","ping":73},{"user_id":9,"name":"joona","steam_id":76561198156305446,"connected_time":383000000000,"state":"active","ping":94},{"user_id":10,"name":"Depressed Wario","steam_id":76561199309745098,"connected_time":294000000000,"state":"active","ping":51},{"user_id":12,"name":"SqnkaBG (SL)","steam_id":76561199046008395,"connected_time":258000000000,"state":"active","ping":60}]},{"server_id":40,"name":"Uncletopia | London | 7 | No Payload","name_short":"lon-7","host":"lon-1.uk.uncletopia.com","port":27075,"enabled":true,"region":"eu","cc":"gb","latitude":51.509865,"longitude":-0.118092,"reserved":0,"last_update":"0001-01-01T00:00:00Z","name_a2s":"Uncletopia | London | 7 | No Payload","protocol":17,"map":"pl_upward","folder":"tf","game":"Team Fortress","app_id":440,"player_count":0,"max_players":24,"Bots":0,"server_type":"Dedicated","server_os":"Linux","password":true,"vac":true,"version":"7757534","steam_id":85568392924964314,"keywords":["nocrits","nodmgspread","payload","uncletopia"],"game_id":440,"stv_port":27076,"stv_name":"Uncletopia | London | 7 | No Payload | STV","players":null},{"server_id":41,"name":"Uncletopia | London | 8 | Community","name_short":"lon-8","host":"lon-1.uk.uncletopia.com","port":27085,"enabled":true,"region":"eu","cc":"gb","latitude":51.509865,"longitude":-0.118092,"reserved":0,"last_update":"0001-01-01T00:00:00Z","name_a2s":"Uncletopia | London | 8 | Community","protocol":17,"map":"cp_snakewater_final1","folder":"tf","game":"Team Fortress","app_id":440,"player_count":0,"max_players":24,"Bots":0,"server_type":"Dedicated","server_os":"Linux","password":true,"vac":true,"version":"7757534","steam_id":85568392924964315,"keywords":["cp","nocrits","nodmgspread","uncletopia"],"game_id":440,"stv_port":27086,"stv_name":"Uncletopia | London | 8 | Community | STV","players":null},{"server_id":300,"name":"Uncletopia | Montréal | 1 | All Maps","name_short":"mtl-1","host":"mtl-1.ca.uncletopia.com","port":27015,"enabled":true,"region":"us-east","cc":"ca","latitude":45.50889,"longitude":-73.56167,"reserved":0,"last_update":"0001-01-01T00:00:00Z","name_a2s":"Uncletopia | Montréal | 1 | All Maps","protocol":17,"map":"koth_highpass","folder":"tf","game":"Team Fortress","app_id":440,"player_count":0,"max_players":24,"Bots":0,"server_type":"Dedicated","server_os":"Linux","password":true,"vac":true,"version":"7757534","steam_id":85568392924500087,"keywords":["cp","nocrits","nodmgspread","uncletopia"],"game_id":440,"stv_port":27016,"stv_name":"Uncletopia | Montréal | 1 | All Maps | STV","players":null},{"server_id":301,"name":"Uncletopia | Montréal | 2 | All Maps","name_short":"mtl-2","host":"mtl-1.ca.uncletopia.com","port":27025,"enabled":true,"region":"us-east","cc":"ca","latitude":45.50889,"longitude":-73.56167,"reserved":0,"last_update":"0001-01-01T00:00:00Z","name_a2s":"Uncletopia | Montréal | 2 | All Maps","protocol":17,"map":"cp_altitude","folder":"tf","game":"Team Fortress","app_id":440,"player_count":0,"max_players":24,"Bots":0,"server_type":"Dedicated","server_os":"Linux","password":true,"vac":true,"version":"7757534","steam_id":85568392924500088,"keywords":["cp","nocrits","nodmgspread","uncletopia"],"game_id":440,"stv_port":27026,"stv_name":"Uncletopia | Montréal | 2 | All Maps | STV","players":null},{"server_id":302,"name":"Uncletopia | Montréal | 3 | All Maps","name_short":"mtl-3","host":"mtl-1.ca.uncletopia.com","port":27035,"enabled":true,"region":"us-east","cc":"ca","latitude":45.50889,"longitude":-73.56167,"reserved":0,"last_update":"0001-01-01T00:00:00Z","name_a2s":"Uncletopia | Montréal | 3 | All Maps","protocol":17,"map":"koth_viaduct","folder":"tf","game":"Team Fortress","app_id":440,"player_count":0,"max_players":24,"Bots":0,"server_type":"Dedicated","server_os":"Linux","password":true,"vac":true,"version":"7757534","steam_id":85568392924500089,"keywords":["cp","nocrits","nodmgspread","uncletopia"],"game_id":440,"stv_port":27036,"stv_name":"Uncletopia | Montréal | 3 | All Maps | STV","players":null},{"server_id":303,"name":"Uncletopia | Montréal | 4 | No Payload","name_short":"mtl-4","host":"mtl-1.ca.uncletopia.com","port":27045,"enabled":true,"region":"us-east","cc":"ca","latitude":45.50889,"longitude":-73.56167,"reserved":0,"last_update":"0001-01-01T00:00:00Z","name_a2s":"Uncletopia | Montréal | 4 | No Payload","protocol":17,"map":"koth_lakeside_final","folder":"tf","game":"Team Fortress","app_id":440,"player_count":0,"max_players":24,"Bots":0,"server_type":"Dedicated","server_os":"Linux","password":true,"vac":true,"version":"7757534","steam_id":85568392924500090,"keywords":["cp","nocrits","nodmgspread","uncletopia"],"game_id":440,"stv_port":27046,"stv_name":"Uncletopia | Montréal | 4 | No Payload | STV","players":null},{"server_id":13,"name":"Uncletopia | New York City | 1 | All Maps","name_short":"nyc-1","host":"nyc-1.us.uncletopia.com","port":27015,"enabled":true,"region":"us-east","cc":"us","latitude":40.73061,"longitude":-73.93524,"reserved":0,"last_update":"0001-01-01T00:00:00Z","name_a2s":"Uncletopia | New York City | 1 | All Maps","protocol":17,"map":"koth_lakeside_final","folder":"tf","game":"Team Fortress","app_id":440,"player_count":7,"max_players":24,"Bots":0,"server_type":"Dedicated","server_os":"Linux","password":true,"vac":true,"version":"7757534","steam_id":85568392924469993,"keywords":["cp","nocrits","nodmgspread","uncletopia"],"game_id":440,"stv_port":27016,"stv_name":"Uncletopia | New York City | 1 | All Maps | STV","players":[{"user_id":721,"name":"Devnoms","steam_id":76561198286801922,"connected_time":307000000000,"state":"active","ping":251},{"user_id":718,"name":"Professor Piper","steam_id":76561198156041205,"connected_time":533000000000,"state":"active","ping":60},{"user_id":716,"name":"Bashirider","steam_id":76561198260522253,"connected_time":677000000000,"state":"active","ping":45},{"user_id":709,"name":"Dog Goggles","steam_id":76561197995233692,"connected_time":1440000000000,"state":"active","ping":59},{"user_id":719,"name":"TF2 ita","steam_id":76561199403767006,"connected_time":431000000000,"state":"active","ping":157},{"user_id":723,"name":"punishing bird","steam_id":76561198447797146,"connected_time":15000000000,"state":"active","ping":45},{"user_id":699,"name":"MontellWilliams","steam_id":76561198172143015,"connected_time":2544000000000,"state":"active","ping":45}]},{"server_id":14,"name":"Uncletopia | New York City | 2 | All Maps","name_short":"nyc-2","host":"nyc-1.us.uncletopia.com","port":27025,"enabled":true,"region":"us-east","cc":"us","latitude":40.73061,"longitude":-73.93524,"reserved":0,"last_update":"0001-01-01T00:00:00Z","name_a2s":"Uncletopia | New York City | 2 | All Maps","protocol":17,"map":"cp_altitude","folder":"tf","game":"Team Fortress","app_id":440,"player_count":0,"max_players":24,"Bots":0,"server_type":"Dedicated","server_os":"Linux","password":true,"vac":true,"version":"7757534","steam_id":85568392924469994,"keywords":["cp","nocrits","nodmgspread","uncletopia"],"game_id":440,"stv_port":27026,"stv_name":"Uncletopia | New York City | 2 | All Maps | STV","players":null},{"server_id":15,"name":"Uncletopia | New York City | 3 | Stopwatch Beta","name_short":"nyc-3","host":"nyc-1.us.uncletopia.com","port":27035,"enabled":true,"region":"us-east","cc":"us","latitude":40.73061,"longitude":-73.93524,"reserved":0,"last_update":"0001-01-01T00:00:00Z","name_a2s":"Uncletopia | New York City | 3 | Stopwatch Beta","protocol":17,"map":"workshop/koth_product_final.ugc454272353","folder":"tf","game":"Team Fortress","app_id":440,"player_count":0,"max_players":24,"Bots":0,"server_type":"Dedicated","server_os":"Linux","password":true,"vac":true,"version":"7757534","steam_id":85568392924742820,"keywords":["cp","nocrits","nodmgspread","uncletopia"],"game_id":440,"stv_port":27036,"stv_name":"Uncletopia | New York City | 3 | Stopwatch Beta | STV","players":null},{"server_id":16,"name":"Uncletopia | New York City | 4 | Community","name_short":"nyc-4","host":"nyc-1.us.uncletopia.com","port":27045,"enabled":true,"region":"us-east","cc":"us","latitude":40.73061,"longitude":-73.93524,"reserved":0,"last_update":"0001-01-01T00:00:00Z","name_a2s":"Uncletopia | New York City | 4 | Community","protocol":17,"map":"workshop/koth_synthetic_rc6a.ugc1549817316","folder":"tf","game":"Team Fortress","app_id":440,"player_count":0,"max_players":24,"Bots":0,"server_type":"Dedicated","server_os":"Linux","password":true,"vac":true,"version":"7757534","steam_id":85568392924742821,"keywords":["cp","nocrits","nodmgspread","uncletopia"],"game_id":440,"stv_port":27046,"stv_name":"Uncletopia | New York City | 4 | Community | STV","players":null},{"server_id":142,"name":"Uncletopia | São Paulo | 1 | All Maps","name_short":"sao-1","host":"sao-1.br.uncletopia.com","port":27015,"enabled":true,"region":"sa","cc":"br","latitude":-23.533773,"longitude":-46.62529,"reserved":0,"last_update":"0001-01-01T00:00:00Z","name_a2s":"Uncletopia | São Paulo | 1 | All Maps","protocol":17,"map":"koth_cascade","folder":"tf","game":"Team Fortress","app_id":440,"player_count":0,"max_players":24,"Bots":0,"server_type":"Dedicated","server_os":"Linux","password":true,"vac":true,"version":"7757534","steam_id":85568392924469996,"keywords":["cp","nocrits","nodmgspread","uncletopia"],"game_id":440,"stv_port":27016,"stv_name":"Uncletopia | São Paulo | 1 | All Maps | STV","players":null},{"server_id":143,"name":"Uncletopia | São Paulo | 2 | All Maps","name_short":"sao-2","host":"sao-2.br.uncletopia.com","port":27015,"enabled":true,"region":"sa","cc":"br","latitude":-23.533773,"longitude":-46.62529,"reserved":0,"last_update":"0001-01-01T00:00:00Z","name_a2s":"Uncletopia | São Paulo | 2 | All Maps","protocol":17,"map":"koth_cascade","folder":"tf","game":"Team Fortress","app_id":440,"player_count":0,"max_players":24,"Bots":0,"server_type":"Dedicated","server_os":"Linux","password":true,"vac":true,"version":"7757534","steam_id":85568392924485349,"keywords":["cp","nocrits","nodmgspread","uncletopia"],"game_id":440,"stv_port":27016,"stv_name":"Uncletopia | São Paulo | 2 | All Maps | STV","players":null},{"server_id":7,"name":"Uncletopia | Seattle | 1 | All Maps","name_short":"sea-1","host":"sea-1.us.uncletopia.com","port":27015,"enabled":true,"region":"us-west","cc":"us","latitude":47.608013,"longitude":-122.33517,"reserved":0,"last_update":"0001-01-01T00:00:00Z","name_a2s":"Uncletopia | Seattle | 1 | All Maps","protocol":17,"map":"pl_pier","folder":"tf","game":"Team Fortress","app_id":440,"player_count":24,"max_players":24,"Bots":0,"server_type":"Dedicated","server_os":"Linux","password":true,"vac":true,"version":"7757534","steam_id":85568392924469997,"keywords":["nocrits","nodmgspread","payload","uncletopia"],"game_id":440,"stv_port":27016,"stv_name":"Uncletopia | Seattle | 1 | All Maps | STV","players":[{"user_id":765,"name":"rat gets the cheese","steam_id":76561198031234032,"connected_time":372000000000,"state":"active","ping":95},{"user_id":767,"name":"Arsonist Goose","steam_id":76561198147441830,"connected_time":359000000000,"state":"active","ping":73},{"user_id":758,"name":"Clemont007","steam_id":76561198030935625,"connected_time":1553000000000,"state":"active","ping":84},{"user_id":753,"name":"Chekkaa","steam_id":76561198035140767,"connected_time":2331000000000,"state":"active","ping":44},{"user_id":754,"name":"Chad the Sex Haver","steam_id":76561198058236528,"connected_time":2112000000000,"state":"active","ping":89},{"user_id":710,"name":"jungus","steam_id":76561198129862008,"connected_time":6528000000000,"state":"active","ping":75},{"user_id":655,"name":"Level 99 Mudcrab","steam_id":76561198077452771,"connected_time":12330000000000,"state":"active","ping":56},{"user_id":649,"name":"Empyrean","steam_id":76561198116398716,"connected_time":13499000000000,"state":"active","ping":87},{"user_id":768,"name":"[TrC] Dackstrus","steam_id":76561197973518509,"connected_time":358000000000,"state":"active","ping":60},{"user_id":772,"name":"namaste at home dad","steam_id":76561198056971063,"connected_time":177000000000,"state":"active","ping":106},{"user_id":757,"name":"Ignignokt","steam_id":76561198162207470,"connected_time":1669000000000,"state":"active","ping":68},{"user_id":774,"name":"raku","steam_id":76561198124069038,"connected_time":171000000000,"state":"active","ping":63},{"user_id":718,"name":"Jade","steam_id":76561198151596927,"connected_time":6207000000000,"state":"active","ping":104},{"user_id":682,"name":"Grand","steam_id":76561198290143399,"connected_time":10019000000000,"state":"active","ping":76},{"user_id":775,"name":"brobtlcehc","steam_id":76561198043558709,"connected_time":144000000000,"state":"active","ping":46},{"user_id":777,"name":"You.","steam_id":76561199192245921,"connected_time":78000000000,"state":"active","ping":122},{"user_id":752,"name":"Melon Doge","steam_id":76561199006526991,"connected_time":2375000000000,"state":"active","ping":85},{"user_id":730,"name":"Mignyanne :3","steam_id":76561198048754056,"connected_time":5338000000000,"state":"active","ping":76},{"user_id":748,"name":"doozy","steam_id":76561198033106776,"connected_time":2497000000000,"state":"active","ping":88},{"user_id":759,"name":"gatorbelt","steam_id":76561198145784505,"connected_time":1539000000000,"state":"active","ping":82},{"user_id":716,"name":"lavender","steam_id":76561199069518286,"connected_time":6448000000000,"state":"active","ping":72},{"user_id":749,"name":"Ghee Buttersnaps","steam_id":76561199225708271,"connected_time":2491000000000,"state":"active","ping":64},{"user_id":674,"name":"Truffles","steam_id":76561198095868800,"connected_time":11012000000000,"state":"active","ping":117},{"user_id":764,"name":"flishko","steam_id":76561198326489802,"connected_time":1016000000000,"state":"active","ping":58}]},{"server_id":119,"name":"Uncletopia | Seattle | 2 | All Maps","name_short":"sea-2","host":"sea-1.us.uncletopia.com","port":27025,"enabled":true,"region":"us-west","cc":"us","latitude":47.608013,"longitude":-122.33517,"reserved":0,"last_update":"0001-01-01T00:00:00Z","name_a2s":"Uncletopia | Seattle | 2 | All Maps","protocol":17,"map":"pl_badwater","folder":"tf","game":"Team Fortress","app_id":440,"player_count":19,"max_players":24,"Bots":0,"server_type":"Dedicated","server_os":"Linux","password":true,"vac":true,"version":"7757534","steam_id":85568392924469998,"keywords":["nocrits","nodmgspread","payload","uncletopia"],"game_id":440,"stv_port":27026,"stv_name":"Uncletopia | Seattle | 2 | All Maps | STV","players":[{"user_id":304,"name":"Caramel_Chalice","steam_id":76561198307609692,"connected_time":193000000000,"state":"active","ping":63},{"user_id":307,"name":"Waffle \u003c3","steam_id":76561199060912561,"connected_time":97000000000,"state":"active","ping":89},{"user_id":284,"name":"Omega-Kiba","steam_id":76561198154594523,"connected_time":879000000000,"state":"active","ping":82},{"user_id":263,"name":"Stev the Prurient Oxymoron","steam_id":76561197999442625,"connected_time":2192000000000,"state":"active","ping":56},{"user_id":299,"name":"Wender","steam_id":76561198995247917,"connected_time":308000000000,"state":"active","ping":97},{"user_id":305,"name":"Reagent","steam_id":76561198039663113,"connected_time":157000000000,"state":"active","ping":78},{"user_id":308,"name":"Cassandra (She/her)","steam_id":76561198094123940,"connected_time":85000000000,"state":"active","ping":114},{"user_id":267,"name":"A UsedNom","steam_id":76561198402832756,"connected_time":1628000000000,"state":"active","ping":46},{"user_id":309,"name":"ayaya?","steam_id":76561199000188109,"connected_time":38000000000,"state":"active","ping":84},{"user_id":268,"name":"pumba","steam_id":76561198207881077,"connected_time":1624000000000,"state":"active","ping":101},{"user_id":310,"name":"jackpot","steam_id":76561198065339248,"connected_time":19000000000,"state":"active","ping":60},{"user_id":290,"name":"sara","steam_id":76561198283462369,"connected_time":760000000000,"state":"active","ping":75},{"user_id":294,"name":"savetf2 Ringu 3000","steam_id":76561199387173463,"connected_time":408000000000,"state":"active","ping":110},{"user_id":302,"name":"Nobuunga","steam_id":76561198100614981,"connected_time":214000000000,"state":"active","ping":58},{"user_id":280,"name":"Excalibrine","steam_id":76561198129312118,"connected_time":1026000000000,"state":"active","ping":32},{"user_id":191,"name":"chicken wit dah eggrow","steam_id":76561198115458307,"connected_time":9178000000000,"state":"active","ping":75},{"user_id":295,"name":"InfernoFlower64","steam_id":76561198181097391,"connected_time":389000000000,"state":"active","ping":146},{"user_id":209,"name":"garry","steam_id":76561199091007559,"connected_time":7236000000000,"state":"active","ping":79},{"user_id":194,"name":"Dot.","steam_id":76561198149463984,"connected_time":9111000000000,"state":"active","ping":73}]},{"server_id":406,"name":"Uncletopia | Seattle | 3 | Stopwatch Beta","name_short":"sea-3","host":"sea-1.us.uncletopia.com","port":27035,"enabled":true,"region":"us-west","cc":"us","latitude":47.608013,"longitude":-122.33517,"reserved":0,"last_update":"0001-01-01T00:00:00Z","name_a2s":"Uncletopia | Seattle | 3 | Stopwatch Beta","protocol":17,"map":"workshop/pl_summercoast_rc8e.ugc1761528829","folder":"tf","game":"Team Fortress","app_id":440,"player_count":0,"max_players":24,"Bots":0,"server_type":"Dedicated","server_os":"Linux","password":true,"vac":true,"version":"7757534","steam_id":85568392924515217,"keywords":["nocrits","nodmgspread","payload","uncletopia"],"game_id":440,"stv_port":27036,"stv_name":"Uncletopia | Seattle | 3 | Stopwatch Beta | STV","players":null},{"server_id":17,"name":"Uncletopia | San Francisco | 1 | All Maps","name_short":"sfo-1","host":"sfo-1.us.uncletopia.com","port":27015,"enabled":true,"region":"us-west","cc":"us","latitude":37.77397,"longitude":-122.4313,"reserved":0,"last_update":"0001-01-01T00:00:00Z","name_a2s":"Uncletopia | San Francisco | 1 | All Maps","protocol":17,"map":"pl_pier","folder":"tf","game":"Team Fortress","app_id":440,"player_count":24,"max_players":24,"Bots":0,"server_type":"Dedicated","server_os":"Linux","password":true,"vac":true,"version":"7757534","steam_id":85568392924469999,"keywords":["nocrits","nodmgspread","payload","uncletopia"],"game_id":440,"stv_port":27016,"stv_name":"Uncletopia | San Francisco | 1 | All Maps | STV","players":[{"user_id":330,"name":"remilia","steam_id":76561198069180543,"connected_time":847000000000,"state":"active","ping":49},{"user_id":327,"name":"Sadodere Grimace","steam_id":76561198008332028,"connected_time":1435000000000,"state":"active","ping":62},{"user_id":313,"name":"Humus","steam_id":76561198175286355,"connected_time":2917000000000,"state":"active","ping":58},{"user_id":334,"name":"goldhed","steam_id":76561198051751133,"connected_time":701000000000,"state":"active","ping":70},{"user_id":321,"name":"Loamy","steam_id":76561198064183674,"connected_time":2305000000000,"state":"active","ping":60},{"user_id":342,"name":"Defeat","steam_id":76561198065203818,"connected_time":32000000000,"state":"active","ping":60},{"user_id":322,"name":"Ace","steam_id":76561199202306398,"connected_time":2300000000000,"state":"active","ping":61},{"user_id":263,"name":"NotAWeeb","steam_id":76561198165530739,"connected_time":6174000000000,"state":"active","ping":45},{"user_id":323,"name":"Testicular Torsion","steam_id":76561197968179862,"connected_time":2289000000000,"state":"active","ping":104},{"user_id":339,"name":"non menthol newport","steam_id":76561198041907345,"connected_time":590000000000,"state":"active","ping":68},{"user_id":175,"name":"Filthy Hobo","steam_id":76561198174373015,"connected_time":14050000000000,"state":"active","ping":150},{"user_id":335,"name":"Markz","steam_id":76561197996278159,"connected_time":657000000000,"state":"active","ping":70},{"user_id":304,"name":"BBL Sponsor","steam_id":76561199093733603,"connected_time":3933000000000,"state":"active","ping":60},{"user_id":332,"name":"Don Kalavera","steam_id":76561198122534103,"connected_time":826000000000,"state":"active","ping":109},{"user_id":336,"name":"Gay Cake","steam_id":76561198004388831,"connected_time":638000000000,"state":"active","ping":122},{"user_id":315,"name":"PonYOOOOOOO","steam_id":76561199067424111,"connected_time":2893000000000,"state":"active","ping":65},{"user_id":314,"name":"MinusSoup918","steam_id":76561198060902773,"connected_time":2904000000000,"state":"active","ping":76},{"user_id":329,"name":"oil","steam_id":76561198099980149,"connected_time":960000000000,"state":"active","ping":62},{"user_id":341,"name":"Durazorn","steam_id":76561198096327396,"connected_time":394000000000,"state":"active","ping":120},{"user_id":318,"name":"HE’S IN THE GODDAMN WALLS","steam_id":76561198363267009,"connected_time":2617000000000,"state":"active","ping":80},{"user_id":224,"name":"Nez","steam_id":76561197963109059,"connected_time":10278000000000,"state":"active","ping":80},{"user_id":337,"name":"Prime","steam_id":76561198218218705,"connected_time":636000000000,"state":"active","ping":95},{"user_id":338,"name":"Lt. Dan's Legs","steam_id":76561198043851584,"connected_time":631000000000,"state":"active","ping":187},{"user_id":242,"name":"rmbl","steam_id":76561198150137369,"connected_time":8843000000000,"state":"active","ping":59}]},{"server_id":18,"name":"Uncletopia | San Francisco | 2 | All Maps","name_short":"sfo-2","host":"sfo-1.us.uncletopia.com","port":27025,"enabled":true,"region":"us-west","cc":"us","latitude":37.77397,"longitude":-122.4313,"reserved":0,"last_update":"0001-01-01T00:00:00Z","name_a2s":"Uncletopia | San Francisco | 2 | All Maps","protocol":17,"map":"pl_badwater","folder":"tf","game":"Team Fortress","app_id":440,"player_count":24,"max_players":24,"Bots":0,"server_type":"Dedicated","server_os":"Linux","password":true,"vac":true,"version":"7757534","steam_id":85568392924470000,"keywords":["nocrits","nodmgspread","payload","uncletopia"],"game_id":440,"stv_port":27026,"stv_name":"Uncletopia | San Francisco | 2 | All Maps | STV","players":[{"user_id":89,"name":"Holden Madickey","steam_id":76561198254808796,"connected_time":1117000000000,"state":"active","ping":69},{"user_id":46,"name":"Squidlye","steam_id":76561199015857743,"connected_time":3061000000000,"state":"active","ping":92},{"user_id":69,"name":"Kaluka","steam_id":76561198036861445,"connected_time":2030000000000,"state":"active","ping":107},{"user_id":36,"name":"Cute Gatito","steam_id":76561198351147780,"connected_time":4064000000000,"state":"active","ping":56},{"user_id":53,"name":"TheDucknes","steam_id":76561198101778189,"connected_time":2588000000000,"state":"active","ping":88},{"user_id":93,"name":"Hamburder","steam_id":76561198085339592,"connected_time":957000000000,"state":"active","ping":114},{"user_id":88,"name":"Octy Overlord","steam_id":76561199002569948,"connected_time":1185000000000,"state":"active","ping":68},{"user_id":55,"name":"Seriously Bruh","steam_id":76561198070408485,"connected_time":2477000000000,"state":"active","ping":61},{"user_id":42,"name":"Frank Accardi","steam_id":76561198017275707,"connected_time":3261000000000,"state":"active","ping":84},{"user_id":47,"name":"Oxferd Crow","steam_id":76561198096916018,"connected_time":3047000000000,"state":"active","ping":82},{"user_id":96,"name":"Lime","steam_id":76561198080786408,"connected_time":580000000000,"state":"active","ping":72},{"user_id":85,"name":"Uprightmoss7528","steam_id":76561199200138486,"connected_time":1476000000000,"state":"active","ping":73},{"user_id":91,"name":"Isopentyl Ethanoate","steam_id":76561198116389072,"connected_time":999000000000,"state":"active","ping":84},{"user_id":57,"name":"TriggerHappyPacifist","steam_id":76561197963455267,"connected_time":2455000000000,"state":"active","ping":76},{"user_id":76,"name":"BananaFana","steam_id":76561198008891875,"connected_time":1811000000000,"state":"active","ping":55},{"user_id":97,"name":"Ocelot Super","steam_id":76561197979614118,"connected_time":499000000000,"state":"active","ping":73},{"user_id":86,"name":"Jules","steam_id":76561198044358370,"connected_time":1455000000000,"state":"active","ping":119},{"user_id":71,"name":"rose","steam_id":76561197995200743,"connected_time":1994000000000,"state":"active","ping":48},{"user_id":94,"name":"Lily Thorn","steam_id":76561198305488625,"connected_time":936000000000,"state":"active","ping":86},{"user_id":98,"name":"Agentnickel","steam_id":76561199186723516,"connected_time":403000000000,"state":"active","ping":57},{"user_id":78,"name":"Monsieur Marley","steam_id":76561198153543927,"connected_time":1709000000000,"state":"active","ping":55},{"user_id":100,"name":"Interrobang","steam_id":76561198385044529,"connected_time":57000000000,"state":"active","ping":104},{"user_id":81,"name":"squallybox","steam_id":76561198335569094,"connected_time":1599000000000,"state":"active","ping":117},{"user_id":84,"name":"ronald","steam_id":76561197960691622,"connected_time":1504000000000,"state":"active","ping":52}]},{"server_id":19,"name":"Uncletopia | San Francisco | 3 | Stopwatch Beta","name_short":"sfo-3","host":"sfo-1.us.uncletopia.com","port":27035,"enabled":true,"region":"us-west","cc":"us","latitude":37.77397,"longitude":-122.4313,"reserved":0,"last_update":"0001-01-01T00:00:00Z","name_a2s":"Uncletopia | San Francisco | 3 | Stopwatch Beta","protocol":17,"map":"workshop/pl_vigil_rc9.ugc1266210012","folder":"tf","game":"Team Fortress","app_id":440,"player_count":0,"max_players":24,"Bots":0,"server_type":"Dedicated","server_os":"Linux","password":true,"vac":true,"version":"7757534","steam_id":85568392924742824,"keywords":["nocrits","nodmgspread","payload","uncletopia"],"game_id":440,"stv_port":27036,"stv_name":"Uncletopia | San Francisco | 3 | Stopwatch Beta | STV","players":null},{"server_id":20,"name":"Uncletopia | San Francisco | 4 | Community","name_short":"sfo-4","host":"sfo-1.us.uncletopia.com","port":27045,"enabled":true,"region":"us-west","cc":"us","latitude":37.77397,"longitude":-122.4313,"reserved":0,"last_update":"0001-01-01T00:00:00Z","name_a2s":"Uncletopia | San Francisco | 4 | Community","protocol":17,"map":"workshop/koth_bagel_rc5.ugc2514036946","folder":"tf","game":"Team Fortress","app_id":440,"player_count":0,"max_players":24,"Bots":0,"server_type":"Dedicated","server_os":"Linux","password":true,"vac":true,"version":"7757534","steam_id":85568392924742826,"keywords":["cp","nocrits","nodmgspread","uncletopia"],"game_id":440,"stv_port":27046,"stv_name":"Uncletopia | San Francisco | 4 | Community | STV","players":null},{"server_id":141,"name":"Uncletopia | Sydney | 1 | All Maps","name_short":"syd-1","host":"syd-1.au.uncletopia.com","port":27015,"enabled":true,"region":"au","cc":"au","latitude":-33.865143,"longitude":151.2099,"reserved":0,"last_update":"0001-01-01T00:00:00Z","name_a2s":"Uncletopia | Sydney | 1 | All Maps","protocol":17,"map":"pl_borneo","folder":"tf","game":"Team Fortress","app_id":440,"player_count":24,"max_players":24,"Bots":0,"server_type":"Dedicated","server_os":"Linux","password":true,"vac":true,"version":"7757534","steam_id":85568392924470001,"keywords":["nocrits","nodmgspread","payload","uncletopia"],"game_id":440,"stv_port":27016,"stv_name":"Uncletopia | Sydney | 1 | All Maps | STV","players":[{"user_id":344,"name":"helton1 #RemoveCrossbow","steam_id":76561198841855657,"connected_time":1610000000000,"state":"active","ping":56},{"user_id":330,"name":"Tiger_Tan","steam_id":76561198221733844,"connected_time":2842000000000,"state":"active","ping":62},{"user_id":237,"name":"nojnosbod11","steam_id":76561199176012151,"connected_time":8410000000000,"state":"active","ping":64},{"user_id":351,"name":"Nyanderthal","steam_id":76561198843075573,"connected_time":1072000000000,"state":"active","ping":67},{"user_id":311,"name":"hobo","steam_id":76561199046481213,"connected_time":4092000000000,"state":"active","ping":67},{"user_id":294,"name":"old chunk of coal","steam_id":76561197990537324,"connected_time":5051000000000,"state":"active","ping":107},{"user_id":331,"name":"EpicGuy4227","steam_id":76561198094132328,"connected_time":2841000000000,"state":"active","ping":53},{"user_id":394,"name":"Crab","steam_id":76561198121717806,"connected_time":340000000000,"state":"active","ping":69},{"user_id":352,"name":"bowser","steam_id":76561198271462646,"connected_time":969000000000,"state":"active","ping":48},{"user_id":346,"name":"Jonny","steam_id":76561198053391732,"connected_time":1114000000000,"state":"active","ping":79},{"user_id":273,"name":"Paula","steam_id":76561198010688399,"connected_time":6116000000000,"state":"active","ping":79},{"user_id":324,"name":"lem","steam_id":76561199119233603,"connected_time":3701000000000,"state":"active","ping":54},{"user_id":326,"name":"Empr","steam_id":76561198024387396,"connected_time":3276000000000,"state":"active","ping":64},{"user_id":313,"name":"Bing Soy","steam_id":76561198057093383,"connected_time":4045000000000,"state":"active","ping":53},{"user_id":320,"name":"iesApac","steam_id":76561198176708635,"connected_time":3818000000000,"state":"active","ping":70},{"user_id":343,"name":"zen","steam_id":76561198302670452,"connected_time":1911000000000,"state":"active","ping":57},{"user_id":390,"name":"liam","steam_id":76561198046239819,"connected_time":449000000000,"state":"active","ping":90},{"user_id":349,"name":"Finios","steam_id":76561198209013071,"connected_time":1093000000000,"state":"active","ping":56},{"user_id":341,"name":"Oysenberry","steam_id":76561198125443335,"connected_time":2178000000000,"state":"active","ping":45},{"user_id":395,"name":"ScaleForm","steam_id":76561198950855452,"connected_time":290000000000,"state":"active","ping":62},{"user_id":336,"name":"Stock™","steam_id":76561198089242483,"connected_time":2802000000000,"state":"active","ping":51},{"user_id":401,"name":"ziah","steam_id":76561198159375596,"connected_time":89000000000,"state":"active","ping":54},{"user_id":318,"name":"Glockenspe (She/Her)","steam_id":76561199184115241,"connected_time":3936000000000,"state":"active","ping":50},{"user_id":350,"name":"krandlez` (Any/All)","steam_id":76561198044839726,"connected_time":1093000000000,"state":"active","ping":39}]},{"server_id":123,"name":"Uncletopia | Sydney | 2 | All Maps","name_short":"syd-2","host":"syd-1.au.uncletopia.com","port":27025,"enabled":true,"region":"au","cc":"au","latitude":-33.865143,"longitude":151.2099,"reserved":0,"last_update":"0001-01-01T00:00:00Z","name_a2s":"Uncletopia | Sydney | 2 | All Maps","protocol":17,"map":"pl_upward","folder":"tf","game":"Team Fortress","app_id":440,"player_count":14,"max_players":24,"Bots":0,"server_type":"Dedicated","server_os":"Linux","password":true,"vac":true,"version":"7757534","steam_id":85568392924470002,"keywords":["nocrits","nodmgspread","payload","uncletopia"],"game_id":440,"stv_port":27026,"stv_name":"Uncletopia | Sydney | 2 | All Maps | STV","players":[{"user_id":118,"name":"Dean Beaumont","steam_id":76561198061201028,"connected_time":150000000000,"state":"active","ping":52},{"user_id":98,"name":"chaquitabananaobama","steam_id":76561198011034463,"connected_time":889000000000,"state":"active","ping":63},{"user_id":114,"name":"TW_light2022","steam_id":76561199393566784,"connected_time":236000000000,"state":"active","ping":65},{"user_id":115,"name":"cretin","steam_id":76561198127848228,"connected_time":217000000000,"state":"active","ping":60},{"user_id":116,"name":"Kremmen","steam_id":76561198051368641,"connected_time":207000000000,"state":"active","ping":65},{"user_id":85,"name":"JayTheLlamaKing","steam_id":76561198836354249,"connected_time":2017000000000,"state":"active","ping":68},{"user_id":117,"name":"Ham Man","steam_id":76561198096630953,"connected_time":196000000000,"state":"active","ping":70},{"user_id":102,"name":"SWAG DRAGON","steam_id":76561197960279341,"connected_time":694000000000,"state":"active","ping":59},{"user_id":92,"name":"toucan","steam_id":76561199229260149,"connected_time":1320000000000,"state":"active","ping":70},{"user_id":104,"name":"hooligan","steam_id":76561198156362137,"connected_time":649000000000,"state":"active","ping":90},{"user_id":97,"name":"Morgenstern","steam_id":76561198253080474,"connected_time":1120000000000,"state":"active","ping":64},{"user_id":110,"name":"tweedie","steam_id":76561198063425523,"connected_time":498000000000,"state":"active","ping":66},{"user_id":113,"name":"lapisss","steam_id":76561198828325267,"connected_time":360000000000,"state":"active","ping":81},{"user_id":112,"name":"JustifiedJordan","steam_id":76561198064538629,"connected_time":384000000000,"state":"active","ping":60}]},{"server_id":395,"name":"Uncletopia | Sydney | 3 | All Maps","name_short":"syd-3","host":"syd-1.au.uncletopia.com","port":27035,"enabled":true,"region":"au","cc":"au","latitude":-33.865143,"longitude":151.2099,"reserved":0,"last_update":"0001-01-01T00:00:00Z","name_a2s":"Uncletopia | Sydney | 3 | All Maps","protocol":17,"map":"pl_wutville_event","folder":"tf","game":"Team Fortress","app_id":440,"player_count":0,"max_players":24,"Bots":0,"server_type":"Dedicated","server_os":"Linux","password":true,"vac":true,"version":"7757534","steam_id":85568392925194467,"keywords":["nocrits","nodmgspread","payload","uncletopia"],"game_id":440,"stv_port":27036,"stv_name":"Uncletopia | Sydney | 3 | All Maps | STV","players":null},{"server_id":396,"name":"Uncletopia | Sydney | 4 | All Maps","name_short":"syd-4","host":"syd-1.au.uncletopia.com","port":27045,"enabled":true,"region":"au","cc":"au","latitude":-33.865143,"longitude":151.2099,"reserved":0,"last_update":"0001-01-01T00:00:00Z","name_a2s":"Uncletopia | Sydney | 4 | All Maps","protocol":17,"map":"cp_dustbowl","folder":"tf","game":"Team Fortress","app_id":440,"player_count":3,"max_players":24,"Bots":0,"server_type":"Dedicated","server_os":"Linux","password":true,"vac":true,"version":"7757534","steam_id":85568392925397958,"keywords":["cp","nocrits","nodmgspread","uncletopia"],"game_id":440,"stv_port":27046,"stv_name":"Uncletopia | Sydney | 4 | All Maps | STV","players":[{"user_id":25,"name":"i am the audience","steam_id":76561199213569693,"connected_time":244000000000,"state":"active","ping":106},{"user_id":22,"name":"Combine hl2 real","steam_id":76561199060614128,"connected_time":1522000000000,"state":"active","ping":49},{"user_id":24,"name":"Elijem","steam_id":76561199230500450,"connected_time":647000000000,"state":"active","ping":82}]},{"server_id":58,"name":"Uncletopia | Sydney | 5 | Stopwatch Beta","name_short":"syd-5","host":"syd-1.au.uncletopia.com","port":27055,"enabled":true,"region":"au","cc":"au","latitude":-33.865143,"longitude":151.2099,"reserved":0,"last_update":"0001-01-01T00:00:00Z","name_a2s":"Uncletopia | Sydney | 5 | Stopwatch Beta","protocol":17,"map":"pl_barnblitz","folder":"tf","game":"Team Fortress","app_id":440,"player_count":0,"max_players":24,"Bots":0,"server_type":"Dedicated","server_os":"Linux","password":true,"vac":true,"version":"7757534","steam_id":85568392925397959,"keywords":["nocrits","nodmgspread","payload","uncletopia"],"game_id":440,"stv_port":27056,"stv_name":"Uncletopia | Sydney | 5 | Stopwatch Beta | STV","players":null},{"server_id":59,"name":"Uncletopia | Sydney | 6 | Community","name_short":"syd-6","host":"syd-1.au.uncletopia.com","port":27065,"enabled":true,"region":"au","cc":"au","latitude":-33.865143,"longitude":151.2099,"reserved":0,"last_update":"0001-01-01T00:00:00Z","name_a2s":"Uncletopia | Sydney | 6 | Community","protocol":17,"map":"workshop/koth_synthetic_rc6a.ugc1549817316","folder":"tf","game":"Team Fortress","app_id":440,"player_count":0,"max_players":24,"Bots":0,"server_type":"Dedicated","server_os":"Linux","password":true,"vac":true,"version":"7757534","steam_id":85568392925397960,"keywords":["cp","nocrits","nodmgspread","uncletopia"],"game_id":440,"stv_port":27066,"stv_name":"Uncletopia | Sydney | 6 | Community | STV","players":null},{"server_id":49,"name":"Uncletopia | Warsaw | 1 | All Maps","name_short":"waw-1","host":"waw-1.pl.uncletopia.com","port":27015,"enabled":true,"region":"eu","cc":"pl","latitude":52.2297,"longitude":21.017532,"reserved":0,"last_update":"0001-01-01T00:00:00Z","name_a2s":"","protocol":0,"map":"","folder":"","game":"","app_id":0,"player_count":0,"max_players":0,"Bots":0,"server_type":"","server_os":"","password":false,"vac":false,"version":"","steam_id":0,"keywords":null,"game_id":0,"stv_port":0,"stv_name":"","players":null},{"server_id":50,"name":"Uncletopia | Warsaw | 2 | All Maps","name_short":"waw-2","host":"waw-1.pl.uncletopia.com","port":27025,"enabled":true,"region":"eu","cc":"pl","latitude":52.2297,"longitude":21.017532,"reserved":0,"last_update":"0001-01-01T00:00:00Z","name_a2s":"Uncletopia | Warsaw | 2 | All Maps","protocol":17,"map":"cp_snakewater_final1","folder":"tf","game":"Team Fortress","app_id":440,"player_count":0,"max_players":24,"Bots":0,"server_type":"Dedicated","server_os":"Linux","password":true,"vac":true,"version":"7757534","steam_id":85568392925397851,"keywords":["cp","nocrits","nodmgspread","uncletopia"],"game_id":440,"stv_port":27026,"stv_name":"Uncletopia | Warsaw | 2 | All Maps | STV","players":null},{"server_id":51,"name":"Uncletopia | Warsaw | 3 | All Maps","name_short":"waw-3","host":"waw-1.pl.uncletopia.com","port":27035,"enabled":true,"region":"eu","cc":"pl","latitude":52.2297,"longitude":21.017532,"reserved":0,"last_update":"0001-01-01T00:00:00Z","name_a2s":"Uncletopia | Warsaw | 3 | All Maps","protocol":17,"map":"cp_sunshine","folder":"tf","game":"Team Fortress","app_id":440,"player_count":0,"max_players":24,"Bots":0,"server_type":"Dedicated","server_os":"Linux","password":true,"vac":true,"version":"7757534","steam_id":85568392925397852,"keywords":["cp","nocrits","nodmgspread","uncletopia"],"game_id":440,"stv_port":27036,"stv_name":"Uncletopia | Warsaw | 3 | All Maps | STV","players":null},{"server_id":52,"name":"Uncletopia | Warsaw | 4 | All Maps","name_short":"waw-4","host":"waw-1.pl.uncletopia.com","port":27045,"enabled":true,"region":"eu","cc":"pl","latitude":52.2297,"longitude":21.017532,"reserved":0,"last_update":"0001-01-01T00:00:00Z","name_a2s":"Uncletopia | Warsaw | 4 | All Maps","protocol":17,"map":"pl_borneo","folder":"tf","game":"Team Fortress","app_id":440,"player_count":0,"max_players":24,"Bots":0,"server_type":"Dedicated","server_os":"Linux","password":true,"vac":true,"version":"7757534","steam_id":85568392925397853,"keywords":["nocrits","nodmgspread","payload","uncletopia"],"game_id":440,"stv_port":27046,"stv_name":"Uncletopia | Warsaw | 4 | All Maps | STV","players":null},{"server_id":53,"name":"Uncletopia | Warsaw | 5 | Stopwatch Beta","name_short":"waw-5","host":"waw-1.pl.uncletopia.com","port":27055,"enabled":true,"region":"eu","cc":"pl","latitude":52.2297,"longitude":21.017532,"reserved":0,"last_update":"0001-01-01T00:00:00Z","name_a2s":"Uncletopia | Warsaw | 5 | Stopwatch Beta","protocol":17,"map":"pl_upward","folder":"tf","game":"Team Fortress","app_id":440,"player_count":0,"max_players":24,"Bots":0,"server_type":"Dedicated","server_os":"Linux","password":true,"vac":true,"version":"7757534","steam_id":85568392925397854,"keywords":["nocrits","nodmgspread","payload","uncletopia"],"game_id":440,"stv_port":27056,"stv_name":"Uncletopia | Warsaw | 5 | Stopwatch Beta | STV","players":null},{"server_id":54,"name":"Uncletopia | Warsaw | 6 | Community","name_short":"waw-6","host":"waw-1.pl.uncletopia.com","port":27065,"enabled":true,"region":"eu","cc":"pl","latitude":52.2297,"longitude":21.017532,"reserved":0,"last_update":"0001-01-01T00:00:00Z","name_a2s":"Uncletopia | Warsaw | 6 | Community","protocol":17,"map":"pl_barnblitz","folder":"tf","game":"Team Fortress","app_id":440,"player_count":0,"max_players":24,"Bots":0,"server_type":"Dedicated","server_os":"Linux","password":true,"vac":true,"version":"7757534","steam_id":85568392925397856,"keywords":["nocrits","nodmgspread","payload","uncletopia"],"game_id":440,"stv_port":27066,"stv_name":"Uncletopia | Warsaw | 6 | Community | STV","players":null}]}