{"status":true,"message":"","result":[{"server_id":9,"name":"Uncletopia | Atlanta | 1 | All Maps","name_short":"atl-1","host":"atl-1.us.uncletopia.com","port":27015,"enabled":true,"region":"us-east","cc":"us","latitude":33.753746,"longitude":-84.38633,"reserved":0,"last_update":"0001-01-01T00:00:00Z","name_a2s":"Uncletopia | Atlanta | 1 | All Maps","protocol":17,"map":"koth_lakeside_final","folder":"tf","game":"Team Fortress","app_id":440,"player_count":23,"max_players":24,"Bots":0,"server_type":"Dedicated","server_os":"Linux","password":true,"vac":true,"version":"7723704","steam_id":85568392924469982,"keywords":["cp","nocrits","nodmgspread","uncletopia"],"game_id":440,"stv_port":27016,"stv_name":"Uncletopia | Atlanta | 1 | All Maps | STV","players":[{"user_id":58,"name":"danielaugello15","steam_id":76561199235977512,"connected_time":1727000000000,"state":"active","ping":145},{"user_id":69,"name":"Rev","steam_id":76561199022775511,"connected_time":851000000000,"state":"active","ping":122},{"user_id":68,"name":"HUGE ANIME TITTIES","steam_id":76561198208316165,"connected_time":886000000000,"state":"active","ping":70},{"user_id":21,"name":"Satori Komeiji","steam_id":76561198158211423,"connected_time":3727000000000,"state":"active","ping":93},{"user_id":67,"name":"KRM/-_.Gaming","steam_id":76561199009228327,"connected_time":932000000000,"state":"active","ping":56},{"user_id":62,"name":"Myagic","steam_id":76561198123746755,"connected_time":1218000000000,"state":"active","ping":75},{"user_id":44,"name":"A_Malebolgia","steam_id":76561198097722818,"connected_time":3011000000000,"state":"active","ping":91},{"user_id":45,"name":"luxin","steam_id":76561198399383047,"connected_time":2849000000000,"state":"active","ping":49},{"user_id":80,"name":"G6 MR 1920","steam_id":76561198111669774,"connected_time":619000000000,"state":"active","ping":64},{"user_id":43,"name":"Kick Down Door 6:00AM TUCK☃RO","steam_id":76561197976146738,"connected_time":3092000000000,"state":"active","ping":81},{"user_id":85,"name":"Rakk","steam_id":76561198855176174,"connected_time":34000000000,"state":"active","ping":107},{"user_id":71,"name":"skulll","steam_id":76561198194530175,"connected_time":802000000000,"state":"active","ping":86},{"user_id":84,"name":"dust","steam_id":76561198045218909,"connected_time":188000000000,"state":"active","ping":102},{"user_id":73,"name":"Reaper","steam_id":76561198435826103,"connected_time":799000000000,"state":"active","ping":72},{"user_id":78,"name":"Zorku","steam_id":76561198060860286,"connected_time":733000000000,"state":"active","ping":58},{"user_id":33,"name":"Doey","steam_id":76561198356353805,"connected_time":3277000000000,"state":"active","ping":65},{"user_id":83,"name":"TheLegoMan2013","steam_id":76561198189409626,"connected_time":257000000000,"state":"active","ping":66},{"user_id":76,"name":"Kagutrena","steam_id":76561198114774533,"connected_time":753000000000,"state":"active","ping":68},{"user_id":55,"name":"Jin Gulilo","steam_id":76561198065151242,"connected_time":1842000000000,"state":"active","ping":67},{"user_id":75,"name":"Rin","steam_id":76561198132096559,"connected_time":786000000000,"state":"active","ping":74},{"user_id":63,"name":"Bunt","steam_id":76561198124477567,"connected_time":1097000000000,"state":"active","ping":39},{"user_id":61,"name":"noskai","steam_id":76561199025693868,"connected_time":1314000000000,"state":"active","ping":48},{"user_id":77,"name":"Styrocheer","steam_id":76561198240267986,"connected_time":748000000000,"state":"active","ping":151}]},{"server_id":400,"name":"Uncletopia | Atlanta | 3 | All Maps","name_short":"atl-3","host":"atl-1.us.uncletopia.com","port":27035,"enabled":true,"region":"us-east","cc":"us","latitude":33.753746,"longitude":-84.38633,"reserved":0,"last_update":"0001-01-01T00:00:00Z","name_a2s":"Uncletopia | Atlanta | 3 | All Maps","protocol":17,"map":"koth_lakeside_final","folder":"tf","game":"Team Fortress","app_id":440,"player_count":0,"max_players":24,"Bots":0,"server_type":"Dedicated","server_os":"Linux","password":true,"vac":true,"version":"7723704","steam_id":85568392924515187,"keywords":["cp","nocrits","nodmgspread","uncletopia"],"game_id":440,"stv_port":27036,"stv_name":"Uncletopia | Atlanta | 3 | All Maps | STV","players":null},{"server_id":401,"name":"Uncletopia | Atlanta | 4 | No Payload","name_short":"atl-4","host":"atl-1.us.uncletopia.com","port":27045,"enabled":true,"region":"us-east","cc":"us","latitude":33.753746,"longitude":-84.38633,"reserved":0,"last_update":"0001-01-01T00:00:00Z","name_a2s":"Uncletopia | Atlanta | 4 | No Payload","protocol":17,"map":"pl_pier","folder":"tf","game":"Team Fortress","app_id":440,"player_count":0,"max_players":24,"Bots":0,"server_type":"Dedicated","server_os":"Linux","password":true,"vac":true,"version":"7723704","steam_id":85568392924515188,"keywords":["nocrits","nodmgspread","payload","uncletopia"],"game_id":440,"stv_port":27046,"stv_name":"Uncletopia | Atlanta | 4 | No Payload | STV","players":null},{"server_id":2,"name":"Uncletopia | Chicago | 1 | All Maps","name_short":"chi-1","host":"chi-1.us.uncletopia.com","port":27015,"enabled":true,"region":"us-central","cc":"us","latitude":41.881832,"longitude":-87.62318,"reserved":0,"last_update":"0001-01-01T00:00:00Z","name_a2s":"Uncletopia | Chicago | 1 | All Maps","protocol":17,"map":"pl_upward","folder":"tf","game":"Team Fortress","app_id":440,"player_count":24,"max_players":24,"Bots":0,"server_type":"Dedicated","server_os":"Linux","password":true,"vac":true,"version":"7723704","steam_id":85568392924469984,"keywords":["nocrits","nodmgspread","payload","uncletopia"],"game_id":440,"stv_port":27016,"stv_name":"Uncletopia | Chicago | 1 | All Maps | STV","players":[{"user_id":183,"name":"Merchants of Misery","steam_id":76561199188142396,"connected_time":3772000000000,"state":"active","ping":72},{"user_id":215,"name":"Female Gamer","steam_id":76561199366482682,"connected_time":1515000000000,"state":"active","ping":95},{"user_id":208,"name":"Nexus935115","steam_id":76561199090105638,"connected_time":2159000000000,"state":"active","ping":46},{"user_id":200,"name":"blob","steam_id":76561198122375328,"connected_time":2471000000000,"state":"active","ping":58},{"user_id":194,"name":"SuperJagops","steam_id":76561198034689716,"connected_time":2528000000000,"state":"active","ping":62},{"user_id":222,"name":"Whorenet","steam_id":76561198090433209,"connected_time":658000000000,"state":"active","ping":87},{"user_id":170,"name":"no","steam_id":76561198248853140,"connected_time":4620000000000,"state":"active","ping":60},{"user_id":92,"name":"Shortbane","steam_id":76561198247166584,"connected_time":13508000000000,"state":"active","ping":72},{"user_id":216,"name":"MagicGnome","steam_id":76561198060886742,"connected_time":1457000000000,"state":"active","ping":76},{"user_id":227,"name":"yaoi waoi","steam_id":76561198046073848,"connected_time":375000000000,"state":"active","ping":93},{"user_id":219,"name":"miracle","steam_id":76561199162583201,"connected_time":1089000000000,"state":"active","ping":84},{"user_id":152,"name":"pablo.gonzales.2004","steam_id":76561199217620385,"connected_time":6766000000000,"state":"active","ping":67},{"user_id":168,"name":"Dumpy","steam_id":76561198067167895,"connected_time":4866000000000,"state":"active","ping":71},{"user_id":228,"name":"Brown_Dream","steam_id":76561198975766145,"connected_time":255000000000,"state":"active","ping":81},{"user_id":230,"name":"wol","steam_id":76561199238923581,"connected_time":188000000000,"state":"active","ping":134},{"user_id":199,"name":"lukamine","steam_id":76561198166827208,"connected_time":2480000000000,"state":"active","ping":93},{"user_id":209,"name":"Veirū Viseris","steam_id":76561197989857176,"connected_time":2158000000000,"state":"active","ping":171},{"user_id":220,"name":"Crosshair","steam_id":76561198070162773,"connected_time":1078000000000,"state":"active","ping":65},{"user_id":221,"name":"how do i play this atgain","steam_id":76561198126358045,"connected_time":991000000000,"state":"active","ping":77},{"user_id":224,"name":"CHI CHI","steam_id":76561198210322871,"connected_time":452000000000,"state":"active","ping":106},{"user_id":166,"name":"Astoriæ!","steam_id":76561199090168858,"connected_time":5547000000000,"state":"active","ping":63},{"user_id":206,"name":"Chestnut","steam_id":76561198078198968,"connected_time":2348000000000,"state":"active","ping":55},{"user_id":226,"name":"pathulhu","steam_id":76561198323941614,"connected_time":418000000000,"state":"active","ping":66},{"user_id":211,"name":"Rumpelforeskin","steam_id":76561198022105119,"connected_time":1931000000000,"state":"active","ping":55}]},{"server_id":106,"name":"Uncletopia | Chicago | 2 | All Maps","name_short":"chi-2","host":"chi-1.us.uncletopia.com","port":27025,"enabled":true,"region":"us-central","cc":"us","latitude":41.881832,"longitude":-87.62318,"reserved":0,"last_update":"0001-01-01T00:00:00Z","name_a2s":"Uncletopia | Chicago | 2 | All Maps","protocol":17,"map":"pl_upward","folder":"tf","game":"Team Fortress","app_id":440,"player_count":24,"max_players":24,"Bots":0,"server_type":"Dedicated","server_os":"Linux","password":true,"vac":true,"version":"7723704","steam_id":85568392924469985,"keywords":["nocrits","nodmgspread","payload","uncletopia"],"game_id":440,"stv_port":27026,"stv_name":"Uncletopia | Chicago | 2 | All Maps | STV","players":[{"user_id":5,"name":"Rornir","steam_id":76561198081829615,"connected_time":2474000000000,"state":"active","ping":36},{"user_id":6,"name":"[FGCP]bon gripper","steam_id":76561198090074621,"connected_time":2166000000000,"state":"active","ping":57},{"user_id":35,"name":"Dzhoshua","steam_id":76561198071915251,"connected_time":967000000000,"state":"active","ping":48},{"user_id":41,"name":"mdharsy","steam_id":76561198065831053,"connected_time":310000000000,"state":"active","ping":53},{"user_id":10,"name":"Bysig_ttv #savetf2","steam_id":76561198086422663,"connected_time":1552000000000,"state":"active","ping":64},{"user_id":12,"name":"DiscoTraveler","steam_id":76561199240168088,"connected_time":1512000000000,"state":"active","ping":74},{"user_id":13,"name":"Albino Jellyfish","steam_id":76561198208561097,"connected_time":1461000000000,"state":"active","ping":68},{"user_id":14,"name":"Tupac But White","steam_id":76561198061591743,"connected_time":1429000000000,"state":"active","ping":58},{"user_id":15,"name":"Friendly Robo","steam_id":76561198982369510,"connected_time":1382000000000,"state":"active","ping":56},{"user_id":34,"name":"tools","steam_id":76561199010542612,"connected_time":1091000000000,"state":"active","ping":45},{"user_id":17,"name":"Kaiser Wilhelm II™","steam_id":76561199073434606,"connected_time":1352000000000,"state":"active","ping":174},{"user_id":18,"name":"Clint is wood","steam_id":76561198078798799,"connected_time":1335000000000,"state":"active","ping":143},{"user_id":19,"name":"ghostedghost","steam_id":76561198111410905,"connected_time":1315000000000,"state":"active","ping":93},{"user_id":39,"name":"Nefy","steam_id":76561198030017316,"connected_time":358000000000,"state":"active","ping":77},{"user_id":21,"name":"the cum wizard","steam_id":76561198046098856,"connected_time":1286000000000,"state":"active","ping":59},{"user_id":22,"name":"Freedom Staff","steam_id":76561199123218315,"connected_time":1271000000000,"state":"active","ping":70},{"user_id":36,"name":"Drilly22","steam_id":76561198068838338,"connected_time":954000000000,"state":"active","ping":87},{"user_id":24,"name":"monke","steam_id":76561198057493413,"connected_time":1259000000000,"state":"active","ping":75},{"user_id":25,"name":"dec","steam_id":76561198149691967,"connected_time":1251000000000,"state":"active","ping":135},{"user_id":43,"name":"Quantify45","steam_id":76561198044400135,"connected_time":164000000000,"state":"active","ping":107},{"user_id":37,"name":"horactix","steam_id":76561198239158944,"connected_time":918000000000,"state":"active","ping":52},{"user_id":42,"name":"space resident","steam_id":76561198123282624,"connected_time":308000000000,"state":"active","ping":76},{"user_id":40,"name":"Nuke flavoured sparkling Water","steam_id":76561198372661925,"connected_time":330000000000,"state":"active","ping":166},{"user_id":44,"name":"Rein","steam_id":76561198300340427,"connected_time":45000000000,"state":"active","ping":58}]},{"server_id":402,"name":"Uncletopia | Chicago | 3 | All Maps","name_short":"chi-3","host":"chi-1.us.uncletopia.com","port":27035,"enabled":true,"region":"us-central","cc":"us","latitude":41.881832,"longitude":-87.62318,"reserved":0,"last_update":"0001-01-01T00:00:00Z","name_a2s":"Uncletopia | Chicago | 3 | All Maps","protocol":17,"map":"koth_viaduct","folder":"tf","game":"Team Fortress","app_id":440,"player_count":0,"max_players":24,"Bots":0,"server_type":"Dedicated","server_os":"Linux","password":true,"vac":true,"version":"7723704","steam_id":85568392924515191,"keywords":["cp","nocrits","nodmgspread","uncletopia"],"game_id":440,"stv_port":27036,"stv_name":"Uncletopia | Chicago | 3 | All Maps | STV","players":null},{"server_id":403,"name":"Uncletopia | Chicago | 4 | All Maps","name_short":"chi-4","host":"chi-1.us.uncletopia.com","port":27045,"enabled":true,"region":"us-central","cc":"us","latitude":41.881832,"longitude":-87.62318,"reserved":0,"last_update":"0001-01-01T00:00:00Z","name_a2s":"Uncletopia | Chicago | 4 | All Maps","protocol":17,"map":"pl_barnblitz","folder":"tf","game":"Team Fortress","app_id":440,"player_count":1,"max_players":24,"Bots":0,"server_type":"Dedicated","server_os":"Linux","password":true,"vac":true,"version":"7723704","steam_id":85568392924515193,"keywords":["nocrits","nodmgspread","payload","uncletopia"],"game_id":440,"stv_port":27046,"stv_name":"Uncletopia | Chicago | 4 | All Maps | STV","players":[{"user_id":5,"name":"LightBulbGlue #SaveTF2","steam_id":76561198329573529,"connected_time":12000000000,"state":"spawning","ping":45}]},{"server_id":36,"name":"Uncletopia | Chicago | 5 | All Maps","name_short":"chi-5","host":"chi-2.us.uncletopia.com","port":27015,"enabled":true,"region":"us-central","cc":"us","latitude":41.881832,"longitude":-87.62318,"reserved":0,"last_update":"0001-01-01T00:00:00Z","name_a2s":"Uncletopia | Chicago | 5 | All Maps","protocol":17,"map":"pl_pier","folder":"tf","game":"Team Fortress","app_id":440,"player_count":24,"max_players":24,"Bots":0,"server_type":"Dedicated","server_os":"Linux","password":true,"vac":true,"version":"7723704","steam_id":85568392924866362,"keywords":["nocrits","nodmgspread","payload","uncletopia"],"game_id":440,"stv_port":27016,"stv_name":"Uncletopia | Chicago | 5 | All Maps | STV","players":[{"user_id":8,"name":"Dictatorial Karelian","steam_id":76561198196736457,"connected_time":2801000000000,"state":"active","ping":154},{"user_id":9,"name":"doctor sex md","steam_id":76561198150678175,"connected_time":2772000000000,"state":"active","ping":115},{"user_id":47,"name":"nalezinik","steam_id":76561198030026119,"connected_time":991000000000,"state":"active","ping":64},{"user_id":18,"name":"jerma enthusiast","steam_id":76561198359466264,"connected_time":2452000000000,"state":"active","ping":68},{"user_id":50,"name":"Among Us Booster Pack","steam_id":76561198068538473,"connected_time":790000000000,"state":"active","ping":81},{"user_id":19,"name":"Marlee_Goat","steam_id":76561198828640523,"connected_time":2436000000000,"state":"active","ping":44},{"user_id":57,"name":"Kali","steam_id":76561198077870028,"connected_time":34000000000,"state":"active","ping":80},{"user_id":49,"name":"PadrePockets","steam_id":76561197993251606,"connected_time":924000000000,"state":"active","ping":63},{"user_id":22,"name":"nipplefisher","steam_id":76561199398064035,"connected_time":2211000000000,"state":"active","ping":68},{"user_id":51,"name":"2019","steam_id":76561198129785792,"connected_time":455000000000,"state":"active","ping":141},{"user_id":25,"name":"McNamJam","steam_id":76561198028128686,"connected_time":2136000000000,"state":"active","ping":98},{"user_id":26,"name":"Ekstra","steam_id":76561199031147010,"connected_time":2128000000000,"state":"active","ping":162},{"user_id":27,"name":"Coup de Grass","steam_id":76561198011643226,"connected_time":2115000000000,"state":"active","ping":55},{"user_id":28,"name":"Bluebird","steam_id":76561199143106401,"connected_time":2112000000000,"state":"active","ping":63},{"user_id":45,"name":"best of gaslighting","steam_id":76561198410957728,"connected_time":1003000000000,"state":"active","ping":45},{"user_id":48,"name":"lol dude it's the big slime","steam_id":76561198128164970,"connected_time":989000000000,"state":"active","ping":100},{"user_id":54,"name":"Bubbamanme","steam_id":76561198119778504,"connected_time":69000000000,"state":"active","ping":101},{"user_id":56,"name":"brian emo","steam_id":76561198109901138,"connected_time":48000000000,"state":"active","ping":76},{"user_id":34,"name":"robbob","steam_id":76561198137375391,"connected_time":1986000000000,"state":"active","ping":170},{"user_id":44,"name":"Battery","steam_id":76561199053078059,"connected_time":1014000000000,"state":"active","ping":94},{"user_id":37,"name":"GRUNKER","steam_id":76561198076483785,"connected_time":1953000000000,"state":"active","ping":75},{"user_id":53,"name":"Kevin Y.","steam_id":76561198364331423,"connected_time":145000000000,"state":"active","ping":88},{"user_id":40,"name":"nil","steam_id":76561198066599235,"connected_time":1808000000000,"state":"active","ping":61},{"user_id":55,"name":"Fluffeline","steam_id":76561198352909489,"connected_time":68000000000,"state":"active","ping":148}]},{"server_id":37,"name":"Uncletopia | Chicago | 6 | All Maps","name_short":"chi-6","host":"chi-2.us.uncletopia.com","port":27025,"enabled":true,"region":"us-central","cc":"us","latitude":41.881832,"longitude":-87.62318,"reserved":0,"last_update":"0001-01-01T00:00:00Z","name_a2s":"Uncletopia | Chicago | 6 | All Maps","protocol":17,"map":"cp_altitude","folder":"tf","game":"Team Fortress","app_id":440,"player_count":0,"max_players":24,"Bots":0,"server_type":"Dedicated","server_os":"Linux","password":true,"vac":true,"version":"7723704","steam_id":85568392924866363,"keywords":["cp","nocrits","nodmgspread","uncletopia"],"game_id":440,"stv_port":27026,"stv_name":"Uncletopia | Chicago | 6 | All Maps | STV","players":null},{"server_id":38,"name":"Uncletopia | Chicago | 7 | Stopwatch (test)","name_short":"chi-7","host":"chi-2.us.uncletopia.com","port":27035,"enabled":true,"region":"us-central","cc":"us","latitude":41.881832,"longitude":-87.62318,"reserved":0,"last_update":"0001-01-01T00:00:00Z","name_a2s":"Uncletopia | Chicago | 7 | Stopwatch (test)","protocol":17,"map":"cp_snakewater_final1","folder":"tf","game":"Team Fortress","app_id":440,"player_count":14,"max_players":24,"Bots":0,"server_type":"Dedicated","server_os":"Linux","password":true,"vac":true,"version":"7723704","steam_id":85568392924866364,"keywords":["nocrits","nodmgspread","payload","uncletopia"],"game_id":440,"stv_port":27036,"stv_name":"Uncletopia | Chicago | 7 | Stopwatch (test) | STV","players":[{"user_id":4,"name":"filthycasual","steam_id":76561199138226238,"connected_time":2396000000000,"state":"connecting","ping":102},{"user_id":6,"name":"the12xu","steam_id":76561198197086561,"connected_time":1590000000000,"state":"connecting","ping":85},{"user_id":7,"name":"Goofy Goober","steam_id":76561198128299594,"connected_time":1572000000000,"state":"connecting","ping":172},{"user_id":19,"name":"lukamine","steam_id":76561198166827208,"connected_time":385000000000,"state":"connecting","ping":118},{"user_id":27,"name":"Honeybunch","steam_id":76561198014850580,"connected_time":14000000000,"state":"connecting","ping":207},{"user_id":16,"name":"jerma enthusiast","steam_id":76561198359466264,"connected_time":757000000000,"state":"connecting","ping":82},{"user_id":17,"name":"Nexcros","steam_id":76561199039622824,"connected_time":640000000000,"state":"connecting","ping":68},{"user_id":18,"name":"DARCRY","steam_id":76561198886229798,"connected_time":596000000000,"state":"connecting","ping":99},{"user_id":20,"name":"Dictatorial Karelian","steam_id":76561198196736457,"connected_time":239000000000,"state":"connecting","ping":187},{"user_id":21,"name":"doctor sex md","steam_id":76561198150678175,"connected_time":236000000000,"state":"connecting","ping":132},{"user_id":22,"name":"stawhr","steam_id":76561198225731944,"connected_time":231000000000,"state":"connecting","ping":56},{"user_id":24,"name":"Ripheart","steam_id":76561198089661561,"connected_time":94000000000,"state":"connecting","ping":42},{"user_id":25,"name":"Daksuki","steam_id":76561198084127751,"connected_time":66000000000,"state":"connecting","ping":64},{"user_id":26,"name":"kaedris","steam_id":76561198137465310,"connected_time":36000000000,"state":"connecting","ping":83}]},{"server_id":39,"name":"Uncletopia | Chicago | 8 | Community","name_short":"chi-8","host":"chi-2.us.uncletopia.com","port":27045,"enabled":true,"region":"us-central","cc":"us","latitude":41.881832,"longitude":-87.62318,"reserved":0,"last_update":"0001-01-01T00:00:00Z","name_a2s":"Uncletopia | Chicago | 8 | Community","protocol":17,"map":"pl_frontier_final","folder":"tf","game":"Team Fortress","app_id":440,"player_count":0,"max_players":24,"Bots":0,"server_type":"Dedicated","server_os":"Linux","password":true,"vac":true,"version":"7723704","steam_id":85568392924866365,"keywords":["nocrits","nodmgspread","payload","uncletopia"],"game_id":440,"stv_port":27046,"stv_name":"Uncletopia | Chicago | 8 | Community | STV","players":null},{"server_id":8,"name":"Uncletopia | Dallas | 1 | All Maps","name_short":"dal-1","host":"dal-1.us.uncletopia.com","port":27015,"enabled":true,"region":"us-central","cc":"us","latitude":32.779167,"longitude":-96.80889,"reserved":0,"last_update":"0001-01-01T00:00:00Z","name_a2s":"Uncletopia | Dallas | 1 | All Maps","protocol":17,"map":"cp_sunshine","folder":"tf","game":"Team Fortress","app_id":440,"player_count":24,"max_players":24,"Bots":0,"server_type":"Dedicated","server_os":"Linux","password":true,"vac":true,"version":"7723704","steam_id":85568392924469986,"keywords":["cp","nocrits","nodmgspread","uncletopia"],"game_id":440,"stv_port":27016,"stv_name":"Uncletopia | Dallas | 1 | All Maps | STV","players":[{"user_id":122,"name":"gordon freeman christmas","steam_id":76561198367735460,"connected_time":1879000000000,"state":"active","ping":49},{"user_id":120,"name":"Alkimia","steam_id":76561198385763137,"connected_time":2405000000000,"state":"active","ping":129},{"user_id":147,"name":"katryna","steam_id":76561198023440304,"connected_time":194000000000,"state":"active","ping":69},{"user_id":148,"name":"zinnk","steam_id":76561198092081825,"connected_time":185000000000,"state":"active","ping":96},{"user_id":149,"name":"Jarated","steam_id":76561198352187445,"connected_time":185000000000,"state":"active","ping":73},{"user_id":48,"name":"fac","steam_id":76561198009818412,"connected_time":9340000000000,"state":"active","ping":62},{"user_id":54,"name":"roln","steam_id":76561198041066271,"connected_time":8780000000000,"state":"active","ping":63},{"user_id":141,"name":"whimmu","steam_id":76561198370839794,"connected_time":1006000000000,"state":"active","ping":113},{"user_id":152,"name":"Sigiferd","steam_id":76561198148788110,"connected_time":161000000000,"state":"active","ping":130},{"user_id":151,"name":"self sufficient kitten","steam_id":76561197960592612,"connected_time":167000000000,"state":"active","ping":90},{"user_id":153,"name":"Fredfredfood","steam_id":76561198072824802,"connected_time":140000000000,"state":"active","ping":76},{"user_id":98,"name":"Eightyy  Fourr","steam_id":76561197960374225,"connected_time":4802000000000,"state":"active","ping":44},{"user_id":150,"name":"Wan Shi Tong","steam_id":76561198076441225,"connected_time":184000000000,"state":"active","ping":89},{"user_id":144,"name":"LIN♡","steam_id":76561199411560141,"connected_time":656000000000,"state":"active","ping":94},{"user_id":143,"name":"spunk pap","steam_id":76561198202278895,"connected_time":895000000000,"state":"active","ping":56},{"user_id":146,"name":"Buns","steam_id":76561198281212882,"connected_time":203000000000,"state":"active","ping":136},{"user_id":96,"name":"Spain Without The N","steam_id":76561198851536991,"connected_time":4844000000000,"state":"active","ping":80},{"user_id":131,"name":"GenericMaleGamer","steam_id":76561198257271858,"connected_time":1621000000000,"state":"active","ping":67},{"user_id":127,"name":"Medic","steam_id":76561198067869016,"connected_time":1730000000000,"state":"active","ping":74},{"user_id":137,"name":"THE NUT","steam_id":76561198067813626,"connected_time":1156000000000,"state":"active","ping":93},{"user_id":154,"name":"HellRaiser","steam_id":76561199051660033,"connected_time":109000000000,"state":"active","ping":69},{"user_id":155,"name":"sock","steam_id":76561199117597830,"connected_time":56000000000,"state":"spawning","ping":79},{"user_id":125,"name":"BrightOrangeMango","steam_id":76561198023144607,"connected_time":1758000000000,"state":"active","ping":73},{"user_id":156,"name":"crumbles","steam_id":76561198168707036,"connected_time":43000000000,"state":"active","ping":91}]},{"server_id":108,"name":"Uncletopia | Dallas | 2 | All Maps","name_short":"dal-2","host":"dal-1.us.uncletopia.com","port":27025,"enabled":true,"region":"us-central","cc":"us","latitude":32.779167,"longitude":-96.80889,"reserved":0,"last_update":"0001-01-01T00:00:00Z","name_a2s":"Uncletopia | Dallas | 2 | All Maps","protocol":17,"map":"pl_badwater","folder":"tf","game":"Team Fortress","app_id":440,"player_count":0,"max_players":24,"Bots":0,"server_type":"Dedicated","server_os":"Linux","password":true,"vac":true,"version":"7723704","steam_id":85568392924469988,"keywords":["nocrits","nodmgspread","payload","uncletopia"],"game_id":440,"stv_port":27026,"stv_name":"Uncletopia | Dallas | 2 | All Maps | STV","players":null},{"server_id":5,"name":"Uncletopia | Frankfurt | 1 | All Maps","name_short":"frk-1","host":"frk-1.de.uncletopia.com","port":27015,"enabled":true,"region":"eu","cc":"de","latitude":50.110924,"longitude":8.682127,"reserved":0,"last_update":"0001-01-01T00:00:00Z","name_a2s":"Uncletopia | Frankfurt | 1 | All Maps","protocol":17,"map":"ctf_2fort","folder":"tf","game":"Team Fortress","app_id":440,"player_count":23,"max_players":24,"Bots":0,"server_type":"Dedicated","server_os":"Linux","password":true,"vac":true,"version":"7723704","steam_id":85568392924469989,"keywords":["ctf","nocrits","nodmgspread","uncletopia"],"game_id":440,"stv_port":27016,"stv_name":"Uncletopia | Frankfurt | 1 | All Maps | STV","players":[{"user_id":420,"name":"Gardvord","steam_id":76561198120715753,"connected_time":3163000000000,"state":"active","ping":66},{"user_id":479,"name":"RogueComrade","steam_id":76561198152525193,"connected_time":157000000000,"state":"active","ping":96},{"user_id":492,"name":"Andrea","steam_id":76561199350746762,"connected_time":30000000000,"state":"active","ping":75},{"user_id":444,"name":"Gordon Birdman","steam_id":76561198013382324,"connected_time":2388000000000,"state":"active","ping":74},{"user_id":443,"name":"Mrpg","steam_id":76561198183722103,"connected_time":2478000000000,"state":"active","ping":55},{"user_id":486,"name":"nox","steam_id":76561198287360892,"connected_time":91000000000,"state":"active","ping":61},{"user_id":407,"name":"Appelflap64","steam_id":76561198012819017,"connected_time":3997000000000,"state":"active","ping":64},{"user_id":447,"name":"fallingpencil","steam_id":76561199230233148,"connected_time":2175000000000,"state":"active","ping":61},{"user_id":457,"name":"anairat","steam_id":76561198863788240,"connected_time":1591000000000,"state":"active","ping":75},{"user_id":487,"name":"Wujek Cacek","steam_id":76561198010267943,"connected_time":72000000000,"state":"active","ping":72},{"user_id":473,"name":"Zero","steam_id":76561199383267408,"connected_time":352000000000,"state":"active","ping":156},{"user_id":488,"name":"Sus Fring","steam_id":76561198821542489,"connected_time":68000000000,"state":"active","ping":97},{"user_id":489,"name":"DeCypher","steam_id":76561198171992619,"connected_time":58000000000,"state":"active","ping":65},{"user_id":430,"name":"disposablesuperbread","steam_id":76561199074703607,"connected_time":3018000000000,"state":"active","ping":65},{"user_id":483,"name":"|==[шприц]\u003e--- RAMA","steam_id":76561198040423618,"connected_time":133000000000,"state":"active","ping":76},{"user_id":411,"name":"Recurracy","steam_id":76561197993421597,"connected_time":3798000000000,"state":"active","ping":56},{"user_id":389,"name":"KAZAM | Tervez","steam_id":76561198045459068,"connected_time":4862000000000,"state":"active","ping":90},{"user_id":478,"name":"Big_E","steam_id":76561199181326250,"connected_time":254000000000,"state":"active","ping":67},{"user_id":409,"name":"M76030","steam_id":76561198046651252,"connected_time":3992000000000,"state":"active","ping":51},{"user_id":484,"name":"Vratis","steam_id":76561198062957725,"connected_time":128000000000,"state":"active","ping":65},{"user_id":490,"name":"Klonky","steam_id":76561199068329886,"connected_time":53000000000,"state":"active","ping":64},{"user_id":450,"name":"Turbo Unge","steam_id":76561199067700855,"connected_time":2111000000000,"state":"active","ping":69},{"user_id":491,"name":"Reloaded","steam_id":76561198814025386,"connected_time":52000000000,"state":"spawning","ping":80}]},{"server_id":110,"name":"Uncletopia | Frankfurt | 2 | All Maps","name_short":"frk-2","host":"frk-1.de.uncletopia.com","port":27025,"enabled":true,"region":"eu","cc":"de","latitude":50.110924,"longitude":8.682127,"reserved":0,"last_update":"0001-01-01T00:00:00Z","name_a2s":"Uncletopia | Frankfurt | 2 | All Maps","protocol":17,"map":"koth_cascade","folder":"tf","game":"Team Fortress","app_id":440,"player_count":0,"max_players":24,"Bots":0,"server_type":"Dedicated","server_os":"Linux","password":true,"vac":true,"version":"7723704","steam_id":85568392924469990,"keywords":["cp","nocrits","nodmgspread","uncletopia"],"game_id":440,"stv_port":27026,"stv_name":"Uncletopia | Frankfurt | 2 | All Maps | STV","players":null},{"server_id":308,"name":"Uncletopia | Frankfurt | 3 | All Maps","name_short":"frk-3","host":"frk-1.de.uncletopia.com","port":27035,"enabled":true,"region":"eu","cc":"de","latitude":50.110924,"longitude":8.682127,"reserved":0,"last_update":"0001-01-01T00:00:00Z","name_a2s":"Uncletopia | Frankfurt | 3 | All Maps","protocol":17,"map":"cp_dustbowl","folder":"tf","game":"Team Fortress","app_id":440,"player_count":24,"max_players":24,"Bots":0,"server_type":"Dedicated","server_os":"Linux","password":true,"vac":true,"version":"7723704","steam_id":85568392924504274,"keywords":["cp","nocrits","nodmgspread","uncletopia"],"game_id":440,"stv_port":27036,"stv_name":"Uncletopia | Frankfurt | 3 | All Maps | STV","players":[{"user_id":25,"name":"SawdustixPQ","steam_id":76561198815127418,"connected_time":2444000000000,"state":"active","ping":79},{"user_id":56,"name":"Senator Armstrong","steam_id":76561198984346408,"connected_time":744000000000,"state":"active","ping":73},{"user_id":53,"name":"Montymilian","steam_id":76561198829371575,"connected_time":775000000000,"state":"active","ping":74},{"user_id":61,"name":"freemantel30","steam_id":76561198065669800,"connected_time":693000000000,"state":"active","ping":44},{"user_id":27,"name":"tarotartist","steam_id":76561198957338121,"connected_time":2281000000000,"state":"active","ping":184},{"user_id":29,"name":"FreeZ","steam_id":76561199070093469,"connected_time":1867000000000,"state":"active","ping":78},{"user_id":30,"name":"Dr Sex","steam_id":76561198029044617,"connected_time":1719000000000,"state":"active","ping":61},{"user_id":55,"name":"1_M_W","steam_id":76561199091749430,"connected_time":753000000000,"state":"active","ping":83},{"user_id":37,"name":"skYle | joe +.+ꜝ","steam_id":76561197981047264,"connected_time":1198000000000,"state":"active","ping":43},{"user_id":33,"name":"Temka","steam_id":76561198331323738,"connected_time":1515000000000,"state":"active","ping":70},{"user_id":43,"name":"an flatulist","steam_id":76561198430050570,"connected_time":1063000000000,"state":"active","ping":72},{"user_id":39,"name":"МЕДИК МЕДИК ХА ХА","steam_id":76561199233937102,"connected_time":1149000000000,"state":"active","ping":84},{"user_id":40,"name":"VolcanicArts","steam_id":76561198063453246,"connected_time":1142000000000,"state":"active","ping":66},{"user_id":57,"name":"Tomfool","steam_id":76561197993256481,"connected_time":734000000000,"state":"active","ping":73},{"user_id":42,"name":"Lady Maria","steam_id":76561198953210459,"connected_time":1128000000000,"state":"active","ping":91},{"user_id":44,"name":"brrrr","steam_id":76561198147277460,"connected_time":987000000000,"state":"active","ping":59},{"user_id":49,"name":"DerIdiot #SaveTF2","steam_id":76561199257522511,"connected_time":907000000000,"state":"active","ping":168},{"user_id":66,"name":"RADARI","steam_id":76561198163028791,"connected_time":46000000000,"state":"active","ping":124},{"user_id":62,"name":"Artock","steam_id":76561198808599713,"connected_time":529000000000,"state":"active","ping":84},{"user_id":51,"name":"Biały","steam_id":76561197996016988,"connected_time":869000000000,"state":"active","ping":71},{"user_id":50,"name":"W+M1","steam_id":76561198418538887,"connected_time":901000000000,"state":"active","ping":98},{"user_id":63,"name":"DietOlive","steam_id":76561197997826973,"connected_time":507000000000,"state":"active","ping":69},{"user_id":59,"name":"kiss under the missile toad","steam_id":76561198163244605,"connected_time":720000000000,"state":"active","ping":65},{"user_id":65,"name":"sperma gyerek","steam_id":76561198742407927,"connected_time":402000000000,"state":"active","ping":70}]},{"server_id":309,"name":"Uncletopia | Frankfurt | 4 | All Maps","name_short":"frk-4","host":"frk-1.de.uncletopia.com","port":27045,"enabled":true,"region":"eu","cc":"de","latitude":50.110924,"longitude":8.682127,"reserved":0,"last_update":"0001-01-01T00:00:00Z","name_a2s":"Uncletopia | Frankfurt | 4 | All Maps","protocol":17,"map":"koth_nucleus","folder":"tf","game":"Team Fortress","app_id":440,"player_count":0,"max_players":24,"Bots":0,"server_type":"Dedicated","server_os":"Linux","password":true,"vac":true,"version":"7723704","steam_id":85568392924504275,"keywords":["cp","nocrits","nodmgspread","uncletopia"],"game_id":440,"stv_port":27046,"stv_name":"Uncletopia | Frankfurt | 4 | All Maps | STV","players":null},{"server_id":310,"name":"Uncletopia | Frankfurt | 5 | All Maps","name_short":"frk-5","host":"frk-1.de.uncletopia.com","port":27055,"enabled":true,"region":"eu","cc":"de","latitude":50.110924,"longitude":8.682127,"reserved":0,"last_update":"0001-01-01T00:00:00Z","name_a2s":"Uncletopia | Frankfurt | 5 | All Maps","protocol":17,"map":"koth_cascade","folder":"tf","game":"Team Fortress","app_id":440,"player_count":11,"max_players":24,"Bots":0,"server_type":"Dedicated","server_os":"Linux","password":true,"vac":true,"version":"7723704","steam_id":85568392924504277,"keywords":["cp","nocrits","nodmgspread","uncletopia"],"game_id":440,"stv_port":27056,"stv_name":"Uncletopia | Frankfurt | 5 | All Maps | STV","players":[{"user_id":488,"name":"JoghurtTheKiller","steam_id":76561198063647918,"connected_time":1164000000000,"state":"active","ping":41},{"user_id":491,"name":"тукку ирма","steam_id":76561197998715016,"connected_time":1145000000000,"state":"active","ping":52},{"user_id":479,"name":"ratoshin","steam_id":76561198194433657,"connected_time":1989000000000,"state":"active","ping":47},{"user_id":493,"name":"Peehole explorer","steam_id":76561198042593027,"connected_time":1087000000000,"state":"active","ping":78},{"user_id":496,"name":"Le Chevalier Pingouin","steam_id":76561198221355000,"connected_time":719000000000,"state":"active","ping":50},{"user_id":509,"name":"Chunky_Yogurt","steam_id":76561198841717720,"connected_time":47000000000,"state":"active","ping":46},{"user_id":345,"name":"hushhx","steam_id":76561198216200092,"connected_time":11267000000000,"state":"active","ping":65},{"user_id":503,"name":"Mata","steam_id":76561198308191713,"connected_time":511000000000,"state":"active","ping":58},{"user_id":473,"name":"Sneaky boi","steam_id":76561199195985387,"connected_time":2595000000000,"state":"active","ping":94},{"user_id":501,"name":"Tomo","steam_id":76561199015097595,"connected_time":552000000000,"state":"active","ping":59},{"user_id":504,"name":"swagsam","steam_id":76561199023747241,"connected_time":503000000000,"state":"active","ping":59}]},{"server_id":311,"name":"Uncletopia | Frankfurt | 6 | All Maps","name_short":"frk-6","host":"frk-1.de.uncletopia.com","port":27065,"enabled":true,"region":"eu","cc":"de","latitude":50.110924,"longitude":8.682127,"reserved":0,"last_update":"0001-01-01T00:00:00Z","name_a2s":"Uncletopia | Frankfurt | 6 | All Maps","protocol":17,"map":"koth_lakeside_final","folder":"tf","game":"Team Fortress","app_id":440,"player_count":0,"max_players":24,"Bots":0,"server_type":"Dedicated","server_os":"Linux","password":true,"vac":true,"version":"7723704","steam_id":85568392924504278,"keywords":["cp","nocrits","nodmgspread","uncletopia"],"game_id":440,"stv_port":27066,"stv_name":"Uncletopia | Frankfurt | 6 | All Maps | STV","players":null},{"server_id":23,"name":"Uncletopia | Frankfurt | 7 | No Payload","name_short":"frk-7","host":"frk-1.de.uncletopia.com","port":27075,"enabled":true,"region":"eu","cc":"de","latitude":50.110924,"longitude":8.682127,"reserved":0,"last_update":"0001-01-01T00:00:00Z","name_a2s":"Uncletopia | Frankfurt | 7 | No Payload","protocol":17,"map":"ctf_landfall","folder":"tf","game":"Team Fortress","app_id":440,"player_count":19,"max_players":24,"Bots":0,"server_type":"Dedicated","server_os":"Linux","password":true,"vac":true,"version":"7723704","steam_id":85568392924742827,"keywords":["ctf","nocrits","nodmgspread","uncletopia"],"game_id":440,"stv_port":27076,"stv_name":"Uncletopia | Frankfurt | 7 | No Payload | STV","players":[{"user_id":219,"name":"bruh.","steam_id":76561198144593115,"connected_time":97000000000,"state":"active","ping":64},{"user_id":194,"name":"BIG Dave Gaming","steam_id":76561199170843929,"connected_time":1835000000000,"state":"active","ping":54},{"user_id":220,"name":"Excerves","steam_id":76561198177819022,"connected_time":36000000000,"state":"active","ping":60},{"user_id":189,"name":"Detective Csepel","steam_id":76561198239766448,"connected_time":2053000000000,"state":"active","ping":65},{"user_id":202,"name":"SoulEater","steam_id":76561198343354416,"connected_time":1209000000000,"state":"active","ping":157},{"user_id":182,"name":"Dan The Vagabond","steam_id":76561199232506476,"connected_time":2333000000000,"state":"active","ping":56},{"user_id":208,"name":"mariodraghi","steam_id":76561198805093192,"connected_time":807000000000,"state":"active","ping":84},{"user_id":179,"name":"IRAQ","steam_id":76561198207629937,"connected_time":2425000000000,"state":"active","ping":74},{"user_id":201,"name":"Seeker","steam_id":76561198873052772,"connected_time":1248000000000,"state":"active","ping":68},{"user_id":203,"name":"MARNEX","steam_id":76561198149296726,"connected_time":1164000000000,"state":"active","ping":75},{"user_id":190,"name":"onku","steam_id":76561199230709660,"connected_time":2051000000000,"state":"active","ping":45},{"user_id":198,"name":"ff:ff:ff:ff:ff:ff","steam_id":76561198072122983,"connected_time":1681000000000,"state":"active","ping":59},{"user_id":181,"name":"bunny","steam_id":76561198146730116,"connected_time":2407000000000,"state":"active","ping":59},{"user_id":214,"name":"иван","steam_id":76561198072730591,"connected_time":389000000000,"state":"active","ping":60},{"user_id":148,"name":"GodOfGobboz","steam_id":76561198154677956,"connected_time":4113000000000,"state":"active","ping":68},{"user_id":206,"name":"rajAs","steam_id":76561198035928111,"connected_time":1066000000000,"state":"active","ping":75},{"user_id":215,"name":"Olaznot","steam_id":76561199111472610,"connected_time":387000000000,"state":"active","ping":81},{"user_id":216,"name":"Knoxx","steam_id":76561198260692541,"connected_time":377000000000,"state":"active","ping":70},{"user_id":217,"name":"creeping death","steam_id":76561198074995076,"connected_time":361000000000,"state":"active","ping":114}]},{"server_id":24,"name":"Uncletopia | Frankfurt | 8 | Community","name_short":"frk-8","host":"frk-1.de.uncletopia.com","port":27085,"enabled":true,"region":"eu","cc":"de","latitude":50.110924,"longitude":8.682127,"reserved":0,"last_update":"0001-01-01T00:00:00Z","name_a2s":"Uncletopia | Frankfurt | 8 | Community","protocol":17,"map":"workshop/koth_ramjam_v2_b2.ugc2865676487","folder":"tf","game":"Team Fortress","app_id":440,"player_count":0,"max_players":24,"Bots":0,"server_type":"Dedicated","server_os":"Linux","password":true,"vac":true,"version":"7723704","steam_id":85568392924742828,"keywords":["cp","nocrits","nodmgspread","uncletopia"],"game_id":440,"stv_port":27086,"stv_name":"Uncletopia | Frankfurt | 8 | Community | STV","players":null},{"server_id":202,"name":"Uncletopia | Hong Kong | 1 | All Maps","name_short":"hgk-1","host":"hgk-1.hk.uncletopia.com","port":27015,"enabled":true,"region":"asia","cc":"hk","latitude":22.302711,"longitude":114.177216,"reserved":0,"last_update":"0001-01-01T00:00:00Z","name_a2s":"Uncletopia | Hong Kong | 1 | All Maps","protocol":17,"map":"pl_pier","folder":"tf","game":"Team Fortress","app_id":440,"player_count":0,"max_players":24,"Bots":0,"server_type":"Dedicated","server_os":"Linux","password":true,"vac":true,"version":"7723704","steam_id":85568392924494504,"keywords":["nocrits","nodmgspread","payload","uncletopia"],"game_id":440,"stv_port":27016,"stv_name":"Uncletopia | Hong Kong | 1 | All Maps | STV","players":null},{"server_id":1,"name":"Uncletopia | Los Angeles | 1 | All Maps","name_short":"lax-1","host":"lax-1.us.uncletopia.com","port":27015,"enabled":true,"region":"us-west","cc":"us","latitude":33.94279,"longitude":-118.41004,"reserved":0,"last_update":"0001-01-01T00:00:00Z","name_a2s":"Uncletopia | Los Angeles | 1 | All Maps","protocol":17,"map":"koth_lakeside_final","folder":"tf","game":"Team Fortress","app_id":440,"player_count":0,"max_players":24,"Bots":0,"server_type":"Dedicated","server_os":"Linux","password":true,"vac":true,"version":"7723704","steam_id":85568392924469991,"keywords":["cp","nocrits","nodmgspread","uncletopia"],"game_id":440,"stv_port":27016,"stv_name":"Uncletopia | Los Angeles | 1 | All Maps | STV","players":null},{"server_id":112,"name":"Uncletopia | Los Angeles | 2 | All Maps","name_short":"lax-2","host":"lax-1.us.uncletopia.com","port":27025,"enabled":true,"region":"us-west","cc":"us","latitude":33.94279,"longitude":-118.41004,"reserved":0,"last_update":"0001-01-01T00:00:00Z","name_a2s":"Uncletopia | Los Angeles | 2 | All Maps","protocol":17,"map":"pl_pier","folder":"tf","game":"Team Fortress","app_id":440,"player_count":0,"max_players":24,"Bots":0,"server_type":"Dedicated","server_os":"Linux","password":true,"vac":true,"version":"7723704","steam_id":85568392924469992,"keywords":["nocrits","nodmgspread","payload","uncletopia"],"game_id":440,"stv_port":27026,"stv_name":"Uncletopia | Los Angeles | 2 | All Maps | STV","players":null},{"server_id":324,"name":"Uncletopia | Los Angeles | 3 | All Maps","name_short":"lax-3","host":"lax-1.us.uncletopia.com","port":27035,"enabled":true,"region":"us-west","cc":"us","latitude":33.94279,"longitude":-118.41004,"reserved":0,"last_update":"0001-01-01T00:00:00Z","name_a2s":"Uncletopia | Los Angeles | 3 | All Maps","protocol":17,"map":"koth_highpass","folder":"tf","game":"Team Fortress","app_id":440,"player_count":0,"max_players":24,"Bots":0,"server_type":"Dedicated","server_os":"Linux","password":true,"vac":true,"version":"7723704","steam_id":85568392924510198,"keywords":["cp","nocrits","nodmgspread","uncletopia"],"game_id":440,"stv_port":27036,"stv_name":"Uncletopia | Los Angeles | 3 | All Maps | STV","players":null},{"server_id":25,"name":"Uncletopia | Los Angeles | 4 | No Payload","name_short":"lax-4","host":"lax-1.us.uncletopia.com","port":27045,"enabled":true,"region":"us-west","cc":"us","latitude":33.94279,"longitude":-118.41004,"reserved":0,"last_update":"0001-01-01T00:00:00Z","name_a2s":"Uncletopia | Los Angeles | 4 | No Payload","protocol":17,"map":"ctf_2fort","folder":"tf","game":"Team Fortress","app_id":440,"player_count":0,"max_players":24,"Bots":0,"server_type":"Dedicated","server_os":"Linux","password":true,"vac":true,"version":"7723704","steam_id":85568392924510199,"keywords":["ctf","nocrits","nodmgspread","uncletopia"],"game_id":440,"stv_port":27046,"stv_name":"Uncletopia | Los Angeles | 4 | No Payload | STV","players":null},{"server_id":11,"name":"Uncletopia | London | 1 | All Maps","name_short":"lon-1","host":"lon-1.uk.uncletopia.com","port":27015,"enabled":true,"region":"eu","cc":"gb","latitude":51.509865,"longitude":-0.118092,"reserved":0,"last_update":"0001-01-01T00:00:00Z","name_a2s":"Uncletopia | London | 1 | All Maps","protocol":17,"map":"pl_badwater","folder":"tf","game":"Team Fortress","app_id":440,"player_count":24,"max_players":24,"Bots":0,"server_type":"Dedicated","server_os":"Linux","password":true,"vac":true,"version":"7723704","steam_id":85568392924367362,"keywords":["nocrits","nodmgspread","payload","uncletopia"],"game_id":440,"stv_port":27016,"stv_name":"Uncletopia | London | 1 | All Maps | STV","players":[{"user_id":420,"name":"xXx_Twink_Hunter_xXx","steam_id":76561198397024973,"connected_time":1845000000000,"state":"active","ping":38},{"user_id":414,"name":"french detected","steam_id":76561198030853412,"connected_time":2757000000000,"state":"active","ping":76},{"user_id":426,"name":".pandemiC","steam_id":76561198015941460,"connected_time":1383000000000,"state":"active","ping":112},{"user_id":371,"name":"Festive DeadInside","steam_id":76561198103660553,"connected_time":4878000000000,"state":"active","ping":91},{"user_id":400,"name":"dude back off","steam_id":76561198389397410,"connected_time":3273000000000,"state":"active","ping":55},{"user_id":455,"name":"Tasukeru","steam_id":76561198011909704,"connected_time":984000000000,"state":"active","ping":56},{"user_id":412,"name":"Kahvi","steam_id":76561198723244199,"connected_time":2817000000000,"state":"active","ping":75},{"user_id":395,"name":"Doughy","steam_id":76561198044084210,"connected_time":3471000000000,"state":"active","ping":64},{"user_id":427,"name":"eduardo","steam_id":76561198014491925,"connected_time":1381000000000,"state":"active","ping":83},{"user_id":513,"name":"BLACK","steam_id":76561199013368332,"connected_time":51000000000,"state":"spawning","ping":50},{"user_id":441,"name":"Grim the lemon","steam_id":76561199083433988,"connected_time":1259000000000,"state":"active","ping":48},{"user_id":416,"name":"your dads bald spot","steam_id":76561199383437138,"connected_time":2080000000000,"state":"active","ping":131},{"user_id":418,"name":"festive jones","steam_id":76561198073975078,"connected_time":2014000000000,"state":"active","ping":53},{"user_id":456,"name":"Bepperman","steam_id":76561198397517828,"connected_time":975000000000,"state":"active","ping":56},{"user_id":446,"name":"「◆Raku• 」","steam_id":76561198059283183,"connected_time":1094000000000,"state":"active","ping":87},{"user_id":514,"name":"Salmon run gaming #SaveTf2","steam_id":76561199239325179,"connected_time":49000000000,"state":"spawning","ping":43},{"user_id":356,"name":"mak","steam_id":76561198049312442,"connected_time":6549000000000,"state":"active","ping":49},{"user_id":351,"name":"Рэптилия","steam_id":76561198258401816,"connected_time":6704000000000,"state":"active","ping":93},{"user_id":352,"name":"Florua","steam_id":76561198182297846,"connected_time":6687000000000,"state":"active","ping":82},{"user_id":402,"name":"Sabi","steam_id":76561198202111522,"connected_time":3248000000000,"state":"active","ping":60},{"user_id":447,"name":"Nathan","steam_id":76561198394485387,"connected_time":1084000000000,"state":"active","ping":56},{"user_id":368,"name":"silves","steam_id":76561198106407598,"connected_time":5567000000000,"state":"active","ping":65},{"user_id":366,"name":"Jam","steam_id":76561198090409013,"connected_time":6006000000000,"state":"active","ping":85},{"user_id":449,"name":"chocolate flavoured femboy","steam_id":76561198819353867,"connected_time":1066000000000,"state":"active","ping":39}]},{"server_id":114,"name":"Uncletopia | London | 2 | All Maps","name_short":"lon-2","host":"lon-1.uk.uncletopia.com","port":27025,"enabled":true,"region":"eu","cc":"gb","latitude":51.509865,"longitude":-0.118092,"reserved":0,"last_update":"0001-01-01T00:00:00Z","name_a2s":"Uncletopia | London | 2 | All Maps","protocol":17,"map":"pl_swiftwater_final1","folder":"tf","game":"Team Fortress","app_id":440,"player_count":25,"max_players":24,"Bots":0,"server_type":"Dedicated","server_os":"Linux","password":true,"vac":true,"version":"7723704","steam_id":85568392924470941,"keywords":["nocrits","nodmgspread","payload","uncletopia"],"game_id":440,"stv_port":27026,"stv_name":"Uncletopia | London | 2 | All Maps | STV","players":[{"user_id":616,"name":"Rappin' Sebastian","steam_id":76561198453928256,"connected_time":2820000000000,"state":"active","ping":62},{"user_id":667,"name":"WarpdriveEngineer","steam_id":76561198073530973,"connected_time":354000000000,"state":"active","ping":130},{"user_id":620,"name":"-rikeOo-","steam_id":76561198303995379,"connected_time":2770000000000,"state":"active","ping":76},{"user_id":654,"name":"stupidugly","steam_id":76561198914610283,"connected_time":1038000000000,"state":"active","ping":82},{"user_id":646,"name":"SpilledMilk","steam_id":76561198174123971,"connected_time":1143000000000,"state":"active","ping":60},{"user_id":669,"name":"wasto-/-™","steam_id":76561198102888038,"connected_time":75000000000,"state":"active","ping":60},{"user_id":647,"name":"Oak","steam_id":76561198248567360,"connected_time":1131000000000,"state":"active","ping":35},{"user_id":666,"name":"Krimmblz","steam_id":76561198326488448,"connected_time":366000000000,"state":"active","ping":70},{"user_id":638,"name":"Some of you will Gry","steam_id":76561198053961616,"connected_time":1795000000000,"state":"active","ping":56},{"user_id":636,"name":"muZ","steam_id":76561198060145190,"connected_time":1963000000000,"state":"active","ping":61},{"user_id":660,"name":"Lods of Emone","steam_id":76561198188642265,"connected_time":802000000000,"state":"active","ping":42},{"user_id":659,"name":"Benzo Fury","steam_id":76561198025259336,"connected_time":914000000000,"state":"active","ping":42},{"user_id":649,"name":"ALARM","steam_id":76561198120686521,"connected_time":1119000000000,"state":"active","ping":66},{"user_id":550,"name":"Diana Ball","steam_id":76561198382533813,"connected_time":8178000000000,"state":"active","ping":49},{"user_id":670,"name":"Fridge","steam_id":76561198071665589,"connected_time":50000000000,"state":"active","ping":110},{"user_id":650,"name":"sniff","steam_id":76561198259668029,"connected_time":1096000000000,"state":"active","ping":50},{"user_id":651,"name":"heisenburger","steam_id":76561198284589853,"connected_time":1084000000000,"state":"active","ping":91},{"user_id":632,"name":"crkligolub","steam_id":76561199431979190,"connected_time":2181000000000,"state":"active","ping":74},{"user_id":662,"name":"WÜMAN","steam_id":76561199311085668,"connected_time":675000000000,"state":"active","ping":120},{"user_id":668,"name":"Gideon","steam_id":76561198045132575,"connected_time":84000000000,"state":"active","ping":43},{"user_id":663,"name":"The Erotic Barber","steam_id":76561198423902979,"connected_time":524000000000,"state":"active","ping":54},{"user_id":634,"name":"boat","steam_id":76561198044915818,"connected_time":2122000000000,"state":"active","ping":81},{"user_id":665,"name":"Carrot Arc","steam_id":76561198164957006,"connected_time":405000000000,"state":"active","ping":81},{"user_id":640,"name":"DarkFloy","steam_id":76561198070650206,"connected_time":1636000000000,"state":"active","ping":92},{"user_id":671,"name":"dont mad","steam_id":76561198313244930,"connected_time":34000000000,"state":"spawning","ping":30}]},{"server_id":320,"name":"Uncletopia | London | 3 | All Maps","name_short":"lon-3","host":"lon-1.uk.uncletopia.com","port":27035,"enabled":true,"region":"eu","cc":"gb","latitude":51.509865,"longitude":-0.118092,"reserved":0,"last_update":"0001-01-01T00:00:00Z","name_a2s":"Uncletopia | London | 3 | All Maps","protocol":17,"map":"pl_frontier_final","folder":"tf","game":"Team Fortress","app_id":440,"player_count":25,"max_players":24,"Bots":0,"server_type":"Dedicated","server_os":"Linux","password":true,"vac":true,"version":"7723704","steam_id":85568392924510192,"keywords":["nocrits","nodmgspread","payload","uncletopia"],"game_id":440,"stv_port":27036,"stv_name":"Uncletopia | London | 3 | All Maps | STV","players":[{"user_id":308,"name":"sam-","steam_id":76561198013770973,"connected_time":2039000000000,"state":"active","ping":74},{"user_id":321,"name":"goober","steam_id":76561199135268446,"connected_time":1410000000000,"state":"active","ping":74},{"user_id":306,"name":"Dovakin","steam_id":76561198103265377,"connected_time":2094000000000,"state":"active","ping":109},{"user_id":259,"name":"Suspicious Cabin","steam_id":76561198083261198,"connected_time":6720000000000,"state":"active","ping":52},{"user_id":325,"name":"Morten2k","steam_id":76561198049039201,"connected_time":976000000000,"state":"active","ping":63},{"user_id":309,"name":"nina levin","steam_id":76561197998546201,"connected_time":2028000000000,"state":"active","ping":164},{"user_id":322,"name":"Hell Striker","steam_id":76561199023875942,"connected_time":1316000000000,"state":"active","ping":114},{"user_id":339,"name":"Bill Carr","steam_id":76561198110033943,"connected_time":480000000000,"state":"active","ping":35},{"user_id":286,"name":"DONGUS","steam_id":76561198042774930,"connected_time":4070000000000,"state":"active","ping":62},{"user_id":312,"name":"Mr.Cupcake","steam_id":76561198152711174,"connected_time":1827000000000,"state":"active","ping":75},{"user_id":347,"name":"The Jealous Cactus","steam_id":76561198015080701,"connected_time":303000000000,"state":"active","ping":128},{"user_id":343,"name":"Spageti","steam_id":76561198074122906,"connected_time":387000000000,"state":"active","ping":89},{"user_id":335,"name":"MagusCubed","steam_id":76561198083973944,"connected_time":542000000000,"state":"active","ping":48},{"user_id":314,"name":"your girlfriend's cat","steam_id":76561198085872631,"connected_time":1684000000000,"state":"active","ping":159},{"user_id":349,"name":"Nix (they/them)","steam_id":76561198150006573,"connected_time":254000000000,"state":"active","ping":52},{"user_id":273,"name":"VK2124 :D","steam_id":76561198111130688,"connected_time":5375000000000,"state":"active","ping":60},{"user_id":350,"name":"WolfmanCZ","steam_id":76561199157141414,"connected_time":244000000000,"state":"active","ping":83},{"user_id":213,"name":"Teleporter terrorist","steam_id":76561198032359132,"connected_time":8988000000000,"state":"active","ping":45},{"user_id":329,"name":"G6 sherlock","steam_id":76561198802967796,"connected_time":769000000000,"state":"active","ping":115},{"user_id":296,"name":"weird noises girl","steam_id":76561198404802175,"connected_time":2990000000000,"state":"active","ping":156},{"user_id":317,"name":"lanzer","steam_id":76561198049983016,"connected_time":1580000000000,"state":"active","ping":110},{"user_id":324,"name":"lolimsogreat21","steam_id":76561199052033788,"connected_time":1118000000000,"state":"active","ping":80},{"user_id":319,"name":"eple","steam_id":76561198017686306,"connected_time":1549000000000,"state":"active","ping":55},{"user_id":320,"name":"xXWEEBMASTERXx","steam_id":76561198261448575,"connected_time":1545000000000,"state":"active","ping":80},{"user_id":358,"name":"Frazzles","steam_id":76561199228009586,"connected_time":6000000000,"state":"spawning","ping":42}]},{"server_id":321,"name":"Uncletopia | London | 4 | All Maps","name_short":"lon-4","host":"lon-1.uk.uncletopia.com","port":27045,"enabled":true,"region":"eu","cc":"gb","latitude":51.509865,"longitude":-0.118092,"reserved":0,"last_update":"0001-01-01T00:00:00Z","name_a2s":"Uncletopia | London | 4 | All Maps","protocol":17,"map":"koth_viaduct","folder":"tf","game":"Team Fortress","app_id":440,"player_count":0,"max_players":24,"Bots":0,"server_type":"Dedicated","server_os":"Linux","password":true,"vac":true,"version":"7723704","steam_id":85568392924510193,"keywords":["cp","nocrits","nodmgspread","uncletopia"],"game_id":440,"stv_port":27046,"stv_name":"Uncletopia | London | 4 | All Maps | STV","players":null},{"server_id":21,"name":"Uncletopia | London | 5 | All Maps","name_short":"lon-5","host":"lon-1.uk.uncletopia.com","port":27055,"enabled":true,"region":"eu","cc":"gb","latitude":51.509865,"longitude":-0.118092,"reserved":0,"last_update":"0001-01-01T00:00:00Z","name_a2s":"Uncletopia | London | 5 | All Maps","protocol":17,"map":"pl_pier","folder":"tf","game":"Team Fortress","app_id":440,"player_count":24,"max_players":24,"Bots":0,"server_type":"Dedicated","server_os":"Linux","password":true,"vac":true,"version":"7723704","steam_id":85568392924742829,"keywords":["nocrits","nodmgspread","payload","uncletopia"],"game_id":440,"stv_port":27056,"stv_name":"Uncletopia | London | 5 | All Maps | STV","players":[{"user_id":302,"name":"MrFumble","steam_id":76561198000555490,"connected_time":1148000000000,"state":"active","ping":91},{"user_id":304,"name":"macauw","steam_id":76561198010467088,"connected_time":933000000000,"state":"active","ping":57},{"user_id":310,"name":"Star in a pond","steam_id":76561198205501279,"connected_time":676000000000,"state":"active","ping":112},{"user_id":298,"name":"RomAnjentululiantiarion","steam_id":76561198161417211,"connected_time":1477000000000,"state":"active","ping":94},{"user_id":254,"name":"Mayor Vonk from Vonker Town","steam_id":76561199080400526,"connected_time":3800000000000,"state":"active","ping":88},{"user_id":297,"name":"ufomaster1111111","steam_id":76561198837347666,"connected_time":1623000000000,"state":"active","ping":34},{"user_id":271,"name":"r06u3","steam_id":76561198254099253,"connected_time":3172000000000,"state":"active","ping":177},{"user_id":305,"name":"Lunatic™","steam_id":76561198030357912,"connected_time":930000000000,"state":"active","ping":55},{"user_id":311,"name":"Avocado [Ham Mafia]","steam_id":76561199007231261,"connected_time":653000000000,"state":"active","ping":57},{"user_id":317,"name":"Someone","steam_id":76561199030195879,"connected_time":430000000000,"state":"active","ping":39},{"user_id":296,"name":"Noodle","steam_id":76561198306486695,"connected_time":1828000000000,"state":"active","ping":72},{"user_id":312,"name":"yusef","steam_id":76561198108481078,"connected_time":638000000000,"state":"active","ping":100},{"user_id":319,"name":"Carpe diem.","steam_id":76561199065917088,"connected_time":29000000000,"state":"active","ping":96},{"user_id":313,"name":"Krabs","steam_id":76561198161679477,"connected_time":621000000000,"state":"active","ping":44},{"user_id":314,"name":"shin","steam_id":76561198039757757,"connected_time":613000000000,"state":"active","ping":46},{"user_id":306,"name":"ZOGG FearLand","steam_id":76561198352683491,"connected_time":860000000000,"state":"active","ping":41},{"user_id":309,"name":"Tort","steam_id":76561198329646769,"connected_time":686000000000,"state":"active","ping":47},{"user_id":280,"name":"Regan","steam_id":76561198100631086,"connected_time":2529000000000,"state":"active","ping":42},{"user_id":293,"name":"boldi","steam_id":76561198156527740,"connected_time":2072000000000,"state":"active","ping":88},{"user_id":316,"name":"Arscin","steam_id":76561198262193529,"connected_time":536000000000,"state":"active","ping":52},{"user_id":294,"name":"Инспектор Атас","steam_id":76561199175688390,"connected_time":2007000000000,"state":"active","ping":89},{"user_id":307,"name":"Donete333","steam_id":76561198409266344,"connected_time":754000000000,"state":"active","ping":76},{"user_id":315,"name":"If I TopScoreMyTeamSucks","steam_id":76561198147668373,"connected_time":599000000000,"state":"active","ping":117},{"user_id":318,"name":"Mayor Wank from Wanker Town","steam_id":76561197998253588,"connected_time":410000000000,"state":"active","ping":60}]},{"server_id":22,"name":"Uncletopia | London | 6 | All Maps","name_short":"lon-6","host":"lon-1.uk.uncletopia.com","port":27065,"enabled":true,"region":"eu","cc":"gb","latitude":51.509865,"longitude":-0.118092,"reserved":0,"last_update":"0001-01-01T00:00:00Z","name_a2s":"Uncletopia | London | 6 | All Maps","protocol":17,"map":"koth_cascade","folder":"tf","game":"Team Fortress","app_id":440,"player_count":0,"max_players":24,"Bots":0,"server_type":"Dedicated","server_os":"Linux","password":true,"vac":true,"version":"7723704","steam_id":85568392924742830,"keywords":["cp","nocrits","nodmgspread","uncletopia"],"game_id":440,"stv_port":27066,"stv_name":"Uncletopia | London | 6 | All Maps | STV","players":null},{"server_id":40,"name":"Uncletopia | London | 7 | No Payload","name_short":"lon-7","host":"lon-1.uk.uncletopia.com","port":27075,"enabled":true,"region":"eu","cc":"gb","latitude":51.509865,"longitude":-0.118092,"reserved":0,"last_update":"0001-01-01T00:00:00Z","name_a2s":"Uncletopia | London | 7 | No Payload","protocol":17,"map":"plr_bananabay","folder":"tf","game":"Team Fortress","app_id":440,"player_count":20,"max_players":24,"Bots":0,"server_type":"Dedicated","server_os":"Linux","password":true,"vac":true,"version":"7723704","steam_id":85568392924964314,"keywords":["nocrits","nodmgspread","payload","uncletopia"],"game_id":440,"stv_port":27076,"stv_name":"Uncletopia | London | 7 | No Payload | STV","players":[{"user_id":209,"name":"poliakov.noam","steam_id":76561199259322961,"connected_time":611000000000,"state":"active","ping":101},{"user_id":169,"name":"The Daniella","steam_id":76561198023075547,"connected_time":2665000000000,"state":"active","ping":60},{"user_id":213,"name":"xXdoge gaming 42069Xx","steam_id":76561198372971096,"connected_time":518000000000,"state":"active","ping":87},{"user_id":155,"name":"Omnom143","steam_id":76561198097838265,"connected_time":3430000000000,"state":"active","ping":121},{"user_id":156,"name":"NoShield","steam_id":76561198831300551,"connected_time":3362000000000,"state":"active","ping":129},{"user_id":214,"name":"ScampSixteen","steam_id":76561198021771000,"connected_time":480000000000,"state":"active","ping":43},{"user_id":191,"name":"Minecraftien_76","steam_id":76561198443111849,"connected_time":1246000000000,"state":"active","ping":73},{"user_id":217,"name":"Tazza","steam_id":76561198159811050,"connected_time":328000000000,"state":"active","ping":57},{"user_id":220,"name":"chachiply","steam_id":76561198316355509,"connected_time":207000000000,"state":"active","ping":62},{"user_id":218,"name":"Banjo","steam_id":76561198206218496,"connected_time":303000000000,"state":"active","ping":51},{"user_id":223,"name":"The vines Controller player","steam_id":76561199376578224,"connected_time":30000000000,"state":"active","ping":201},{"user_id":172,"name":"filetype","steam_id":76561198884659731,"connected_time":2497000000000,"state":"active","ping":105},{"user_id":188,"name":"Mecro","steam_id":76561198331574409,"connected_time":1571000000000,"state":"active","ping":74},{"user_id":175,"name":"RFireRed","steam_id":76561198982078622,"connected_time":2424000000000,"state":"active","ping":70},{"user_id":221,"name":"Accident","steam_id":76561198115160396,"connected_time":163000000000,"state":"active","ping":76},{"user_id":203,"name":"stud muffin","steam_id":76561198100415364,"connected_time":1009000000000,"state":"active","ping":49},{"user_id":222,"name":"ButterFIngers","steam_id":76561199218608402,"connected_time":137000000000,"state":"active","ping":35},{"user_id":224,"name":"-p1xel","steam_id":76561198347431084,"connected_time":12000000000,"state":"active","ping":87},{"user_id":176,"name":"TSx* Osa__PL","steam_id":76561198027016799,"connected_time":2418000000000,"state":"active","ping":72},{"user_id":178,"name":"TSx* Naxer","steam_id":76561198011986779,"connected_time":2363000000000,"state":"active","ping":70}]},{"server_id":41,"name":"Uncletopia | London | 8 | Community","name_short":"lon-8","host":"lon-1.uk.uncletopia.com","port":27085,"enabled":true,"region":"eu","cc":"gb","latitude":51.509865,"longitude":-0.118092,"reserved":0,"last_update":"0001-01-01T00:00:00Z","name_a2s":"Uncletopia | London | 8 | Community","protocol":17,"map":"pl_snowycoast","folder":"tf","game":"Team Fortress","app_id":440,"player_count":0,"max_players":24,"Bots":0,"server_type":"Dedicated","server_os":"Linux","password":true,"vac":true,"version":"7723704","steam_id":85568392924964315,"keywords":["nocrits","nodmgspread","payload","uncletopia"],"game_id":440,"stv_port":27086,"stv_name":"Uncletopia | London | 8 | Community | STV","players":null},{"server_id":300,"name":"Uncletopia | Montréal | 1 | All Maps","name_short":"mtl-1","host":"mtl-1.ca.uncletopia.com","port":27015,"enabled":true,"region":"us-east","cc":"ca","latitude":45.50889,"longitude":-73.56167,"reserved":0,"last_update":"0001-01-01T00:00:00Z","name_a2s":"","protocol":0,"map":"","folder":"","game":"","app_id":0,"player_count":0,"max_players":0,"Bots":0,"server_type":"","server_os":"","password":false,"vac":false,"version":"","steam_id":0,"keywords":null,"game_id":0,"stv_port":0,"stv_name":"","players":null},{"server_id":301,"name":"Uncletopia | Montréal | 2 | All Maps","name_short":"mtl-2","host":"mtl-1.ca.uncletopia.com","port":27025,"enabled":true,"region":"us-east","cc":"ca","latitude":45.50889,"longitude":-73.56167,"reserved":0,"last_update":"0001-01-01T00:00:00Z","name_a2s":"","protocol":0,"map":"","folder":"","game":"","app_id":0,"player_count":0,"max_players":0,"Bots":0,"server_type":"","server_os":"","password":false,"vac":false,"version":"","steam_id":0,"keywords":null,"game_id":0,"stv_port":0,"stv_name":"","players":null},{"server_id":302,"name":"Uncletopia | Montréal | 3 | All Maps","name_short":"mtl-3","host":"mtl-1.ca.uncletopia.com","port":27035,"enabled":true,"region":"us-east","cc":"ca","latitude":45.50889,"longitude":-73.56167,"reserved":0,"last_update":"0001-01-01T00:00:00Z","name_a2s":"","protocol":0,"map":"","folder":"","game":"","app_id":0,"player_count":0,"max_players":0,"Bots":0,"server_type":"","server_os":"","password":false,"vac":false,"version":"","steam_id":0,"keywords":null,"game_id":0,"stv_port":0,"stv_name":"","players":null},{"server_id":303,"name":"Uncletopia | Montréal | 4 | No Payload","name_short":"mtl-4","host":"mtl-1.ca.uncletopia.com","port":27045,"enabled":true,"region":"us-east","cc":"ca","latitude":45.50889,"longitude":-73.56167,"reserved":0,"last_update":"0001-01-01T00:00:00Z","name_a2s":"","protocol":0,"map":"","folder":"","game":"","app_id":0,"player_count":0,"max_players":0,"Bots":0,"server_type":"","server_os":"","password":false,"vac":false,"version":"","steam_id":0,"keywords":null,"game_id":0,"stv_port":0,"stv_name":"","players":null},{"server_id":13,"name":"Uncletopia | New York City | 1 | All Maps","name_short":"nyc-1","host":"nyc-1.us.uncletopia.com","port":27015,"enabled":true,"region":"us-east","cc":"us","latitude":40.73061,"longitude":-73.93524,"reserved":0,"last_update":"0001-01-01T00:00:00Z","name_a2s":"Uncletopia | New York City | 1 | All Maps","protocol":17,"map":"pl_upward","folder":"tf","game":"Team Fortress","app_id":440,"player_count":24,"max_players":24,"Bots":0,"server_type":"Dedicated","server_os":"Linux","password":true,"vac":true,"version":"7723704","steam_id":85568392924469993,"keywords":["nocrits","nodmgspread","payload","uncletopia"],"game_id":440,"stv_port":27016,"stv_name":"Uncletopia | New York City | 1 | All Maps | STV","players":[{"user_id":111,"name":"birchsearch!","steam_id":76561198037134053,"connected_time":173000000000,"state":"active","ping":143},{"user_id":114,"name":"bench","steam_id":76561198055339968,"connected_time":157000000000,"state":"active","ping":50},{"user_id":55,"name":"Walmart Employee","steam_id":76561198840373909,"connected_time":4286000000000,"state":"active","ping":98},{"user_id":90,"name":"What are you doing?!","steam_id":76561198405248691,"connected_time":2176000000000,"state":"active","ping":131},{"user_id":110,"name":"Spearit5464","steam_id":76561199241807676,"connected_time":192000000000,"state":"active","ping":106},{"user_id":77,"name":"DBO","steam_id":76561198083058275,"connected_time":3328000000000,"state":"active","ping":77},{"user_id":93,"name":"kametro4","steam_id":76561198835430429,"connected_time":1917000000000,"state":"active","ping":76},{"user_id":81,"name":"Daksuki","steam_id":76561198084127751,"connected_time":2834000000000,"state":"active","ping":91},{"user_id":83,"name":"ItsRoy","steam_id":76561198119525485,"connected_time":2825000000000,"state":"active","ping":42},{"user_id":112,"name":"Winter the Witchie","steam_id":76561198151971178,"connected_time":167000000000,"state":"active","ping":73},{"user_id":52,"name":"Fudgely","steam_id":76561198039425862,"connected_time":4416000000000,"state":"active","ping":56},{"user_id":45,"name":"Jordicr100","steam_id":76561198030999491,"connected_time":4709000000000,"state":"active","ping":121},{"user_id":63,"name":"Atlas","steam_id":76561198127975050,"connected_time":4033000000000,"state":"active","ping":74},{"user_id":106,"name":"Vagineer Gaming","steam_id":76561198276179693,"connected_time":701000000000,"state":"active","ping":58},{"user_id":96,"name":"riley","steam_id":76561198133142520,"connected_time":1664000000000,"state":"active","ping":74},{"user_id":59,"name":"I'M SO FULL OF CIGARETTES, YUM!","steam_id":76561198294013916,"connected_time":4137000000000,"state":"active","ping":41},{"user_id":101,"name":"Bigby","steam_id":76561199056842761,"connected_time":1139000000000,"state":"active","ping":116},{"user_id":109,"name":"North Central Positronics Rep","steam_id":76561198133718360,"connected_time":200000000000,"state":"active","ping":83},{"user_id":103,"name":"bikerkid207","steam_id":76561198390782783,"connected_time":1091000000000,"state":"active","ping":46},{"user_id":91,"name":"sponsored by rizz wallet","steam_id":76561198139802458,"connected_time":2172000000000,"state":"active","ping":85},{"user_id":113,"name":"Yawn","steam_id":76561198085872696,"connected_time":163000000000,"state":"active","ping":54},{"user_id":100,"name":"meowfang","steam_id":76561198123056791,"connected_time":1172000000000,"state":"active","ping":53},{"user_id":92,"name":"never stop gambling","steam_id":76561198021224745,"connected_time":2065000000000,"state":"active","ping":37},{"user_id":102,"name":"marshion","steam_id":76561199120692714,"connected_time":1128000000000,"state":"active","ping":84}]},{"server_id":14,"name":"Uncletopia | New York City | 2 | All Maps","name_short":"nyc-2","host":"nyc-1.us.uncletopia.com","port":27025,"enabled":true,"region":"us-east","cc":"us","latitude":40.73061,"longitude":-73.93524,"reserved":0,"last_update":"0001-01-01T00:00:00Z","name_a2s":"Uncletopia | New York City | 2 | All Maps","protocol":17,"map":"cp_dustbowl","folder":"tf","game":"Team Fortress","app_id":440,"player_count":0,"max_players":24,"Bots":0,"server_type":"Dedicated","server_os":"Linux","password":true,"vac":true,"version":"7723704","steam_id":85568392924469994,"keywords":["cp","nocrits","nodmgspread","uncletopia"],"game_id":440,"stv_port":27026,"stv_name":"Uncletopia | New York City | 2 | All Maps | STV","players":null},{"server_id":15,"name":"Uncletopia | New York City | 3 | All Maps","name_short":"nyc-3","host":"nyc-1.us.uncletopia.com","port":27035,"enabled":true,"region":"us-east","cc":"us","latitude":40.73061,"longitude":-73.93524,"reserved":0,"last_update":"0001-01-01T00:00:00Z","name_a2s":"Uncletopia | New York City | 3 | All Maps","protocol":17,"map":"cp_sunshine","folder":"tf","game":"Team Fortress","app_id":440,"player_count":0,"max_players":24,"Bots":0,"server_type":"Dedicated","server_os":"Linux","password":true,"vac":true,"version":"7723704","steam_id":85568392924742820,"keywords":["cp","nocrits","nodmgspread","uncletopia"],"game_id":440,"stv_port":27036,"stv_name":"Uncletopia | New York City | 3 | All Maps | STV","players":null},{"server_id":16,"name":"Uncletopia | New York City | 4 | Community","name_short":"nyc-4","host":"nyc-1.us.uncletopia.com","port":27045,"enabled":true,"region":"us-east","cc":"us","latitude":40.73061,"longitude":-73.93524,"reserved":0,"last_update":"0001-01-01T00:00:00Z","name_a2s":"Uncletopia | New York City | 4 | Community","protocol":17,"map":"workshop/cp_reckoner_rc6.ugc674719999","folder":"tf","game":"Team Fortress","app_id":440,"player_count":0,"max_players":24,"Bots":0,"server_type":"Dedicated","server_os":"Linux","password":true,"vac":true,"version":"7723704","steam_id":85568392924742821,"keywords":["cp","nocrits","nodmgspread","uncletopia"],"game_id":440,"stv_port":27046,"stv_name":"Uncletopia | New York City | 4 | Community | STV","players":null},{"server_id":142,"name":"Uncletopia | São Paulo | 1 | All Maps","name_short":"sao-1","host":"sao-1.br.uncletopia.com","port":27015,"enabled":true,"region":"sa","cc":"br","latitude":-23.533773,"longitude":-46.62529,"reserved":0,"last_update":"0001-01-01T00:00:00Z","name_a2s":"Uncletopia | São Paulo | 1 | All Maps","protocol":17,"map":"pl_swiftwater_final1","folder":"tf","game":"Team Fortress","app_id":440,"player_count":8,"max_players":24,"Bots":0,"server_type":"Dedicated","server_os":"Linux","password":true,"vac":true,"version":"7723704","steam_id":85568392924469996,"keywords":["nocrits","nodmgspread","payload","uncletopia"],"game_id":440,"stv_port":27016,"stv_name":"Uncletopia | São Paulo | 1 | All Maps | STV","players":[{"user_id":43,"name":"Nikodemos0612","steam_id":76561198802374777,"connected_time":2697000000000,"state":"active","ping":48},{"user_id":59,"name":"❤nott❤","steam_id":76561198289358663,"connected_time":964000000000,"state":"spawning","ping":173},{"user_id":60,"name":"JMSB1000","steam_id":76561199056198955,"connected_time":707000000000,"state":"active","ping":485},{"user_id":62,"name":"Sconedog04","steam_id":76561198410923783,"connected_time":621000000000,"state":"spawning","ping":169},{"user_id":49,"name":"YekkuUwU","steam_id":76561199349215012,"connected_time":2184000000000,"state":"active","ping":35},{"user_id":65,"name":"JosuéManeiros","steam_id":76561198177695750,"connected_time":25000000000,"state":"active","ping":75},{"user_id":38,"name":"Rev","steam_id":76561199442812492,"connected_time":2793000000000,"state":"active","ping":104},{"user_id":57,"name":"Blepy","steam_id":76561198199455773,"connected_time":1913000000000,"state":"active","ping":76}]},{"server_id":143,"name":"Uncletopia | São Paulo | 2 | All Maps","name_short":"sao-2","host":"sao-2.br.uncletopia.com","port":27015,"enabled":true,"region":"sa","cc":"br","latitude":-23.533773,"longitude":-46.62529,"reserved":0,"last_update":"0001-01-01T00:00:00Z","name_a2s":"Uncletopia | São Paulo | 2 | All Maps","protocol":17,"map":"pl_barnblitz","folder":"tf","game":"Team Fortress","app_id":440,"player_count":0,"max_players":24,"Bots":0,"server_type":"Dedicated","server_os":"Linux","password":true,"vac":true,"version":"7723704","steam_id":85568392924485349,"keywords":["nocrits","nodmgspread","payload","uncletopia"],"game_id":440,"stv_port":27016,"stv_name":"Uncletopia | São Paulo | 2 | All Maps | STV","players":null},{"server_id":7,"name":"Uncletopia | Seattle | 1 | All Maps","name_short":"sea-1","host":"sea-1.us.uncletopia.com","port":27015,"enabled":true,"region":"us-west","cc":"us","latitude":47.608013,"longitude":-122.33517,"reserved":0,"last_update":"0001-01-01T00:00:00Z","name_a2s":"Uncletopia | Seattle | 1 | All Maps","protocol":17,"map":"cp_dustbowl","folder":"tf","game":"Team Fortress","app_id":440,"player_count":0,"max_players":24,"Bots":0,"server_type":"Dedicated","server_os":"Linux","password":true,"vac":true,"version":"7723704","steam_id":85568392924469997,"keywords":["cp","nocrits","nodmgspread","uncletopia"],"game_id":440,"stv_port":27016,"stv_name":"Uncletopia | Seattle | 1 | All Maps | STV","players":null},{"server_id":119,"name":"Uncletopia | Seattle | 2 | All Maps","name_short":"sea-2","host":"sea-1.us.uncletopia.com","port":27025,"enabled":true,"region":"us-west","cc":"us","latitude":47.608013,"longitude":-122.33517,"reserved":0,"last_update":"0001-01-01T00:00:00Z","name_a2s":"Uncletopia | Seattle | 2 | All Maps","protocol":17,"map":"pl_badwater","folder":"tf","game":"Team Fortress","app_id":440,"player_count":0,"max_players":24,"Bots":0,"server_type":"Dedicated","server_os":"Linux","password":true,"vac":true,"version":"7723704","steam_id":85568392924469998,"keywords":["nocrits","nodmgspread","payload","uncletopia"],"game_id":440,"stv_port":27026,"stv_name":"Uncletopia | Seattle | 2 | All Maps | STV","players":null},{"server_id":17,"name":"Uncletopia | San Francisco | 1 | All Maps","name_short":"sfo-1","host":"sfo-1.us.uncletopia.com","port":27015,"enabled":true,"region":"us-west","cc":"us","latitude":37.77397,"longitude":-122.4313,"reserved":0,"last_update":"0001-01-01T00:00:00Z","name_a2s":"Uncletopia | San Francisco | 1 | All Maps","protocol":17,"map":"koth_viaduct","folder":"tf","game":"Team Fortress","app_id":440,"player_count":0,"max_players":24,"Bots":0,"server_type":"Dedicated","server_os":"Linux","password":true,"vac":true,"version":"7723704","steam_id":85568392924469999,"keywords":["cp","nocrits","nodmgspread","uncletopia"],"game_id":440,"stv_port":27016,"stv_name":"Uncletopia | San Francisco | 1 | All Maps | STV","players":null},{"server_id":18,"name":"Uncletopia | San Francisco | 2 | All Maps","name_short":"sfo-2","host":"sfo-1.us.uncletopia.com","port":27025,"enabled":true,"region":"us-west","cc":"us","latitude":37.77397,"longitude":-122.4313,"reserved":0,"last_update":"0001-01-01T00:00:00Z","name_a2s":"Uncletopia | San Francisco | 2 | All Maps","protocol":17,"map":"pl_pier","folder":"tf","game":"Team Fortress","app_id":440,"player_count":0,"max_players":24,"Bots":0,"server_type":"Dedicated","server_os":"Linux","password":true,"vac":true,"version":"7723704","steam_id":85568392924470000,"keywords":["nocrits","nodmgspread","payload","uncletopia"],"game_id":440,"stv_port":27026,"stv_name":"Uncletopia | San Francisco | 2 | All Maps | STV","players":null},{"server_id":19,"name":"Uncletopia | San Francisco | 3 | No Payload","name_short":"sfo-3","host":"sfo-1.us.uncletopia.com","port":27035,"enabled":true,"region":"us-west","cc":"us","latitude":37.77397,"longitude":-122.4313,"reserved":0,"last_update":"0001-01-01T00:00:00Z","name_a2s":"Uncletopia | San Francisco | 3 | No Payload","protocol":17,"map":"pl_snowycoast","folder":"tf","game":"Team Fortress","app_id":440,"player_count":0,"max_players":24,"Bots":0,"server_type":"Dedicated","server_os":"Linux","password":true,"vac":true,"version":"7723704","steam_id":85568392924742824,"keywords":["nocrits","nodmgspread","payload","uncletopia"],"game_id":440,"stv_port":27036,"stv_name":"Uncletopia | San Francisco | 3 | No Payload | STV","players":null},{"server_id":20,"name":"Uncletopia | San Francisco | 4 | Community","name_short":"sfo-4","host":"sfo-1.us.uncletopia.com","port":27045,"enabled":true,"region":"us-west","cc":"us","latitude":37.77397,"longitude":-122.4313,"reserved":0,"last_update":"0001-01-01T00:00:00Z","name_a2s":"Uncletopia | San Francisco | 4 | Community","protocol":17,"map":"pl_frontier_final","folder":"tf","game":"Team Fortress","app_id":440,"player_count":0,"max_players":24,"Bots":0,"server_type":"Dedicated","server_os":"Linux","password":true,"vac":true,"version":"7723704","steam_id":85568392924742826,"keywords":["nocrits","nodmgspread","payload","uncletopia"],"game_id":440,"stv_port":27046,"stv_name":"Uncletopia | San Francisco | 4 | Community | STV","players":null},{"server_id":141,"name":"Uncletopia | Sydney | 1 | All Maps","name_short":"syd-1","host":"syd-1.au.uncletopia.com","port":27015,"enabled":true,"region":"au","cc":"au","latitude":-33.865143,"longitude":151.2099,"reserved":0,"last_update":"0001-01-01T00:00:00Z","name_a2s":"Uncletopia | Sydney | 1 | All Maps","protocol":17,"map":"cp_mountainlab","folder":"tf","game":"Team Fortress","app_id":440,"player_count":2,"max_players":24,"Bots":0,"server_type":"Dedicated","server_os":"Linux","password":true,"vac":true,"version":"7723704","steam_id":85568392924470001,"keywords":["cp","nocrits","nodmgspread","uncletopia"],"game_id":440,"stv_port":27016,"stv_name":"Uncletopia | Sydney | 1 | All Maps | STV","players":[{"user_id":654,"name":"Nzzy","steam_id":76561198988551236,"connected_time":936000000000,"state":"active","ping":241},{"user_id":652,"name":"famakasi","steam_id":76561198444685551,"connected_time":1065000000000,"state":"active","ping":100}]},{"server_id":123,"name":"Uncletopia | Sydney | 2 | All Maps","name_short":"syd-2","host":"syd-1.au.uncletopia.com","port":27025,"enabled":true,"region":"au","cc":"au","latitude":-33.865143,"longitude":151.2099,"reserved":0,"last_update":"0001-01-01T00:00:00Z","name_a2s":"Uncletopia | Sydney | 2 | All Maps","protocol":17,"map":"cp_process_final","folder":"tf","game":"Team Fortress","app_id":440,"player_count":0,"max_players":24,"Bots":0,"server_type":"Dedicated","server_os":"Linux","password":true,"vac":true,"version":"7723704","steam_id":85568392924470002,"keywords":["cp","nocrits","nodmgspread","uncletopia"],"game_id":440,"stv_port":27026,"stv_name":"Uncletopia | Sydney | 2 | All Maps | STV","players":null},{"server_id":395,"name":"Uncletopia | Sydney | 3 | All Maps","name_short":"syd-3","host":"syd-1.au.uncletopia.com","port":27035,"enabled":true,"region":"au","cc":"au","latitude":-33.865143,"longitude":151.2099,"reserved":0,"last_update":"0001-01-01T00:00:00Z","name_a2s":"Uncletopia | Sydney | 3 | All Maps","protocol":17,"map":"koth_lakeside_final","folder":"tf","game":"Team Fortress","app_id":440,"player_count":0,"max_players":24,"Bots":0,"server_type":"Dedicated","server_os":"Linux","password":true,"vac":true,"version":"7723704","steam_id":85568392925194467,"keywords":["cp","nocrits","nodmgspread","uncletopia"],"game_id":440,"stv_port":27036,"stv_name":"Uncletopia | Sydney | 3 | All Maps | STV","players":null},{"server_id":396,"name":"Uncletopia | Sydney | 4 | All Maps","name_short":"syd-4","host":"syd-1.au.uncletopia.com","port":27045,"enabled":true,"region":"au","cc":"au","latitude":-33.865143,"longitude":151.2099,"reserved":0,"last_update":"0001-01-01T00:00:00Z","name_a2s":"Uncletopia | Sydney | 4 | All Maps","protocol":17,"map":"cp_mountainlab","folder":"tf","game":"Team Fortress","app_id":440,"player_count":0,"max_players":24,"Bots":0,"server_type":"Dedicated","server_os":"Linux","password":true,"vac":true,"version":"7723704","steam_id":85568392925397958,"keywords":["cp","nocrits","nodmgspread","uncletopia"],"game_id":440,"stv_port":27046,"stv_name":"Uncletopia | Sydney | 4 | All Maps | STV","players":null},{"server_id":58,"name":"Uncletopia | Sydney | 5 | No Payload","name_short":"syd-5","host":"syd-1.au.uncletopia.com","port":27055,"enabled":true,"region":"au","cc":"au","latitude":-33.865143,"longitude":151.2099,"reserved":0,"last_update":"0001-01-01T00:00:00Z","name_a2s":"Uncletopia | Sydney | 5 | No Payload","protocol":17,"map":"ctf_doublecross","folder":"tf","game":"Team Fortress","app_id":440,"player_count":0,"max_players":24,"Bots":0,"server_type":"Dedicated","server_os":"Linux","password":true,"vac":true,"version":"7723704","steam_id":85568392925397959,"keywords":["ctf","nocrits","nodmgspread","uncletopia"],"game_id":440,"stv_port":27056,"stv_name":"Uncletopia | Sydney | 5 | No Payload | STV","players":null},{"server_id":59,"name":"Uncletopia | Sydney | 6 | Community","name_short":"syd-6","host":"syd-1.au.uncletopia.com","port":27065,"enabled":true,"region":"au","cc":"au","latitude":-33.865143,"longitude":151.2099,"reserved":0,"last_update":"0001-01-01T00:00:00Z","name_a2s":"Uncletopia | Sydney | 6 | Community","protocol":17,"map":"workshop/rd_asteroid_redux_rc9.ugc2154902912","folder":"tf","game":"Team Fortress","app_id":440,"player_count":0,"max_players":24,"Bots":0,"server_type":"Dedicated","server_os":"Linux","password":true,"vac":true,"version":"7723704","steam_id":85568392925397960,"keywords":["beta","nocrits","nodmgspread","rd","uncletopia"],"game_id":440,"stv_port":27066,"stv_name":"Uncletopia | Sydney | 6 | Community | STV","players":null},{"server_id":49,"name":"Uncletopia | Warsaw | 1 | All Maps","name_short":"waw-1","host":"waw-1.pl.uncletopia.com","port":27015,"enabled":true,"region":"eu","cc":"pl","latitude":52.2297,"longitude":21.017532,"reserved":0,"last_update":"0001-01-01T00:00:00Z","name_a2s":"Uncletopia | Warsaw | 1 | All Maps","protocol":17,"map":"pl_upward","folder":"tf","game":"Team Fortress","app_id":440,"player_count":23,"max_players":24,"Bots":0,"server_type":"Dedicated","server_os":"Linux","password":true,"vac":true,"version":"7723704","steam_id":85568392925397850,"keywords":["nocrits","nodmgspread","payload","uncletopia"],"game_id":440,"stv_port":27016,"stv_name":"Uncletopia | Warsaw | 1 | All Maps | STV","players":[{"user_id":280,"name":"toothpaste vaper","steam_id":76561198078458780,"connected_time":441000000000,"state":"active","ping":88},{"user_id":277,"name":"deno_","steam_id":76561198316520968,"connected_time":668000000000,"state":"active","ping":63},{"user_id":213,"name":"waffle toaster","steam_id":76561198799089628,"connected_time":4861000000000,"state":"active","ping":80},{"user_id":278,"name":"fish in a diving-suit","steam_id":76561199388915628,"connected_time":645000000000,"state":"active","ping":155},{"user_id":220,"name":"Rob Rotten","steam_id":76561198170543542,"connected_time":4611000000000,"state":"active","ping":114},{"user_id":285,"name":"PixelHyde","steam_id":76561198040878617,"connected_time":88000000000,"state":"active","ping":83},{"user_id":276,"name":"sisto majesto","steam_id":76561198073532776,"connected_time":1172000000000,"state":"active","ping":90},{"user_id":263,"name":"HeloOo_per The Communist","steam_id":76561199099995357,"connected_time":2206000000000,"state":"active","ping":63},{"user_id":141,"name":"goofy goober","steam_id":76561198013237629,"connected_time":8183000000000,"state":"active","ping":126},{"user_id":287,"name":"ErJu","steam_id":76561198106273165,"connected_time":21000000000,"state":"active","ping":86},{"user_id":182,"name":"torn","steam_id":76561198223003236,"connected_time":5753000000000,"state":"active","ping":61},{"user_id":239,"name":":)","steam_id":76561198039964082,"connected_time":3845000000000,"state":"active","ping":72},{"user_id":282,"name":"Andy","steam_id":76561198046918834,"connected_time":131000000000,"state":"active","ping":77},{"user_id":266,"name":"DeepBlue","steam_id":76561198140075795,"connected_time":1948000000000,"state":"active","ping":35},{"user_id":251,"name":"0xDEADBEEF","steam_id":76561199075416111,"connected_time":3405000000000,"state":"active","ping":96},{"user_id":246,"name":"Ivun","steam_id":76561198250199228,"connected_time":3769000000000,"state":"active","ping":111},{"user_id":275,"name":"Ammitzbøll (Menance)","steam_id":76561198106240921,"connected_time":1378000000000,"state":"active","ping":82},{"user_id":157,"name":"Threon","steam_id":76561198826783545,"connected_time":7285000000000,"state":"active","ping":69},{"user_id":274,"name":"Acid","steam_id":76561198102110680,"connected_time":1396000000000,"state":"active","ping":67},{"user_id":279,"name":"player","steam_id":76561198054474684,"connected_time":501000000000,"state":"active","ping":70},{"user_id":268,"name":"★moon_lord.exe★","steam_id":76561198384637810,"connected_time":1906000000000,"state":"active","ping":38},{"user_id":286,"name":"Clitorina","steam_id":76561198077570815,"connected_time":74000000000,"state":"active","ping":75},{"user_id":169,"name":"esheen","steam_id":76561198139376665,"connected_time":6742000000000,"state":"active","ping":40}]},{"server_id":50,"name":"Uncletopia | Warsaw | 2 | All Maps","name_short":"waw-2","host":"waw-1.pl.uncletopia.com","port":27025,"enabled":true,"region":"eu","cc":"pl","latitude":52.2297,"longitude":21.017532,"reserved":0,"last_update":"0001-01-01T00:00:00Z","name_a2s":"Uncletopia | Warsaw | 2 | All Maps","protocol":17,"map":"koth_viaduct","folder":"tf","game":"Team Fortress","app_id":440,"player_count":0,"max_players":24,"Bots":0,"server_type":"Dedicated","server_os":"Linux","password":true,"vac":true,"version":"7723704","steam_id":85568392925397851,"keywords":["cp","nocrits","nodmgspread","uncletopia"],"game_id":440,"stv_port":27026,"stv_name":"Uncletopia | Warsaw | 2 | All Maps | STV","players":null},{"server_id":51,"name":"Uncletopia | Warsaw | 3 | All Maps","name_short":"waw-3","host":"waw-1.pl.uncletopia.com","port":27035,"enabled":true,"region":"eu","cc":"pl","latitude":52.2297,"longitude":21.017532,"reserved":0,"last_update":"0001-01-01T00:00:00Z","name_a2s":"Uncletopia | Warsaw | 3 | All Maps","protocol":17,"map":"koth_lakeside_final","folder":"tf","game":"Team Fortress","app_id":440,"player_count":0,"max_players":24,"Bots":0,"server_type":"Dedicated","server_os":"Linux","password":true,"vac":true,"version":"7723704","steam_id":85568392925397852,"keywords":["cp","nocrits","nodmgspread","uncletopia"],"game_id":440,"stv_port":27036,"stv_name":"Uncletopia | Warsaw | 3 | All Maps | STV","players":null},{"server_id":52,"name":"Uncletopia | Warsaw | 4 | All Maps","name_short":"waw-4","host":"waw-1.pl.uncletopia.com","port":27045,"enabled":true,"region":"eu","cc":"pl","latitude":52.2297,"longitude":21.017532,"reserved":0,"last_update":"0001-01-01T00:00:00Z","name_a2s":"Uncletopia | Warsaw | 4 | All Maps","protocol":17,"map":"cp_snakewater_final1","folder":"tf","game":"Team Fortress","app_id":440,"player_count":0,"max_players":24,"Bots":0,"server_type":"Dedicated","server_os":"Linux","password":true,"vac":true,"version":"7723704","steam_id":85568392925397853,"keywords":["cp","nocrits","nodmgspread","uncletopia"],"game_id":440,"stv_port":27046,"stv_name":"Uncletopia | Warsaw | 4 | All Maps | STV","players":null},{"server_id":53,"name":"Uncletopia | Warsaw | 5 | No Payload","name_short":"waw-5","host":"waw-1.pl.uncletopia.com","port":27055,"enabled":true,"region":"eu","cc":"pl","latitude":52.2297,"longitude":21.017532,"reserved":0,"last_update":"0001-01-01T00:00:00Z","name_a2s":"Uncletopia | Warsaw | 5 | No Payload","protocol":17,"map":"koth_highpass","folder":"tf","game":"Team Fortress","app_id":440,"player_count":0,"max_players":24,"Bots":0,"server_type":"Dedicated","server_os":"Linux","password":true,"vac":true,"version":"7723704","steam_id":85568392925397854,"keywords":["cp","nocrits","nodmgspread","uncletopia"],"game_id":440,"stv_port":27056,"stv_name":"Uncletopia | Warsaw | 5 | No Payload | STV","players":null},{"server_id":54,"name":"Uncletopia | Warsaw | 6 | Community","name_short":"waw-6","host":"waw-1.pl.uncletopia.com","port":27065,"enabled":true,"region":"eu","cc":"pl","latitude":52.2297,"longitude":21.017532,"reserved":0,"last_update":"0001-01-01T00:00:00Z","name_a2s":"Uncletopia | Warsaw | 6 | Community","protocol":17,"map":"workshop/koth_product_final.ugc454272353","folder":"tf","game":"Team Fortress","app_id":440,"player_count":0,"max_players":24,"Bots":0,"server_type":"Dedicated","server_os":"Linux","password":true,"vac":true,"version":"7723704","steam_id":85568392925397856,"keywords":["cp","nocrits","nodmgspread","uncletopia"],"game_id":440,"stv_port":27066,"stv_name":"Uncletopia | Warsaw | 6 | Community | STV","players":null}]}