{"status":true,"message":"","result":[{"server_id":9,"name":"Uncletopia | Atlanta | 1 | All Maps","name_short":"atl-1","host":"atl-1.us.uncletopia.com","port":27015,"enabled":true,"region":"us-east","cc":"us","latitude":33.753746,"longitude":-84.38633,"reserved":0,"last_update":"0001-01-01T00:00:00Z","name_a2s":"Uncletopia | Atlanta | 1 | All Maps","protocol":17,"map":"pl_barnblitz","folder":"tf","game":"Team Fortress","app_id":440,"player_count":24,"max_players":24,"Bots":0,"server_type":"Dedicated","server_os":"Linux","password":true,"vac":true,"version":"7757534","steam_id":85568392924469982,"keywords":["nocrits","nodmgspread","payload","uncletopia"],"game_id":440,"stv_port":27016,"stv_name":"Uncletopia | Atlanta | 1 | All Maps | STV","players":[{"user_id":458,"name":"TrustyNumberTwo","steam_id":76561199158481147,"connected_time":142000000000,"state":"active","ping":102},{"user_id":416,"name":"Higgle Poggers","steam_id":76561198043960257,"connected_time":3487000000000,"state":"active","ping":67},{"user_id":454,"name":"great value le4n","steam_id":76561198079416036,"connected_time":235000000000,"state":"active","ping":76},{"user_id":417,"name":"lukiepills","steam_id":76561199020587077,"connected_time":3483000000000,"state":"active","ping":62},{"user_id":381,"name":"DoomoPelota","steam_id":76561198326462587,"connected_time":6276000000000,"state":"active","ping":92},{"user_id":444,"name":"Mikael_01","steam_id":76561199080253129,"connected_time":869000000000,"state":"active","ping":192},{"user_id":449,"name":"DJ Reni","steam_id":76561198065005979,"connected_time":456000000000,"state":"active","ping":86},{"user_id":426,"name":"[txc] garf","steam_id":76561198083078030,"connected_time":2135000000000,"state":"active","ping":53},{"user_id":452,"name":"sir fish","steam_id":76561199172185412,"connected_time":267000000000,"state":"active","ping":75},{"user_id":401,"name":"bing bing pharts","steam_id":76561198301019618,"connected_time":4697000000000,"state":"active","ping":116},{"user_id":438,"name":"Omnoman","steam_id":76561198006258213,"connected_time":1178000000000,"state":"active","ping":72},{"user_id":437,"name":"SpaceFox","steam_id":76561198316756477,"connected_time":1338000000000,"state":"active","ping":45},{"user_id":455,"name":"purple diesel","steam_id":76561197976548449,"connected_time":217000000000,"state":"active","ping":79},{"user_id":432,"name":"Carmine Lupertazzi Jr.","steam_id":76561198059535856,"connected_time":1573000000000,"state":"active","ping":112},{"user_id":457,"name":"Quakedad","steam_id":76561198055811307,"connected_time":178000000000,"state":"active","ping":130},{"user_id":430,"name":"lu","steam_id":76561198080731872,"connected_time":1633000000000,"state":"active","ping":72},{"user_id":441,"name":"jazztree14","steam_id":76561199239395356,"connected_time":1106000000000,"state":"active","ping":76},{"user_id":433,"name":"Simply_Komeiji","steam_id":76561198354177703,"connected_time":1540000000000,"state":"active","ping":79},{"user_id":389,"name":"marguerite","steam_id":76561198170873495,"connected_time":5776000000000,"state":"active","ping":56},{"user_id":434,"name":"Hell-0_World","steam_id":76561198109876007,"connected_time":1532000000000,"state":"active","ping":120},{"user_id":445,"name":"Intestinal Straw","steam_id":76561198082095303,"connected_time":864000000000,"state":"active","ping":75},{"user_id":447,"name":"Brown_Dream","steam_id":76561198975766145,"connected_time":681000000000,"state":"active","ping":74},{"user_id":423,"name":"SparkStorm","steam_id":76561198095817025,"connected_time":2575000000000,"state":"active","ping":42},{"user_id":456,"name":"certified cinderace slayer","steam_id":76561198421913648,"connected_time":210000000000,"state":"active","ping":112}]},{"server_id":104,"name":"Uncletopia | Atlanta | 2 | All Maps","name_short":"atl-2","host":"atl-1.us.uncletopia.com","port":27025,"enabled":true,"region":"us-east","cc":"us","latitude":33.753746,"longitude":-84.38633,"reserved":0,"last_update":"0001-01-01T00:00:00Z","name_a2s":"Uncletopia | Atlanta | 2 | All Maps","protocol":17,"map":"pl_barnblitz","folder":"tf","game":"Team Fortress","app_id":440,"player_count":24,"max_players":24,"Bots":0,"server_type":"Dedicated","server_os":"Linux","password":true,"vac":true,"version":"7757534","steam_id":85568392924469983,"keywords":["nocrits","nodmgspread","payload","uncletopia"],"game_id":440,"stv_port":27026,"stv_name":"Uncletopia | Atlanta | 2 | All Maps | STV","players":[{"user_id":106,"name":"GRONT","steam_id":76561198040464533,"connected_time":1401000000000,"state":"active","ping":79},{"user_id":92,"name":"roman","steam_id":76561198170066797,"connected_time":2476000000000,"state":"active","ping":61},{"user_id":117,"name":"Rain :3","steam_id":76561198983605449,"connected_time":737000000000,"state":"active","ping":93},{"user_id":40,"name":"Dr.Evil","steam_id":76561198050495521,"connected_time":5422000000000,"state":"active","ping":74},{"user_id":74,"name":"Ginger Jesus","steam_id":76561198052386458,"connected_time":3576000000000,"state":"active","ping":67},{"user_id":107,"name":"Wso1123","steam_id":76561198048040111,"connected_time":1393000000000,"state":"active","ping":102},{"user_id":30,"name":"Mister","steam_id":76561198097164652,"connected_time":6221000000000,"state":"active","ping":64},{"user_id":121,"name":"SneakyJayMLP","steam_id":76561198969565685,"connected_time":558000000000,"state":"active","ping":82},{"user_id":122,"name":"Borat Voice My Wife","steam_id":76561198020474727,"connected_time":177000000000,"state":"active","ping":65},{"user_id":89,"name":"Icaras","steam_id":76561198416724843,"connected_time":2980000000000,"state":"active","ping":134},{"user_id":99,"name":"mylomalopi","steam_id":76561198354990729,"connected_time":2104000000000,"state":"active","ping":87},{"user_id":109,"name":"Pie","steam_id":76561198020132112,"connected_time":1262000000000,"state":"active","ping":114},{"user_id":39,"name":"BearAteMahoney","steam_id":76561198020439356,"connected_time":5488000000000,"state":"active","ping":64},{"user_id":70,"name":"That Guy","steam_id":76561198798973444,"connected_time":4140000000000,"state":"active","ping":73},{"user_id":56,"name":"Highground","steam_id":76561199197544789,"connected_time":4981000000000,"state":"active","ping":111},{"user_id":105,"name":"exov","steam_id":76561198064513362,"connected_time":1614000000000,"state":"active","ping":78},{"user_id":124,"name":"Sex on the peach","steam_id":76561198002353326,"connected_time":116000000000,"state":"active","ping":85},{"user_id":82,"name":"Jghost","steam_id":76561198079520603,"connected_time":3378000000000,"state":"active","ping":101},{"user_id":112,"name":"azzy","steam_id":76561198825918211,"connected_time":1038000000000,"state":"active","ping":192},{"user_id":100,"name":"El Bondin","steam_id":76561198820792434,"connected_time":2102000000000,"state":"active","ping":85},{"user_id":123,"name":"Cassius","steam_id":76561198146163328,"connected_time":121000000000,"state":"active","ping":81},{"user_id":125,"name":"Bombat","steam_id":76561198083096946,"connected_time":43000000000,"state":"active","ping":110},{"user_id":120,"name":"Bigge cheese the 3rd","steam_id":76561198860975325,"connected_time":681000000000,"state":"active","ping":65},{"user_id":97,"name":"miki minach","steam_id":76561198249206656,"connected_time":2311000000000,"state":"active","ping":88}]},{"server_id":400,"name":"Uncletopia | Atlanta | 3 | Community","name_short":"atl-3","host":"atl-1.us.uncletopia.com","port":27035,"enabled":true,"region":"us-east","cc":"us","latitude":33.753746,"longitude":-84.38633,"reserved":0,"last_update":"0001-01-01T00:00:00Z","name_a2s":"Uncletopia | Atlanta | 3 | Community","protocol":17,"map":"workshop/cp_croissant_final.ugc458840209","folder":"tf","game":"Team Fortress","app_id":440,"player_count":24,"max_players":24,"Bots":0,"server_type":"Dedicated","server_os":"Linux","password":true,"vac":true,"version":"7757534","steam_id":85568392924515187,"keywords":["cp","nocrits","nodmgspread","uncletopia"],"game_id":440,"stv_port":27036,"stv_name":"Uncletopia | Atlanta | 3 | Community | STV","players":[{"user_id":10,"name":"Cheesi","steam_id":76561199417190840,"connected_time":3990000000000,"state":"active","ping":88},{"user_id":12,"name":"William Wallace","steam_id":76561199343316814,"connected_time":3519000000000,"state":"active","ping":62},{"user_id":29,"name":"Kyatoru","steam_id":76561198360597965,"connected_time":1350000000000,"state":"active","ping":138},{"user_id":14,"name":"nup noodle","steam_id":76561198101278181,"connected_time":2458000000000,"state":"active","ping":102},{"user_id":16,"name":"Yoru","steam_id":76561198119698950,"connected_time":2050000000000,"state":"active","ping":114},{"user_id":47,"name":"Red","steam_id":76561198001939529,"connected_time":952000000000,"state":"active","ping":82},{"user_id":34,"name":"paloma","steam_id":76561198066076086,"connected_time":1244000000000,"state":"active","ping":126},{"user_id":52,"name":"Biosock Infiknit","steam_id":76561198072693794,"connected_time":235000000000,"state":"active","ping":80},{"user_id":37,"name":"Mr_Frosty","steam_id":76561199380389079,"connected_time":1188000000000,"state":"active","ping":92},{"user_id":27,"name":"Gib Gobbler","steam_id":76561199473296583,"connected_time":1452000000000,"state":"active","ping":93},{"user_id":51,"name":"hack fraud","steam_id":76561198015036066,"connected_time":747000000000,"state":"active","ping":90},{"user_id":28,"name":"Chin","steam_id":76561198247426906,"connected_time":1421000000000,"state":"active","ping":72},{"user_id":30,"name":"Shoe","steam_id":76561198951926312,"connected_time":1348000000000,"state":"active","ping":75},{"user_id":31,"name":"Patty Jameson Mcaulay","steam_id":76561199006744807,"connected_time":1334000000000,"state":"active","ping":95},{"user_id":32,"name":"bobbyreinman2009","steam_id":76561198804763186,"connected_time":1328000000000,"state":"active","ping":60},{"user_id":33,"name":"Tamalito109","steam_id":76561198310531554,"connected_time":1285000000000,"state":"active","ping":94},{"user_id":35,"name":"Broadsword","steam_id":76561198011160411,"connected_time":1232000000000,"state":"active","ping":72},{"user_id":45,"name":"username","steam_id":76561198130826890,"connected_time":1040000000000,"state":"active","ping":62},{"user_id":49,"name":"Rick Astley's Foot","steam_id":76561198862617917,"connected_time":927000000000,"state":"active","ping":67},{"user_id":39,"name":"Grip Acquired","steam_id":76561198352512685,"connected_time":1145000000000,"state":"active","ping":70},{"user_id":40,"name":"supermarioben2","steam_id":76561198171090445,"connected_time":1124000000000,"state":"active","ping":122},{"user_id":41,"name":"Turbocat","steam_id":76561198145431353,"connected_time":1113000000000,"state":"active","ping":84},{"user_id":42,"name":"Ground Control to Majortom","steam_id":76561198065589126,"connected_time":1103000000000,"state":"active","ping":69},{"user_id":50,"name":"Bot Karma","steam_id":76561198422386331,"connected_time":926000000000,"state":"active","ping":125}]},{"server_id":401,"name":"Uncletopia | Atlanta | 4 | No Payload","name_short":"atl-4","host":"atl-1.us.uncletopia.com","port":27045,"enabled":true,"region":"us-east","cc":"us","latitude":33.753746,"longitude":-84.38633,"reserved":0,"last_update":"0001-01-01T00:00:00Z","name_a2s":"","protocol":0,"map":"","folder":"","game":"","app_id":0,"player_count":0,"max_players":0,"Bots":0,"server_type":"","server_os":"","password":false,"vac":false,"version":"","steam_id":0,"keywords":null,"game_id":0,"stv_port":0,"stv_name":"","players":null},{"server_id":2,"name":"Uncletopia | Chicago | 1 | All Maps","name_short":"chi-1","host":"chi-1.us.uncletopia.com","port":27015,"enabled":true,"region":"us-central","cc":"us","latitude":41.881832,"longitude":-87.62318,"reserved":0,"last_update":"0001-01-01T00:00:00Z","name_a2s":"Uncletopia | Chicago | 1 | All Maps","protocol":17,"map":"cp_dustbowl","folder":"tf","game":"Team Fortress","app_id":440,"player_count":24,"max_players":24,"Bots":0,"server_type":"Dedicated","server_os":"Linux","password":true,"vac":true,"version":"7757534","steam_id":85568392924469984,"keywords":["cp","nocrits","nodmgspread","uncletopia"],"game_id":440,"stv_port":27016,"stv_name":"Uncletopia | Chicago | 1 | All Maps | STV","players":[{"user_id":417,"name":"miner","steam_id":76561198073035221,"connected_time":806000000000,"state":"active","ping":56},{"user_id":408,"name":"Usman","steam_id":76561198430295625,"connected_time":928000000000,"state":"active","ping":54},{"user_id":412,"name":"dan","steam_id":76561198061589465,"connected_time":869000000000,"state":"active","ping":61},{"user_id":405,"name":"rE_d0","steam_id":76561198975450630,"connected_time":1053000000000,"state":"active","ping":90},{"user_id":402,"name":"Chocoflakes15","steam_id":76561198184714901,"connected_time":1194000000000,"state":"active","ping":55},{"user_id":410,"name":"Aerobro","steam_id":76561198033530996,"connected_time":894000000000,"state":"active","ping":83},{"user_id":310,"name":"SIGMA [BS]","steam_id":76561197962604879,"connected_time":6777000000000,"state":"active","ping":72},{"user_id":411,"name":"jdt631","steam_id":76561198271999934,"connected_time":881000000000,"state":"active","ping":85},{"user_id":379,"name":"Barlon","steam_id":76561198023717515,"connected_time":2376000000000,"state":"active","ping":73},{"user_id":380,"name":"DamerDoozle","steam_id":76561199121686201,"connected_time":2338000000000,"state":"active","ping":60},{"user_id":381,"name":"Carl, Good to see you","steam_id":76561198070574075,"connected_time":2326000000000,"state":"active","ping":71},{"user_id":401,"name":"The Power","steam_id":76561198060566884,"connected_time":1319000000000,"state":"active","ping":150},{"user_id":398,"name":"nvm_","steam_id":76561198843128678,"connected_time":1453000000000,"state":"active","ping":47},{"user_id":421,"name":"Vem","steam_id":76561198117273112,"connected_time":593000000000,"state":"active","ping":70},{"user_id":414,"name":"AlphaScout","steam_id":76561198047797890,"connected_time":833000000000,"state":"active","ping":64},{"user_id":415,"name":"Sagoogoo","steam_id":76561198176061614,"connected_time":826000000000,"state":"active","ping":89},{"user_id":422,"name":"defcon","steam_id":76561198100656328,"connected_time":584000000000,"state":"active","ping":80},{"user_id":386,"name":"Sinklefink","steam_id":76561199220662103,"connected_time":2088000000000,"state":"active","ping":77},{"user_id":359,"name":"Doctor Pyro","steam_id":76561198240400118,"connected_time":3847000000000,"state":"active","ping":101},{"user_id":419,"name":"FI LO","steam_id":76561198976530881,"connected_time":793000000000,"state":"active","ping":89},{"user_id":366,"name":"Zoot","steam_id":76561198121944243,"connected_time":3100000000000,"state":"active","ping":74},{"user_id":420,"name":"koompa_stomp","steam_id":76561198073081735,"connected_time":785000000000,"state":"active","ping":101},{"user_id":393,"name":"Mcfighter2","steam_id":76561198168073956,"connected_time":1608000000000,"state":"active","ping":57},{"user_id":425,"name":"hehe","steam_id":76561198125913580,"connected_time":63000000000,"state":"active","ping":63}]},{"server_id":106,"name":"Uncletopia | Chicago | 2 | All Maps","name_short":"chi-2","host":"chi-1.us.uncletopia.com","port":27025,"enabled":true,"region":"us-central","cc":"us","latitude":41.881832,"longitude":-87.62318,"reserved":0,"last_update":"0001-01-01T00:00:00Z","name_a2s":"Uncletopia | Chicago | 2 | All Maps","protocol":17,"map":"cp_granary","folder":"tf","game":"Team Fortress","app_id":440,"player_count":24,"max_players":24,"Bots":0,"server_type":"Dedicated","server_os":"Linux","password":true,"vac":true,"version":"7757534","steam_id":85568392924469985,"keywords":["cp","nocrits","nodmgspread","uncletopia"],"game_id":440,"stv_port":27026,"stv_name":"Uncletopia | Chicago | 2 | All Maps | STV","players":[{"user_id":317,"name":"asbestos","steam_id":76561198079178866,"connected_time":5686000000000,"state":"active","ping":64},{"user_id":372,"name":"caberknight tf2","steam_id":76561199273882768,"connected_time":255000000000,"state":"active","ping":69},{"user_id":369,"name":"local medic main","steam_id":76561198886157874,"connected_time":347000000000,"state":"active","ping":69},{"user_id":365,"name":"xerro","steam_id":76561198323340524,"connected_time":448000000000,"state":"active","ping":145},{"user_id":366,"name":"‚ù§Breadshot (She)‚ù§","steam_id":76561199005756738,"connected_time":426000000000,"state":"active","ping":49},{"user_id":376,"name":"Mr. Cheesey","steam_id":76561198153462183,"connected_time":41000000000,"state":"spawning","ping":58},{"user_id":253,"name":"Jack The Racc","steam_id":76561198044762365,"connected_time":10384000000000,"state":"active","ping":48},{"user_id":373,"name":"Honolulu","steam_id":76561198106381764,"connected_time":254000000000,"state":"active","ping":47},{"user_id":357,"name":"GKEmperor","steam_id":76561197995187011,"connected_time":595000000000,"state":"active","ping":60},{"user_id":370,"name":"Wahooka","steam_id":76561197962240925,"connected_time":297000000000,"state":"active","ping":57},{"user_id":355,"name":"i game naked","steam_id":76561198041348890,"connected_time":622000000000,"state":"active","ping":56},{"user_id":338,"name":"popfulmail","steam_id":76561198865971290,"connected_time":3284000000000,"state":"active","ping":84},{"user_id":329,"name":"Queen Frau the Round","steam_id":76561197999942134,"connected_time":4421000000000,"state":"active","ping":44},{"user_id":359,"name":"Kit kyat","steam_id":76561198235786296,"connected_time":565000000000,"state":"active","ping":62},{"user_id":333,"name":"Candy Sparkles","steam_id":76561198126871264,"connected_time":4184000000000,"state":"active","ping":85},{"user_id":367,"name":"St. Michael","steam_id":76561198037611052,"connected_time":397000000000,"state":"active","ping":68},{"user_id":375,"name":"ihabitat","steam_id":76561198131425956,"connected_time":63000000000,"state":"active","ping":56},{"user_id":374,"name":"Prec1sioN","steam_id":76561198931137867,"connected_time":234000000000,"state":"active","ping":53},{"user_id":346,"name":"Wang of Wall St","steam_id":76561198047460598,"connected_time":2446000000000,"state":"active","ping":68},{"user_id":361,"name":"Stressmelo","steam_id":76561199204445185,"connected_time":548000000000,"state":"active","ping":77},{"user_id":305,"name":"Zeek","steam_id":76561197987204351,"connected_time":6678000000000,"state":"active","ping":60},{"user_id":362,"name":"wildfowl4","steam_id":76561199384723602,"connected_time":514000000000,"state":"active","ping":80},{"user_id":378,"name":"wezeer","steam_id":76561198407577922,"connected_time":1000000000,"state":"spawning","ping":60},{"user_id":368,"name":"viper","steam_id":76561198839942937,"connected_time":367000000000,"state":"active","ping":60}]},{"server_id":402,"name":"Uncletopia | Chicago | 3 | All Maps","name_short":"chi-3","host":"chi-1.us.uncletopia.com","port":27035,"enabled":true,"region":"us-central","cc":"us","latitude":41.881832,"longitude":-87.62318,"reserved":0,"last_update":"0001-01-01T00:00:00Z","name_a2s":"Uncletopia | Chicago | 3 | All Maps","protocol":17,"map":"pl_badwater","folder":"tf","game":"Team Fortress","app_id":440,"player_count":24,"max_players":24,"Bots":0,"server_type":"Dedicated","server_os":"Linux","password":true,"vac":true,"version":"7757534","steam_id":85568392924515191,"keywords":["nocrits","nodmgspread","payload","uncletopia"],"game_id":440,"stv_port":27036,"stv_name":"Uncletopia | Chicago | 3 | All Maps | STV","players":[{"user_id":58,"name":"ConiferCarver(#SaveTF2)","steam_id":76561198195875845,"connected_time":544000000000,"state":"active","ping":101},{"user_id":48,"name":"full of pilk","steam_id":76561198092716651,"connected_time":1781000000000,"state":"active","ping":74},{"user_id":54,"name":"Bread Baker","steam_id":76561198185335103,"connected_time":996000000000,"state":"active","ping":52},{"user_id":52,"name":"nix","steam_id":76561199058146645,"connected_time":1614000000000,"state":"active","ping":145},{"user_id":63,"name":"Schlebecke","steam_id":76561199044752122,"connected_time":403000000000,"state":"active","ping":56},{"user_id":22,"name":"custodian","steam_id":76561198058793778,"connected_time":2597000000000,"state":"active","ping":71},{"user_id":27,"name":"Notafraid90","steam_id":76561198104072542,"connected_time":2414000000000,"state":"active","ping":72},{"user_id":64,"name":"Doctor Sex","steam_id":76561198378542321,"connected_time":361000000000,"state":"active","ping":76},{"user_id":49,"name":"drdoofus123","steam_id":76561198016826181,"connected_time":1759000000000,"state":"active","ping":69},{"user_id":29,"name":"Cat","steam_id":76561198027383284,"connected_time":2289000000000,"state":"active","ping":158},{"user_id":30,"name":"wuddles","steam_id":76561198025782349,"connected_time":2268000000000,"state":"active","ping":102},{"user_id":51,"name":"coms","steam_id":76561198359456881,"connected_time":1682000000000,"state":"active","ping":60},{"user_id":32,"name":"Mosi ‚òæ","steam_id":76561198015281553,"connected_time":2244000000000,"state":"active","ping":89},{"user_id":33,"name":"doc","steam_id":76561197997949711,"connected_time":2237000000000,"state":"active","ping":62},{"user_id":55,"name":"MrDarkc","steam_id":76561199233053848,"connected_time":830000000000,"state":"active","ping":93},{"user_id":35,"name":"i really like this dog :)","steam_id":76561198882404753,"connected_time":2179000000000,"state":"active","ping":84},{"user_id":53,"name":"soup","steam_id":76561198077790130,"connected_time":1024000000000,"state":"active","ping":59},{"user_id":66,"name":"Sloothman","steam_id":76561198081703122,"connected_time":3000000000,"state":"spawning","ping":43},{"user_id":57,"name":"LukeLeal","steam_id":76561198049822995,"connected_time":683000000000,"state":"active","ping":172},{"user_id":65,"name":"phone","steam_id":76561198029268743,"connected_time":350000000000,"state":"active","ping":60},{"user_id":41,"name":"The Dokkan Dance","steam_id":76561198855935442,"connected_time":2026000000000,"state":"active","ping":73},{"user_id":59,"name":"Tealim","steam_id":76561198330085713,"connected_time":541000000000,"state":"active","ping":87},{"user_id":60,"name":"GAME GAMING","steam_id":76561199222119901,"connected_time":500000000000,"state":"active","ping":90},{"user_id":62,"name":"jack merridew","steam_id":76561199206622559,"connected_time":448000000000,"state":"active","ping":65}]},{"server_id":403,"name":"Uncletopia | Chicago | 4 | All Maps","name_short":"chi-4","host":"chi-1.us.uncletopia.com","port":27045,"enabled":true,"region":"us-central","cc":"us","latitude":41.881832,"longitude":-87.62318,"reserved":0,"last_update":"0001-01-01T00:00:00Z","name_a2s":"Uncletopia | Chicago | 4 | All Maps","protocol":17,"map":"cp_steel","folder":"tf","game":"Team Fortress","app_id":440,"player_count":24,"max_players":24,"Bots":0,"server_type":"Dedicated","server_os":"Linux","password":true,"vac":true,"version":"7757534","steam_id":85568392924515193,"keywords":["cp","nocrits","nodmgspread","uncletopia"],"game_id":440,"stv_port":27046,"stv_name":"Uncletopia | Chicago | 4 | All Maps | STV","players":[{"user_id":262,"name":"Rue","steam_id":76561198013135993,"connected_time":1067000000000,"state":"active","ping":46},{"user_id":267,"name":"Teutiaplus","steam_id":76561198880943359,"connected_time":559000000000,"state":"active","ping":71},{"user_id":263,"name":"Cousin Corn on the Cob","steam_id":76561198049837377,"connected_time":899000000000,"state":"active","ping":48},{"user_id":254,"name":"N8","steam_id":76561198077788860,"connected_time":1866000000000,"state":"active","ping":62},{"user_id":268,"name":"Rat Bastard -{A‚òÖT}-","steam_id":76561197979905804,"connected_time":307000000000,"state":"active","ping":66},{"user_id":180,"name":"Peter Popoff","steam_id":76561198027171160,"connected_time":6184000000000,"state":"active","ping":49},{"user_id":250,"name":"Cerabond","steam_id":76561199230915333,"connected_time":1972000000000,"state":"active","ping":76},{"user_id":260,"name":"TransSammie","steam_id":76561198046331930,"connected_time":1309000000000,"state":"active","ping":97},{"user_id":197,"name":"Xen","steam_id":76561198025311844,"connected_time":4656000000000,"state":"active","ping":85},{"user_id":209,"name":"chimb","steam_id":76561197993795544,"connected_time":4385000000000,"state":"active","ping":92},{"user_id":240,"name":"b√ºddeh","steam_id":76561198070735936,"connected_time":2542000000000,"state":"active","ping":60},{"user_id":261,"name":"Micheal","steam_id":76561198242238956,"connected_time":1306000000000,"state":"active","ping":83},{"user_id":259,"name":"P.C. Baby","steam_id":76561198067011379,"connected_time":1322000000000,"state":"active","ping":122},{"user_id":264,"name":"chaffy","steam_id":76561198021754567,"connected_time":891000000000,"state":"active","ping":60},{"user_id":247,"name":"Shwa","steam_id":76561198122613101,"connected_time":2133000000000,"state":"active","ping":75},{"user_id":236,"name":"Yosh","steam_id":76561198027078899,"connected_time":2827000000000,"state":"active","ping":78},{"user_id":269,"name":"MeatShield 2000","steam_id":76561199375192850,"connected_time":279000000000,"state":"active","ping":97},{"user_id":176,"name":"Fresh Lychee","steam_id":76561198045399559,"connected_time":6323000000000,"state":"active","ping":55},{"user_id":204,"name":"David Rainbowie","steam_id":76561198046237033,"connected_time":4432000000000,"state":"active","ping":88},{"user_id":213,"name":"Niplets","steam_id":76561198021229322,"connected_time":4198000000000,"state":"active","ping":97},{"user_id":243,"name":"playguy carter","steam_id":76561198080679337,"connected_time":2395000000000,"state":"active","ping":61},{"user_id":266,"name":"Lowvast","steam_id":76561198068455981,"connected_time":737000000000,"state":"active","ping":77},{"user_id":257,"name":"Yume","steam_id":76561198018060136,"connected_time":1410000000000,"state":"active","ping":82},{"user_id":218,"name":"P-21","steam_id":76561198057193908,"connected_time":4084000000000,"state":"active","ping":75}]},{"server_id":36,"name":"Uncletopia | Chicago | 5 | All Maps","name_short":"chi-5","host":"chi-2.us.uncletopia.com","port":27015,"enabled":true,"region":"us-central","cc":"us","latitude":41.881832,"longitude":-87.62318,"reserved":0,"last_update":"0001-01-01T00:00:00Z","name_a2s":"Uncletopia | Chicago | 5 | All Maps","protocol":17,"map":"pl_borneo","folder":"tf","game":"Team Fortress","app_id":440,"player_count":24,"max_players":24,"Bots":0,"server_type":"Dedicated","server_os":"Linux","password":true,"vac":true,"version":"7757534","steam_id":85568392924866362,"keywords":["nocrits","nodmgspread","payload","uncletopia"],"game_id":440,"stv_port":27016,"stv_name":"Uncletopia | Chicago | 5 | All Maps | STV","players":[{"user_id":71,"name":"THICK THIGHS, THIN PATIENCE","steam_id":76561198280093539,"connected_time":1127000000000,"state":"active","ping":53},{"user_id":84,"name":"pilk‚ô°","steam_id":76561198284683550,"connected_time":335000000000,"state":"active","ping":75},{"user_id":80,"name":"buppy egirl","steam_id":76561199157846537,"connected_time":829000000000,"state":"active","ping":69},{"user_id":91,"name":"Sunshine","steam_id":76561198885528098,"connected_time":29000000000,"state":"active","ping":85},{"user_id":58,"name":"Need a femboy","steam_id":76561198283507975,"connected_time":2754000000000,"state":"active","ping":68},{"user_id":85,"name":"GarlicDipp","steam_id":76561198064438763,"connected_time":328000000000,"state":"active","ping":81},{"user_id":64,"name":"What The Hell","steam_id":76561198061103166,"connected_time":2285000000000,"state":"active","ping":56},{"user_id":34,"name":"Mister Mystical Perfection","steam_id":76561198036444997,"connected_time":4163000000000,"state":"active","ping":83},{"user_id":50,"name":"jodie.blend","steam_id":76561198140701807,"connected_time":3748000000000,"state":"active","ping":71},{"user_id":66,"name":"Big Tony","steam_id":76561198086790000,"connected_time":2266000000000,"state":"active","ping":154},{"user_id":52,"name":"fmell","steam_id":76561198111655570,"connected_time":3665000000000,"state":"active","ping":43},{"user_id":37,"name":"xXcLaImEd__ReApErXx [F2P]","steam_id":76561198067232540,"connected_time":4064000000000,"state":"active","ping":74},{"user_id":86,"name":"TheRiGuy21","steam_id":76561199466243640,"connected_time":301000000000,"state":"active","ping":83},{"user_id":82,"name":"pedestal boy","steam_id":76561198165567310,"connected_time":391000000000,"state":"active","ping":61},{"user_id":83,"name":"TheCheeseWizard","steam_id":76561198058931315,"connected_time":390000000000,"state":"active","ping":59},{"user_id":70,"name":"nines","steam_id":76561198078992548,"connected_time":1155000000000,"state":"active","ping":75},{"user_id":41,"name":"Sky (‚åê‚ñ†_‚ñ†)","steam_id":76561198104953731,"connected_time":3987000000000,"state":"active","ping":91},{"user_id":87,"name":"the shmoney made me do it","steam_id":76561198125947844,"connected_time":288000000000,"state":"active","ping":92},{"user_id":81,"name":"Zega1234","steam_id":76561198079466369,"connected_time":484000000000,"state":"active","ping":50},{"user_id":51,"name":"poiuytrewqwqwqwqwqwqwqwqwqwqwqw","steam_id":76561199105253001,"connected_time":3731000000000,"state":"active","ping":77},{"user_id":90,"name":"Queen Cool (She/They)","steam_id":76561198244519408,"connected_time":41000000000,"state":"active","ping":72},{"user_id":46,"name":"hud7on","steam_id":76561198185811389,"connected_time":3954000000000,"state":"active","ping":86},{"user_id":54,"name":"Speed Weed","steam_id":76561198007512620,"connected_time":3461000000000,"state":"active","ping":75},{"user_id":62,"name":"Phoysh","steam_id":76561198137111021,"connected_time":2379000000000,"state":"active","ping":104}]},{"server_id":37,"name":"Uncletopia | Chicago | 6 | All Maps","name_short":"chi-6","host":"chi-2.us.uncletopia.com","port":27025,"enabled":true,"region":"us-central","cc":"us","latitude":41.881832,"longitude":-87.62318,"reserved":0,"last_update":"0001-01-01T00:00:00Z","name_a2s":"Uncletopia | Chicago | 6 | All Maps","protocol":17,"map":"koth_lakeside_final","folder":"tf","game":"Team Fortress","app_id":440,"player_count":4,"max_players":24,"Bots":0,"server_type":"Dedicated","server_os":"Linux","password":true,"vac":true,"version":"7757534","steam_id":85568392924866363,"keywords":["cp","nocrits","nodmgspread","uncletopia"],"game_id":440,"stv_port":27026,"stv_name":"Uncletopia | Chicago | 6 | All Maps | STV","players":[{"user_id":16,"name":"carbonatedgamer5671","steam_id":76561199228939460,"connected_time":1101000000000,"state":"active","ping":88},{"user_id":18,"name":"SoulDipper","steam_id":76561199099298530,"connected_time":1012000000000,"state":"active","ping":67},{"user_id":19,"name":"PageBoiSkull","steam_id":76561198237353578,"connected_time":933000000000,"state":"active","ping":99},{"user_id":24,"name":"lockjaw","steam_id":76561198355068405,"connected_time":146000000000,"state":"active","ping":49}]},{"server_id":38,"name":"Uncletopia | Chicago | 7 | Stopwatch Beta","name_short":"chi-7","host":"chi-2.us.uncletopia.com","port":27035,"enabled":true,"region":"us-central","cc":"us","latitude":41.881832,"longitude":-87.62318,"reserved":0,"last_update":"0001-01-01T00:00:00Z","name_a2s":"Uncletopia | Chicago | 7 | Stopwatch Beta","protocol":17,"map":"pl_barnblitz","folder":"tf","game":"Team Fortress","app_id":440,"player_count":0,"max_players":24,"Bots":0,"server_type":"Dedicated","server_os":"Linux","password":true,"vac":true,"version":"7757534","steam_id":85568392924866364,"keywords":["nocrits","nodmgspread","payload","uncletopia"],"game_id":440,"stv_port":27036,"stv_name":"Uncletopia | Chicago | 7 | Stopwatch Beta | STV","players":null},{"server_id":39,"name":"Uncletopia | Chicago | 8 | Community","name_short":"chi-8","host":"chi-2.us.uncletopia.com","port":27045,"enabled":true,"region":"us-central","cc":"us","latitude":41.881832,"longitude":-87.62318,"reserved":0,"last_update":"0001-01-01T00:00:00Z","name_a2s":"Uncletopia | Chicago | 8 | Community","protocol":17,"map":"koth_cascade","folder":"tf","game":"Team Fortress","app_id":440,"player_count":0,"max_players":24,"Bots":0,"server_type":"Dedicated","server_os":"Linux","password":true,"vac":true,"version":"7757534","steam_id":85568392924866365,"keywords":["cp","nocrits","nodmgspread","uncletopia"],"game_id":440,"stv_port":27046,"stv_name":"Uncletopia | Chicago | 8 | Community | STV","players":null},{"server_id":8,"name":"Uncletopia | Dallas | 1 | All Maps","name_short":"dal-1","host":"dal-1.us.uncletopia.com","port":27015,"enabled":true,"region":"us-central","cc":"us","latitude":32.779167,"longitude":-96.80889,"reserved":0,"last_update":"0001-01-01T00:00:00Z","name_a2s":"Uncletopia | Dallas | 1 | All Maps","protocol":17,"map":"pl_barnblitz","folder":"tf","game":"Team Fortress","app_id":440,"player_count":24,"max_players":24,"Bots":0,"server_type":"Dedicated","server_os":"Linux","password":true,"vac":true,"version":"7757534","steam_id":85568392924469986,"keywords":["nocrits","nodmgspread","payload","uncletopia"],"game_id":440,"stv_port":27016,"stv_name":"Uncletopia | Dallas | 1 | All Maps | STV","players":[{"user_id":245,"name":"geoff","steam_id":76561198038448355,"connected_time":3166000000000,"state":"active","ping":61},{"user_id":281,"name":"StrangerHYP","steam_id":76561198395336752,"connected_time":880000000000,"state":"active","ping":92},{"user_id":266,"name":"Imrgrim","steam_id":76561198135866481,"connected_time":1613000000000,"state":"active","ping":65},{"user_id":267,"name":"Monster","steam_id":76561198189429665,"connected_time":1600000000000,"state":"active","ping":66},{"user_id":285,"name":"Fox","steam_id":76561198063507627,"connected_time":571000000000,"state":"active","ping":39},{"user_id":242,"name":"sly","steam_id":76561198139240845,"connected_time":3662000000000,"state":"active","ping":89},{"user_id":275,"name":"Legit_Jaxer","steam_id":76561198172234053,"connected_time":1184000000000,"state":"active","ping":108},{"user_id":293,"name":"Diamond Fries","steam_id":76561199086196600,"connected_time":300000000000,"state":"active","ping":78},{"user_id":263,"name":"austintacious","steam_id":76561198054118061,"connected_time":2174000000000,"state":"active","ping":72},{"user_id":287,"name":"Failafel","steam_id":76561199111552786,"connected_time":526000000000,"state":"active","ping":158},{"user_id":271,"name":"Goose of Wisdom","steam_id":76561198233465044,"connected_time":1366000000000,"state":"active","ping":106},{"user_id":190,"name":"Suns","steam_id":76561198272323195,"connected_time":7235000000000,"state":"active","ping":74},{"user_id":291,"name":"twitch.tv/kegaman_","steam_id":76561198043632775,"connected_time":432000000000,"state":"active","ping":83},{"user_id":237,"name":"iaPK","steam_id":76561198056618642,"connected_time":4093000000000,"state":"active","ping":45},{"user_id":280,"name":"Mischievous44","steam_id":76561198106532712,"connected_time":956000000000,"state":"active","ping":87},{"user_id":264,"name":"ShadowKun","steam_id":76561199134735740,"connected_time":1893000000000,"state":"active","ping":67},{"user_id":282,"name":"LerN","steam_id":76561198083463877,"connected_time":753000000000,"state":"active","ping":82},{"user_id":279,"name":"meatBALL sub lova 38 (meatball)","steam_id":76561198965781031,"connected_time":1010000000000,"state":"active","ping":103},{"user_id":292,"name":"frozenwasanokmovie","steam_id":76561198157407952,"connected_time":385000000000,"state":"active","ping":81},{"user_id":276,"name":"TheAmazingSpy","steam_id":76561198392222427,"connected_time":1182000000000,"state":"active","ping":77},{"user_id":284,"name":"The World's Softest Sandwich","steam_id":76561198015577707,"connected_time":574000000000,"state":"active","ping":71},{"user_id":261,"name":"WrenLightsaber","steam_id":76561199054971009,"connected_time":2330000000000,"state":"active","ping":53},{"user_id":295,"name":"a bucket of chicken","steam_id":76561198023710042,"connected_time":26000000000,"state":"active","ping":53},{"user_id":227,"name":"Engineer Gaming","steam_id":76561198840761529,"connected_time":4543000000000,"state":"active","ping":61}]},{"server_id":108,"name":"Uncletopia | Dallas | 2 | All Maps","name_short":"dal-2","host":"dal-1.us.uncletopia.com","port":27025,"enabled":true,"region":"us-central","cc":"us","latitude":32.779167,"longitude":-96.80889,"reserved":0,"last_update":"0001-01-01T00:00:00Z","name_a2s":"Uncletopia | Dallas | 2 | All Maps","protocol":17,"map":"pl_borneo","folder":"tf","game":"Team Fortress","app_id":440,"player_count":24,"max_players":24,"Bots":0,"server_type":"Dedicated","server_os":"Linux","password":true,"vac":true,"version":"7757534","steam_id":85568392924469988,"keywords":["nocrits","nodmgspread","payload","uncletopia"],"game_id":440,"stv_port":27026,"stv_name":"Uncletopia | Dallas | 2 | All Maps | STV","players":[{"user_id":146,"name":"Garden Rake Gaming","steam_id":76561198993470397,"connected_time":3335000000000,"state":"active","ping":100},{"user_id":177,"name":"Ender Dragon","steam_id":76561198355829581,"connected_time":1677000000000,"state":"active","ping":111},{"user_id":188,"name":"James","steam_id":76561198081313916,"connected_time":1062000000000,"state":"active","ping":74},{"user_id":128,"name":"Gossamer","steam_id":76561198046948498,"connected_time":4377000000000,"state":"active","ping":64},{"user_id":138,"name":"Metal Mouse","steam_id":76561198271975696,"connected_time":3416000000000,"state":"active","ping":75},{"user_id":181,"name":"Aeri","steam_id":76561197996522919,"connected_time":1328000000000,"state":"active","ping":96},{"user_id":196,"name":"Pocket","steam_id":76561198049804640,"connected_time":534000000000,"state":"active","ping":85},{"user_id":172,"name":"The Entire Canadian Army","steam_id":76561198014636282,"connected_time":2095000000000,"state":"active","ping":93},{"user_id":199,"name":"clenZORZ","steam_id":76561198835570628,"connected_time":249000000000,"state":"active","ping":69},{"user_id":191,"name":"Neoplix","steam_id":76561199012756422,"connected_time":846000000000,"state":"active","ping":102},{"user_id":182,"name":"Deltaco","steam_id":76561198094572694,"connected_time":1314000000000,"state":"active","ping":114},{"user_id":129,"name":"maddoxmomo","steam_id":76561198816228532,"connected_time":4321000000000,"state":"active","ping":59},{"user_id":189,"name":"Yeagle","steam_id":76561199086620299,"connected_time":945000000000,"state":"active","ping":50},{"user_id":192,"name":"noahjwarner09","steam_id":76561199444479988,"connected_time":798000000000,"state":"active","ping":97},{"user_id":187,"name":"Cave","steam_id":76561198263551216,"connected_time":1135000000000,"state":"active","ping":89},{"user_id":184,"name":"Doctor Glocktorpus [NGC]","steam_id":76561198049194645,"connected_time":1286000000000,"state":"active","ping":86},{"user_id":135,"name":"brewkey","steam_id":76561198057896324,"connected_time":3588000000000,"state":"active","ping":50},{"user_id":194,"name":"Magenta Mann","steam_id":76561198274072150,"connected_time":691000000000,"state":"active","ping":111},{"user_id":185,"name":"The Dead Weight","steam_id":76561198056694098,"connected_time":1255000000000,"state":"active","ping":60},{"user_id":134,"name":"Eins","steam_id":76561199030343810,"connected_time":3956000000000,"state":"active","ping":64},{"user_id":179,"name":"BlueAnimated","steam_id":76561199227588613,"connected_time":1479000000000,"state":"active","ping":88},{"user_id":158,"name":"fazaness","steam_id":76561198851525394,"connected_time":2900000000000,"state":"active","ping":99},{"user_id":195,"name":"(Maj) Dr Freak","steam_id":76561198046450332,"connected_time":687000000000,"state":"active","ping":109},{"user_id":193,"name":"Kidzbopsicle","steam_id":76561198047660691,"connected_time":791000000000,"state":"active","ping":75}]},{"server_id":5,"name":"Uncletopia | Frankfurt | 1 | All Maps","name_short":"frk-1","host":"frk-1.de.uncletopia.com","port":27015,"enabled":true,"region":"eu","cc":"de","latitude":50.110924,"longitude":8.682127,"reserved":0,"last_update":"0001-01-01T00:00:00Z","name_a2s":"Uncletopia | Frankfurt | 1 | All Maps","protocol":17,"map":"pl_badwater","folder":"tf","game":"Team Fortress","app_id":440,"player_count":24,"max_players":24,"Bots":0,"server_type":"Dedicated","server_os":"Linux","password":true,"vac":true,"version":"7757534","steam_id":85568392924469989,"keywords":["nocrits","nodmgspread","payload","uncletopia"],"game_id":440,"stv_port":27016,"stv_name":"Uncletopia | Frankfurt | 1 | All Maps | STV","players":[{"user_id":395,"name":"Malai","steam_id":76561198062537014,"connected_time":463000000000,"state":"active","ping":61},{"user_id":377,"name":"Ralfsman11","steam_id":76561198133827569,"connected_time":1541000000000,"state":"active","ping":76},{"user_id":359,"name":"Carrot","steam_id":76561198119340863,"connected_time":3296000000000,"state":"active","ping":48},{"user_id":389,"name":"ChunkyLuva69","steam_id":76561198148470277,"connected_time":555000000000,"state":"active","ping":64},{"user_id":360,"name":"playing while wearing crocs.","steam_id":76561198139404261,"connected_time":3280000000000,"state":"active","ping":50},{"user_id":367,"name":"Thomas T. N.","steam_id":76561198204171871,"connected_time":2916000000000,"state":"active","ping":99},{"user_id":393,"name":"Somb","steam_id":76561198101672735,"connected_time":501000000000,"state":"active","ping":72},{"user_id":392,"name":"DoggyDoo","steam_id":76561198079793563,"connected_time":527000000000,"state":"active","ping":75},{"user_id":394,"name":"Diamhair","steam_id":76561198109020178,"connected_time":489000000000,"state":"active","ping":85},{"user_id":400,"name":"robie","steam_id":76561198914744938,"connected_time":389000000000,"state":"active","ping":90},{"user_id":401,"name":"OrwellianDungeon","steam_id":76561198402220078,"connected_time":384000000000,"state":"active","ping":67},{"user_id":365,"name":"cl","steam_id":76561199436640904,"connected_time":3208000000000,"state":"active","ping":74},{"user_id":384,"name":"JamesPepega","steam_id":76561198019156154,"connected_time":1256000000000,"state":"active","ping":70},{"user_id":398,"name":"Spy Gaming","steam_id":76561198257225296,"connected_time":414000000000,"state":"active","ping":77},{"user_id":364,"name":"Tilty üë•","steam_id":76561198141834089,"connected_time":3240000000000,"state":"active","ping":53},{"user_id":366,"name":"Frozteen","steam_id":76561198280062997,"connected_time":3133000000000,"state":"active","ping":83},{"user_id":399,"name":"astigmatic","steam_id":76561199103959197,"connected_time":405000000000,"state":"active","ping":93},{"user_id":402,"name":"SOULDOG","steam_id":76561199212057006,"connected_time":342000000000,"state":"active","ping":70},{"user_id":408,"name":"lettuce at 58p","steam_id":76561199401283123,"connected_time":132000000000,"state":"active","ping":67},{"user_id":404,"name":"The","steam_id":76561198359311605,"connected_time":330000000000,"state":"active","ping":90},{"user_id":350,"name":"Lemon","steam_id":76561198188535947,"connected_time":4435000000000,"state":"active","ping":79},{"user_id":407,"name":"Ooze","steam_id":76561198039642637,"connected_time":181000000000,"state":"active","ping":75},{"user_id":376,"name":"lol","steam_id":76561198322087870,"connected_time":1966000000000,"state":"active","ping":105},{"user_id":327,"name":"dn4k","steam_id":76561199221755690,"connected_time":7604000000000,"state":"active","ping":76}]},{"server_id":110,"name":"Uncletopia | Frankfurt | 2 | All Maps","name_short":"frk-2","host":"frk-1.de.uncletopia.com","port":27025,"enabled":true,"region":"eu","cc":"de","latitude":50.110924,"longitude":8.682127,"reserved":0,"last_update":"0001-01-01T00:00:00Z","name_a2s":"Uncletopia | Frankfurt | 2 | All Maps","protocol":17,"map":"cp_process_final","folder":"tf","game":"Team Fortress","app_id":440,"player_count":18,"max_players":24,"Bots":0,"server_type":"Dedicated","server_os":"Linux","password":true,"vac":true,"version":"7757534","steam_id":85568392924469990,"keywords":["cp","nocrits","nodmgspread","uncletopia"],"game_id":440,"stv_port":27026,"stv_name":"Uncletopia | Frankfurt | 2 | All Maps | STV","players":[{"user_id":124,"name":"Kan0_","steam_id":76561198129596771,"connected_time":592000000000,"state":"active","ping":52},{"user_id":132,"name":"hbivnm","steam_id":76561197996468677,"connected_time":167000000000,"state":"active","ping":60},{"user_id":86,"name":"boolin'","steam_id":76561198088125671,"connected_time":2628000000000,"state":"active","ping":74},{"user_id":134,"name":"Dark ^^ || Impersonated","steam_id":76561198036241064,"connected_time":137000000000,"state":"active","ping":58},{"user_id":130,"name":"Soyboy","steam_id":76561198053885716,"connected_time":246000000000,"state":"active","ping":84},{"user_id":108,"name":"Fish 'n' Chips","steam_id":76561198033476886,"connected_time":1859000000000,"state":"active","ping":45},{"user_id":115,"name":"TheBeardedM1G","steam_id":76561198040208946,"connected_time":1098000000000,"state":"active","ping":54},{"user_id":118,"name":"Nunez Enjoyer","steam_id":76561198138558005,"connected_time":888000000000,"state":"active","ping":66},{"user_id":89,"name":"Holy f stewie, I am sh√≠tting.","steam_id":76561198147173457,"connected_time":2600000000000,"state":"active","ping":71},{"user_id":93,"name":"Lorelei","steam_id":76561198056341754,"connected_time":2389000000000,"state":"active","ping":47},{"user_id":133,"name":"yaldabaoth","steam_id":76561198084606869,"connected_time":143000000000,"state":"active","ping":142},{"user_id":44,"name":"üåº HugeE","steam_id":76561198245495152,"connected_time":5322000000000,"state":"active","ping":60},{"user_id":45,"name":"üå≠ 0mger","steam_id":76561198053615827,"connected_time":5288000000000,"state":"active","ping":72},{"user_id":125,"name":"Aesthetic Alcoholism","steam_id":76561198044418968,"connected_time":460000000000,"state":"active","ping":48},{"user_id":127,"name":"bonzi","steam_id":76561198086817743,"connected_time":405000000000,"state":"active","ping":67},{"user_id":71,"name":"KAKTyC","steam_id":76561198019296536,"connected_time":3728000000000,"state":"active","ping":94},{"user_id":100,"name":"IONYCH","steam_id":76561198378350040,"connected_time":2208000000000,"state":"active","ping":79},{"user_id":119,"name":"Arentrir KING.LBJ.6","steam_id":76561198334126785,"connected_time":881000000000,"state":"active","ping":64}]},{"server_id":308,"name":"Uncletopia | Frankfurt | 3 | All Maps","name_short":"frk-3","host":"frk-1.de.uncletopia.com","port":27035,"enabled":true,"region":"eu","cc":"de","latitude":50.110924,"longitude":8.682127,"reserved":0,"last_update":"0001-01-01T00:00:00Z","name_a2s":"Uncletopia | Frankfurt | 3 | All Maps","protocol":17,"map":"pl_borneo","folder":"tf","game":"Team Fortress","app_id":440,"player_count":24,"max_players":24,"Bots":0,"server_type":"Dedicated","server_os":"Linux","password":true,"vac":true,"version":"7757534","steam_id":85568392924504274,"keywords":["nocrits","nodmgspread","payload","uncletopia"],"game_id":440,"stv_port":27036,"stv_name":"Uncletopia | Frankfurt | 3 | All Maps | STV","players":[{"user_id":602,"name":"LarsInABox","steam_id":76561198028329262,"connected_time":2406000000000,"state":"active","ping":75},{"user_id":632,"name":"Lyell","steam_id":76561198350329389,"connected_time":1166000000000,"state":"active","ping":82},{"user_id":626,"name":"Leffrey","steam_id":76561198231587928,"connected_time":1808000000000,"state":"active","ping":62},{"user_id":509,"name":"RT_ratatuj","steam_id":76561199149578671,"connected_time":8573000000000,"state":"active","ping":99},{"user_id":592,"name":"tallen","steam_id":76561198061708595,"connected_time":3795000000000,"state":"active","ping":79},{"user_id":600,"name":"Syll","steam_id":76561198040736202,"connected_time":2741000000000,"state":"active","ping":90},{"user_id":640,"name":"Wattoz","steam_id":76561198127779511,"connected_time":839000000000,"state":"active","ping":72},{"user_id":638,"name":"sork","steam_id":76561198082446459,"connected_time":1022000000000,"state":"active","ping":68},{"user_id":625,"name":"ZePequenio","steam_id":76561197968506094,"connected_time":1835000000000,"state":"active","ping":63},{"user_id":634,"name":"minesneakeyes","steam_id":76561198171211725,"connected_time":1069000000000,"state":"active","ping":150},{"user_id":606,"name":"Brother Roga","steam_id":76561198029613515,"connected_time":2310000000000,"state":"active","ping":64},{"user_id":609,"name":"strangedeath","steam_id":76561198154159297,"connected_time":2242000000000,"state":"active","ping":164},{"user_id":601,"name":"kpn","steam_id":76561198063512694,"connected_time":2569000000000,"state":"active","ping":91},{"user_id":610,"name":":)","steam_id":76561198977420882,"connected_time":2240000000000,"state":"active","ping":50},{"user_id":630,"name":"\u003c blank \u003e","steam_id":76561198059375315,"connected_time":1575000000000,"state":"active","ping":65},{"user_id":643,"name":"H","steam_id":76561198158608309,"connected_time":563000000000,"state":"active","ping":76},{"user_id":628,"name":"Kurage","steam_id":76561198021221288,"connected_time":1762000000000,"state":"active","ping":61},{"user_id":613,"name":"ulackhate","steam_id":76561198869437637,"connected_time":2196000000000,"state":"active","ping":191},{"user_id":617,"name":"Moe Jama","steam_id":76561198021676997,"connected_time":2115000000000,"state":"active","ping":73},{"user_id":555,"name":"jona3838","steam_id":76561199097658195,"connected_time":6511000000000,"state":"active","ping":106},{"user_id":631,"name":"elsuedi","steam_id":76561198074722832,"connected_time":1292000000000,"state":"active","ping":50},{"user_id":636,"name":"Djingis Khan","steam_id":76561197967864460,"connected_time":1062000000000,"state":"active","ping":50},{"user_id":641,"name":"mud","steam_id":76561198141497461,"connected_time":811000000000,"state":"active","ping":62},{"user_id":642,"name":"dum","steam_id":76561198053386482,"connected_time":798000000000,"state":"active","ping":162}]},{"server_id":309,"name":"Uncletopia | Frankfurt | 4 | All Maps","name_short":"frk-4","host":"frk-1.de.uncletopia.com","port":27045,"enabled":true,"region":"eu","cc":"de","latitude":50.110924,"longitude":8.682127,"reserved":0,"last_update":"0001-01-01T00:00:00Z","name_a2s":"Uncletopia | Frankfurt | 4 | All Maps","protocol":17,"map":"pl_pier","folder":"tf","game":"Team Fortress","app_id":440,"player_count":23,"max_players":24,"Bots":0,"server_type":"Dedicated","server_os":"Linux","password":true,"vac":true,"version":"7757534","steam_id":85568392924504275,"keywords":["nocrits","nodmgspread","payload","uncletopia"],"game_id":440,"stv_port":27046,"stv_name":"Uncletopia | Frankfurt | 4 | All Maps | STV","players":[{"user_id":80,"name":"_Starlight_","steam_id":76561197993885738,"connected_time":1972000000000,"state":"active","ping":71},{"user_id":91,"name":"i kill friendlies for fun","steam_id":76561199191311388,"connected_time":929000000000,"state":"active","ping":158},{"user_id":97,"name":"Seriously","steam_id":76561198151484075,"connected_time":653000000000,"state":"active","ping":168},{"user_id":98,"name":"Carol Olston","steam_id":76561198080257273,"connected_time":638000000000,"state":"active","ping":49},{"user_id":103,"name":"Spotmonkey","steam_id":76561198003994092,"connected_time":152000000000,"state":"active","ping":69},{"user_id":99,"name":"Milfshake","steam_id":76561198208740557,"connected_time":636000000000,"state":"active","ping":49},{"user_id":63,"name":"Grillem Dafoe","steam_id":76561198306874574,"connected_time":3824000000000,"state":"active","ping":77},{"user_id":28,"name":"Balls","steam_id":76561198086400484,"connected_time":6111000000000,"state":"active","ping":74},{"user_id":78,"name":"Wiki","steam_id":76561198106666604,"connected_time":2220000000000,"state":"active","ping":59},{"user_id":85,"name":"KillerQueen (he/they/she)","steam_id":76561199019399725,"connected_time":1332000000000,"state":"active","ping":60},{"user_id":95,"name":"Hello Nephew","steam_id":76561198430111607,"connected_time":762000000000,"state":"active","ping":136},{"user_id":77,"name":"plepek","steam_id":76561198042959598,"connected_time":2562000000000,"state":"active","ping":73},{"user_id":84,"name":"KatTheCookiCat","steam_id":76561199054643392,"connected_time":1635000000000,"state":"active","ping":51},{"user_id":105,"name":"Sandvich","steam_id":76561199079493666,"connected_time":25000000000,"state":"active","ping":93},{"user_id":96,"name":"\u003e:3","steam_id":76561198368312026,"connected_time":761000000000,"state":"active","ping":78},{"user_id":64,"name":"finbar","steam_id":76561198056812396,"connected_time":3754000000000,"state":"active","ping":85},{"user_id":48,"name":"Torttu","steam_id":76561198013980029,"connected_time":4379000000000,"state":"active","ping":61},{"user_id":49,"name":"nibsÓÑ∏","steam_id":76561198040099538,"connected_time":4340000000000,"state":"active","ping":75},{"user_id":100,"name":"Dr. No Name","steam_id":76561198058656869,"connected_time":602000000000,"state":"active","ping":149},{"user_id":101,"name":"HOI","steam_id":76561198061182117,"connected_time":598000000000,"state":"active","ping":60},{"user_id":102,"name":"hannes","steam_id":76561198202485645,"connected_time":470000000000,"state":"active","ping":61},{"user_id":104,"name":"Koolaid","steam_id":76561199200296010,"connected_time":32000000000,"state":"active","ping":191},{"user_id":76,"name":"‚òÖpoyo‚òÖ","steam_id":76561198150078959,"connected_time":2650000000000,"state":"active","ping":57}]},{"server_id":310,"name":"Uncletopia | Frankfurt | 5 | All Maps","name_short":"frk-5","host":"frk-1.de.uncletopia.com","port":27055,"enabled":true,"region":"eu","cc":"de","latitude":50.110924,"longitude":8.682127,"reserved":0,"last_update":"0001-01-01T00:00:00Z","name_a2s":"Uncletopia | Frankfurt | 5 | All Maps","protocol":17,"map":"pl_borneo","folder":"tf","game":"Team Fortress","app_id":440,"player_count":24,"max_players":24,"Bots":0,"server_type":"Dedicated","server_os":"Linux","password":true,"vac":true,"version":"7757534","steam_id":85568392924504277,"keywords":["nocrits","nodmgspread","payload","uncletopia"],"game_id":440,"stv_port":27056,"stv_name":"Uncletopia | Frankfurt | 5 | All Maps | STV","players":[{"user_id":534,"name":"Certified Hood pybro (ua)","steam_id":76561198970562699,"connected_time":318000000000,"state":"active","ping":54},{"user_id":535,"name":"Antiparticle #SaveTF2","steam_id":76561197990545681,"connected_time":241000000000,"state":"active","ping":52},{"user_id":531,"name":"TidB","steam_id":76561198055342304,"connected_time":1289000000000,"state":"active","ping":55},{"user_id":538,"name":"Wayne Noodleman","steam_id":76561198046347398,"connected_time":87000000000,"state":"active","ping":171},{"user_id":533,"name":"Aaron Cahill","steam_id":76561198132831088,"connected_time":599000000000,"state":"active","ping":86},{"user_id":521,"name":"kektuse","steam_id":76561198088426580,"connected_time":1767000000000,"state":"active","ping":60},{"user_id":522,"name":"Bisago!","steam_id":76561198181794353,"connected_time":1734000000000,"state":"active","ping":56},{"user_id":536,"name":"Lux","steam_id":76561198060417740,"connected_time":195000000000,"state":"active","ping":47},{"user_id":508,"name":"Combat Wombat","steam_id":76561197994720068,"connected_time":2698000000000,"state":"active","ping":73},{"user_id":512,"name":"Anri Okita's Massive Milkers","steam_id":76561199186352720,"connected_time":2255000000000,"state":"active","ping":77},{"user_id":499,"name":"powej","steam_id":76561198056381418,"connected_time":2952000000000,"state":"active","ping":49},{"user_id":523,"name":"Daga","steam_id":76561198055450219,"connected_time":1723000000000,"state":"active","ping":54},{"user_id":537,"name":"Qbeann","steam_id":76561199229266030,"connected_time":174000000000,"state":"active","ping":156},{"user_id":468,"name":"CiVillain","steam_id":76561198059617732,"connected_time":4920000000000,"state":"active","ping":64},{"user_id":524,"name":"BUREK od Sira","steam_id":76561198092589818,"connected_time":1655000000000,"state":"active","ping":72},{"user_id":501,"name":"eeeeee","steam_id":76561198017786875,"connected_time":2946000000000,"state":"active","ping":64},{"user_id":483,"name":"AwterSix","steam_id":76561198042561678,"connected_time":3847000000000,"state":"active","ping":57},{"user_id":525,"name":"honneur aux pauvres","steam_id":76561198048741472,"connected_time":1654000000000,"state":"active","ping":62},{"user_id":527,"name":"After8","steam_id":76561198090750865,"connected_time":1552000000000,"state":"active","ping":67},{"user_id":528,"name":"biden blast","steam_id":76561198059699043,"connected_time":1518000000000,"state":"active","ping":73},{"user_id":502,"name":"Carrotcracker","steam_id":76561198034862396,"connected_time":2894000000000,"state":"active","ping":80},{"user_id":493,"name":"Mr Lidl","steam_id":76561198426522902,"connected_time":3412000000000,"state":"active","ping":64},{"user_id":532,"name":"asdqwer","steam_id":76561198058312220,"connected_time":1147000000000,"state":"active","ping":60},{"user_id":530,"name":"Moebius","steam_id":76561198045069988,"connected_time":1456000000000,"state":"active","ping":64}]},{"server_id":311,"name":"Uncletopia | Frankfurt | 6 | All Maps","name_short":"frk-6","host":"frk-1.de.uncletopia.com","port":27065,"enabled":true,"region":"eu","cc":"de","latitude":50.110924,"longitude":8.682127,"reserved":0,"last_update":"0001-01-01T00:00:00Z","name_a2s":"Uncletopia | Frankfurt | 6 | All Maps","protocol":17,"map":"cp_process_final","folder":"tf","game":"Team Fortress","app_id":440,"player_count":16,"max_players":24,"Bots":0,"server_type":"Dedicated","server_os":"Linux","password":true,"vac":true,"version":"7757534","steam_id":85568392924504278,"keywords":["cp","nocrits","nodmgspread","uncletopia"],"game_id":440,"stv_port":27066,"stv_name":"Uncletopia | Frankfurt | 6 | All Maps | STV","players":[{"user_id":681,"name":"CAMON ENGELAND","steam_id":76561198054301125,"connected_time":23000000000,"state":"active","ping":93},{"user_id":679,"name":"ImD7omYx","steam_id":76561198984164114,"connected_time":183000000000,"state":"active","ping":114},{"user_id":669,"name":"r4s1","steam_id":76561198024034917,"connected_time":1162000000000,"state":"active","ping":60},{"user_id":677,"name":"JC","steam_id":76561198029213352,"connected_time":390000000000,"state":"active","ping":50},{"user_id":675,"name":"Star in a pond","steam_id":76561198205501279,"connected_time":430000000000,"state":"active","ping":98},{"user_id":680,"name":"realamigomoath","steam_id":76561199091018683,"connected_time":124000000000,"state":"active","ping":388},{"user_id":640,"name":"emergency heelflip","steam_id":76561198030155915,"connected_time":3977000000000,"state":"active","ping":90},{"user_id":643,"name":"Mr_Pulse_","steam_id":76561198095001602,"connected_time":3874000000000,"state":"active","ping":88},{"user_id":660,"name":"MatarArg","steam_id":76561198280246498,"connected_time":2435000000000,"state":"active","ping":107},{"user_id":670,"name":"Blobbaz","steam_id":76561198031076278,"connected_time":1160000000000,"state":"active","ping":63},{"user_id":644,"name":"Ostara","steam_id":76561198200054489,"connected_time":3852000000000,"state":"active","ping":78},{"user_id":663,"name":"Shromide","steam_id":76561198140382935,"connected_time":2268000000000,"state":"active","ping":70},{"user_id":639,"name":"DigyB","steam_id":76561198014442345,"connected_time":3986000000000,"state":"active","ping":60},{"user_id":648,"name":"skill","steam_id":76561198106012909,"connected_time":3715000000000,"state":"active","ping":68},{"user_id":645,"name":"Kelpy G gaming","steam_id":76561198056995633,"connected_time":3841000000000,"state":"active","ping":72},{"user_id":673,"name":"Aeglos","steam_id":76561198248698294,"connected_time":448000000000,"state":"active","ping":58}]},{"server_id":23,"name":"Uncletopia | Frankfurt | 7 | Stopwatch Beta","name_short":"frk-7","host":"frk-1.de.uncletopia.com","port":27075,"enabled":true,"region":"eu","cc":"de","latitude":50.110924,"longitude":8.682127,"reserved":0,"last_update":"0001-01-01T00:00:00Z","name_a2s":"Uncletopia | Frankfurt | 7 | Stopwatch Beta","protocol":17,"map":"workshop/koth_clearcut_b15.ugc2107050255","folder":"tf","game":"Team Fortress","app_id":440,"player_count":0,"max_players":24,"Bots":0,"server_type":"Dedicated","server_os":"Linux","password":true,"vac":true,"version":"7757534","steam_id":85568392924742827,"keywords":["cp","nocrits","nodmgspread","uncletopia"],"game_id":440,"stv_port":27076,"stv_name":"Uncletopia | Frankfurt | 7 | Stopwatch Beta | STV","players":null},{"server_id":24,"name":"Uncletopia | Frankfurt | 8 | Community","name_short":"frk-8","host":"frk-1.de.uncletopia.com","port":27085,"enabled":true,"region":"eu","cc":"de","latitude":50.110924,"longitude":8.682127,"reserved":0,"last_update":"0001-01-01T00:00:00Z","name_a2s":"Uncletopia | Frankfurt | 8 | Community","protocol":17,"map":"workshop/pl_barnblitz_pro7.ugc582280235","folder":"tf","game":"Team Fortress","app_id":440,"player_count":24,"max_players":24,"Bots":0,"server_type":"Dedicated","server_os":"Linux","password":true,"vac":true,"version":"7757534","steam_id":85568392924742828,"keywords":["nocrits","nodmgspread","payload","uncletopia"],"game_id":440,"stv_port":27086,"stv_name":"Uncletopia | Frankfurt | 8 | Community | STV","players":[{"user_id":182,"name":"SomeWeeabooTrash","steam_id":76561198199092050,"connected_time":1827000000000,"state":"active","ping":75},{"user_id":204,"name":"Marvin311","steam_id":76561199172141066,"connected_time":673000000000,"state":"active","ping":88},{"user_id":183,"name":"Setiago","steam_id":76561198060770498,"connected_time":1546000000000,"state":"active","ping":67},{"user_id":154,"name":"zak","steam_id":76561197998895428,"connected_time":4347000000000,"state":"active","ping":60},{"user_id":211,"name":"FunkyFish","steam_id":76561199061893308,"connected_time":166000000000,"state":"active","ping":88},{"user_id":199,"name":"THVG","steam_id":76561199156685368,"connected_time":969000000000,"state":"active","ping":60},{"user_id":189,"name":"Lord_Tarek","steam_id":76561198338911390,"connected_time":1358000000000,"state":"active","ping":66},{"user_id":207,"name":"true","steam_id":76561198031145243,"connected_time":496000000000,"state":"active","ping":76},{"user_id":108,"name":"ASAP","steam_id":76561198322078500,"connected_time":7617000000000,"state":"active","ping":95},{"user_id":128,"name":"milk","steam_id":76561198080168182,"connected_time":5834000000000,"state":"active","ping":81},{"user_id":190,"name":"Alfrink","steam_id":76561198038403964,"connected_time":1358000000000,"state":"active","ping":69},{"user_id":191,"name":"Carlos Matos[\u003e'-']\u003e","steam_id":76561198120018100,"connected_time":1357000000000,"state":"active","ping":66},{"user_id":212,"name":"puck","steam_id":76561198121260981,"connected_time":136000000000,"state":"active","ping":60},{"user_id":196,"name":"Link427","steam_id":76561198024468633,"connected_time":1182000000000,"state":"active","ping":66},{"user_id":195,"name":"I dont wipe","steam_id":76561198825563040,"connected_time":1185000000000,"state":"active","ping":218},{"user_id":192,"name":"SFC Pump","steam_id":76561198129338259,"connected_time":1328000000000,"state":"active","ping":69},{"user_id":135,"name":"dotdotdot","steam_id":76561198057628751,"connected_time":5567000000000,"state":"active","ping":60},{"user_id":180,"name":"MiOn","steam_id":76561198220226331,"connected_time":2316000000000,"state":"active","ping":113},{"user_id":198,"name":"Kestrel","steam_id":76561198144033005,"connected_time":1079000000000,"state":"active","ping":70},{"user_id":209,"name":"based","steam_id":76561198072885143,"connected_time":439000000000,"state":"active","ping":103},{"user_id":201,"name":"Obese Sediment","steam_id":76561198373617697,"connected_time":880000000000,"state":"active","ping":170},{"user_id":109,"name":"Matael","steam_id":76561198452200894,"connected_time":7448000000000,"state":"active","ping":71},{"user_id":203,"name":"God's Goofiest Goober","steam_id":76561198103175187,"connected_time":709000000000,"state":"active","ping":68},{"user_id":210,"name":"Envy","steam_id":76561198132723219,"connected_time":390000000000,"state":"active","ping":114}]},{"server_id":202,"name":"Uncletopia | Hong Kong | 1 | All Maps","name_short":"hgk-1","host":"hgk-1.hk.uncletopia.com","port":27015,"enabled":true,"region":"asia","cc":"hk","latitude":22.302711,"longitude":114.177216,"reserved":0,"last_update":"0001-01-01T00:00:00Z","name_a2s":"Uncletopia | Hong Kong | 1 | All Maps","protocol":17,"map":"pl_borneo","folder":"tf","game":"Team Fortress","app_id":440,"player_count":0,"max_players":24,"Bots":0,"server_type":"Dedicated","server_os":"Linux","password":true,"vac":true,"version":"7757534","steam_id":85568392924494504,"keywords":["nocrits","nodmgspread","payload","uncletopia"],"game_id":440,"stv_port":27016,"stv_name":"Uncletopia | Hong Kong | 1 | All Maps | STV","players":null},{"server_id":1,"name":"Uncletopia | Los Angeles | 1 | All Maps","name_short":"lax-1","host":"lax-1.us.uncletopia.com","port":27015,"enabled":true,"region":"us-west","cc":"us","latitude":33.94279,"longitude":-118.41004,"reserved":0,"last_update":"0001-01-01T00:00:00Z","name_a2s":"Uncletopia | Los Angeles | 1 | All Maps","protocol":17,"map":"koth_lakeside_final","folder":"tf","game":"Team Fortress","app_id":440,"player_count":0,"max_players":24,"Bots":0,"server_type":"Dedicated","server_os":"Linux","password":true,"vac":true,"version":"7757534","steam_id":85568392924469991,"keywords":["cp","nocrits","nodmgspread","uncletopia"],"game_id":440,"stv_port":27016,"stv_name":"Uncletopia | Los Angeles | 1 | All Maps | STV","players":null},{"server_id":112,"name":"Uncletopia | Los Angeles | 2 | All Maps","name_short":"lax-2","host":"lax-1.us.uncletopia.com","port":27025,"enabled":true,"region":"us-west","cc":"us","latitude":33.94279,"longitude":-118.41004,"reserved":0,"last_update":"0001-01-01T00:00:00Z","name_a2s":"Uncletopia | Los Angeles | 2 | All Maps","protocol":17,"map":"pl_snowycoast","folder":"tf","game":"Team Fortress","app_id":440,"player_count":0,"max_players":24,"Bots":0,"server_type":"Dedicated","server_os":"Linux","password":true,"vac":true,"version":"7757534","steam_id":85568392924469992,"keywords":["nocrits","nodmgspread","payload","uncletopia"],"game_id":440,"stv_port":27026,"stv_name":"Uncletopia | Los Angeles | 2 | All Maps | STV","players":null},{"server_id":324,"name":"Uncletopia | Los Angeles | 3 | All Maps","name_short":"lax-3","host":"lax-1.us.uncletopia.com","port":27035,"enabled":true,"region":"us-west","cc":"us","latitude":33.94279,"longitude":-118.41004,"reserved":0,"last_update":"0001-01-01T00:00:00Z","name_a2s":"Uncletopia | Los Angeles | 3 | All Maps","protocol":17,"map":"cp_mountainlab","folder":"tf","game":"Team Fortress","app_id":440,"player_count":0,"max_players":24,"Bots":0,"server_type":"Dedicated","server_os":"Linux","password":true,"vac":true,"version":"7757534","steam_id":85568392924510198,"keywords":["cp","nocrits","nodmgspread","uncletopia"],"game_id":440,"stv_port":27036,"stv_name":"Uncletopia | Los Angeles | 3 | All Maps | STV","players":null},{"server_id":25,"name":"Uncletopia | Los Angeles | 4 | Stopwatch Beta","name_short":"lax-4","host":"lax-1.us.uncletopia.com","port":27045,"enabled":true,"region":"us-west","cc":"us","latitude":33.94279,"longitude":-118.41004,"reserved":0,"last_update":"0001-01-01T00:00:00Z","name_a2s":"Uncletopia | Los Angeles | 4 | Stopwatch Beta","protocol":17,"map":"pl_swiftwater_final1","folder":"tf","game":"Team Fortress","app_id":440,"player_count":0,"max_players":24,"Bots":0,"server_type":"Dedicated","server_os":"Linux","password":true,"vac":true,"version":"7757534","steam_id":85568392924510199,"keywords":["nocrits","nodmgspread","payload","uncletopia"],"game_id":440,"stv_port":27046,"stv_name":"Uncletopia | Los Angeles | 4 | Stopwatch Beta | STV","players":null},{"server_id":11,"name":"Uncletopia | London | 1 | All Maps","name_short":"lon-1","host":"lon-1.uk.uncletopia.com","port":27015,"enabled":true,"region":"eu","cc":"gb","latitude":51.509865,"longitude":-0.118092,"reserved":0,"last_update":"0001-01-01T00:00:00Z","name_a2s":"Uncletopia | London | 1 | All Maps","protocol":17,"map":"pl_badwater","folder":"tf","game":"Team Fortress","app_id":440,"player_count":24,"max_players":24,"Bots":0,"server_type":"Dedicated","server_os":"Linux","password":true,"vac":true,"version":"7757534","steam_id":85568392924367362,"keywords":["nocrits","nodmgspread","payload","uncletopia"],"game_id":440,"stv_port":27016,"stv_name":"Uncletopia | London | 1 | All Maps | STV","players":[{"user_id":759,"name":"SOPHIIEE","steam_id":76561198443798981,"connected_time":2799000000000,"state":"active","ping":57},{"user_id":770,"name":"Gorgeous George","steam_id":76561198144256544,"connected_time":1471000000000,"state":"active","ping":45},{"user_id":758,"name":"Relix18144","steam_id":76561199202454318,"connected_time":2979000000000,"state":"active","ping":101},{"user_id":732,"name":"Digio","steam_id":76561199065101964,"connected_time":4765000000000,"state":"active","ping":98},{"user_id":771,"name":"Roger Slippers","steam_id":76561198188642265,"connected_time":1431000000000,"state":"active","ping":77},{"user_id":784,"name":"KPhii","steam_id":76561198970587061,"connected_time":275000000000,"state":"active","ping":63},{"user_id":761,"name":"dec","steam_id":76561198009660168,"connected_time":2623000000000,"state":"active","ping":57},{"user_id":773,"name":"YOUR MOM GAMING","steam_id":76561199429562693,"connected_time":1406000000000,"state":"active","ping":81},{"user_id":774,"name":"BreadBubbles","steam_id":76561198174332826,"connected_time":1404000000000,"state":"active","ping":56},{"user_id":785,"name":"sora","steam_id":76561198096547662,"connected_time":230000000000,"state":"active","ping":50},{"user_id":739,"name":"Sirzen","steam_id":76561198170155434,"connected_time":4391000000000,"state":"active","ping":49},{"user_id":768,"name":"gofdrey","steam_id":76561198121941052,"connected_time":1515000000000,"state":"active","ping":60},{"user_id":775,"name":"Domestic_Terrorism_Gamming","steam_id":76561199465207725,"connected_time":1396000000000,"state":"active","ping":79},{"user_id":755,"name":"Wedgeridoo","steam_id":76561198082813907,"connected_time":3246000000000,"state":"active","ping":138},{"user_id":782,"name":"Femboy Portal Radio Uncompresse","steam_id":76561198072320671,"connected_time":298000000000,"state":"active","ping":31},{"user_id":764,"name":"big t","steam_id":76561198067179454,"connected_time":1911000000000,"state":"active","ping":44},{"user_id":776,"name":"Edgebug Earl","steam_id":76561197970114051,"connected_time":1387000000000,"state":"active","ping":44},{"user_id":777,"name":"Yelowchy","steam_id":76561198199416121,"connected_time":1378000000000,"state":"active","ping":72},{"user_id":699,"name":"JOHN GAMING (depressed)","steam_id":76561199085822219,"connected_time":6461000000000,"state":"active","ping":89},{"user_id":783,"name":"Silva_mlon","steam_id":76561199310242047,"connected_time":286000000000,"state":"active","ping":66},{"user_id":750,"name":"Woa","steam_id":76561198345683201,"connected_time":3461000000000,"state":"active","ping":46},{"user_id":760,"name":"Chloemew","steam_id":76561198042071762,"connected_time":2740000000000,"state":"active","ping":44},{"user_id":640,"name":"Hoks","steam_id":76561198126442242,"connected_time":9826000000000,"state":"active","ping":131},{"user_id":781,"name":"SuperBob103","steam_id":76561199175360012,"connected_time":394000000000,"state":"active","ping":54}]},{"server_id":114,"name":"Uncletopia | London | 2 | All Maps","name_short":"lon-2","host":"lon-1.uk.uncletopia.com","port":27025,"enabled":true,"region":"eu","cc":"gb","latitude":51.509865,"longitude":-0.118092,"reserved":0,"last_update":"0001-01-01T00:00:00Z","name_a2s":"Uncletopia | London | 2 | All Maps","protocol":17,"map":"cp_snakewater_final1","folder":"tf","game":"Team Fortress","app_id":440,"player_count":13,"max_players":24,"Bots":0,"server_type":"Dedicated","server_os":"Linux","password":true,"vac":true,"version":"7757534","steam_id":85568392924470941,"keywords":["cp","nocrits","nodmgspread","uncletopia"],"game_id":440,"stv_port":27026,"stv_name":"Uncletopia | London | 2 | All Maps | STV","players":[{"user_id":419,"name":"Benny the Ball","steam_id":76561198043104532,"connected_time":2305000000000,"state":"active","ping":42},{"user_id":437,"name":"LemonLeCitron","steam_id":76561198215545267,"connected_time":173000000000,"state":"active","ping":67},{"user_id":436,"name":"Pipextiny","steam_id":76561198034055703,"connected_time":284000000000,"state":"active","ping":45},{"user_id":438,"name":"Clovis","steam_id":76561198076881381,"connected_time":82000000000,"state":"active","ping":82},{"user_id":439,"name":"Piratmission","steam_id":76561197972165728,"connected_time":75000000000,"state":"active","ping":98},{"user_id":371,"name":"Ross from F.R.I.E.N.D.S.","steam_id":76561198008511665,"connected_time":5944000000000,"state":"active","ping":50},{"user_id":428,"name":"hmscole09","steam_id":76561198811362788,"connected_time":1226000000000,"state":"active","ping":57},{"user_id":435,"name":"that fat croc from donkey kong","steam_id":76561198159172495,"connected_time":484000000000,"state":"active","ping":71},{"user_id":431,"name":"MT Foxtrot","steam_id":76561198058003989,"connected_time":1164000000000,"state":"active","ping":49},{"user_id":348,"name":"Sn1perK1ng","steam_id":76561198128065329,"connected_time":7973000000000,"state":"active","ping":57},{"user_id":432,"name":"Evilshadybrady","steam_id":76561198862160134,"connected_time":1164000000000,"state":"active","ping":36},{"user_id":413,"name":"Starach","steam_id":76561198084530972,"connected_time":2573000000000,"state":"active","ping":50},{"user_id":379,"name":"‚ú™ qua ‚ú™","steam_id":76561198066408333,"connected_time":5205000000000,"state":"active","ping":75}]},{"server_id":320,"name":"Uncletopia | London | 3 | All Maps","name_short":"lon-3","host":"lon-1.uk.uncletopia.com","port":27035,"enabled":true,"region":"eu","cc":"gb","latitude":51.509865,"longitude":-0.118092,"reserved":0,"last_update":"0001-01-01T00:00:00Z","name_a2s":"Uncletopia | London | 3 | All Maps","protocol":17,"map":"cp_dustbowl","folder":"tf","game":"Team Fortress","app_id":440,"player_count":0,"max_players":24,"Bots":0,"server_type":"Dedicated","server_os":"Linux","password":true,"vac":true,"version":"7757534","steam_id":85568392924510192,"keywords":["cp","nocrits","nodmgspread","uncletopia"],"game_id":440,"stv_port":27036,"stv_name":"Uncletopia | London | 3 | All Maps | STV","players":null},{"server_id":321,"name":"Uncletopia | London | 4 | All Maps","name_short":"lon-4","host":"lon-1.uk.uncletopia.com","port":27045,"enabled":true,"region":"eu","cc":"gb","latitude":51.509865,"longitude":-0.118092,"reserved":0,"last_update":"0001-01-01T00:00:00Z","name_a2s":"Uncletopia | London | 4 | All Maps","protocol":17,"map":"cp_sunshine","folder":"tf","game":"Team Fortress","app_id":440,"player_count":24,"max_players":24,"Bots":0,"server_type":"Dedicated","server_os":"Linux","password":true,"vac":true,"version":"7757534","steam_id":85568392924510193,"keywords":["cp","nocrits","nodmgspread","uncletopia"],"game_id":440,"stv_port":27046,"stv_name":"Uncletopia | London | 4 | All Maps | STV","players":[{"user_id":520,"name":"Enda","steam_id":76561198202980164,"connected_time":5588000000000,"state":"active","ping":85},{"user_id":506,"name":"Udinese Dion","steam_id":76561198067931573,"connected_time":7411000000000,"state":"active","ping":60},{"user_id":550,"name":"lullers","steam_id":76561198119470669,"connected_time":2185000000000,"state":"active","ping":58},{"user_id":543,"name":"SirSangoor","steam_id":76561198044462559,"connected_time":3728000000000,"state":"active","ping":120},{"user_id":561,"name":"E-Girls or I-Ladies?","steam_id":76561198012351470,"connected_time":326000000000,"state":"active","ping":38},{"user_id":562,"name":"kotamine","steam_id":76561198068907991,"connected_time":290000000000,"state":"active","ping":75},{"user_id":536,"name":"Lowy","steam_id":76561198031470048,"connected_time":4040000000000,"state":"active","ping":68},{"user_id":479,"name":"‚ô• aura ‚ô•","steam_id":76561198066258544,"connected_time":10607000000000,"state":"active","ping":65},{"user_id":563,"name":"Baki ‡∂û","steam_id":76561198193615529,"connected_time":114000000000,"state":"active","ping":69},{"user_id":546,"name":"Mafew","steam_id":76561198119993886,"connected_time":2360000000000,"state":"active","ping":59},{"user_id":480,"name":"Fat Pigeon","steam_id":76561198817940142,"connected_time":10465000000000,"state":"active","ping":47},{"user_id":545,"name":"player","steam_id":76561198054474684,"connected_time":2638000000000,"state":"active","ping":85},{"user_id":547,"name":"sm0ke","steam_id":76561198198977226,"connected_time":2262000000000,"state":"active","ping":87},{"user_id":524,"name":"Sky Tree","steam_id":76561198027103242,"connected_time":5414000000000,"state":"active","ping":104},{"user_id":492,"name":"whimsy.","steam_id":76561198878171763,"connected_time":9547000000000,"state":"active","ping":52},{"user_id":554,"name":"Umbro","steam_id":76561198087930438,"connected_time":1161000000000,"state":"active","ping":76},{"user_id":512,"name":"X-tis","steam_id":76561198043837480,"connected_time":6667000000000,"state":"active","ping":65},{"user_id":560,"name":"MR.CRAB","steam_id":76561198329833659,"connected_time":332000000000,"state":"active","ping":78},{"user_id":368,"name":"wasto-/-‚Ñ¢","steam_id":76561198102888038,"connected_time":18026000000000,"state":"active","ping":60},{"user_id":541,"name":"Denton","steam_id":76561198367991717,"connected_time":3798000000000,"state":"active","ping":83},{"user_id":527,"name":"Andy","steam_id":76561198046918834,"connected_time":5237000000000,"state":"active","ping":65},{"user_id":555,"name":"Likely Scripting|Bitch Im Geeke","steam_id":76561199173343569,"connected_time":950000000000,"state":"active","ping":149},{"user_id":544,"name":"Welder","steam_id":76561198355300561,"connected_time":3036000000000,"state":"active","ping":74},{"user_id":551,"name":"Souris Marine","steam_id":76561199143334415,"connected_time":2030000000000,"state":"active","ping":56}]},{"server_id":21,"name":"Uncletopia | London | 5 | All Maps","name_short":"lon-5","host":"lon-1.uk.uncletopia.com","port":27055,"enabled":true,"region":"eu","cc":"gb","latitude":51.509865,"longitude":-0.118092,"reserved":0,"last_update":"0001-01-01T00:00:00Z","name_a2s":"Uncletopia | London | 5 | All Maps","protocol":17,"map":"cp_steel","folder":"tf","game":"Team Fortress","app_id":440,"player_count":24,"max_players":24,"Bots":0,"server_type":"Dedicated","server_os":"Linux","password":true,"vac":true,"version":"7757534","steam_id":85568392924742829,"keywords":["cp","nocrits","nodmgspread","uncletopia"],"game_id":440,"stv_port":27056,"stv_name":"Uncletopia | London | 5 | All Maps | STV","players":[{"user_id":127,"name":"TekkiShodanPL","steam_id":76561198047064015,"connected_time":3763000000000,"state":"active","ping":50},{"user_id":164,"name":"MedicMania","steam_id":76561199013190566,"connected_time":691000000000,"state":"active","ping":49},{"user_id":160,"name":"Pepe The Rarest","steam_id":76561197991810107,"connected_time":995000000000,"state":"active","ping":47},{"user_id":169,"name":"moon","steam_id":76561199006635865,"connected_time":387000000000,"state":"active","ping":163},{"user_id":165,"name":"hi","steam_id":76561198147277460,"connected_time":585000000000,"state":"active","ping":60},{"user_id":159,"name":"1 toke 4 mars bars","steam_id":76561198056460000,"connected_time":996000000000,"state":"active","ping":53},{"user_id":130,"name":"Teecho","steam_id":76561197995269610,"connected_time":3608000000000,"state":"active","ping":51},{"user_id":132,"name":"Loz405 (YouTube)","steam_id":76561198799315884,"connected_time":3098000000000,"state":"active","ping":60},{"user_id":161,"name":"Juiceydough","steam_id":76561197997323419,"connected_time":941000000000,"state":"active","ping":85},{"user_id":146,"name":"Baron","steam_id":76561198021901783,"connected_time":1751000000000,"state":"active","ping":56},{"user_id":162,"name":"Hamhog","steam_id":76561198353967566,"connected_time":878000000000,"state":"active","ping":125},{"user_id":163,"name":"Why","steam_id":76561198350857075,"connected_time":836000000000,"state":"active","ping":63},{"user_id":166,"name":"johnny dorito","steam_id":76561198148074472,"connected_time":583000000000,"state":"active","ping":47},{"user_id":176,"name":"A Wild Ferrothorn","steam_id":76561198042261828,"connected_time":150000000000,"state":"active","ping":62},{"user_id":170,"name":"gabagool","steam_id":76561198307111838,"connected_time":362000000000,"state":"active","ping":29},{"user_id":171,"name":"a plain simple tailor","steam_id":76561198035518667,"connected_time":361000000000,"state":"active","ping":77},{"user_id":155,"name":"Vytuzas","steam_id":76561198012868436,"connected_time":1109000000000,"state":"active","ping":72},{"user_id":172,"name":"Spliffendor","steam_id":76561198144020209,"connected_time":300000000000,"state":"active","ping":51},{"user_id":173,"name":"Big Al","steam_id":76561198079585198,"connected_time":243000000000,"state":"active","ping":56},{"user_id":174,"name":"Akane","steam_id":76561197990407312,"connected_time":214000000000,"state":"active","ping":75},{"user_id":175,"name":"zoinks!","steam_id":76561198068645362,"connected_time":196000000000,"state":"active","ping":44},{"user_id":178,"name":"s a i","steam_id":76561197970379754,"connected_time":93000000000,"state":"active","ping":62},{"user_id":152,"name":"Danomatron3000","steam_id":76561198357582214,"connected_time":1557000000000,"state":"active","ping":56},{"user_id":180,"name":"Huell","steam_id":76561198244062348,"connected_time":84000000000,"state":"active","ping":72}]},{"server_id":22,"name":"Uncletopia | London | 6 | All Maps","name_short":"lon-6","host":"lon-1.uk.uncletopia.com","port":27065,"enabled":true,"region":"eu","cc":"gb","latitude":51.509865,"longitude":-0.118092,"reserved":0,"last_update":"0001-01-01T00:00:00Z","name_a2s":"Uncletopia | London | 6 | All Maps","protocol":17,"map":"cp_dustbowl","folder":"tf","game":"Team Fortress","app_id":440,"player_count":24,"max_players":24,"Bots":0,"server_type":"Dedicated","server_os":"Linux","password":true,"vac":true,"version":"7757534","steam_id":85568392924742830,"keywords":["cp","nocrits","nodmgspread","uncletopia"],"game_id":440,"stv_port":27066,"stv_name":"Uncletopia | London | 6 | All Maps | STV","players":[{"user_id":144,"name":"shaheen45","steam_id":76561198334819486,"connected_time":1708000000000,"state":"active","ping":148},{"user_id":151,"name":"Artur ‚òª","steam_id":76561198264297604,"connected_time":811000000000,"state":"active","ping":80},{"user_id":142,"name":"Dr. Funkenstein","steam_id":76561197977816210,"connected_time":2659000000000,"state":"active","ping":47},{"user_id":143,"name":"AWP Bodyshot :) ‚ù§","steam_id":76561198029928533,"connected_time":1900000000000,"state":"active","ping":58},{"user_id":14,"name":"It's a me Malario","steam_id":76561198176546013,"connected_time":12811000000000,"state":"active","ping":51},{"user_id":128,"name":"Ohad","steam_id":76561198067989324,"connected_time":4465000000000,"state":"active","ping":112},{"user_id":157,"name":"britiliximab","steam_id":76561198141173061,"connected_time":476000000000,"state":"active","ping":102},{"user_id":18,"name":"Soloman","steam_id":76561199212054667,"connected_time":12345000000000,"state":"active","ping":45},{"user_id":114,"name":"AsuX","steam_id":76561197990333289,"connected_time":5864000000000,"state":"active","ping":60},{"user_id":120,"name":"class1driller","steam_id":76561198029068574,"connected_time":5247000000000,"state":"active","ping":75},{"user_id":160,"name":"Zinnia_64","steam_id":76561199158994121,"connected_time":296000000000,"state":"active","ping":189},{"user_id":161,"name":"mr.bertik","steam_id":76561199090893519,"connected_time":232000000000,"state":"active","ping":66},{"user_id":159,"name":"twitch.tv/goatcanon","steam_id":76561198109415404,"connected_time":349000000000,"state":"active","ping":56},{"user_id":135,"name":"spice things up","steam_id":76561197988085026,"connected_time":3427000000000,"state":"active","ping":64},{"user_id":147,"name":"CaesarZ","steam_id":76561199092464353,"connected_time":1495000000000,"state":"active","ping":152},{"user_id":158,"name":"An albino alsatian","steam_id":76561198073769916,"connected_time":419000000000,"state":"active","ping":61},{"user_id":100,"name":"Economic crisis","steam_id":76561198063562843,"connected_time":6703000000000,"state":"active","ping":64},{"user_id":136,"name":"r06u3 #SummerUpdate_Coming","steam_id":76561198254099253,"connected_time":3397000000000,"state":"active","ping":179},{"user_id":32,"name":"Butt Fangs Fetish","steam_id":76561198038130063,"connected_time":11104000000000,"state":"active","ping":84},{"user_id":33,"name":"Havelyn","steam_id":76561198036159862,"connected_time":11078000000000,"state":"active","ping":138},{"user_id":127,"name":"jj","steam_id":76561198079200985,"connected_time":4505000000000,"state":"active","ping":59},{"user_id":149,"name":"ignitor \u003c3","steam_id":76561198218996844,"connected_time":1391000000000,"state":"active","ping":59},{"user_id":93,"name":"Lil Ari","steam_id":76561198218178180,"connected_time":7489000000000,"state":"active","ping":83},{"user_id":140,"name":"nmm","steam_id":76561199128713772,"connected_time":2957000000000,"state":"active","ping":55}]},{"server_id":40,"name":"Uncletopia | London | 7 | No Payload","name_short":"lon-7","host":"lon-1.uk.uncletopia.com","port":27075,"enabled":true,"region":"eu","cc":"gb","latitude":51.509865,"longitude":-0.118092,"reserved":0,"last_update":"0001-01-01T00:00:00Z","name_a2s":"Uncletopia | London | 7 | No Payload","protocol":17,"map":"koth_harvest_final","folder":"tf","game":"Team Fortress","app_id":440,"player_count":2,"max_players":24,"Bots":0,"server_type":"Dedicated","server_os":"Linux","password":true,"vac":true,"version":"7757534","steam_id":85568392924964314,"keywords":["cp","nocrits","nodmgspread","uncletopia"],"game_id":440,"stv_port":27076,"stv_name":"Uncletopia | London | 7 | No Payload | STV","players":[{"user_id":45,"name":"lipaul777","steam_id":76561199090751367,"connected_time":1881000000000,"state":"active","ping":71},{"user_id":48,"name":"IndigoJones","steam_id":76561198050284262,"connected_time":1104000000000,"state":"active","ping":38}]},{"server_id":41,"name":"Uncletopia | London | 8 | Community","name_short":"lon-8","host":"lon-1.uk.uncletopia.com","port":27085,"enabled":true,"region":"eu","cc":"gb","latitude":51.509865,"longitude":-0.118092,"reserved":0,"last_update":"0001-01-01T00:00:00Z","name_a2s":"Uncletopia | London | 8 | Community","protocol":17,"map":"workshop/cp_caldera_rc2.ugc2834196889","folder":"tf","game":"Team Fortress","app_id":440,"player_count":0,"max_players":24,"Bots":0,"server_type":"Dedicated","server_os":"Linux","password":true,"vac":true,"version":"7757534","steam_id":85568392924964315,"keywords":["cp","nocrits","nodmgspread","uncletopia"],"game_id":440,"stv_port":27086,"stv_name":"Uncletopia | London | 8 | Community | STV","players":null},{"server_id":300,"name":"Uncletopia | Montr√©al | 1 | All Maps","name_short":"mtl-1","host":"mtl-1.ca.uncletopia.com","port":27015,"enabled":true,"region":"us-east","cc":"ca","latitude":45.50889,"longitude":-73.56167,"reserved":0,"last_update":"0001-01-01T00:00:00Z","name_a2s":"Uncletopia | Montr√©al | 1 | All Maps","protocol":17,"map":"koth_viaduct","folder":"tf","game":"Team Fortress","app_id":440,"player_count":0,"max_players":24,"Bots":0,"server_type":"Dedicated","server_os":"Linux","password":true,"vac":true,"version":"7757534","steam_id":85568392924500087,"keywords":["cp","nocrits","nodmgspread","uncletopia"],"game_id":440,"stv_port":27016,"stv_name":"Uncletopia | Montr√©al | 1 | All Maps | STV","players":null},{"server_id":301,"name":"Uncletopia | Montr√©al | 2 | All Maps","name_short":"mtl-2","host":"mtl-1.ca.uncletopia.com","port":27025,"enabled":true,"region":"us-east","cc":"ca","latitude":45.50889,"longitude":-73.56167,"reserved":0,"last_update":"0001-01-01T00:00:00Z","name_a2s":"Uncletopia | Montr√©al | 2 | All Maps","protocol":17,"map":"pl_snowycoast","folder":"tf","game":"Team Fortress","app_id":440,"player_count":0,"max_players":24,"Bots":0,"server_type":"Dedicated","server_os":"Linux","password":true,"vac":true,"version":"7757534","steam_id":85568392924500088,"keywords":["nocrits","nodmgspread","payload","uncletopia"],"game_id":440,"stv_port":27026,"stv_name":"Uncletopia | Montr√©al | 2 | All Maps | STV","players":null},{"server_id":302,"name":"Uncletopia | Montr√©al | 3 | All Maps","name_short":"mtl-3","host":"mtl-1.ca.uncletopia.com","port":27035,"enabled":true,"region":"us-east","cc":"ca","latitude":45.50889,"longitude":-73.56167,"reserved":0,"last_update":"0001-01-01T00:00:00Z","name_a2s":"Uncletopia | Montr√©al | 3 | All Maps","protocol":17,"map":"pl_swiftwater_final1","folder":"tf","game":"Team Fortress","app_id":440,"player_count":0,"max_players":24,"Bots":0,"server_type":"Dedicated","server_os":"Linux","password":true,"vac":true,"version":"7757534","steam_id":85568392924500089,"keywords":["nocrits","nodmgspread","payload","uncletopia"],"game_id":440,"stv_port":27036,"stv_name":"Uncletopia | Montr√©al | 3 | All Maps | STV","players":null},{"server_id":303,"name":"Uncletopia | Montr√©al | 4 | No Payload","name_short":"mtl-4","host":"mtl-1.ca.uncletopia.com","port":27045,"enabled":true,"region":"us-east","cc":"ca","latitude":45.50889,"longitude":-73.56167,"reserved":0,"last_update":"0001-01-01T00:00:00Z","name_a2s":"Uncletopia | Montr√©al | 4 | No Payload","protocol":17,"map":"pl_pier","folder":"tf","game":"Team Fortress","app_id":440,"player_count":0,"max_players":24,"Bots":0,"server_type":"Dedicated","server_os":"Linux","password":true,"vac":true,"version":"7757534","steam_id":85568392924500090,"keywords":["nocrits","nodmgspread","payload","uncletopia"],"game_id":440,"stv_port":27046,"stv_name":"Uncletopia | Montr√©al | 4 | No Payload | STV","players":null},{"server_id":13,"name":"Uncletopia | New York City | 1 | All Maps","name_short":"nyc-1","host":"nyc-1.us.uncletopia.com","port":27015,"enabled":true,"region":"us-east","cc":"us","latitude":40.73061,"longitude":-73.93524,"reserved":0,"last_update":"0001-01-01T00:00:00Z","name_a2s":"Uncletopia | New York City | 1 | All Maps","protocol":17,"map":"pl_borneo","folder":"tf","game":"Team Fortress","app_id":440,"player_count":24,"max_players":24,"Bots":0,"server_type":"Dedicated","server_os":"Linux","password":true,"vac":true,"version":"7757534","steam_id":85568392924469993,"keywords":["nocrits","nodmgspread","payload","uncletopia"],"game_id":440,"stv_port":27016,"stv_name":"Uncletopia | New York City | 1 | All Maps | STV","players":[{"user_id":27,"name":"Mochi","steam_id":76561199151314140,"connected_time":18604000000000,"state":"active","ping":34},{"user_id":251,"name":"pizzasam","steam_id":76561197972511201,"connected_time":1856000000000,"state":"active","ping":84},{"user_id":272,"name":"rice white","steam_id":76561198320732910,"connected_time":204000000000,"state":"active","ping":61},{"user_id":262,"name":"Butters495","steam_id":76561197998689042,"connected_time":1276000000000,"state":"active","ping":71},{"user_id":259,"name":"churupinha","steam_id":76561198850465476,"connected_time":1474000000000,"state":"active","ping":177},{"user_id":246,"name":"Crystallixed","steam_id":76561198072263515,"connected_time":2046000000000,"state":"active","ping":82},{"user_id":143,"name":"Blitzy","steam_id":76561198149472890,"connected_time":8159000000000,"state":"active","ping":90},{"user_id":265,"name":"ùô¥ ùö° ùöå ùöé ùöï ùöï \ufffd","steam_id":76561198011887958,"connected_time":1142000000000,"state":"active","ping":58},{"user_id":257,"name":"WibbyOne","steam_id":76561198052843846,"connected_time":1715000000000,"state":"active","ping":36},{"user_id":258,"name":"Superman123389","steam_id":76561198267472539,"connected_time":1554000000000,"state":"active","ping":110},{"user_id":118,"name":"r0zemary (she/her)","steam_id":76561198128494897,"connected_time":11242000000000,"state":"active","ping":83},{"user_id":266,"name":"Jmciano24","steam_id":76561198050723212,"connected_time":469000000000,"state":"active","ping":54},{"user_id":273,"name":"assYter","steam_id":76561198114097410,"connected_time":166000000000,"state":"active","ping":89},{"user_id":192,"name":"ratie","steam_id":76561198059399661,"connected_time":5139000000000,"state":"active","ping":103},{"user_id":232,"name":"Monkey","steam_id":76561198031015186,"connected_time":2886000000000,"state":"active","ping":70},{"user_id":274,"name":"Adjim","steam_id":76561198179532535,"connected_time":153000000000,"state":"active","ping":61},{"user_id":264,"name":"SHADY SWEATER SALESMAN","steam_id":76561198014616865,"connected_time":1242000000000,"state":"active","ping":64},{"user_id":254,"name":"Vordt","steam_id":76561198040942866,"connected_time":1845000000000,"state":"active","ping":46},{"user_id":255,"name":"Huskenator","steam_id":76561198272907401,"connected_time":1824000000000,"state":"active","ping":70},{"user_id":267,"name":"Proximity Defective","steam_id":76561198113320567,"connected_time":463000000000,"state":"active","ping":90},{"user_id":269,"name":"Bridge the fridge","steam_id":76561199078390050,"connected_time":406000000000,"state":"active","ping":60},{"user_id":275,"name":"Jester","steam_id":76561198156746320,"connected_time":148000000000,"state":"active","ping":61},{"user_id":248,"name":"chiswola","steam_id":76561198046920142,"connected_time":1994000000000,"state":"active","ping":93},{"user_id":277,"name":"Pluto","steam_id":76561198338593690,"connected_time":46000000000,"state":"active","ping":76}]},{"server_id":14,"name":"Uncletopia | New York City | 2 | All Maps","name_short":"nyc-2","host":"nyc-1.us.uncletopia.com","port":27025,"enabled":true,"region":"us-east","cc":"us","latitude":40.73061,"longitude":-73.93524,"reserved":0,"last_update":"0001-01-01T00:00:00Z","name_a2s":"Uncletopia | New York City | 2 | All Maps","protocol":17,"map":"cp_altitude","folder":"tf","game":"Team Fortress","app_id":440,"player_count":23,"max_players":24,"Bots":0,"server_type":"Dedicated","server_os":"Linux","password":true,"vac":true,"version":"7757534","steam_id":85568392924469994,"keywords":["cp","nocrits","nodmgspread","uncletopia"],"game_id":440,"stv_port":27026,"stv_name":"Uncletopia | New York City | 2 | All Maps | STV","players":[{"user_id":306,"name":"CUBENSiS","steam_id":76561199138699358,"connected_time":686000000000,"state":"active","ping":73},{"user_id":307,"name":"Verschlimmbesserung","steam_id":76561198024991137,"connected_time":670000000000,"state":"active","ping":62},{"user_id":287,"name":"gallowsCalibrator","steam_id":76561198076388445,"connected_time":2510000000000,"state":"active","ping":73},{"user_id":298,"name":"Baron von Whoopsie","steam_id":76561197996691013,"connected_time":1576000000000,"state":"active","ping":60},{"user_id":323,"name":"move like a human","steam_id":76561198043810656,"connected_time":71000000000,"state":"active","ping":150},{"user_id":255,"name":"Hotdog Goblin","steam_id":76561198004133638,"connected_time":4853000000000,"state":"active","ping":108},{"user_id":286,"name":"Drake the Pixel","steam_id":76561198131824401,"connected_time":2983000000000,"state":"active","ping":43},{"user_id":292,"name":"A Shiny Meat Bicycle","steam_id":76561198358757709,"connected_time":2143000000000,"state":"active","ping":87},{"user_id":309,"name":"nhbiker","steam_id":76561198081277675,"connected_time":581000000000,"state":"active","ping":44},{"user_id":318,"name":"Asher","steam_id":76561198218499636,"connected_time":216000000000,"state":"active","ping":41},{"user_id":311,"name":"IcyBabyBeluga","steam_id":76561198997668793,"connected_time":444000000000,"state":"active","ping":100},{"user_id":322,"name":"BasicPeaches","steam_id":76561198190890150,"connected_time":111000000000,"state":"active","ping":63},{"user_id":305,"name":"yeyoi","steam_id":76561198069821885,"connected_time":726000000000,"state":"active","ping":58},{"user_id":320,"name":"Wiener Hole Paper Cut","steam_id":76561198000808203,"connected_time":176000000000,"state":"active","ping":68},{"user_id":312,"name":"Fishy","steam_id":76561198819316173,"connected_time":441000000000,"state":"active","ping":97},{"user_id":296,"name":"OctopusCrime","steam_id":76561198060141069,"connected_time":1880000000000,"state":"active","ping":67},{"user_id":313,"name":"LazyKoala99","steam_id":76561199183623672,"connected_time":433000000000,"state":"active","ping":125},{"user_id":303,"name":"QwilfishFan22","steam_id":76561198078565975,"connected_time":889000000000,"state":"active","ping":57},{"user_id":321,"name":"will uber light classes","steam_id":76561198117033273,"connected_time":138000000000,"state":"active","ping":123},{"user_id":284,"name":"Vegerot","steam_id":76561197997843710,"connected_time":3686000000000,"state":"active","ping":45},{"user_id":316,"name":"Poodwecker","steam_id":76561198344264859,"connected_time":394000000000,"state":"active","ping":114},{"user_id":285,"name":"Uwu Micster","steam_id":76561198843890616,"connected_time":3168000000000,"state":"active","ping":78},{"user_id":317,"name":"jiim jaam","steam_id":76561198069814977,"connected_time":319000000000,"state":"active","ping":55}]},{"server_id":15,"name":"Uncletopia | New York City | 3 | Stopwatch Beta","name_short":"nyc-3","host":"nyc-1.us.uncletopia.com","port":27035,"enabled":true,"region":"us-east","cc":"us","latitude":40.73061,"longitude":-73.93524,"reserved":0,"last_update":"0001-01-01T00:00:00Z","name_a2s":"Uncletopia | New York City | 3 | Stopwatch Beta","protocol":17,"map":"pl_upward","folder":"tf","game":"Team Fortress","app_id":440,"player_count":0,"max_players":24,"Bots":0,"server_type":"Dedicated","server_os":"Linux","password":true,"vac":true,"version":"7757534","steam_id":85568392924742820,"keywords":["nocrits","nodmgspread","payload","uncletopia"],"game_id":440,"stv_port":27036,"stv_name":"Uncletopia | New York City | 3 | Stopwatch Beta | STV","players":null},{"server_id":16,"name":"Uncletopia | New York City | 4 | Community","name_short":"nyc-4","host":"nyc-1.us.uncletopia.com","port":27045,"enabled":true,"region":"us-east","cc":"us","latitude":40.73061,"longitude":-73.93524,"reserved":0,"last_update":"0001-01-01T00:00:00Z","name_a2s":"Uncletopia | New York City | 4 | Community","protocol":17,"map":"workshop/koth_trenchfoot_b1a.ugc731436616","folder":"tf","game":"Team Fortress","app_id":440,"player_count":3,"max_players":24,"Bots":0,"server_type":"Dedicated","server_os":"Linux","password":true,"vac":true,"version":"7757534","steam_id":85568392924742821,"keywords":["cp","nocrits","nodmgspread","uncletopia"],"game_id":440,"stv_port":27046,"stv_name":"Uncletopia | New York City | 4 | Community | STV","players":[{"user_id":10,"name":"dameJuno","steam_id":76561198070799623,"connected_time":309000000000,"state":"active","ping":63},{"user_id":9,"name":"Six Hare Sol","steam_id":76561198062874795,"connected_time":375000000000,"state":"active","ping":85},{"user_id":11,"name":"cheapdisplay","steam_id":76561199206448493,"connected_time":280000000000,"state":"active","ping":65}]},{"server_id":142,"name":"Uncletopia | S√£o Paulo | 1 | All Maps","name_short":"sao-1","host":"sao-1.br.uncletopia.com","port":27015,"enabled":true,"region":"sa","cc":"br","latitude":-23.533773,"longitude":-46.62529,"reserved":0,"last_update":"0001-01-01T00:00:00Z","name_a2s":"Uncletopia | S√£o Paulo | 1 | All Maps","protocol":17,"map":"pl_borneo","folder":"tf","game":"Team Fortress","app_id":440,"player_count":0,"max_players":24,"Bots":0,"server_type":"Dedicated","server_os":"Linux","password":true,"vac":true,"version":"7757534","steam_id":85568392924469996,"keywords":["nocrits","nodmgspread","payload","uncletopia"],"game_id":440,"stv_port":27016,"stv_name":"Uncletopia | S√£o Paulo | 1 | All Maps | STV","players":null},{"server_id":143,"name":"Uncletopia | S√£o Paulo | 2 | All Maps","name_short":"sao-2","host":"sao-2.br.uncletopia.com","port":27015,"enabled":true,"region":"sa","cc":"br","latitude":-23.533773,"longitude":-46.62529,"reserved":0,"last_update":"0001-01-01T00:00:00Z","name_a2s":"Uncletopia | S√£o Paulo | 2 | All Maps","protocol":17,"map":"koth_cascade","folder":"tf","game":"Team Fortress","app_id":440,"player_count":0,"max_players":24,"Bots":0,"server_type":"Dedicated","server_os":"Linux","password":true,"vac":true,"version":"7757534","steam_id":85568392924485349,"keywords":["cp","nocrits","nodmgspread","uncletopia"],"game_id":440,"stv_port":27016,"stv_name":"Uncletopia | S√£o Paulo | 2 | All Maps | STV","players":null},{"server_id":7,"name":"Uncletopia | Seattle | 1 | All Maps","name_short":"sea-1","host":"sea-1.us.uncletopia.com","port":27015,"enabled":true,"region":"us-west","cc":"us","latitude":47.608013,"longitude":-122.33517,"reserved":0,"last_update":"0001-01-01T00:00:00Z","name_a2s":"Uncletopia | Seattle | 1 | All Maps","protocol":17,"map":"pl_swiftwater_final1","folder":"tf","game":"Team Fortress","app_id":440,"player_count":24,"max_players":24,"Bots":0,"server_type":"Dedicated","server_os":"Linux","password":true,"vac":true,"version":"7757534","steam_id":85568392924469997,"keywords":["nocrits","nodmgspread","payload","uncletopia"],"game_id":440,"stv_port":27016,"stv_name":"Uncletopia | Seattle | 1 | All Maps | STV","players":[{"user_id":377,"name":"my monitor is off","steam_id":76561198074499537,"connected_time":1098000000000,"state":"active","ping":99},{"user_id":349,"name":"Drew","steam_id":76561198058893405,"connected_time":3169000000000,"state":"active","ping":85},{"user_id":378,"name":"[TrC] Dackstrus","steam_id":76561197973518509,"connected_time":788000000000,"state":"active","ping":58},{"user_id":106,"name":"Soozy420","steam_id":76561198809074422,"connected_time":22145000000000,"state":"active","ping":78},{"user_id":356,"name":"shiadyne","steam_id":76561198271939793,"connected_time":2748000000000,"state":"active","ping":47},{"user_id":323,"name":"MisterManne","steam_id":76561198106598600,"connected_time":5921000000000,"state":"active","ping":53},{"user_id":321,"name":"Mediarch","steam_id":76561198050765729,"connected_time":6353000000000,"state":"active","ping":48},{"user_id":312,"name":"mike, freshly circed","steam_id":76561198225411004,"connected_time":7383000000000,"state":"active","ping":62},{"user_id":370,"name":"HiFivr","steam_id":76561198285190162,"connected_time":1568000000000,"state":"active","ping":62},{"user_id":361,"name":"bobo","steam_id":76561198020268561,"connected_time":2277000000000,"state":"active","ping":116},{"user_id":360,"name":"Mico (ENA Troublemaker)","steam_id":76561198125462953,"connected_time":2282000000000,"state":"active","ping":46},{"user_id":363,"name":"lili spacedust ezili","steam_id":76561199391478575,"connected_time":1999000000000,"state":"active","ping":71},{"user_id":326,"name":"weed lesbian","steam_id":76561197989933601,"connected_time":5461000000000,"state":"active","ping":58},{"user_id":329,"name":"Quintuple Triple","steam_id":76561198325557240,"connected_time":5452000000000,"state":"active","ping":71},{"user_id":343,"name":"jacix3 [gay wolfgirl]{she/it}","steam_id":76561198205004165,"connected_time":3635000000000,"state":"active","ping":63},{"user_id":371,"name":"keithykeithers","steam_id":76561197995552615,"connected_time":1559000000000,"state":"active","ping":49},{"user_id":372,"name":"forest","steam_id":76561198157960257,"connected_time":1151000000000,"state":"active","ping":42},{"user_id":236,"name":"Level 99 Mudcrab","steam_id":76561198077452771,"connected_time":12684000000000,"state":"active","ping":59},{"user_id":379,"name":"Xbox Live 30-Day Free Trial","steam_id":76561199231369792,"connected_time":735000000000,"state":"active","ping":132},{"user_id":374,"name":"Bige Rone","steam_id":76561198066718191,"connected_time":1120000000000,"state":"active","ping":49},{"user_id":318,"name":"louie, an ally","steam_id":76561198168084763,"connected_time":6875000000000,"state":"active","ping":44},{"user_id":375,"name":"Kafuka","steam_id":76561198014404374,"connected_time":1119000000000,"state":"active","ping":44},{"user_id":381,"name":"Boyaredeen","steam_id":76561198880492636,"connected_time":426000000000,"state":"active","ping":57},{"user_id":380,"name":"Niykin","steam_id":76561198044779043,"connected_time":673000000000,"state":"active","ping":121}]},{"server_id":119,"name":"Uncletopia | Seattle | 2 | All Maps","name_short":"sea-2","host":"sea-1.us.uncletopia.com","port":27025,"enabled":true,"region":"us-west","cc":"us","latitude":47.608013,"longitude":-122.33517,"reserved":0,"last_update":"0001-01-01T00:00:00Z","name_a2s":"Uncletopia | Seattle | 2 | All Maps","protocol":17,"map":"pl_borneo","folder":"tf","game":"Team Fortress","app_id":440,"player_count":24,"max_players":24,"Bots":0,"server_type":"Dedicated","server_os":"Linux","password":true,"vac":true,"version":"7757534","steam_id":85568392924469998,"keywords":["nocrits","nodmgspread","payload","uncletopia"],"game_id":440,"stv_port":27026,"stv_name":"Uncletopia | Seattle | 2 | All Maps | STV","players":[{"user_id":88,"name":"CrystalClear","steam_id":76561198344276579,"connected_time":1065000000000,"state":"active","ping":105},{"user_id":52,"name":"think of the bag","steam_id":76561198125261443,"connected_time":2557000000000,"state":"active","ping":68},{"user_id":57,"name":"Strikerbolt","steam_id":76561199095622897,"connected_time":2346000000000,"state":"active","ping":87},{"user_id":87,"name":"C.C.C.O.","steam_id":76561198053967778,"connected_time":1230000000000,"state":"active","ping":139},{"user_id":98,"name":"inphlate","steam_id":76561199016973013,"connected_time":701000000000,"state":"active","ping":150},{"user_id":32,"name":"Pot Head Pixie","steam_id":76561198083024504,"connected_time":3406000000000,"state":"active","ping":105},{"user_id":99,"name":"SwoopShoot","steam_id":76561199024079388,"connected_time":469000000000,"state":"active","ping":45},{"user_id":59,"name":"rinkl","steam_id":76561198965756070,"connected_time":2271000000000,"state":"active","ping":59},{"user_id":64,"name":"squash","steam_id":76561198150281353,"connected_time":2166000000000,"state":"active","ping":55},{"user_id":102,"name":"rocketman","steam_id":76561198067173482,"connected_time":114000000000,"state":"active","ping":73},{"user_id":80,"name":"diymo","steam_id":76561198017600790,"connected_time":1755000000000,"state":"active","ping":44},{"user_id":95,"name":"genuine Anger","steam_id":76561198829069588,"connected_time":755000000000,"state":"active","ping":113},{"user_id":100,"name":"June","steam_id":76561198141803658,"connected_time":444000000000,"state":"active","ping":71},{"user_id":84,"name":"face in the dark","steam_id":76561198132755619,"connected_time":1493000000000,"state":"active","ping":67},{"user_id":75,"name":"Maid 'n' China","steam_id":76561198423392976,"connected_time":1870000000000,"state":"active","ping":72},{"user_id":82,"name":"Little Inquisitor","steam_id":76561198403829714,"connected_time":1640000000000,"state":"active","ping":44},{"user_id":47,"name":"alcoHollis","steam_id":76561198069797453,"connected_time":2657000000000,"state":"active","ping":60},{"user_id":85,"name":"VoodooPapa","steam_id":76561199160439066,"connected_time":1438000000000,"state":"active","ping":84},{"user_id":81,"name":"Mr. StepOnShi","steam_id":76561198049381236,"connected_time":1717000000000,"state":"active","ping":42},{"user_id":101,"name":"Robert E.T.","steam_id":76561197986439371,"connected_time":146000000000,"state":"active","ping":77},{"user_id":78,"name":"Quality Gundam","steam_id":76561198029853893,"connected_time":1815000000000,"state":"active","ping":101},{"user_id":55,"name":"PPFitzenreit","steam_id":76561199381005210,"connected_time":2535000000000,"state":"active","ping":91},{"user_id":72,"name":"Natalie","steam_id":76561198048848289,"connected_time":1997000000000,"state":"active","ping":89},{"user_id":96,"name":"Jack Horner","steam_id":76561199435609906,"connected_time":728000000000,"state":"active","ping":112}]},{"server_id":406,"name":"Uncletopia | Seattle | 3 | Stopwatch Beta","name_short":"sea-3","host":"sea-1.us.uncletopia.com","port":27035,"enabled":true,"region":"us-west","cc":"us","latitude":47.608013,"longitude":-122.33517,"reserved":0,"last_update":"0001-01-01T00:00:00Z","name_a2s":"Uncletopia | Seattle | 3 | Stopwatch Beta","protocol":17,"map":"workshop/pl_vigil_rc9.ugc1266210012","folder":"tf","game":"Team Fortress","app_id":440,"player_count":0,"max_players":24,"Bots":0,"server_type":"Dedicated","server_os":"Linux","password":true,"vac":true,"version":"7757534","steam_id":85568392924515217,"keywords":["nocrits","nodmgspread","payload","uncletopia"],"game_id":440,"stv_port":27036,"stv_name":"Uncletopia | Seattle | 3 | Stopwatch Beta | STV","players":null},{"server_id":17,"name":"Uncletopia | San Francisco | 1 | All Maps","name_short":"sfo-1","host":"sfo-1.us.uncletopia.com","port":27015,"enabled":true,"region":"us-west","cc":"us","latitude":37.77397,"longitude":-122.4313,"reserved":0,"last_update":"0001-01-01T00:00:00Z","name_a2s":"Uncletopia | San Francisco | 1 | All Maps","protocol":17,"map":"pl_borneo","folder":"tf","game":"Team Fortress","app_id":440,"player_count":23,"max_players":24,"Bots":0,"server_type":"Dedicated","server_os":"Linux","password":true,"vac":true,"version":"7757534","steam_id":85568392924469999,"keywords":["nocrits","nodmgspread","payload","uncletopia"],"game_id":440,"stv_port":27016,"stv_name":"Uncletopia | San Francisco | 1 | All Maps | STV","players":[{"user_id":243,"name":"Matt","steam_id":76561199122703238,"connected_time":2985000000000,"state":"active","ping":68},{"user_id":268,"name":"Korn Dawg","steam_id":76561198026941076,"connected_time":607000000000,"state":"active","ping":67},{"user_id":267,"name":"Sakisano","steam_id":76561198245814880,"connected_time":1049000000000,"state":"active","ping":96},{"user_id":249,"name":"sauce090","steam_id":76561199388018444,"connected_time":2435000000000,"state":"active","ping":54},{"user_id":274,"name":"Winter the Witchie","steam_id":76561198151971178,"connected_time":39000000000,"state":"active","ping":109},{"user_id":230,"name":"MRVN","steam_id":76561199103120314,"connected_time":3971000000000,"state":"active","ping":65},{"user_id":257,"name":"Dr. PP","steam_id":76561199018184096,"connected_time":2043000000000,"state":"active","ping":71},{"user_id":228,"name":"cactus eater","steam_id":76561199107499844,"connected_time":4337000000000,"state":"active","ping":64},{"user_id":270,"name":"Uprightmoss7528","steam_id":76561199200138486,"connected_time":114000000000,"state":"active","ping":71},{"user_id":260,"name":"Livin' Like Larry","steam_id":76561198313360974,"connected_time":1709000000000,"state":"active","ping":32},{"user_id":246,"name":"Bandanadee","steam_id":76561199014194373,"connected_time":2875000000000,"state":"active","ping":132},{"user_id":153,"name":"TheArachnidGamer","steam_id":76561198304986752,"connected_time":8319000000000,"state":"active","ping":75},{"user_id":273,"name":"Mengle","steam_id":76561198001953684,"connected_time":61000000000,"state":"active","ping":108},{"user_id":266,"name":"DEQUAVIS","steam_id":76561198843060075,"connected_time":1195000000000,"state":"active","ping":53},{"user_id":271,"name":"Toad :)","steam_id":76561198163008022,"connected_time":107000000000,"state":"active","ping":64},{"user_id":272,"name":"tailorturtle","steam_id":76561198107481127,"connected_time":107000000000,"state":"active","ping":118},{"user_id":275,"name":"The Ace","steam_id":76561198330288109,"connected_time":22000000000,"state":"active","ping":70},{"user_id":213,"name":"Milkman‚Ñ¢","steam_id":76561198061638747,"connected_time":4988000000000,"state":"active","ping":106},{"user_id":269,"name":"Frog","steam_id":76561198093257083,"connected_time":390000000000,"state":"active","ping":60},{"user_id":256,"name":"The Pestilence","steam_id":76561199081252282,"connected_time":2204000000000,"state":"active","ping":115},{"user_id":247,"name":"grub no. III","steam_id":76561198829492245,"connected_time":2568000000000,"state":"active","ping":54},{"user_id":229,"name":"Vorpas Jabwak","steam_id":76561198112186064,"connected_time":4079000000000,"state":"active","ping":78},{"user_id":276,"name":"Gameway T3 16","steam_id":76561199319604239,"connected_time":11000000000,"state":"spawning","ping":40}]},{"server_id":18,"name":"Uncletopia | San Francisco | 2 | All Maps","name_short":"sfo-2","host":"sfo-1.us.uncletopia.com","port":27025,"enabled":true,"region":"us-west","cc":"us","latitude":37.77397,"longitude":-122.4313,"reserved":0,"last_update":"0001-01-01T00:00:00Z","name_a2s":"Uncletopia | San Francisco | 2 | All Maps","protocol":17,"map":"cp_altitude","folder":"tf","game":"Team Fortress","app_id":440,"player_count":23,"max_players":24,"Bots":0,"server_type":"Dedicated","server_os":"Linux","password":true,"vac":true,"version":"7757534","steam_id":85568392924470000,"keywords":["cp","nocrits","nodmgspread","uncletopia"],"game_id":440,"stv_port":27026,"stv_name":"Uncletopia | San Francisco | 2 | All Maps | STV","players":[{"user_id":112,"name":"roanoke‚Ä∫","steam_id":76561198048007844,"connected_time":3096000000000,"state":"active","ping":51},{"user_id":152,"name":"no vc no c","steam_id":76561197989503095,"connected_time":270000000000,"state":"active","ping":149},{"user_id":139,"name":"Sandy Wexler","steam_id":76561199469243681,"connected_time":816000000000,"state":"active","ping":87},{"user_id":134,"name":"Dive(z)","steam_id":76561198140843225,"connected_time":942000000000,"state":"active","ping":88},{"user_id":31,"name":"Overmeme","steam_id":76561199455124144,"connected_time":7673000000000,"state":"active","ping":89},{"user_id":151,"name":"Saddam","steam_id":76561197985725267,"connected_time":427000000000,"state":"active","ping":87},{"user_id":48,"name":"crumblejon","steam_id":76561198111273302,"connected_time":6853000000000,"state":"active","ping":75},{"user_id":98,"name":"Kiilys","steam_id":76561198326068377,"connected_time":3994000000000,"state":"active","ping":73},{"user_id":140,"name":"craxyt","steam_id":76561198050192689,"connected_time":802000000000,"state":"active","ping":58},{"user_id":145,"name":"Busness_pig","steam_id":76561199244823990,"connected_time":562000000000,"state":"active","ping":98},{"user_id":142,"name":"poompis","steam_id":76561198160850933,"connected_time":776000000000,"state":"active","ping":69},{"user_id":153,"name":"Idiotden","steam_id":76561199340950135,"connected_time":228000000000,"state":"active","ping":56},{"user_id":154,"name":"‚§£RASCAL","steam_id":76561198269038647,"connected_time":216000000000,"state":"active","ping":56},{"user_id":155,"name":"Fremond Games","steam_id":76561198847910046,"connected_time":214000000000,"state":"active","ping":75},{"user_id":146,"name":"Slewgap","steam_id":76561198065165918,"connected_time":531000000000,"state":"active","ping":139},{"user_id":156,"name":"brassygraph261","steam_id":76561199024736398,"connected_time":210000000000,"state":"active","ping":70},{"user_id":92,"name":"big booty birtha","steam_id":76561198996674933,"connected_time":4265000000000,"state":"active","ping":82},{"user_id":147,"name":"8 raw papers","steam_id":76561198424248616,"connected_time":519000000000,"state":"active","ping":100},{"user_id":132,"name":"KingKnightTime","steam_id":76561198926475476,"connected_time":1164000000000,"state":"active","ping":96},{"user_id":57,"name":"Zero","steam_id":76561199383267408,"connected_time":6776000000000,"state":"active","ping":91},{"user_id":149,"name":"themadlad67","steam_id":76561199309554436,"connected_time":474000000000,"state":"active","ping":74},{"user_id":66,"name":"weenie hut jr","steam_id":76561198206922028,"connected_time":6550000000000,"state":"active","ping":58},{"user_id":150,"name":"BaCkSeAtGaMeR123123","steam_id":76561198103798860,"connected_time":472000000000,"state":"active","ping":106}]},{"server_id":19,"name":"Uncletopia | San Francisco | 3 | Stopwatch Beta","name_short":"sfo-3","host":"sfo-1.us.uncletopia.com","port":27035,"enabled":true,"region":"us-west","cc":"us","latitude":37.77397,"longitude":-122.4313,"reserved":0,"last_update":"0001-01-01T00:00:00Z","name_a2s":"Uncletopia | San Francisco | 3 | Stopwatch Beta","protocol":17,"map":"workshop/koth_ramjam_rc1.ugc459778887","folder":"tf","game":"Team Fortress","app_id":440,"player_count":0,"max_players":24,"Bots":0,"server_type":"Dedicated","server_os":"Linux","password":true,"vac":true,"version":"7757534","steam_id":85568392924742824,"keywords":["cp","nocrits","nodmgspread","uncletopia"],"game_id":440,"stv_port":27036,"stv_name":"Uncletopia | San Francisco | 3 | Stopwatch Beta | STV","players":null},{"server_id":20,"name":"Uncletopia | San Francisco | 4 | Community","name_short":"sfo-4","host":"sfo-1.us.uncletopia.com","port":27045,"enabled":true,"region":"us-west","cc":"us","latitude":37.77397,"longitude":-122.4313,"reserved":0,"last_update":"0001-01-01T00:00:00Z","name_a2s":"Uncletopia | San Francisco | 4 | Community","protocol":17,"map":"workshop/cp_mannbase_rc2a.ugc1900737467","folder":"tf","game":"Team Fortress","app_id":440,"player_count":0,"max_players":24,"Bots":0,"server_type":"Dedicated","server_os":"Linux","password":true,"vac":true,"version":"7757534","steam_id":85568392924742826,"keywords":["cp","nocrits","nodmgspread","uncletopia"],"game_id":440,"stv_port":27046,"stv_name":"Uncletopia | San Francisco | 4 | Community | STV","players":null},{"server_id":141,"name":"Uncletopia | Sydney | 1 | All Maps","name_short":"syd-1","host":"syd-1.au.uncletopia.com","port":27015,"enabled":true,"region":"au","cc":"au","latitude":-33.865143,"longitude":151.2099,"reserved":0,"last_update":"0001-01-01T00:00:00Z","name_a2s":"Uncletopia | Sydney | 1 | All Maps","protocol":17,"map":"pl_upward","folder":"tf","game":"Team Fortress","app_id":440,"player_count":2,"max_players":24,"Bots":0,"server_type":"Dedicated","server_os":"Linux","password":true,"vac":true,"version":"7757534","steam_id":85568392924470001,"keywords":["nocrits","nodmgspread","payload","uncletopia"],"game_id":440,"stv_port":27016,"stv_name":"Uncletopia | Sydney | 1 | All Maps | STV","players":[{"user_id":6,"name":"Hertog van Damme","steam_id":76561198152470958,"connected_time":427000000000,"state":"active","ping":58},{"user_id":7,"name":"Spoigus","steam_id":76561199014028199,"connected_time":73000000000,"state":"active","ping":241}]},{"server_id":123,"name":"Uncletopia | Sydney | 2 | All Maps","name_short":"syd-2","host":"syd-1.au.uncletopia.com","port":27025,"enabled":true,"region":"au","cc":"au","latitude":-33.865143,"longitude":151.2099,"reserved":0,"last_update":"0001-01-01T00:00:00Z","name_a2s":"Uncletopia | Sydney | 2 | All Maps","protocol":17,"map":"cp_process_final","folder":"tf","game":"Team Fortress","app_id":440,"player_count":0,"max_players":24,"Bots":0,"server_type":"Dedicated","server_os":"Linux","password":true,"vac":true,"version":"7757534","steam_id":85568392924470002,"keywords":["cp","nocrits","nodmgspread","uncletopia"],"game_id":440,"stv_port":27026,"stv_name":"Uncletopia | Sydney | 2 | All Maps | STV","players":null},{"server_id":395,"name":"Uncletopia | Sydney | 3 | All Maps","name_short":"syd-3","host":"syd-1.au.uncletopia.com","port":27035,"enabled":true,"region":"au","cc":"au","latitude":-33.865143,"longitude":151.2099,"reserved":0,"last_update":"0001-01-01T00:00:00Z","name_a2s":"Uncletopia | Sydney | 3 | All Maps","protocol":17,"map":"pl_swiftwater_final1","folder":"tf","game":"Team Fortress","app_id":440,"player_count":0,"max_players":24,"Bots":0,"server_type":"Dedicated","server_os":"Linux","password":true,"vac":true,"version":"7757534","steam_id":85568392925194467,"keywords":["nocrits","nodmgspread","payload","uncletopia"],"game_id":440,"stv_port":27036,"stv_name":"Uncletopia | Sydney | 3 | All Maps | STV","players":null},{"server_id":396,"name":"Uncletopia | Sydney | 4 | All Maps","name_short":"syd-4","host":"syd-1.au.uncletopia.com","port":27045,"enabled":true,"region":"au","cc":"au","latitude":-33.865143,"longitude":151.2099,"reserved":0,"last_update":"0001-01-01T00:00:00Z","name_a2s":"Uncletopia | Sydney | 4 | All Maps","protocol":17,"map":"koth_highpass","folder":"tf","game":"Team Fortress","app_id":440,"player_count":0,"max_players":24,"Bots":0,"server_type":"Dedicated","server_os":"Linux","password":true,"vac":true,"version":"7757534","steam_id":85568392925397958,"keywords":["cp","nocrits","nodmgspread","uncletopia"],"game_id":440,"stv_port":27046,"stv_name":"Uncletopia | Sydney | 4 | All Maps | STV","players":null},{"server_id":58,"name":"Uncletopia | Sydney | 5 | Stopwatch Beta","name_short":"syd-5","host":"syd-1.au.uncletopia.com","port":27055,"enabled":true,"region":"au","cc":"au","latitude":-33.865143,"longitude":151.2099,"reserved":0,"last_update":"0001-01-01T00:00:00Z","name_a2s":"Uncletopia | Sydney | 5 | Stopwatch Beta","protocol":17,"map":"koth_cascade","folder":"tf","game":"Team Fortress","app_id":440,"player_count":0,"max_players":24,"Bots":0,"server_type":"Dedicated","server_os":"Linux","password":true,"vac":true,"version":"7757534","steam_id":85568392925397959,"keywords":["cp","nocrits","nodmgspread","uncletopia"],"game_id":440,"stv_port":27056,"stv_name":"Uncletopia | Sydney | 5 | Stopwatch Beta | STV","players":null},{"server_id":59,"name":"Uncletopia | Sydney | 6 | Community","name_short":"syd-6","host":"syd-1.au.uncletopia.com","port":27065,"enabled":true,"region":"au","cc":"au","latitude":-33.865143,"longitude":151.2099,"reserved":0,"last_update":"0001-01-01T00:00:00Z","name_a2s":"Uncletopia | Sydney | 6 | Community","protocol":17,"map":"workshop/cp_snowbase_b18.ugc2081770490","folder":"tf","game":"Team Fortress","app_id":440,"player_count":0,"max_players":24,"Bots":0,"server_type":"Dedicated","server_os":"Linux","password":true,"vac":true,"version":"7757534","steam_id":85568392925397960,"keywords":["cp","nocrits","nodmgspread","uncletopia"],"game_id":440,"stv_port":27066,"stv_name":"Uncletopia | Sydney | 6 | Community | STV","players":null},{"server_id":49,"name":"Uncletopia | Warsaw | 1 | All Maps","name_short":"waw-1","host":"waw-1.pl.uncletopia.com","port":27015,"enabled":true,"region":"eu","cc":"pl","latitude":52.2297,"longitude":21.017532,"reserved":0,"last_update":"0001-01-01T00:00:00Z","name_a2s":"","protocol":0,"map":"","folder":"","game":"","app_id":0,"player_count":0,"max_players":0,"Bots":0,"server_type":"","server_os":"","password":false,"vac":false,"version":"","steam_id":0,"keywords":null,"game_id":0,"stv_port":0,"stv_name":"","players":null},{"server_id":50,"name":"Uncletopia | Warsaw | 2 | All Maps","name_short":"waw-2","host":"waw-1.pl.uncletopia.com","port":27025,"enabled":true,"region":"eu","cc":"pl","latitude":52.2297,"longitude":21.017532,"reserved":0,"last_update":"0001-01-01T00:00:00Z","name_a2s":"Uncletopia | Warsaw | 2 | All Maps","protocol":17,"map":"cp_altitude","folder":"tf","game":"Team Fortress","app_id":440,"player_count":0,"max_players":24,"Bots":0,"server_type":"Dedicated","server_os":"Linux","password":true,"vac":true,"version":"7757534","steam_id":85568392925397851,"keywords":["cp","nocrits","nodmgspread","uncletopia"],"game_id":440,"stv_port":27026,"stv_name":"Uncletopia | Warsaw | 2 | All Maps | STV","players":null},{"server_id":51,"name":"Uncletopia | Warsaw | 3 | All Maps","name_short":"waw-3","host":"waw-1.pl.uncletopia.com","port":27035,"enabled":true,"region":"eu","cc":"pl","latitude":52.2297,"longitude":21.017532,"reserved":0,"last_update":"0001-01-01T00:00:00Z","name_a2s":"Uncletopia | Warsaw | 3 | All Maps","protocol":17,"map":"cp_snakewater_final1","folder":"tf","game":"Team Fortress","app_id":440,"player_count":0,"max_players":24,"Bots":0,"server_type":"Dedicated","server_os":"Linux","password":true,"vac":true,"version":"7757534","steam_id":85568392925397852,"keywords":["cp","nocrits","nodmgspread","uncletopia"],"game_id":440,"stv_port":27036,"stv_name":"Uncletopia | Warsaw | 3 | All Maps | STV","players":null},{"server_id":52,"name":"Uncletopia | Warsaw | 4 | All Maps","name_short":"waw-4","host":"waw-1.pl.uncletopia.com","port":27045,"enabled":true,"region":"eu","cc":"pl","latitude":52.2297,"longitude":21.017532,"reserved":0,"last_update":"0001-01-01T00:00:00Z","name_a2s":"Uncletopia | Warsaw | 4 | All Maps","protocol":17,"map":"koth_lakeside_final","folder":"tf","game":"Team Fortress","app_id":440,"player_count":0,"max_players":24,"Bots":0,"server_type":"Dedicated","server_os":"Linux","password":true,"vac":true,"version":"7757534","steam_id":85568392925397853,"keywords":["cp","nocrits","nodmgspread","uncletopia"],"game_id":440,"stv_port":27046,"stv_name":"Uncletopia | Warsaw | 4 | All Maps | STV","players":null},{"server_id":53,"name":"Uncletopia | Warsaw | 5 | Stopwatch Beta","name_short":"waw-5","host":"waw-1.pl.uncletopia.com","port":27055,"enabled":true,"region":"eu","cc":"pl","latitude":52.2297,"longitude":21.017532,"reserved":0,"last_update":"0001-01-01T00:00:00Z","name_a2s":"Uncletopia | Warsaw | 5 | Stopwatch Beta","protocol":17,"map":"pl_borneo","folder":"tf","game":"Team Fortress","app_id":440,"player_count":0,"max_players":24,"Bots":0,"server_type":"Dedicated","server_os":"Linux","password":true,"vac":true,"version":"7757534","steam_id":85568392925397854,"keywords":["nocrits","nodmgspread","payload","uncletopia"],"game_id":440,"stv_port":27056,"stv_name":"Uncletopia | Warsaw | 5 | Stopwatch Beta | STV","players":null},{"server_id":54,"name":"Uncletopia | Warsaw | 6 | Community","name_short":"waw-6","host":"waw-1.pl.uncletopia.com","port":27065,"enabled":true,"region":"eu","cc":"pl","latitude":52.2297,"longitude":21.017532,"reserved":0,"last_update":"0001-01-01T00:00:00Z","name_a2s":"Uncletopia | Warsaw | 6 | Community","protocol":17,"map":"workshop/cp_indulge.ugc528106646","folder":"tf","game":"Team Fortress","app_id":440,"player_count":0,"max_players":24,"Bots":0,"server_type":"Dedicated","server_os":"Linux","password":true,"vac":true,"version":"7757534","steam_id":85568392925397856,"keywords":["cp","nocrits","nodmgspread","uncletopia"],"game_id":440,"stv_port":27066,"stv_name":"Uncletopia | Warsaw | 6 | Community | STV","players":null}]}