{"status":true,"message":"","result":[{"server_id":9,"name":"Uncletopia | Atlanta | 1 | All Maps","name_short":"atl-1","host":"atl-1.us.uncletopia.com","port":27015,"enabled":true,"region":"us-east","cc":"us","latitude":33.753746,"longitude":-84.38633,"reserved":0,"last_update":"0001-01-01T00:00:00Z","name_a2s":"Uncletopia | Atlanta | 1 | All Maps","protocol":17,"map":"koth_viaduct","folder":"tf","game":"Team Fortress","app_id":440,"player_count":0,"max_players":24,"Bots":0,"server_type":"Dedicated","server_os":"Linux","password":true,"vac":true,"version":"7882260","steam_id":85568392924469982,"keywords":["cp","nocrits","nodmgspread","uncletopia"],"game_id":440,"stv_port":27016,"stv_name":"Uncletopia | Atlanta | 1 | All Maps | STV","players":null},{"server_id":104,"name":"Uncletopia | Atlanta | 2 | All Maps","name_short":"atl-2","host":"atl-1.us.uncletopia.com","port":27025,"enabled":true,"region":"us-east","cc":"us","latitude":33.753746,"longitude":-84.38633,"reserved":0,"last_update":"0001-01-01T00:00:00Z","name_a2s":"Uncletopia | Atlanta | 2 | All Maps","protocol":17,"map":"cp_process_final","folder":"tf","game":"Team Fortress","app_id":440,"player_count":16,"max_players":24,"Bots":0,"server_type":"Dedicated","server_os":"Linux","password":true,"vac":true,"version":"7882260","steam_id":85568392924469983,"keywords":["cp","nocrits","nodmgspread","uncletopia"],"game_id":440,"stv_port":27026,"stv_name":"Uncletopia | Atlanta | 2 | All Maps | STV","players":[{"user_id":3,"name":"Mike","steam_id":76561199482235026,"connected_time":817000000000,"state":"active","ping":60},{"user_id":19,"name":"God","steam_id":76561198131089513,"connected_time":683000000000,"state":"active","ping":68},{"user_id":27,"name":"Left4Cake","steam_id":76561197996167966,"connected_time":61000000000,"state":"active","ping":89},{"user_id":6,"name":"Mint Jelly","steam_id":76561197991286751,"connected_time":814000000000,"state":"active","ping":53},{"user_id":7,"name":"Kurayami","steam_id":76561198089630547,"connected_time":812000000000,"state":"active","ping":61},{"user_id":21,"name":"ilikecorn78","steam_id":76561198838784551,"connected_time":625000000000,"state":"active","ping":60},{"user_id":28,"name":"McSmitten","steam_id":76561198022358379,"connected_time":38000000000,"state":"spawning","ping":56},{"user_id":23,"name":"caberknight tf2  (f2p-ish)","steam_id":76561199273882768,"connected_time":542000000000,"state":"active","ping":65},{"user_id":12,"name":"VidzCMC","steam_id":76561198848142973,"connected_time":803000000000,"state":"active","ping":76},{"user_id":13,"name":"tuna","steam_id":76561199016354184,"connected_time":797000000000,"state":"active","ping":109},{"user_id":24,"name":"Meowmers","steam_id":76561197994170810,"connected_time":386000000000,"state":"active","ping":74},{"user_id":15,"name":"floofy","steam_id":76561198389769098,"connected_time":782000000000,"state":"active","ping":87},{"user_id":17,"name":"Captain_Shorts","steam_id":76561199097598023,"connected_time":748000000000,"state":"active","ping":89},{"user_id":18,"name":"24c","steam_id":76561199207457676,"connected_time":735000000000,"state":"active","ping":84},{"user_id":25,"name":"Cosmic sR","steam_id":76561198081738675,"connected_time":381000000000,"state":"active","ping":68},{"user_id":26,"name":"Salda√±a","steam_id":76561198214473001,"connected_time":183000000000,"state":"active","ping":75}]},{"server_id":400,"name":"Uncletopia | Atlanta | 3 | Community","name_short":"atl-3","host":"atl-1.us.uncletopia.com","port":27035,"enabled":true,"region":"us-east","cc":"us","latitude":33.753746,"longitude":-84.38633,"reserved":0,"last_update":"0001-01-01T00:00:00Z","name_a2s":"Uncletopia | Atlanta | 3 | Community","protocol":17,"map":"cp_sunshine","folder":"tf","game":"Team Fortress","app_id":440,"player_count":0,"max_players":24,"Bots":0,"server_type":"Dedicated","server_os":"Linux","password":true,"vac":true,"version":"7882260","steam_id":85568392924515187,"keywords":["cp","nocrits","nodmgspread","uncletopia"],"game_id":440,"stv_port":27036,"stv_name":"Uncletopia | Atlanta | 3 | Community | STV","players":null},{"server_id":401,"name":"Uncletopia | Atlanta | 4 | No Payload","name_short":"atl-4","host":"atl-1.us.uncletopia.com","port":27045,"enabled":true,"region":"us-east","cc":"us","latitude":33.753746,"longitude":-84.38633,"reserved":0,"last_update":"0001-01-01T00:00:00Z","name_a2s":"","protocol":0,"map":"","folder":"","game":"","app_id":0,"player_count":0,"max_players":0,"Bots":0,"server_type":"","server_os":"","password":false,"vac":false,"version":"","steam_id":0,"keywords":null,"game_id":0,"stv_port":0,"stv_name":"","players":null},{"server_id":2,"name":"Uncletopia | Chicago | 1 | All Maps","name_short":"chi-1","host":"chi-1.us.uncletopia.com","port":27015,"enabled":true,"region":"us-central","cc":"us","latitude":41.881832,"longitude":-87.62318,"reserved":0,"last_update":"0001-01-01T00:00:00Z","name_a2s":"Uncletopia | Chicago | 1 | All Maps","protocol":17,"map":"koth_highpass","folder":"tf","game":"Team Fortress","app_id":440,"player_count":0,"max_players":24,"Bots":0,"server_type":"Dedicated","server_os":"Linux","password":true,"vac":true,"version":"7882260","steam_id":85568392924469984,"keywords":["cp","nocrits","nodmgspread","uncletopia"],"game_id":440,"stv_port":27016,"stv_name":"Uncletopia | Chicago | 1 | All Maps | STV","players":null},{"server_id":106,"name":"Uncletopia | Chicago | 2 | All Maps","name_short":"chi-2","host":"chi-1.us.uncletopia.com","port":27025,"enabled":true,"region":"us-central","cc":"us","latitude":41.881832,"longitude":-87.62318,"reserved":0,"last_update":"0001-01-01T00:00:00Z","name_a2s":"Uncletopia | Chicago | 2 | All Maps","protocol":17,"map":"koth_viaduct","folder":"tf","game":"Team Fortress","app_id":440,"player_count":0,"max_players":24,"Bots":0,"server_type":"Dedicated","server_os":"Linux","password":true,"vac":true,"version":"7882260","steam_id":85568392924469985,"keywords":["cp","nocrits","nodmgspread","uncletopia"],"game_id":440,"stv_port":27026,"stv_name":"Uncletopia | Chicago | 2 | All Maps | STV","players":null},{"server_id":402,"name":"Uncletopia | Chicago | 3 | All Maps","name_short":"chi-3","host":"chi-1.us.uncletopia.com","port":27035,"enabled":true,"region":"us-central","cc":"us","latitude":41.881832,"longitude":-87.62318,"reserved":0,"last_update":"0001-01-01T00:00:00Z","name_a2s":"Uncletopia | Chicago | 3 | All Maps","protocol":17,"map":"ctf_2fort","folder":"tf","game":"Team Fortress","app_id":440,"player_count":0,"max_players":24,"Bots":0,"server_type":"Dedicated","server_os":"Linux","password":true,"vac":true,"version":"7882260","steam_id":85568392924515191,"keywords":["ctf","nocrits","nodmgspread","uncletopia"],"game_id":440,"stv_port":27036,"stv_name":"Uncletopia | Chicago | 3 | All Maps | STV","players":null},{"server_id":403,"name":"Uncletopia | Chicago | 4 | All Maps","name_short":"chi-4","host":"chi-1.us.uncletopia.com","port":27045,"enabled":true,"region":"us-central","cc":"us","latitude":41.881832,"longitude":-87.62318,"reserved":0,"last_update":"0001-01-01T00:00:00Z","name_a2s":"Uncletopia | Chicago | 4 | All Maps","protocol":17,"map":"cp_mountainlab","folder":"tf","game":"Team Fortress","app_id":440,"player_count":0,"max_players":24,"Bots":0,"server_type":"Dedicated","server_os":"Linux","password":true,"vac":true,"version":"7882260","steam_id":85568392924515193,"keywords":["cp","nocrits","nodmgspread","uncletopia"],"game_id":440,"stv_port":27046,"stv_name":"Uncletopia | Chicago | 4 | All Maps | STV","players":null},{"server_id":36,"name":"Uncletopia | Chicago | 5 | All Maps","name_short":"chi-5","host":"chi-2.us.uncletopia.com","port":27015,"enabled":true,"region":"us-central","cc":"us","latitude":41.881832,"longitude":-87.62318,"reserved":0,"last_update":"0001-01-01T00:00:00Z","name_a2s":"Uncletopia | Chicago | 5 | All Maps","protocol":17,"map":"cp_snakewater_final1","folder":"tf","game":"Team Fortress","app_id":440,"player_count":0,"max_players":24,"Bots":0,"server_type":"Dedicated","server_os":"Linux","password":true,"vac":true,"version":"7882260","steam_id":85568392924866362,"keywords":["cp","nocrits","nodmgspread","uncletopia"],"game_id":440,"stv_port":27016,"stv_name":"Uncletopia | Chicago | 5 | All Maps | STV","players":null},{"server_id":37,"name":"Uncletopia | Chicago | 6 | All Maps","name_short":"chi-6","host":"chi-2.us.uncletopia.com","port":27025,"enabled":true,"region":"us-central","cc":"us","latitude":41.881832,"longitude":-87.62318,"reserved":0,"last_update":"0001-01-01T00:00:00Z","name_a2s":"Uncletopia | Chicago | 6 | All Maps","protocol":17,"map":"pl_upward","folder":"tf","game":"Team Fortress","app_id":440,"player_count":0,"max_players":24,"Bots":0,"server_type":"Dedicated","server_os":"Linux","password":true,"vac":true,"version":"7882260","steam_id":85568392924866363,"keywords":["nocrits","nodmgspread","payload","uncletopia"],"game_id":440,"stv_port":27026,"stv_name":"Uncletopia | Chicago | 6 | All Maps | STV","players":null},{"server_id":38,"name":"Uncletopia | Chicago | 7 | Stopwatch Beta","name_short":"chi-7","host":"chi-2.us.uncletopia.com","port":27035,"enabled":true,"region":"us-central","cc":"us","latitude":41.881832,"longitude":-87.62318,"reserved":0,"last_update":"0001-01-01T00:00:00Z","name_a2s":"Uncletopia | Chicago | 7 | Stopwatch Beta","protocol":17,"map":"pl_swiftwater_final1","folder":"tf","game":"Team Fortress","app_id":440,"player_count":0,"max_players":24,"Bots":0,"server_type":"Dedicated","server_os":"Linux","password":true,"vac":true,"version":"7882260","steam_id":85568392924866364,"keywords":["nocrits","nodmgspread","payload","uncletopia"],"game_id":440,"stv_port":27036,"stv_name":"Uncletopia | Chicago | 7 | Stopwatch Beta | STV","players":null},{"server_id":39,"name":"Uncletopia | Chicago | 8 | Community","name_short":"chi-8","host":"chi-2.us.uncletopia.com","port":27045,"enabled":true,"region":"us-central","cc":"us","latitude":41.881832,"longitude":-87.62318,"reserved":0,"last_update":"0001-01-01T00:00:00Z","name_a2s":"Uncletopia | Chicago | 8 | Community","protocol":17,"map":"workshop/cp_caldera_rc2.ugc2834196889","folder":"tf","game":"Team Fortress","app_id":440,"player_count":0,"max_players":24,"Bots":0,"server_type":"Dedicated","server_os":"Linux","password":true,"vac":true,"version":"7882260","steam_id":85568392924866365,"keywords":["cp","nocrits","nodmgspread","uncletopia"],"game_id":440,"stv_port":27046,"stv_name":"Uncletopia | Chicago | 8 | Community | STV","players":null},{"server_id":8,"name":"Uncletopia | Dallas | 1 | All Maps","name_short":"dal-1","host":"dal-1.us.uncletopia.com","port":27015,"enabled":true,"region":"us-central","cc":"us","latitude":32.779167,"longitude":-96.80889,"reserved":0,"last_update":"0001-01-01T00:00:00Z","name_a2s":"Uncletopia | Dallas | 1 | All Maps","protocol":17,"map":"cp_process_final","folder":"tf","game":"Team Fortress","app_id":440,"player_count":0,"max_players":24,"Bots":0,"server_type":"Dedicated","server_os":"Linux","password":true,"vac":true,"version":"7882260","steam_id":85568392924469986,"keywords":["cp","nocrits","nodmgspread","uncletopia"],"game_id":440,"stv_port":27016,"stv_name":"Uncletopia | Dallas | 1 | All Maps | STV","players":null},{"server_id":108,"name":"Uncletopia | Dallas | 2 | All Maps","name_short":"dal-2","host":"dal-1.us.uncletopia.com","port":27025,"enabled":true,"region":"us-central","cc":"us","latitude":32.779167,"longitude":-96.80889,"reserved":0,"last_update":"0001-01-01T00:00:00Z","name_a2s":"Uncletopia | Dallas | 2 | All Maps","protocol":17,"map":"cp_sunshine","folder":"tf","game":"Team Fortress","app_id":440,"player_count":0,"max_players":24,"Bots":0,"server_type":"Dedicated","server_os":"Linux","password":true,"vac":true,"version":"7882260","steam_id":85568392924469988,"keywords":["cp","nocrits","nodmgspread","uncletopia"],"game_id":440,"stv_port":27026,"stv_name":"Uncletopia | Dallas | 2 | All Maps | STV","players":null},{"server_id":5,"name":"Uncletopia | Frankfurt | 1 | All Maps","name_short":"frk-1","host":"frk-1.de.uncletopia.com","port":27015,"enabled":true,"region":"eu","cc":"de","latitude":50.110924,"longitude":8.682127,"reserved":0,"last_update":"0001-01-01T00:00:00Z","name_a2s":"Uncletopia | Frankfurt | 1 | All Maps","protocol":17,"map":"pl_badwater","folder":"tf","game":"Team Fortress","app_id":440,"player_count":0,"max_players":24,"Bots":0,"server_type":"Dedicated","server_os":"Linux","password":true,"vac":true,"version":"7882260","steam_id":85568392924469989,"keywords":["nocrits","nodmgspread","payload","uncletopia"],"game_id":440,"stv_port":27016,"stv_name":"Uncletopia | Frankfurt | 1 | All Maps | STV","players":null},{"server_id":110,"name":"Uncletopia | Frankfurt | 2 | All Maps","name_short":"frk-2","host":"frk-1.de.uncletopia.com","port":27025,"enabled":true,"region":"eu","cc":"de","latitude":50.110924,"longitude":8.682127,"reserved":0,"last_update":"0001-01-01T00:00:00Z","name_a2s":"Uncletopia | Frankfurt | 2 | All Maps","protocol":17,"map":"pl_barnblitz","folder":"tf","game":"Team Fortress","app_id":440,"player_count":24,"max_players":24,"Bots":0,"server_type":"Dedicated","server_os":"Linux","password":true,"vac":true,"version":"7882260","steam_id":85568392924469990,"keywords":["nocrits","nodmgspread","payload","uncletopia"],"game_id":440,"stv_port":27026,"stv_name":"Uncletopia | Frankfurt | 2 | All Maps | STV","players":[{"user_id":87,"name":"DragonFruit","steam_id":76561198099526623,"connected_time":11000000000,"state":"spawning","ping":72},{"user_id":40,"name":"MooGoesCow","steam_id":76561199441528448,"connected_time":4476000000000,"state":"active","ping":70},{"user_id":57,"name":"leminsc8","steam_id":76561198825084995,"connected_time":2057000000000,"state":"active","ping":44},{"user_id":44,"name":"Rin-Nakaret","steam_id":76561197971051188,"connected_time":4073000000000,"state":"active","ping":65},{"user_id":86,"name":"Guru","steam_id":76561198093853069,"connected_time":133000000000,"state":"active","ping":59},{"user_id":45,"name":"Mayor Wank from Wanker Town","steam_id":76561197998253588,"connected_time":4051000000000,"state":"active","ping":45},{"user_id":59,"name":"Truegr","steam_id":76561198811912339,"connected_time":1988000000000,"state":"active","ping":65},{"user_id":70,"name":"kavun","steam_id":76561198023461869,"connected_time":1488000000000,"state":"active","ping":80},{"user_id":64,"name":"lulu","steam_id":76561199147764133,"connected_time":1757000000000,"state":"active","ping":71},{"user_id":83,"name":"betonomeshalka","steam_id":76561198304548337,"connected_time":403000000000,"state":"active","ping":97},{"user_id":77,"name":"lacurio","steam_id":76561198059701776,"connected_time":855000000000,"state":"active","ping":46},{"user_id":63,"name":"koko","steam_id":76561198953867666,"connected_time":1794000000000,"state":"active","ping":58},{"user_id":31,"name":"Umbro","steam_id":76561198087930438,"connected_time":4797000000000,"state":"active","ping":74},{"user_id":65,"name":"‚ô• Cirno ‚ô•","steam_id":76561198834982738,"connected_time":1749000000000,"state":"active","ping":68},{"user_id":71,"name":"kipod616","steam_id":76561198431183777,"connected_time":1384000000000,"state":"active","ping":108},{"user_id":72,"name":"JohaTG","steam_id":76561198804468284,"connected_time":1328000000000,"state":"active","ping":59},{"user_id":74,"name":"Nazar Co.","steam_id":76561198804931016,"connected_time":1231000000000,"state":"active","ping":59},{"user_id":81,"name":"Stoat","steam_id":76561199382596019,"connected_time":680000000000,"state":"active","ping":107},{"user_id":34,"name":"InfamousAxe","steam_id":76561198099504739,"connected_time":4697000000000,"state":"active","ping":112},{"user_id":78,"name":"sertraline","steam_id":76561198055626638,"connected_time":839000000000,"state":"active","ping":160},{"user_id":68,"name":"Eco","steam_id":76561199201938256,"connected_time":1566000000000,"state":"active","ping":104},{"user_id":76,"name":"Vsadnik","steam_id":76561198051858118,"connected_time":1095000000000,"state":"active","ping":110},{"user_id":38,"name":"volkiano","steam_id":76561198319802031,"connected_time":4652000000000,"state":"active","ping":70},{"user_id":85,"name":"bartvanm","steam_id":76561198048553676,"connected_time":187000000000,"state":"active","ping":60}]},{"server_id":308,"name":"Uncletopia | Frankfurt | 3 | All Maps","name_short":"frk-3","host":"frk-1.de.uncletopia.com","port":27035,"enabled":true,"region":"eu","cc":"de","latitude":50.110924,"longitude":8.682127,"reserved":0,"last_update":"0001-01-01T00:00:00Z","name_a2s":"Uncletopia | Frankfurt | 3 | All Maps","protocol":17,"map":"pl_pier","folder":"tf","game":"Team Fortress","app_id":440,"player_count":24,"max_players":24,"Bots":0,"server_type":"Dedicated","server_os":"Linux","password":true,"vac":true,"version":"7882260","steam_id":85568392924504274,"keywords":["nocrits","nodmgspread","payload","uncletopia"],"game_id":440,"stv_port":27036,"stv_name":"Uncletopia | Frankfurt | 3 | All Maps | STV","players":[{"user_id":4,"name":"Kover","steam_id":76561198041945279,"connected_time":6563000000000,"state":"active","ping":138},{"user_id":195,"name":"Amolxox","steam_id":76561198383645320,"connected_time":680000000000,"state":"active","ping":117},{"user_id":53,"name":"Balamitai","steam_id":76561198167242768,"connected_time":2844000000000,"state":"active","ping":97},{"user_id":7,"name":"Novodnik","steam_id":76561198284477007,"connected_time":6482000000000,"state":"active","ping":98},{"user_id":60,"name":"AlCore","steam_id":76561198026770706,"connected_time":2754000000000,"state":"active","ping":76},{"user_id":125,"name":"Noarox","steam_id":76561198445894041,"connected_time":1964000000000,"state":"active","ping":124},{"user_id":54,"name":"‚ú™ Def0lt","steam_id":76561198149058840,"connected_time":2844000000000,"state":"active","ping":99},{"user_id":49,"name":"‚ô£ Reimund ‚ô£","steam_id":76561198200720198,"connected_time":2977000000000,"state":"active","ping":149},{"user_id":64,"name":"VikNamin","steam_id":76561198189165197,"connected_time":2525000000000,"state":"active","ping":129},{"user_id":35,"name":"Weksel","steam_id":76561198082750604,"connected_time":4959000000000,"state":"active","ping":110},{"user_id":157,"name":"ctakan_c_vodoi","steam_id":76561198797089730,"connected_time":1548000000000,"state":"active","ping":127},{"user_id":181,"name":"DynamiteGamer","steam_id":76561198264369786,"connected_time":975000000000,"state":"active","ping":92},{"user_id":233,"name":"Smorkface","steam_id":76561198045066985,"connected_time":122000000000,"state":"active","ping":57},{"user_id":42,"name":"Gostaf1708","steam_id":76561198215339689,"connected_time":4040000000000,"state":"active","ping":93},{"user_id":182,"name":"T0RTiK","steam_id":76561198118138601,"connected_time":968000000000,"state":"active","ping":78},{"user_id":127,"name":"BiPski","steam_id":76561198137982885,"connected_time":1952000000000,"state":"active","ping":83},{"user_id":32,"name":"Epic","steam_id":76561198204660507,"connected_time":5685000000000,"state":"active","ping":75},{"user_id":224,"name":"Maximus","steam_id":76561198032472655,"connected_time":408000000000,"state":"active","ping":60},{"user_id":136,"name":"Zed_Grossholtz","steam_id":76561198064222117,"connected_time":1849000000000,"state":"active","ping":105},{"user_id":176,"name":"Leibeigener","steam_id":76561199275478305,"connected_time":1014000000000,"state":"active","ping":36},{"user_id":26,"name":"Gangster","steam_id":76561198063183852,"connected_time":6207000000000,"state":"active","ping":108},{"user_id":73,"name":"Deda Tochigi","steam_id":76561198003742366,"connected_time":2386000000000,"state":"active","ping":151},{"user_id":37,"name":"DEADPOOL","steam_id":76561198173440537,"connected_time":4701000000000,"state":"active","ping":136},{"user_id":33,"name":"Fibi","steam_id":76561198021165754,"connected_time":5500000000000,"state":"active","ping":89}]},{"server_id":309,"name":"Uncletopia | Frankfurt | 4 | All Maps","name_short":"frk-4","host":"frk-1.de.uncletopia.com","port":27045,"enabled":true,"region":"eu","cc":"de","latitude":50.110924,"longitude":8.682127,"reserved":0,"last_update":"0001-01-01T00:00:00Z","name_a2s":"Uncletopia | Frankfurt | 4 | All Maps","protocol":17,"map":"cp_dustbowl","folder":"tf","game":"Team Fortress","app_id":440,"player_count":0,"max_players":24,"Bots":0,"server_type":"Dedicated","server_os":"Linux","password":true,"vac":true,"version":"7882260","steam_id":85568392924504275,"keywords":["cp","nocrits","nodmgspread","uncletopia"],"game_id":440,"stv_port":27046,"stv_name":"Uncletopia | Frankfurt | 4 | All Maps | STV","players":null},{"server_id":310,"name":"Uncletopia | Frankfurt | 5 | All Maps","name_short":"frk-5","host":"frk-1.de.uncletopia.com","port":27055,"enabled":true,"region":"eu","cc":"de","latitude":50.110924,"longitude":8.682127,"reserved":0,"last_update":"0001-01-01T00:00:00Z","name_a2s":"Uncletopia | Frankfurt | 5 | All Maps","protocol":17,"map":"cp_mountainlab","folder":"tf","game":"Team Fortress","app_id":440,"player_count":0,"max_players":24,"Bots":0,"server_type":"Dedicated","server_os":"Linux","password":true,"vac":true,"version":"7882260","steam_id":85568392924504277,"keywords":["cp","nocrits","nodmgspread","uncletopia"],"game_id":440,"stv_port":27056,"stv_name":"Uncletopia | Frankfurt | 5 | All Maps | STV","players":null},{"server_id":311,"name":"Uncletopia | Frankfurt | 6 | All Maps","name_short":"frk-6","host":"frk-1.de.uncletopia.com","port":27065,"enabled":true,"region":"eu","cc":"de","latitude":50.110924,"longitude":8.682127,"reserved":0,"last_update":"0001-01-01T00:00:00Z","name_a2s":"Uncletopia | Frankfurt | 6 | All Maps","protocol":17,"map":"pl_badwater","folder":"tf","game":"Team Fortress","app_id":440,"player_count":0,"max_players":24,"Bots":0,"server_type":"Dedicated","server_os":"Linux","password":true,"vac":true,"version":"7882260","steam_id":85568392924504278,"keywords":["nocrits","nodmgspread","payload","uncletopia"],"game_id":440,"stv_port":27066,"stv_name":"Uncletopia | Frankfurt | 6 | All Maps | STV","players":null},{"server_id":23,"name":"Uncletopia | Frankfurt | 7 | Stopwatch Beta","name_short":"frk-7","host":"frk-1.de.uncletopia.com","port":27075,"enabled":true,"region":"eu","cc":"de","latitude":50.110924,"longitude":8.682127,"reserved":0,"last_update":"0001-01-01T00:00:00Z","name_a2s":"Uncletopia | Frankfurt | 7 | Stopwatch Beta","protocol":17,"map":"cp_dustbowl","folder":"tf","game":"Team Fortress","app_id":440,"player_count":0,"max_players":24,"Bots":0,"server_type":"Dedicated","server_os":"Linux","password":true,"vac":true,"version":"7882260","steam_id":85568392924742827,"keywords":["cp","nocrits","nodmgspread","uncletopia"],"game_id":440,"stv_port":27076,"stv_name":"Uncletopia | Frankfurt | 7 | Stopwatch Beta | STV","players":null},{"server_id":24,"name":"Uncletopia | Frankfurt | 8 | Community","name_short":"frk-8","host":"frk-1.de.uncletopia.com","port":27085,"enabled":true,"region":"eu","cc":"de","latitude":50.110924,"longitude":8.682127,"reserved":0,"last_update":"0001-01-01T00:00:00Z","name_a2s":"Uncletopia | Frankfurt | 8 | Community","protocol":17,"map":"koth_cascade","folder":"tf","game":"Team Fortress","app_id":440,"player_count":0,"max_players":24,"Bots":0,"server_type":"Dedicated","server_os":"Linux","password":true,"vac":true,"version":"7882260","steam_id":85568392924742828,"keywords":["cp","nocrits","nodmgspread","uncletopia"],"game_id":440,"stv_port":27086,"stv_name":"Uncletopia | Frankfurt | 8 | Community | STV","players":null},{"server_id":202,"name":"Uncletopia | Hong Kong | 1 | All Maps","name_short":"hgk-1","host":"hgk-1.hk.uncletopia.com","port":27015,"enabled":true,"region":"asia","cc":"hk","latitude":22.302711,"longitude":114.177216,"reserved":0,"last_update":"0001-01-01T00:00:00Z","name_a2s":"Uncletopia | Hong Kong | 1 | All Maps","protocol":17,"map":"pl_pier","folder":"tf","game":"Team Fortress","app_id":440,"player_count":24,"max_players":24,"Bots":0,"server_type":"Dedicated","server_os":"Linux","password":true,"vac":true,"version":"7882260","steam_id":85568392924494504,"keywords":["nocrits","nodmgspread","payload","uncletopia"],"game_id":440,"stv_port":27016,"stv_name":"Uncletopia | Hong Kong | 1 | All Maps | STV","players":[{"user_id":34,"name":"killman47","steam_id":76561198348487408,"connected_time":5699000000000,"state":"active","ping":41},{"user_id":74,"name":"junbi OK","steam_id":76561198116387218,"connected_time":3218000000000,"state":"active","ping":90},{"user_id":75,"name":"greenyy","steam_id":76561198024666371,"connected_time":2526000000000,"state":"active","ping":75},{"user_id":59,"name":"Teampangit","steam_id":76561198087774626,"connected_time":4431000000000,"state":"active","ping":126},{"user_id":81,"name":"ObscuroLucem","steam_id":76561198875037943,"connected_time":2132000000000,"state":"active","ping":78},{"user_id":25,"name":"Kozupy","steam_id":76561198404352831,"connected_time":6540000000000,"state":"active","ping":72},{"user_id":88,"name":"Wx","steam_id":76561199217780897,"connected_time":1450000000000,"state":"active","ping":123},{"user_id":67,"name":"\"SKS\"","steam_id":76561198187995386,"connected_time":3804000000000,"state":"active","ping":88},{"user_id":92,"name":"17","steam_id":76561198241530712,"connected_time":981000000000,"state":"active","ping":59},{"user_id":77,"name":"Puddin","steam_id":76561198140052918,"connected_time":2502000000000,"state":"active","ping":98},{"user_id":42,"name":"Noyour","steam_id":76561198323259830,"connected_time":5141000000000,"state":"active","ping":108},{"user_id":66,"name":"Momoxhien","steam_id":76561198414997429,"connected_time":3826000000000,"state":"active","ping":61},{"user_id":80,"name":"Longst01","steam_id":76561199170105562,"connected_time":2381000000000,"state":"active","ping":62},{"user_id":45,"name":"water tastes good","steam_id":76561199375947670,"connected_time":4873000000000,"state":"active","ping":70},{"user_id":89,"name":"bushman beepost (deezers)","steam_id":76561199199118750,"connected_time":1403000000000,"state":"active","ping":92},{"user_id":90,"name":"Nonexistent","steam_id":76561198980563251,"connected_time":1372000000000,"state":"active","ping":83},{"user_id":62,"name":"instant karma","steam_id":76561198027307933,"connected_time":4079000000000,"state":"active","ping":54},{"user_id":79,"name":"Milf (The fan O'Milk)","steam_id":76561198213031155,"connected_time":2441000000000,"state":"active","ping":101},{"user_id":73,"name":"screaming sniper","steam_id":76561199085568674,"connected_time":3560000000000,"state":"active","ping":62},{"user_id":54,"name":"Cazurey","steam_id":76561198005403459,"connected_time":4597000000000,"state":"active","ping":71},{"user_id":55,"name":"TheChainsaw","steam_id":76561198312001455,"connected_time":4589000000000,"state":"active","ping":115},{"user_id":56,"name":"‡πã","steam_id":76561198413116920,"connected_time":4543000000000,"state":"active","ping":89},{"user_id":93,"name":"Kyo","steam_id":76561198088550274,"connected_time":653000000000,"state":"active","ping":44},{"user_id":87,"name":"urotsuki with da doobie","steam_id":76561198074339034,"connected_time":1503000000000,"state":"active","ping":78}]},{"server_id":1,"name":"Uncletopia | Los Angeles | 1 | All Maps","name_short":"lax-1","host":"lax-1.us.uncletopia.com","port":27015,"enabled":true,"region":"us-west","cc":"us","latitude":33.94279,"longitude":-118.41004,"reserved":0,"last_update":"0001-01-01T00:00:00Z","name_a2s":"Uncletopia | Los Angeles | 1 | All Maps","protocol":17,"map":"cp_mountainlab","folder":"tf","game":"Team Fortress","app_id":440,"player_count":0,"max_players":24,"Bots":0,"server_type":"Dedicated","server_os":"Linux","password":true,"vac":true,"version":"7882260","steam_id":85568392924469991,"keywords":["cp","nocrits","nodmgspread","uncletopia"],"game_id":440,"stv_port":27016,"stv_name":"Uncletopia | Los Angeles | 1 | All Maps | STV","players":null},{"server_id":112,"name":"Uncletopia | Los Angeles | 2 | All Maps","name_short":"lax-2","host":"lax-1.us.uncletopia.com","port":27025,"enabled":true,"region":"us-west","cc":"us","latitude":33.94279,"longitude":-118.41004,"reserved":0,"last_update":"0001-01-01T00:00:00Z","name_a2s":"Uncletopia | Los Angeles | 2 | All Maps","protocol":17,"map":"cp_gorge","folder":"tf","game":"Team Fortress","app_id":440,"player_count":21,"max_players":24,"Bots":0,"server_type":"Dedicated","server_os":"Linux","password":true,"vac":true,"version":"7882260","steam_id":85568392924469992,"keywords":["cp","nocrits","nodmgspread","uncletopia"],"game_id":440,"stv_port":27026,"stv_name":"Uncletopia | Los Angeles | 2 | All Maps | STV","players":[{"user_id":383,"name":"FrogInShorts","steam_id":76561198081903213,"connected_time":1162000000000,"state":"active","ping":120},{"user_id":318,"name":"Ôº≥Ôº¨Ôº∂Ôº¥Ôº£Ôº®Ôº°Ôº≠Ôº∞","steam_id":76561198883157736,"connected_time":7696000000000,"state":"active","ping":104},{"user_id":384,"name":"Nekro Kitty","steam_id":76561198025054596,"connected_time":1135000000000,"state":"active","ping":92},{"user_id":385,"name":"Butthole Surfer","steam_id":76561198020526407,"connected_time":902000000000,"state":"active","ping":85},{"user_id":391,"name":"Headmouth","steam_id":76561198019789855,"connected_time":479000000000,"state":"active","ping":178},{"user_id":396,"name":"BuncusBeffer","steam_id":76561198285936616,"connected_time":332000000000,"state":"active","ping":68},{"user_id":395,"name":"Puskinti","steam_id":76561198032120688,"connected_time":373000000000,"state":"active","ping":82},{"user_id":286,"name":"BadTad","steam_id":76561198947252709,"connected_time":11747000000000,"state":"active","ping":55},{"user_id":386,"name":"Bubblegum Bitch","steam_id":76561198043307965,"connected_time":871000000000,"state":"active","ping":74},{"user_id":387,"name":"Gm_Trash","steam_id":76561199445091548,"connected_time":864000000000,"state":"active","ping":70},{"user_id":399,"name":"morosanuRO","steam_id":76561199003522962,"connected_time":38000000000,"state":"active","ping":236},{"user_id":368,"name":"Slime Burgerüß™üçî","steam_id":76561198046162123,"connected_time":3293000000000,"state":"active","ping":69},{"user_id":388,"name":"Duane","steam_id":76561198078392272,"connected_time":835000000000,"state":"active","ping":63},{"user_id":367,"name":"Cogbj√∂rn","steam_id":76561198305487648,"connected_time":3422000000000,"state":"active","ping":100},{"user_id":398,"name":"spider_murphy","steam_id":76561198079057101,"connected_time":193000000000,"state":"active","ping":83},{"user_id":390,"name":"sans","steam_id":76561198859444420,"connected_time":655000000000,"state":"active","ping":66},{"user_id":374,"name":"cracky","steam_id":76561197971365444,"connected_time":2804000000000,"state":"active","ping":77},{"user_id":379,"name":"‚ù§[Pinkie]‚ù§","steam_id":76561198817361963,"connected_time":2246000000000,"state":"active","ping":74},{"user_id":392,"name":"i like soldier's tits","steam_id":76561198163164053,"connected_time":477000000000,"state":"active","ping":149},{"user_id":380,"name":"Sir Loincloth","steam_id":76561198033073991,"connected_time":2066000000000,"state":"active","ping":92},{"user_id":381,"name":"Pylori","steam_id":76561197993858197,"connected_time":2046000000000,"state":"active","ping":185}]},{"server_id":324,"name":"Uncletopia | Los Angeles | 3 | All Maps","name_short":"lax-3","host":"lax-1.us.uncletopia.com","port":27035,"enabled":true,"region":"us-west","cc":"us","latitude":33.94279,"longitude":-118.41004,"reserved":0,"last_update":"0001-01-01T00:00:00Z","name_a2s":"Uncletopia | Los Angeles | 3 | All Maps","protocol":17,"map":"pl_badwater","folder":"tf","game":"Team Fortress","app_id":440,"player_count":23,"max_players":24,"Bots":0,"server_type":"Dedicated","server_os":"Linux","password":true,"vac":true,"version":"7882260","steam_id":85568392924510198,"keywords":["nocrits","nodmgspread","payload","uncletopia"],"game_id":440,"stv_port":27036,"stv_name":"Uncletopia | Los Angeles | 3 | All Maps | STV","players":[{"user_id":380,"name":"Dingus","steam_id":76561198091720598,"connected_time":8361000000000,"state":"active","ping":59},{"user_id":443,"name":"BuddyOnline","steam_id":76561198368251143,"connected_time":3885000000000,"state":"active","ping":47},{"user_id":452,"name":"pope4tw","steam_id":76561199174282651,"connected_time":2680000000000,"state":"active","ping":85},{"user_id":454,"name":"Saggle","steam_id":76561198056075147,"connected_time":2530000000000,"state":"active","ping":186},{"user_id":465,"name":"Larkaldi","steam_id":76561198029668456,"connected_time":1497000000000,"state":"active","ping":96},{"user_id":484,"name":"I'm busy bee worker","steam_id":76561198329680103,"connected_time":48000000000,"state":"active","ping":114},{"user_id":468,"name":"turtle head erection","steam_id":76561197961396512,"connected_time":1240000000000,"state":"active","ping":46},{"user_id":438,"name":"MrChaosOK","steam_id":76561197976353083,"connected_time":4371000000000,"state":"active","ping":71},{"user_id":469,"name":"Sleuth","steam_id":76561198418288939,"connected_time":1188000000000,"state":"active","ping":64},{"user_id":475,"name":"Hendekka","steam_id":76561198091386392,"connected_time":957000000000,"state":"active","ping":69},{"user_id":478,"name":"Pie","steam_id":76561198054721133,"connected_time":804000000000,"state":"active","ping":48},{"user_id":476,"name":"sheep gf (real)","steam_id":76561198068189558,"connected_time":939000000000,"state":"active","ping":52},{"user_id":449,"name":"h","steam_id":76561198018682812,"connected_time":2961000000000,"state":"active","ping":41},{"user_id":472,"name":"sweaterfan","steam_id":76561199389567214,"connected_time":1069000000000,"state":"active","ping":92},{"user_id":477,"name":"Soozy420","steam_id":76561198809074422,"connected_time":840000000000,"state":"active","ping":44},{"user_id":459,"name":"LaserDog","steam_id":76561199088111891,"connected_time":1998000000000,"state":"active","ping":70},{"user_id":473,"name":"Nix","steam_id":76561198119293490,"connected_time":1069000000000,"state":"active","ping":92},{"user_id":482,"name":"Bungallo Bill","steam_id":76561199233342167,"connected_time":302000000000,"state":"active","ping":126},{"user_id":480,"name":"Flex Pexico","steam_id":76561198041838930,"connected_time":758000000000,"state":"active","ping":68},{"user_id":464,"name":"Gruntic","steam_id":76561198170396647,"connected_time":1531000000000,"state":"active","ping":60},{"user_id":481,"name":"soupy","steam_id":76561197974283797,"connected_time":691000000000,"state":"active","ping":92},{"user_id":429,"name":"anna","steam_id":76561198881665250,"connected_time":5135000000000,"state":"active","ping":73},{"user_id":466,"name":"Callahan","steam_id":76561197976928457,"connected_time":1486000000000,"state":"active","ping":78}]},{"server_id":25,"name":"Uncletopia | Los Angeles | 4 | Stopwatch Beta","name_short":"lax-4","host":"lax-1.us.uncletopia.com","port":27045,"enabled":true,"region":"us-west","cc":"us","latitude":33.94279,"longitude":-118.41004,"reserved":0,"last_update":"0001-01-01T00:00:00Z","name_a2s":"Uncletopia | Los Angeles | 4 | Stopwatch Beta","protocol":17,"map":"koth_lakeside_final","folder":"tf","game":"Team Fortress","app_id":440,"player_count":0,"max_players":24,"Bots":0,"server_type":"Dedicated","server_os":"Linux","password":true,"vac":true,"version":"7882260","steam_id":85568392924510199,"keywords":["cp","nocrits","nodmgspread","uncletopia"],"game_id":440,"stv_port":27046,"stv_name":"Uncletopia | Los Angeles | 4 | Stopwatch Beta | STV","players":null},{"server_id":11,"name":"Uncletopia | London | 1 | All Maps","name_short":"lon-1","host":"lon-1.uk.uncletopia.com","port":27015,"enabled":true,"region":"eu","cc":"gb","latitude":51.509865,"longitude":-0.118092,"reserved":0,"last_update":"0001-01-01T00:00:00Z","name_a2s":"Uncletopia | London | 1 | All Maps","protocol":17,"map":"pl_badwater","folder":"tf","game":"Team Fortress","app_id":440,"player_count":15,"max_players":24,"Bots":0,"server_type":"Dedicated","server_os":"Linux","password":true,"vac":true,"version":"7882260","steam_id":85568392924367362,"keywords":["nocrits","nodmgspread","payload","uncletopia"],"game_id":440,"stv_port":27016,"stv_name":"Uncletopia | London | 1 | All Maps | STV","players":[{"user_id":185,"name":"Vic maher","steam_id":76561198097523768,"connected_time":599000000000,"state":"active","ping":71},{"user_id":149,"name":"Mr_Pulse_","steam_id":76561198095001602,"connected_time":3824000000000,"state":"active","ping":111},{"user_id":200,"name":"NitPig","steam_id":76561198212991935,"connected_time":74000000000,"state":"active","ping":163},{"user_id":171,"name":"Scarlet","steam_id":76561198075966579,"connected_time":2300000000000,"state":"active","ping":36},{"user_id":198,"name":"844box","steam_id":76561198368131280,"connected_time":101000000000,"state":"active","ping":101},{"user_id":196,"name":"dafydd","steam_id":76561198052200325,"connected_time":219000000000,"state":"active","ping":90},{"user_id":151,"name":"AidenQG","steam_id":76561198864678536,"connected_time":3811000000000,"state":"active","ping":63},{"user_id":143,"name":"slightly drunk","steam_id":76561199184873889,"connected_time":4407000000000,"state":"active","ping":61},{"user_id":190,"name":"xXtentioncableXx","steam_id":76561198082814549,"connected_time":326000000000,"state":"active","ping":84},{"user_id":179,"name":"‚ú™ qua ‚ú™","steam_id":76561198066408333,"connected_time":1129000000000,"state":"active","ping":75},{"user_id":184,"name":"9styne","steam_id":76561199108350967,"connected_time":757000000000,"state":"active","ping":50},{"user_id":192,"name":"Dio","steam_id":76561198117685434,"connected_time":307000000000,"state":"active","ping":85},{"user_id":194,"name":"RIFT","steam_id":76561198991622379,"connected_time":302000000000,"state":"active","ping":37},{"user_id":197,"name":"blob","steam_id":76561199119354663,"connected_time":177000000000,"state":"active","ping":54},{"user_id":181,"name":"Delirious.Driver.1860","steam_id":76561198305805743,"connected_time":1061000000000,"state":"active","ping":57}]},{"server_id":114,"name":"Uncletopia | London | 2 | All Maps","name_short":"lon-2","host":"lon-1.uk.uncletopia.com","port":27025,"enabled":true,"region":"eu","cc":"gb","latitude":51.509865,"longitude":-0.118092,"reserved":0,"last_update":"0001-01-01T00:00:00Z","name_a2s":"Uncletopia | London | 2 | All Maps","protocol":17,"map":"pl_swiftwater_final1","folder":"tf","game":"Team Fortress","app_id":440,"player_count":0,"max_players":24,"Bots":0,"server_type":"Dedicated","server_os":"Linux","password":true,"vac":true,"version":"7882260","steam_id":85568392924470941,"keywords":["nocrits","nodmgspread","payload","uncletopia"],"game_id":440,"stv_port":27026,"stv_name":"Uncletopia | London | 2 | All Maps | STV","players":null},{"server_id":320,"name":"Uncletopia | London | 3 | All Maps","name_short":"lon-3","host":"lon-1.uk.uncletopia.com","port":27035,"enabled":true,"region":"eu","cc":"gb","latitude":51.509865,"longitude":-0.118092,"reserved":0,"last_update":"0001-01-01T00:00:00Z","name_a2s":"Uncletopia | London | 3 | All Maps","protocol":17,"map":"koth_highpass","folder":"tf","game":"Team Fortress","app_id":440,"player_count":0,"max_players":24,"Bots":0,"server_type":"Dedicated","server_os":"Linux","password":true,"vac":true,"version":"7882260","steam_id":85568392924510192,"keywords":["cp","nocrits","nodmgspread","uncletopia"],"game_id":440,"stv_port":27036,"stv_name":"Uncletopia | London | 3 | All Maps | STV","players":null},{"server_id":321,"name":"Uncletopia | London | 4 | All Maps","name_short":"lon-4","host":"lon-1.uk.uncletopia.com","port":27045,"enabled":true,"region":"eu","cc":"gb","latitude":51.509865,"longitude":-0.118092,"reserved":0,"last_update":"0001-01-01T00:00:00Z","name_a2s":"Uncletopia | London | 4 | All Maps","protocol":17,"map":"pl_borneo","folder":"tf","game":"Team Fortress","app_id":440,"player_count":24,"max_players":24,"Bots":0,"server_type":"Dedicated","server_os":"Linux","password":true,"vac":true,"version":"7882260","steam_id":85568392924510193,"keywords":["nocrits","nodmgspread","payload","uncletopia"],"game_id":440,"stv_port":27046,"stv_name":"Uncletopia | London | 4 | All Maps | STV","players":[{"user_id":67,"name":"Ankle Dane","steam_id":76561198134378108,"connected_time":335000000000,"state":"active","ping":77},{"user_id":65,"name":"Panique","steam_id":76561197993239675,"connected_time":538000000000,"state":"active","ping":55},{"user_id":32,"name":"Tea","steam_id":76561198061580505,"connected_time":2375000000000,"state":"active","ping":46},{"user_id":61,"name":"KONT","steam_id":76561198986060392,"connected_time":897000000000,"state":"active","ping":51},{"user_id":45,"name":"whyamialive","steam_id":76561199070008862,"connected_time":1777000000000,"state":"active","ping":39},{"user_id":62,"name":"Philosophos_Alpha","steam_id":76561198951264580,"connected_time":857000000000,"state":"active","ping":88},{"user_id":49,"name":"jebi2russ","steam_id":76561198007814132,"connected_time":1603000000000,"state":"active","ping":105},{"user_id":56,"name":"MFA [pt]","steam_id":76561198021950957,"connected_time":1069000000000,"state":"active","ping":75},{"user_id":52,"name":"robsan","steam_id":76561198137375391,"connected_time":1189000000000,"state":"active","ping":88},{"user_id":70,"name":"ScaryTree","steam_id":76561199384362833,"connected_time":252000000000,"state":"active","ping":51},{"user_id":41,"name":"ricky pee pee","steam_id":76561198152620745,"connected_time":1910000000000,"state":"active","ping":58},{"user_id":66,"name":"slippery","steam_id":76561198860332998,"connected_time":417000000000,"state":"active","ping":77},{"user_id":48,"name":"no teles 4u","steam_id":76561198025916703,"connected_time":1761000000000,"state":"active","ping":90},{"user_id":69,"name":"ChPerette","steam_id":76561198060004887,"connected_time":322000000000,"state":"active","ping":44},{"user_id":71,"name":"hopefullythisnameisnttaken","steam_id":76561198979277765,"connected_time":243000000000,"state":"active","ping":58},{"user_id":40,"name":"Vasile`s Toy","steam_id":76561199471267064,"connected_time":2034000000000,"state":"active","ping":99},{"user_id":73,"name":"Tank","steam_id":76561199059174576,"connected_time":234000000000,"state":"active","ping":176},{"user_id":50,"name":"Ran33","steam_id":76561197991474499,"connected_time":1579000000000,"state":"active","ping":86},{"user_id":28,"name":"Eme","steam_id":76561198171619442,"connected_time":2587000000000,"state":"active","ping":90},{"user_id":51,"name":"Drunk russian with pyromania","steam_id":76561198195527328,"connected_time":1483000000000,"state":"active","ping":41},{"user_id":53,"name":"Volkswagen Golf 4","steam_id":76561198156433244,"connected_time":1182000000000,"state":"active","ping":89},{"user_id":75,"name":"combat collin","steam_id":76561198011450253,"connected_time":107000000000,"state":"active","ping":45},{"user_id":74,"name":"Scoutmister","steam_id":76561198347491753,"connected_time":209000000000,"state":"active","ping":69},{"user_id":63,"name":"brehs","steam_id":76561198150653454,"connected_time":717000000000,"state":"active","ping":50}]},{"server_id":21,"name":"Uncletopia | London | 5 | All Maps","name_short":"lon-5","host":"lon-1.uk.uncletopia.com","port":27055,"enabled":true,"region":"eu","cc":"gb","latitude":51.509865,"longitude":-0.118092,"reserved":0,"last_update":"0001-01-01T00:00:00Z","name_a2s":"Uncletopia | London | 5 | All Maps","protocol":17,"map":"pl_frontier_final","folder":"tf","game":"Team Fortress","app_id":440,"player_count":0,"max_players":24,"Bots":0,"server_type":"Dedicated","server_os":"Linux","password":true,"vac":true,"version":"7882260","steam_id":85568392924742829,"keywords":["nocrits","nodmgspread","payload","uncletopia"],"game_id":440,"stv_port":27056,"stv_name":"Uncletopia | London | 5 | All Maps | STV","players":null},{"server_id":22,"name":"Uncletopia | London | 6 | All Maps","name_short":"lon-6","host":"lon-1.uk.uncletopia.com","port":27065,"enabled":true,"region":"eu","cc":"gb","latitude":51.509865,"longitude":-0.118092,"reserved":0,"last_update":"0001-01-01T00:00:00Z","name_a2s":"Uncletopia | London | 6 | All Maps","protocol":17,"map":"cp_altitude","folder":"tf","game":"Team Fortress","app_id":440,"player_count":0,"max_players":24,"Bots":0,"server_type":"Dedicated","server_os":"Linux","password":true,"vac":true,"version":"7882260","steam_id":85568392924742830,"keywords":["cp","nocrits","nodmgspread","uncletopia"],"game_id":440,"stv_port":27066,"stv_name":"Uncletopia | London | 6 | All Maps | STV","players":null},{"server_id":40,"name":"Uncletopia | London | 7 | No Payload","name_short":"lon-7","host":"lon-1.uk.uncletopia.com","port":27075,"enabled":true,"region":"eu","cc":"gb","latitude":51.509865,"longitude":-0.118092,"reserved":0,"last_update":"0001-01-01T00:00:00Z","name_a2s":"Uncletopia | London | 7 | No Payload","protocol":17,"map":"cp_gravelpit","folder":"tf","game":"Team Fortress","app_id":440,"player_count":0,"max_players":24,"Bots":0,"server_type":"Dedicated","server_os":"Linux","password":true,"vac":true,"version":"7882260","steam_id":85568392924964314,"keywords":["cp","nocrits","nodmgspread","uncletopia"],"game_id":440,"stv_port":27076,"stv_name":"Uncletopia | London | 7 | No Payload | STV","players":null},{"server_id":41,"name":"Uncletopia | London | 8 | Community","name_short":"lon-8","host":"lon-1.uk.uncletopia.com","port":27085,"enabled":true,"region":"eu","cc":"gb","latitude":51.509865,"longitude":-0.118092,"reserved":0,"last_update":"0001-01-01T00:00:00Z","name_a2s":"Uncletopia | London | 8 | Community","protocol":17,"map":"pl_swiftwater_final1","folder":"tf","game":"Team Fortress","app_id":440,"player_count":0,"max_players":24,"Bots":0,"server_type":"Dedicated","server_os":"Linux","password":true,"vac":true,"version":"7882260","steam_id":85568392924964315,"keywords":["nocrits","nodmgspread","payload","uncletopia"],"game_id":440,"stv_port":27086,"stv_name":"Uncletopia | London | 8 | Community | STV","players":null},{"server_id":300,"name":"Uncletopia | Montr√©al | 1 | All Maps","name_short":"mtl-1","host":"mtl-1.ca.uncletopia.com","port":27015,"enabled":true,"region":"us-east","cc":"ca","latitude":45.50889,"longitude":-73.56167,"reserved":0,"last_update":"0001-01-01T00:00:00Z","name_a2s":"Uncletopia | Montr√©al | 1 | All Maps","protocol":17,"map":"pl_snowycoast","folder":"tf","game":"Team Fortress","app_id":440,"player_count":0,"max_players":24,"Bots":0,"server_type":"Dedicated","server_os":"Linux","password":true,"vac":true,"version":"7882260","steam_id":85568392924500087,"keywords":["nocrits","nodmgspread","payload","uncletopia"],"game_id":440,"stv_port":27016,"stv_name":"Uncletopia | Montr√©al | 1 | All Maps | STV","players":null},{"server_id":301,"name":"Uncletopia | Montr√©al | 2 | All Maps","name_short":"mtl-2","host":"mtl-1.ca.uncletopia.com","port":27025,"enabled":true,"region":"us-east","cc":"ca","latitude":45.50889,"longitude":-73.56167,"reserved":0,"last_update":"0001-01-01T00:00:00Z","name_a2s":"Uncletopia | Montr√©al | 2 | All Maps","protocol":17,"map":"cp_sunshine","folder":"tf","game":"Team Fortress","app_id":440,"player_count":0,"max_players":24,"Bots":0,"server_type":"Dedicated","server_os":"Linux","password":true,"vac":true,"version":"7882260","steam_id":85568392924500088,"keywords":["cp","nocrits","nodmgspread","uncletopia"],"game_id":440,"stv_port":27026,"stv_name":"Uncletopia | Montr√©al | 2 | All Maps | STV","players":null},{"server_id":302,"name":"Uncletopia | Montr√©al | 3 | All Maps","name_short":"mtl-3","host":"mtl-1.ca.uncletopia.com","port":27035,"enabled":true,"region":"us-east","cc":"ca","latitude":45.50889,"longitude":-73.56167,"reserved":0,"last_update":"0001-01-01T00:00:00Z","name_a2s":"Uncletopia | Montr√©al | 3 | All Maps","protocol":17,"map":"pl_borneo","folder":"tf","game":"Team Fortress","app_id":440,"player_count":0,"max_players":24,"Bots":0,"server_type":"Dedicated","server_os":"Linux","password":true,"vac":true,"version":"7882260","steam_id":85568392924500089,"keywords":["nocrits","nodmgspread","payload","uncletopia"],"game_id":440,"stv_port":27036,"stv_name":"Uncletopia | Montr√©al | 3 | All Maps | STV","players":null},{"server_id":303,"name":"Uncletopia | Montr√©al | 4 | No Payload","name_short":"mtl-4","host":"mtl-1.ca.uncletopia.com","port":27045,"enabled":true,"region":"us-east","cc":"ca","latitude":45.50889,"longitude":-73.56167,"reserved":0,"last_update":"0001-01-01T00:00:00Z","name_a2s":"Uncletopia | Montr√©al | 4 | No Payload","protocol":17,"map":"cp_altitude","folder":"tf","game":"Team Fortress","app_id":440,"player_count":0,"max_players":24,"Bots":0,"server_type":"Dedicated","server_os":"Linux","password":true,"vac":true,"version":"7882260","steam_id":85568392924500090,"keywords":["cp","nocrits","nodmgspread","uncletopia"],"game_id":440,"stv_port":27046,"stv_name":"Uncletopia | Montr√©al | 4 | No Payload | STV","players":null},{"server_id":13,"name":"Uncletopia | New York City | 1 | All Maps","name_short":"nyc-1","host":"nyc-1.us.uncletopia.com","port":27015,"enabled":true,"region":"us-east","cc":"us","latitude":40.73061,"longitude":-73.93524,"reserved":0,"last_update":"0001-01-01T00:00:00Z","name_a2s":"Uncletopia | New York City | 1 | All Maps","protocol":17,"map":"pl_borneo","folder":"tf","game":"Team Fortress","app_id":440,"player_count":0,"max_players":24,"Bots":0,"server_type":"Dedicated","server_os":"Linux","password":true,"vac":true,"version":"7882260","steam_id":85568392924469993,"keywords":["nocrits","nodmgspread","payload","uncletopia"],"game_id":440,"stv_port":27016,"stv_name":"Uncletopia | New York City | 1 | All Maps | STV","players":null},{"server_id":14,"name":"Uncletopia | New York City | 2 | All Maps","name_short":"nyc-2","host":"nyc-1.us.uncletopia.com","port":27025,"enabled":true,"region":"us-east","cc":"us","latitude":40.73061,"longitude":-73.93524,"reserved":0,"last_update":"0001-01-01T00:00:00Z","name_a2s":"Uncletopia | New York City | 2 | All Maps","protocol":17,"map":"pl_upward","folder":"tf","game":"Team Fortress","app_id":440,"player_count":0,"max_players":24,"Bots":0,"server_type":"Dedicated","server_os":"Linux","password":true,"vac":true,"version":"7882260","steam_id":85568392924469994,"keywords":["nocrits","nodmgspread","payload","uncletopia"],"game_id":440,"stv_port":27026,"stv_name":"Uncletopia | New York City | 2 | All Maps | STV","players":null},{"server_id":15,"name":"Uncletopia | New York City | 3 | Stopwatch Beta","name_short":"nyc-3","host":"nyc-1.us.uncletopia.com","port":27035,"enabled":true,"region":"us-east","cc":"us","latitude":40.73061,"longitude":-73.93524,"reserved":0,"last_update":"0001-01-01T00:00:00Z","name_a2s":"Uncletopia | New York City | 3 | Stopwatch Beta","protocol":17,"map":"koth_lakeside_final","folder":"tf","game":"Team Fortress","app_id":440,"player_count":0,"max_players":24,"Bots":0,"server_type":"Dedicated","server_os":"Linux","password":true,"vac":true,"version":"7882260","steam_id":85568392924742820,"keywords":["cp","nocrits","nodmgspread","uncletopia"],"game_id":440,"stv_port":27036,"stv_name":"Uncletopia | New York City | 3 | Stopwatch Beta | STV","players":null},{"server_id":16,"name":"Uncletopia | New York City | 4 | Community","name_short":"nyc-4","host":"nyc-1.us.uncletopia.com","port":27045,"enabled":true,"region":"us-east","cc":"us","latitude":40.73061,"longitude":-73.93524,"reserved":0,"last_update":"0001-01-01T00:00:00Z","name_a2s":"Uncletopia | New York City | 4 | Community","protocol":17,"map":"pl_badwater","folder":"tf","game":"Team Fortress","app_id":440,"player_count":0,"max_players":24,"Bots":0,"server_type":"Dedicated","server_os":"Linux","password":true,"vac":true,"version":"7882260","steam_id":85568392924742821,"keywords":["nocrits","nodmgspread","payload","uncletopia"],"game_id":440,"stv_port":27046,"stv_name":"Uncletopia | New York City | 4 | Community | STV","players":null},{"server_id":142,"name":"Uncletopia | S√£o Paulo | 1 | All Maps","name_short":"sao-1","host":"sao-1.br.uncletopia.com","port":27015,"enabled":true,"region":"sa","cc":"br","latitude":-23.533773,"longitude":-46.62529,"reserved":0,"last_update":"0001-01-01T00:00:00Z","name_a2s":"Uncletopia | S√£o Paulo | 1 | All Maps","protocol":17,"map":"cp_process_final","folder":"tf","game":"Team Fortress","app_id":440,"player_count":0,"max_players":24,"Bots":0,"server_type":"Dedicated","server_os":"Linux","password":true,"vac":true,"version":"7882260","steam_id":85568392924469996,"keywords":["cp","nocrits","nodmgspread","uncletopia"],"game_id":440,"stv_port":27016,"stv_name":"Uncletopia | S√£o Paulo | 1 | All Maps | STV","players":null},{"server_id":143,"name":"Uncletopia | S√£o Paulo | 2 | All Maps","name_short":"sao-2","host":"sao-2.br.uncletopia.com","port":27015,"enabled":true,"region":"sa","cc":"br","latitude":-23.533773,"longitude":-46.62529,"reserved":0,"last_update":"0001-01-01T00:00:00Z","name_a2s":"Uncletopia | S√£o Paulo | 2 | All Maps","protocol":17,"map":"pl_pier","folder":"tf","game":"Team Fortress","app_id":440,"player_count":0,"max_players":24,"Bots":0,"server_type":"Dedicated","server_os":"Linux","password":true,"vac":true,"version":"7882260","steam_id":85568392924485349,"keywords":["nocrits","nodmgspread","payload","uncletopia"],"game_id":440,"stv_port":27016,"stv_name":"Uncletopia | S√£o Paulo | 2 | All Maps | STV","players":null},{"server_id":7,"name":"Uncletopia | Seattle | 1 | All Maps","name_short":"sea-1","host":"sea-1.us.uncletopia.com","port":27015,"enabled":true,"region":"us-west","cc":"us","latitude":47.608013,"longitude":-122.33517,"reserved":0,"last_update":"0001-01-01T00:00:00Z","name_a2s":"Uncletopia | Seattle | 1 | All Maps","protocol":17,"map":"koth_harvest_final","folder":"tf","game":"Team Fortress","app_id":440,"player_count":0,"max_players":24,"Bots":0,"server_type":"Dedicated","server_os":"Linux","password":true,"vac":true,"version":"7882260","steam_id":85568392924469997,"keywords":["cp","nocrits","nodmgspread","uncletopia"],"game_id":440,"stv_port":27016,"stv_name":"Uncletopia | Seattle | 1 | All Maps | STV","players":null},{"server_id":119,"name":"Uncletopia | Seattle | 2 | All Maps","name_short":"sea-2","host":"sea-1.us.uncletopia.com","port":27025,"enabled":true,"region":"us-west","cc":"us","latitude":47.608013,"longitude":-122.33517,"reserved":0,"last_update":"0001-01-01T00:00:00Z","name_a2s":"Uncletopia | Seattle | 2 | All Maps","protocol":17,"map":"pl_pier","folder":"tf","game":"Team Fortress","app_id":440,"player_count":4,"max_players":24,"Bots":0,"server_type":"Dedicated","server_os":"Linux","password":true,"vac":true,"version":"7882260","steam_id":85568392924469998,"keywords":["nocrits","nodmgspread","payload","uncletopia"],"game_id":440,"stv_port":27026,"stv_name":"Uncletopia | Seattle | 2 | All Maps | STV","players":[{"user_id":427,"name":"Toffee Klim","steam_id":76561198156412200,"connected_time":2078000000000,"state":"active","ping":32},{"user_id":430,"name":"wmjledger","steam_id":76561198443046861,"connected_time":1408000000000,"state":"active","ping":52},{"user_id":433,"name":"Pancakes","steam_id":76561199075429403,"connected_time":1068000000000,"state":"active","ping":44},{"user_id":426,"name":"- K.K.-","steam_id":76561198825567047,"connected_time":2428000000000,"state":"active","ping":141}]},{"server_id":406,"name":"Uncletopia | Seattle | 3 | Stopwatch Beta","name_short":"sea-3","host":"sea-1.us.uncletopia.com","port":27035,"enabled":true,"region":"us-west","cc":"us","latitude":47.608013,"longitude":-122.33517,"reserved":0,"last_update":"0001-01-01T00:00:00Z","name_a2s":"Uncletopia | Seattle | 3 | Stopwatch Beta","protocol":17,"map":"koth_lakeside_final","folder":"tf","game":"Team Fortress","app_id":440,"player_count":0,"max_players":24,"Bots":0,"server_type":"Dedicated","server_os":"Linux","password":true,"vac":true,"version":"7882260","steam_id":85568392924515217,"keywords":["cp","nocrits","nodmgspread","uncletopia"],"game_id":440,"stv_port":27036,"stv_name":"Uncletopia | Seattle | 3 | Stopwatch Beta | STV","players":null},{"server_id":17,"name":"Uncletopia | San Francisco | 1 | All Maps","name_short":"sfo-1","host":"sfo-1.us.uncletopia.com","port":27015,"enabled":true,"region":"us-west","cc":"us","latitude":37.77397,"longitude":-122.4313,"reserved":0,"last_update":"0001-01-01T00:00:00Z","name_a2s":"Uncletopia | San Francisco | 1 | All Maps","protocol":17,"map":"cp_process_final","folder":"tf","game":"Team Fortress","app_id":440,"player_count":0,"max_players":24,"Bots":0,"server_type":"Dedicated","server_os":"Linux","password":true,"vac":true,"version":"7757534","steam_id":85568392924469999,"keywords":["cp","nocrits","nodmgspread","uncletopia"],"game_id":440,"stv_port":27016,"stv_name":"Uncletopia | San Francisco | 1 | All Maps | STV","players":null},{"server_id":18,"name":"Uncletopia | San Francisco | 2 | All Maps","name_short":"sfo-2","host":"sfo-1.us.uncletopia.com","port":27025,"enabled":true,"region":"us-west","cc":"us","latitude":37.77397,"longitude":-122.4313,"reserved":0,"last_update":"0001-01-01T00:00:00Z","name_a2s":"Uncletopia | San Francisco | 2 | All Maps","protocol":17,"map":"koth_highpass","folder":"tf","game":"Team Fortress","app_id":440,"player_count":0,"max_players":24,"Bots":0,"server_type":"Dedicated","server_os":"Linux","password":true,"vac":true,"version":"7757534","steam_id":85568392924470000,"keywords":["cp","nocrits","nodmgspread","uncletopia"],"game_id":440,"stv_port":27026,"stv_name":"Uncletopia | San Francisco | 2 | All Maps | STV","players":null},{"server_id":19,"name":"Uncletopia | San Francisco | 3 | Stopwatch Beta","name_short":"sfo-3","host":"sfo-1.us.uncletopia.com","port":27035,"enabled":true,"region":"us-west","cc":"us","latitude":37.77397,"longitude":-122.4313,"reserved":0,"last_update":"0001-01-01T00:00:00Z","name_a2s":"Uncletopia | San Francisco | 3 | Stopwatch Beta","protocol":17,"map":"koth_lakeside_final","folder":"tf","game":"Team Fortress","app_id":440,"player_count":0,"max_players":24,"Bots":0,"server_type":"Dedicated","server_os":"Linux","password":true,"vac":true,"version":"7757534","steam_id":85568392924742824,"keywords":["cp","nocrits","nodmgspread","uncletopia"],"game_id":440,"stv_port":27036,"stv_name":"Uncletopia | San Francisco | 3 | Stopwatch Beta | STV","players":null},{"server_id":20,"name":"Uncletopia | San Francisco | 4 | Community","name_short":"sfo-4","host":"sfo-1.us.uncletopia.com","port":27045,"enabled":true,"region":"us-west","cc":"us","latitude":37.77397,"longitude":-122.4313,"reserved":0,"last_update":"0001-01-01T00:00:00Z","name_a2s":"Uncletopia | San Francisco | 4 | Community","protocol":17,"map":"cp_altitude","folder":"tf","game":"Team Fortress","app_id":440,"player_count":0,"max_players":24,"Bots":0,"server_type":"Dedicated","server_os":"Linux","password":true,"vac":true,"version":"7757534","steam_id":85568392924742826,"keywords":["cp","nocrits","nodmgspread","uncletopia"],"game_id":440,"stv_port":27046,"stv_name":"Uncletopia | San Francisco | 4 | Community | STV","players":null},{"server_id":141,"name":"Uncletopia | Sydney | 1 | All Maps","name_short":"syd-1","host":"syd-1.au.uncletopia.com","port":27015,"enabled":true,"region":"au","cc":"au","latitude":-33.865143,"longitude":151.2099,"reserved":0,"last_update":"0001-01-01T00:00:00Z","name_a2s":"Uncletopia | Sydney | 1 | All Maps","protocol":17,"map":"pl_barnblitz","folder":"tf","game":"Team Fortress","app_id":440,"player_count":23,"max_players":24,"Bots":0,"server_type":"Dedicated","server_os":"Linux","password":true,"vac":true,"version":"7882260","steam_id":85568392924470001,"keywords":["nocrits","nodmgspread","payload","uncletopia"],"game_id":440,"stv_port":27016,"stv_name":"Uncletopia | Sydney | 1 | All Maps | STV","players":[{"user_id":366,"name":"BobbyFlobby","steam_id":76561198341487196,"connected_time":457000000000,"state":"active","ping":78},{"user_id":348,"name":"whiteshaq","steam_id":76561198131988811,"connected_time":2196000000000,"state":"active","ping":47},{"user_id":376,"name":"wombraidre","steam_id":76561199375834537,"connected_time":47000000000,"state":"spawning","ping":132},{"user_id":342,"name":"weezer","steam_id":76561199439508788,"connected_time":2822000000000,"state":"active","ping":86},{"user_id":359,"name":"Tees","steam_id":76561199174602317,"connected_time":1569000000000,"state":"active","ping":53},{"user_id":363,"name":"Tiger_Tan","steam_id":76561198221733844,"connected_time":876000000000,"state":"active","ping":123},{"user_id":326,"name":"this is ULTRA LORD","steam_id":76561198017486010,"connected_time":4405000000000,"state":"active","ping":70},{"user_id":350,"name":"Granolarama","steam_id":76561198059129270,"connected_time":2141000000000,"state":"active","ping":68},{"user_id":327,"name":"You again","steam_id":76561198049447942,"connected_time":4399000000000,"state":"active","ping":55},{"user_id":219,"name":"Marmalade Cat","steam_id":76561198086309767,"connected_time":12705000000000,"state":"active","ping":64},{"user_id":369,"name":"Bing Soy","steam_id":76561198057093383,"connected_time":341000000000,"state":"active","ping":55},{"user_id":371,"name":"SUSHIMAN","steam_id":76561199089989428,"connected_time":287000000000,"state":"active","ping":92},{"user_id":332,"name":"Zoey","steam_id":76561198126153554,"connected_time":3980000000000,"state":"active","ping":78},{"user_id":330,"name":"Atago","steam_id":76561199379533644,"connected_time":4276000000000,"state":"active","ping":151},{"user_id":361,"name":"Spav","steam_id":76561198112730092,"connected_time":1424000000000,"state":"active","ping":65},{"user_id":352,"name":"Naturesshadow","steam_id":76561198011837590,"connected_time":1999000000000,"state":"active","ping":67},{"user_id":372,"name":"sf/k","steam_id":76561198047758776,"connected_time":286000000000,"state":"active","ping":45},{"user_id":377,"name":"RustyMeat","steam_id":76561198119162442,"connected_time":39000000000,"state":"spawning","ping":53},{"user_id":338,"name":"K.","steam_id":76561198030852600,"connected_time":3517000000000,"state":"active","ping":66},{"user_id":364,"name":"mushroom","steam_id":76561197992336470,"connected_time":835000000000,"state":"active","ping":92},{"user_id":374,"name":"mealuns","steam_id":76561198059318461,"connected_time":226000000000,"state":"active","ping":88},{"user_id":357,"name":"fleep","steam_id":76561198417133583,"connected_time":1810000000000,"state":"active","ping":44},{"user_id":260,"name":"Local Trash Expert","steam_id":76561198145598622,"connected_time":8881000000000,"state":"active","ping":82}]},{"server_id":123,"name":"Uncletopia | Sydney | 2 | All Maps","name_short":"syd-2","host":"syd-1.au.uncletopia.com","port":27025,"enabled":true,"region":"au","cc":"au","latitude":-33.865143,"longitude":151.2099,"reserved":0,"last_update":"0001-01-01T00:00:00Z","name_a2s":"Uncletopia | Sydney | 2 | All Maps","protocol":17,"map":"pl_barnblitz","folder":"tf","game":"Team Fortress","app_id":440,"player_count":24,"max_players":24,"Bots":0,"server_type":"Dedicated","server_os":"Linux","password":true,"vac":true,"version":"7882260","steam_id":85568392924470002,"keywords":["nocrits","nodmgspread","payload","uncletopia"],"game_id":440,"stv_port":27026,"stv_name":"Uncletopia | Sydney | 2 | All Maps | STV","players":[{"user_id":63,"name":"Distilledrain41","steam_id":76561198272717119,"connected_time":8432000000000,"state":"active","ping":46},{"user_id":130,"name":"hive","steam_id":76561199099744527,"connected_time":4205000000000,"state":"active","ping":45},{"user_id":157,"name":"cas ganister","steam_id":76561198879023728,"connected_time":1943000000000,"state":"active","ping":49},{"user_id":168,"name":"Doctor!","steam_id":76561198041851238,"connected_time":1112000000000,"state":"active","ping":87},{"user_id":131,"name":"spaghetti shirt","steam_id":76561198951093608,"connected_time":4180000000000,"state":"active","ping":64},{"user_id":181,"name":"Futurechama","steam_id":76561198335842283,"connected_time":149000000000,"state":"active","ping":60},{"user_id":172,"name":"Dr Crazii","steam_id":76561198067775226,"connected_time":963000000000,"state":"active","ping":87},{"user_id":135,"name":"Men Are Cute","steam_id":76561198286658696,"connected_time":3857000000000,"state":"active","ping":50},{"user_id":146,"name":"Overlold","steam_id":76561197978635495,"connected_time":2876000000000,"state":"active","ping":82},{"user_id":179,"name":"voxii","steam_id":76561198099698281,"connected_time":362000000000,"state":"active","ping":69},{"user_id":150,"name":"Blueberry","steam_id":76561198803759847,"connected_time":2736000000000,"state":"active","ping":71},{"user_id":158,"name":"The_Green_Jelly","steam_id":76561198381061704,"connected_time":1489000000000,"state":"active","ping":107},{"user_id":180,"name":"kiby*","steam_id":76561198197824065,"connected_time":305000000000,"state":"active","ping":82},{"user_id":178,"name":"krandlez` (Any/All)","steam_id":76561198044839726,"connected_time":385000000000,"state":"active","ping":42},{"user_id":160,"name":"FragmantizedLemon","steam_id":76561198313580674,"connected_time":1411000000000,"state":"active","ping":123},{"user_id":139,"name":"Gnat","steam_id":76561198109747863,"connected_time":3279000000000,"state":"active","ping":100},{"user_id":166,"name":"tenten","steam_id":76561198402822072,"connected_time":1175000000000,"state":"active","ping":111},{"user_id":107,"name":"Noble Chernobyl","steam_id":76561198011803825,"connected_time":5873000000000,"state":"active","ping":51},{"user_id":164,"name":"[FTW] RonnieD'","steam_id":76561197993957267,"connected_time":1285000000000,"state":"active","ping":52},{"user_id":162,"name":"Original Dog","steam_id":76561198046480594,"connected_time":1341000000000,"state":"active","ping":85},{"user_id":153,"name":"Yuniox","steam_id":76561198032128795,"connected_time":2574000000000,"state":"active","ping":153},{"user_id":154,"name":"crack","steam_id":76561198077370413,"connected_time":2436000000000,"state":"active","ping":63},{"user_id":163,"name":"I LOVE GOD AND CUM","steam_id":76561198838208913,"connected_time":1338000000000,"state":"active","ping":64},{"user_id":173,"name":"The College Graduate","steam_id":76561198059981682,"connected_time":938000000000,"state":"active","ping":59}]},{"server_id":395,"name":"Uncletopia | Sydney | 3 | All Maps","name_short":"syd-3","host":"syd-1.au.uncletopia.com","port":27035,"enabled":true,"region":"au","cc":"au","latitude":-33.865143,"longitude":151.2099,"reserved":0,"last_update":"0001-01-01T00:00:00Z","name_a2s":"Uncletopia | Sydney | 3 | All Maps","protocol":17,"map":"koth_brazil","folder":"tf","game":"Team Fortress","app_id":440,"player_count":0,"max_players":24,"Bots":0,"server_type":"Dedicated","server_os":"Linux","password":true,"vac":true,"version":"7882260","steam_id":85568392925194467,"keywords":["cp","nocrits","nodmgspread","uncletopia"],"game_id":440,"stv_port":27036,"stv_name":"Uncletopia | Sydney | 3 | All Maps | STV","players":null},{"server_id":396,"name":"Uncletopia | Sydney | 4 | All Maps","name_short":"syd-4","host":"syd-1.au.uncletopia.com","port":27045,"enabled":true,"region":"au","cc":"au","latitude":-33.865143,"longitude":151.2099,"reserved":0,"last_update":"0001-01-01T00:00:00Z","name_a2s":"Uncletopia | Sydney | 4 | All Maps","protocol":17,"map":"pl_pier","folder":"tf","game":"Team Fortress","app_id":440,"player_count":0,"max_players":24,"Bots":0,"server_type":"Dedicated","server_os":"Linux","password":true,"vac":true,"version":"7882260","steam_id":85568392925397958,"keywords":["nocrits","nodmgspread","payload","uncletopia"],"game_id":440,"stv_port":27046,"stv_name":"Uncletopia | Sydney | 4 | All Maps | STV","players":null},{"server_id":58,"name":"Uncletopia | Sydney | 5 | Stopwatch Beta","name_short":"syd-5","host":"syd-1.au.uncletopia.com","port":27055,"enabled":true,"region":"au","cc":"au","latitude":-33.865143,"longitude":151.2099,"reserved":0,"last_update":"0001-01-01T00:00:00Z","name_a2s":"Uncletopia | Sydney | 5 | Stopwatch Beta","protocol":17,"map":"workshop/pl_summercoast_rc8e.ugc1761528829","folder":"tf","game":"Team Fortress","app_id":440,"player_count":0,"max_players":24,"Bots":0,"server_type":"Dedicated","server_os":"Linux","password":true,"vac":true,"version":"7882260","steam_id":85568392925397959,"keywords":["nocrits","nodmgspread","payload","uncletopia"],"game_id":440,"stv_port":27056,"stv_name":"Uncletopia | Sydney | 5 | Stopwatch Beta | STV","players":null},{"server_id":59,"name":"Uncletopia | Sydney | 6 | Community","name_short":"syd-6","host":"syd-1.au.uncletopia.com","port":27065,"enabled":true,"region":"au","cc":"au","latitude":-33.865143,"longitude":151.2099,"reserved":0,"last_update":"0001-01-01T00:00:00Z","name_a2s":"Uncletopia | Sydney | 6 | Community","protocol":17,"map":"workshop/cp_indulge.ugc528106646","folder":"tf","game":"Team Fortress","app_id":440,"player_count":0,"max_players":24,"Bots":0,"server_type":"Dedicated","server_os":"Linux","password":true,"vac":true,"version":"7882260","steam_id":85568392925397960,"keywords":["cp","nocrits","nodmgspread","uncletopia"],"game_id":440,"stv_port":27066,"stv_name":"Uncletopia | Sydney | 6 | Community | STV","players":null},{"server_id":49,"name":"Uncletopia | Warsaw | 1 | All Maps","name_short":"waw-1","host":"waw-1.pl.uncletopia.com","port":27015,"enabled":true,"region":"eu","cc":"pl","latitude":52.2297,"longitude":21.017532,"reserved":0,"last_update":"0001-01-01T00:00:00Z","name_a2s":"","protocol":0,"map":"","folder":"","game":"","app_id":0,"player_count":0,"max_players":0,"Bots":0,"server_type":"","server_os":"","password":false,"vac":false,"version":"","steam_id":0,"keywords":null,"game_id":0,"stv_port":0,"stv_name":"","players":null},{"server_id":50,"name":"Uncletopia | Warsaw | 2 | All Maps","name_short":"waw-2","host":"waw-1.pl.uncletopia.com","port":27025,"enabled":true,"region":"eu","cc":"pl","latitude":52.2297,"longitude":21.017532,"reserved":0,"last_update":"0001-01-01T00:00:00Z","name_a2s":"Uncletopia | Warsaw | 2 | All Maps","protocol":17,"map":"koth_lakeside_final","folder":"tf","game":"Team Fortress","app_id":440,"player_count":0,"max_players":24,"Bots":0,"server_type":"Dedicated","server_os":"Linux","password":true,"vac":true,"version":"7882260","steam_id":85568392925397851,"keywords":["cp","nocrits","nodmgspread","uncletopia"],"game_id":440,"stv_port":27026,"stv_name":"Uncletopia | Warsaw | 2 | All Maps | STV","players":null},{"server_id":51,"name":"Uncletopia | Warsaw | 3 | All Maps","name_short":"waw-3","host":"waw-1.pl.uncletopia.com","port":27035,"enabled":true,"region":"eu","cc":"pl","latitude":52.2297,"longitude":21.017532,"reserved":0,"last_update":"0001-01-01T00:00:00Z","name_a2s":"Uncletopia | Warsaw | 3 | All Maps","protocol":17,"map":"koth_viaduct","folder":"tf","game":"Team Fortress","app_id":440,"player_count":0,"max_players":24,"Bots":0,"server_type":"Dedicated","server_os":"Linux","password":true,"vac":true,"version":"7882260","steam_id":85568392925397852,"keywords":["cp","nocrits","nodmgspread","uncletopia"],"game_id":440,"stv_port":27036,"stv_name":"Uncletopia | Warsaw | 3 | All Maps | STV","players":null},{"server_id":52,"name":"Uncletopia | Warsaw | 4 | All Maps","name_short":"waw-4","host":"waw-1.pl.uncletopia.com","port":27045,"enabled":true,"region":"eu","cc":"pl","latitude":52.2297,"longitude":21.017532,"reserved":0,"last_update":"0001-01-01T00:00:00Z","name_a2s":"Uncletopia | Warsaw | 4 | All Maps","protocol":17,"map":"koth_highpass","folder":"tf","game":"Team Fortress","app_id":440,"player_count":0,"max_players":24,"Bots":0,"server_type":"Dedicated","server_os":"Linux","password":true,"vac":true,"version":"7882260","steam_id":85568392925397853,"keywords":["cp","nocrits","nodmgspread","uncletopia"],"game_id":440,"stv_port":27046,"stv_name":"Uncletopia | Warsaw | 4 | All Maps | STV","players":null},{"server_id":53,"name":"Uncletopia | Warsaw | 5 | Stopwatch Beta","name_short":"waw-5","host":"waw-1.pl.uncletopia.com","port":27055,"enabled":true,"region":"eu","cc":"pl","latitude":52.2297,"longitude":21.017532,"reserved":0,"last_update":"0001-01-01T00:00:00Z","name_a2s":"Uncletopia | Warsaw | 5 | Stopwatch Beta","protocol":17,"map":"cp_mountainlab","folder":"tf","game":"Team Fortress","app_id":440,"player_count":0,"max_players":24,"Bots":0,"server_type":"Dedicated","server_os":"Linux","password":true,"vac":true,"version":"7882260","steam_id":85568392925397854,"keywords":["cp","nocrits","nodmgspread","uncletopia"],"game_id":440,"stv_port":27056,"stv_name":"Uncletopia | Warsaw | 5 | Stopwatch Beta | STV","players":null},{"server_id":54,"name":"Uncletopia | Warsaw | 6 | Community","name_short":"waw-6","host":"waw-1.pl.uncletopia.com","port":27065,"enabled":true,"region":"eu","cc":"pl","latitude":52.2297,"longitude":21.017532,"reserved":0,"last_update":"0001-01-01T00:00:00Z","name_a2s":"Uncletopia | Warsaw | 6 | Community","protocol":17,"map":"koth_viaduct","folder":"tf","game":"Team Fortress","app_id":440,"player_count":0,"max_players":24,"Bots":0,"server_type":"Dedicated","server_os":"Linux","password":true,"vac":true,"version":"7882260","steam_id":85568392925397856,"keywords":["cp","nocrits","nodmgspread","uncletopia"],"game_id":440,"stv_port":27066,"stv_name":"Uncletopia | Warsaw | 6 | Community | STV","players":null}]}