{"status":true,"message":"","result":[{"server_id":9,"name":"Uncletopia | Atlanta | 1 | All Maps","name_short":"atl-1","host":"atl-1.us.uncletopia.com","port":27015,"enabled":true,"region":"us-east","cc":"us","latitude":33.753746,"longitude":-84.38633,"reserved":0,"last_update":"0001-01-01T00:00:00Z","name_a2s":"Uncletopia | Atlanta | 1 | All Maps","protocol":17,"map":"pl_goldrush","folder":"tf","game":"Team Fortress","app_id":440,"player_count":20,"max_players":24,"Bots":0,"server_type":"Dedicated","server_os":"Linux","password":true,"vac":true,"version":"7961495","steam_id":85568392924469982,"keywords":["nocrits","nodmgspread","payload","uncletopia"],"game_id":440,"stv_port":27016,"stv_name":"Uncletopia | Atlanta | 1 | All Maps | STV","players":null},{"server_id":104,"name":"Uncletopia | Atlanta | 2 | All Maps","name_short":"atl-2","host":"atl-1.us.uncletopia.com","port":27025,"enabled":true,"region":"us-east","cc":"us","latitude":33.753746,"longitude":-84.38633,"reserved":0,"last_update":"0001-01-01T00:00:00Z","name_a2s":"Uncletopia | Atlanta | 2 | All Maps","protocol":17,"map":"pl_upward","folder":"tf","game":"Team Fortress","app_id":440,"player_count":4,"max_players":24,"Bots":0,"server_type":"Dedicated","server_os":"Linux","password":true,"vac":true,"version":"7961495","steam_id":85568392924469983,"keywords":["nocrits","nodmgspread","payload","uncletopia"],"game_id":440,"stv_port":27026,"stv_name":"Uncletopia | Atlanta | 2 | All Maps | STV","players":null},{"server_id":400,"name":"Uncletopia | Atlanta | 3 | Stopwatch","name_short":"atl-3","host":"atl-1.us.uncletopia.com","port":27035,"enabled":true,"region":"us-east","cc":"us","latitude":33.753746,"longitude":-84.38633,"reserved":0,"last_update":"0001-01-01T00:00:00Z","name_a2s":"Uncletopia | Atlanta | 3 | Stopwatch","protocol":17,"map":"koth_clearcut_b15","folder":"tf","game":"Team Fortress","app_id":440,"player_count":0,"max_players":24,"Bots":0,"server_type":"Dedicated","server_os":"Linux","password":true,"vac":true,"version":"7961495","steam_id":85568392924515187,"keywords":["cp","nocrits","nodmgspread","uncletopia"],"game_id":440,"stv_port":27036,"stv_name":"Uncletopia | Atlanta | 3 | Stopwatch | STV","players":null},{"server_id":401,"name":"Uncletopia | Atlanta | 4 | Community","name_short":"atl-4","host":"atl-1.us.uncletopia.com","port":27045,"enabled":true,"region":"us-east","cc":"us","latitude":33.753746,"longitude":-84.38633,"reserved":0,"last_update":"0001-01-01T00:00:00Z","name_a2s":"Uncletopia | Atlanta | 4 | Community","protocol":17,"map":"pl_vigil_rc10","folder":"tf","game":"Team Fortress","app_id":440,"player_count":0,"max_players":24,"Bots":0,"server_type":"Dedicated","server_os":"Linux","password":true,"vac":true,"version":"7961495","steam_id":85568392924515188,"keywords":["nocrits","nodmgspread","payload","uncletopia"],"game_id":440,"stv_port":27046,"stv_name":"Uncletopia | Atlanta | 4 | Community | STV","players":null},{"server_id":2,"name":"Uncletopia | Chicago | 1 | All Maps","name_short":"chi-1","host":"chi-1.us.uncletopia.com","port":27015,"enabled":true,"region":"us-central","cc":"us","latitude":41.881832,"longitude":-87.62318,"reserved":0,"last_update":"0001-01-01T00:00:00Z","name_a2s":"Uncletopia | Chicago | 1 | All Maps","protocol":17,"map":"pl_upward","folder":"tf","game":"Team Fortress","app_id":440,"player_count":24,"max_players":24,"Bots":0,"server_type":"Dedicated","server_os":"Linux","password":true,"vac":true,"version":"7961495","steam_id":85568392924469984,"keywords":["nocrits","nodmgspread","payload","uncletopia"],"game_id":440,"stv_port":27016,"stv_name":"Uncletopia | Chicago | 1 | All Maps | STV","players":[{"user_id":511,"name":"D","steam_id":76561198292908619,"connected_time":1396000000000,"state":"active","ping":73},{"user_id":525,"name":"King","steam_id":76561198123927752,"connected_time":803000000000,"state":"active","ping":49},{"user_id":506,"name":"Dr.BendyBones","steam_id":76561198048846641,"connected_time":1983000000000,"state":"active","ping":67},{"user_id":510,"name":"Leadwolf","steam_id":76561198308533122,"connected_time":1697000000000,"state":"active","ping":73},{"user_id":470,"name":"Bearegard","steam_id":76561198061926542,"connected_time":5005000000000,"state":"active","ping":61},{"user_id":533,"name":"Ludcmorais","steam_id":76561198359217809,"connected_time":418000000000,"state":"active","ping":189},{"user_id":505,"name":"EnragedWaters","steam_id":76561198317135757,"connected_time":2169000000000,"state":"active","ping":105},{"user_id":514,"name":"Society Crusher","steam_id":76561198042059080,"connected_time":1288000000000,"state":"active","ping":126},{"user_id":493,"name":"Ghoulenoir","steam_id":76561198074314573,"connected_time":2692000000000,"state":"active","ping":38},{"user_id":532,"name":"dax","steam_id":76561198045335319,"connected_time":505000000000,"state":"active","ping":85},{"user_id":487,"name":"super clickteam fusion","steam_id":76561198275101482,"connected_time":3517000000000,"state":"active","ping":138},{"user_id":469,"name":"Nina","steam_id":76561198172481363,"connected_time":5030000000000,"state":"active","ping":44},{"user_id":519,"name":"Aldatzailea Egitura","steam_id":76561199240547667,"connected_time":1057000000000,"state":"active","ping":98},{"user_id":528,"name":"Stupid Monkey =3","steam_id":76561198024580166,"connected_time":755000000000,"state":"active","ping":101},{"user_id":455,"name":"Lavender","steam_id":76561198142770666,"connected_time":6796000000000,"state":"active","ping":44},{"user_id":530,"name":"tobrehto","steam_id":76561198097544038,"connected_time":589000000000,"state":"active","ping":91},{"user_id":516,"name":"VX_","steam_id":76561198211529143,"connected_time":1242000000000,"state":"active","ping":66},{"user_id":524,"name":"VerseG","steam_id":76561198059246919,"connected_time":815000000000,"state":"active","ping":92},{"user_id":534,"name":"Johnny Dang (torr som fn√∂ske)","steam_id":76561198333897550,"connected_time":134000000000,"state":"active","ping":152},{"user_id":445,"name":"guy","steam_id":76561198079925551,"connected_time":7792000000000,"state":"active","ping":63},{"user_id":526,"name":"clue","steam_id":76561198299379768,"connected_time":798000000000,"state":"active","ping":86},{"user_id":529,"name":"Team Fartpiss Poo","steam_id":76561199163591880,"connected_time":754000000000,"state":"active","ping":99},{"user_id":521,"name":"hej","steam_id":76561198110530761,"connected_time":1007000000000,"state":"active","ping":137},{"user_id":492,"name":"AnnieM","steam_id":76561199435467297,"connected_time":3127000000000,"state":"active","ping":82}]},{"server_id":106,"name":"Uncletopia | Chicago | 2 | All Maps","name_short":"chi-2","host":"chi-1.us.uncletopia.com","port":27025,"enabled":true,"region":"us-central","cc":"us","latitude":41.881832,"longitude":-87.62318,"reserved":0,"last_update":"0001-01-01T00:00:00Z","name_a2s":"Uncletopia | Chicago | 2 | All Maps","protocol":17,"map":"cp_sunshine","folder":"tf","game":"Team Fortress","app_id":440,"player_count":0,"max_players":24,"Bots":0,"server_type":"Dedicated","server_os":"Linux","password":true,"vac":true,"version":"7961495","steam_id":85568392924469985,"keywords":["cp","nocrits","nodmgspread","uncletopia"],"game_id":440,"stv_port":27026,"stv_name":"Uncletopia | Chicago | 2 | All Maps | STV","players":null},{"server_id":402,"name":"Uncletopia | Chicago | 3 | All Maps","name_short":"chi-3","host":"chi-1.us.uncletopia.com","port":27035,"enabled":true,"region":"us-central","cc":"us","latitude":41.881832,"longitude":-87.62318,"reserved":0,"last_update":"0001-01-01T00:00:00Z","name_a2s":"Uncletopia | Chicago | 3 | All Maps","protocol":17,"map":"koth_viaduct","folder":"tf","game":"Team Fortress","app_id":440,"player_count":0,"max_players":24,"Bots":0,"server_type":"Dedicated","server_os":"Linux","password":true,"vac":true,"version":"7961495","steam_id":85568392924515191,"keywords":["cp","nocrits","nodmgspread","uncletopia"],"game_id":440,"stv_port":27036,"stv_name":"Uncletopia | Chicago | 3 | All Maps | STV","players":null},{"server_id":403,"name":"Uncletopia | Chicago | 4 | All Maps","name_short":"chi-4","host":"chi-1.us.uncletopia.com","port":27045,"enabled":true,"region":"us-central","cc":"us","latitude":41.881832,"longitude":-87.62318,"reserved":0,"last_update":"0001-01-01T00:00:00Z","name_a2s":"Uncletopia | Chicago | 4 | All Maps","protocol":17,"map":"koth_viaduct","folder":"tf","game":"Team Fortress","app_id":440,"player_count":0,"max_players":24,"Bots":0,"server_type":"Dedicated","server_os":"Linux","password":true,"vac":true,"version":"7961495","steam_id":85568392924515193,"keywords":["cp","nocrits","nodmgspread","uncletopia"],"game_id":440,"stv_port":27046,"stv_name":"Uncletopia | Chicago | 4 | All Maps | STV","players":null},{"server_id":36,"name":"Uncletopia | Chicago | 5 | All Maps","name_short":"chi-5","host":"chi-2.us.uncletopia.com","port":27015,"enabled":true,"region":"us-central","cc":"us","latitude":41.881832,"longitude":-87.62318,"reserved":0,"last_update":"0001-01-01T00:00:00Z","name_a2s":"Uncletopia | Chicago | 5 | All Maps","protocol":17,"map":"cp_sunshine","folder":"tf","game":"Team Fortress","app_id":440,"player_count":0,"max_players":24,"Bots":0,"server_type":"Dedicated","server_os":"Linux","password":true,"vac":true,"version":"7961495","steam_id":85568392924866362,"keywords":["cp","nocrits","nodmgspread","uncletopia"],"game_id":440,"stv_port":27016,"stv_name":"Uncletopia | Chicago | 5 | All Maps | STV","players":null},{"server_id":37,"name":"Uncletopia | Chicago | 6 | All Maps","name_short":"chi-6","host":"chi-2.us.uncletopia.com","port":27025,"enabled":true,"region":"us-central","cc":"us","latitude":41.881832,"longitude":-87.62318,"reserved":0,"last_update":"0001-01-01T00:00:00Z","name_a2s":"Uncletopia | Chicago | 6 | All Maps","protocol":17,"map":"pl_snowycoast","folder":"tf","game":"Team Fortress","app_id":440,"player_count":0,"max_players":24,"Bots":0,"server_type":"Dedicated","server_os":"Linux","password":true,"vac":true,"version":"7961495","steam_id":85568392924866363,"keywords":["nocrits","nodmgspread","payload","uncletopia"],"game_id":440,"stv_port":27026,"stv_name":"Uncletopia | Chicago | 6 | All Maps | STV","players":null},{"server_id":38,"name":"Uncletopia | Chicago | 7 | Stopwatch","name_short":"chi-7","host":"chi-2.us.uncletopia.com","port":27035,"enabled":true,"region":"us-central","cc":"us","latitude":41.881832,"longitude":-87.62318,"reserved":0,"last_update":"0001-01-01T00:00:00Z","name_a2s":"Uncletopia | Chicago | 7 | Stopwatch","protocol":17,"map":"pl_swiftwater_final1","folder":"tf","game":"Team Fortress","app_id":440,"player_count":0,"max_players":24,"Bots":0,"server_type":"Dedicated","server_os":"Linux","password":true,"vac":true,"version":"7961495","steam_id":85568392924866364,"keywords":["nocrits","nodmgspread","payload","uncletopia"],"game_id":440,"stv_port":27036,"stv_name":"Uncletopia | Chicago | 7 | Stopwatch | STV","players":null},{"server_id":39,"name":"Uncletopia | Chicago | 8 | Community","name_short":"chi-8","host":"chi-2.us.uncletopia.com","port":27045,"enabled":true,"region":"us-central","cc":"us","latitude":41.881832,"longitude":-87.62318,"reserved":0,"last_update":"0001-01-01T00:00:00Z","name_a2s":"Uncletopia | Chicago | 8 | Community","protocol":17,"map":"workshop/pl_fifthcurve_rc1.ugc648227046","folder":"tf","game":"Team Fortress","app_id":440,"player_count":0,"max_players":24,"Bots":0,"server_type":"Dedicated","server_os":"Linux","password":true,"vac":true,"version":"7961495","steam_id":85568392924866365,"keywords":["nocrits","nodmgspread","payload","uncletopia"],"game_id":440,"stv_port":27046,"stv_name":"Uncletopia | Chicago | 8 | Community | STV","players":null},{"server_id":8,"name":"Uncletopia | Dallas | 1 | All Maps","name_short":"dal-1","host":"dal-1.us.uncletopia.com","port":27015,"enabled":true,"region":"us-central","cc":"us","latitude":32.779167,"longitude":-96.80889,"reserved":0,"last_update":"0001-01-01T00:00:00Z","name_a2s":"Uncletopia | Dallas | 1 | All Maps","protocol":17,"map":"pl_barnblitz","folder":"tf","game":"Team Fortress","app_id":440,"player_count":24,"max_players":24,"Bots":0,"server_type":"Dedicated","server_os":"Linux","password":true,"vac":true,"version":"7961495","steam_id":85568392924469986,"keywords":["nocrits","nodmgspread","payload","uncletopia"],"game_id":440,"stv_port":27016,"stv_name":"Uncletopia | Dallas | 1 | All Maps | STV","players":[{"user_id":580,"name":"Lost","steam_id":76561198025933206,"connected_time":102000000000,"state":"active","ping":55},{"user_id":574,"name":"sobaka","steam_id":76561198116008934,"connected_time":421000000000,"state":"active","ping":87},{"user_id":544,"name":"The Capn Fake Taxi","steam_id":76561198028236497,"connected_time":1901000000000,"state":"active","ping":98},{"user_id":563,"name":"Wan Shi Tong","steam_id":76561198076441225,"connected_time":767000000000,"state":"active","ping":88},{"user_id":546,"name":"peash","steam_id":76561198801453324,"connected_time":1854000000000,"state":"active","ping":90},{"user_id":569,"name":"@MidasMischief","steam_id":76561198045647141,"connected_time":611000000000,"state":"active","ping":68},{"user_id":530,"name":"Dr.Nooo!!!!!!!!","steam_id":76561198064738479,"connected_time":2437000000000,"state":"active","ping":86},{"user_id":570,"name":"Nidon","steam_id":76561199005871202,"connected_time":606000000000,"state":"active","ping":143},{"user_id":561,"name":"VolatileVixen","steam_id":76561198158750199,"connected_time":784000000000,"state":"active","ping":65},{"user_id":540,"name":"Acorn","steam_id":76561198353480153,"connected_time":2256000000000,"state":"active","ping":88},{"user_id":560,"name":"cicero","steam_id":76561198174799574,"connected_time":790000000000,"state":"active","ping":85},{"user_id":535,"name":"cypherzero","steam_id":76561199182960322,"connected_time":2356000000000,"state":"active","ping":57},{"user_id":548,"name":"meggie","steam_id":76561198038291026,"connected_time":1648000000000,"state":"active","ping":38},{"user_id":572,"name":"ruben!","steam_id":76561198248731498,"connected_time":593000000000,"state":"active","ping":85},{"user_id":576,"name":"Stoogie","steam_id":76561198069687248,"connected_time":309000000000,"state":"active","ping":86},{"user_id":581,"name":"darkelaine227","steam_id":76561198097330521,"connected_time":63000000000,"state":"active","ping":126},{"user_id":552,"name":"poggerchamp","steam_id":76561199145124973,"connected_time":1562000000000,"state":"active","ping":56},{"user_id":579,"name":"Edward Renhorn","steam_id":76561198051984645,"connected_time":124000000000,"state":"active","ping":97},{"user_id":553,"name":"major","steam_id":76561198136280552,"connected_time":1526000000000,"state":"active","ping":102},{"user_id":567,"name":"ColdTooth","steam_id":76561197994963901,"connected_time":707000000000,"state":"active","ping":96},{"user_id":568,"name":"Scoops M'Gooch","steam_id":76561198048423812,"connected_time":686000000000,"state":"active","ping":99},{"user_id":543,"name":"MrMind","steam_id":76561199321657653,"connected_time":2188000000000,"state":"active","ping":71},{"user_id":571,"name":"YASAI JUICE","steam_id":76561198131971992,"connected_time":605000000000,"state":"active","ping":60},{"user_id":558,"name":"Loogus","steam_id":76561198811561721,"connected_time":1307000000000,"state":"active","ping":74}]},{"server_id":108,"name":"Uncletopia | Dallas | 2 | All Maps","name_short":"dal-2","host":"dal-1.us.uncletopia.com","port":27025,"enabled":true,"region":"us-central","cc":"us","latitude":32.779167,"longitude":-96.80889,"reserved":0,"last_update":"0001-01-01T00:00:00Z","name_a2s":"Uncletopia | Dallas | 2 | All Maps","protocol":17,"map":"plr_hightower","folder":"tf","game":"Team Fortress","app_id":440,"player_count":23,"max_players":24,"Bots":0,"server_type":"Dedicated","server_os":"Linux","password":true,"vac":true,"version":"7961495","steam_id":85568392924469988,"keywords":["nocrits","nodmgspread","payload","uncletopia"],"game_id":440,"stv_port":27026,"stv_name":"Uncletopia | Dallas | 2 | All Maps | STV","players":[{"user_id":627,"name":"Biden Blast","steam_id":76561198366729030,"connected_time":12424000000000,"state":"active","ping":74},{"user_id":757,"name":"poorly stacked bread trays","steam_id":76561198212098488,"connected_time":959000000000,"state":"active","ping":69},{"user_id":764,"name":"Metbol","steam_id":76561198001362410,"connected_time":488000000000,"state":"active","ping":62},{"user_id":762,"name":"Mint Jelly","steam_id":76561197991286751,"connected_time":739000000000,"state":"active","ping":69},{"user_id":705,"name":"SleepyScotoplanesTTV","steam_id":76561198968140914,"connected_time":6168000000000,"state":"active","ping":62},{"user_id":754,"name":"One Too Many Ostriches","steam_id":76561198038734484,"connected_time":1180000000000,"state":"active","ping":87},{"user_id":734,"name":"Why?","steam_id":76561198798253745,"connected_time":2702000000000,"state":"active","ping":66},{"user_id":759,"name":"Cactus‚Ñ¢ ‚ô•","steam_id":76561198036441270,"connected_time":818000000000,"state":"active","ping":99},{"user_id":745,"name":"CeLeb144","steam_id":76561199089907740,"connected_time":2048000000000,"state":"active","ping":77},{"user_id":766,"name":"Goblin Mode","steam_id":76561198064870076,"connected_time":399000000000,"state":"active","ping":87},{"user_id":748,"name":"\u003c THIS MAN IS MISSING","steam_id":76561198173296047,"connected_time":1801000000000,"state":"active","ping":88},{"user_id":767,"name":"Tragically Hip","steam_id":76561197971352904,"connected_time":98000000000,"state":"active","ping":60},{"user_id":713,"name":"POWER OUTER","steam_id":76561199162166709,"connected_time":5261000000000,"state":"active","ping":81},{"user_id":732,"name":"chanoc","steam_id":76561198026734746,"connected_time":3226000000000,"state":"active","ping":89},{"user_id":768,"name":"Five","steam_id":76561198026640473,"connected_time":82000000000,"state":"active","ping":63},{"user_id":769,"name":"Jordan Carter","steam_id":76561197961589368,"connected_time":68000000000,"state":"active","ping":70},{"user_id":751,"name":"Tuna!","steam_id":76561198354590331,"connected_time":1639000000000,"state":"active","ping":72},{"user_id":761,"name":"[√òWQJ√ò]chubacaalatake","steam_id":76561198136201697,"connected_time":803000000000,"state":"active","ping":124},{"user_id":763,"name":"luigee","steam_id":76561198117645744,"connected_time":732000000000,"state":"active","ping":80},{"user_id":689,"name":"BADWOLF42","steam_id":76561198055447523,"connected_time":7709000000000,"state":"active","ping":55},{"user_id":726,"name":"Momo Ria","steam_id":76561198339572476,"connected_time":4525000000000,"state":"active","ping":114},{"user_id":753,"name":"A Parliament of Owls","steam_id":76561197996200417,"connected_time":1544000000000,"state":"active","ping":89},{"user_id":742,"name":"skegeton","steam_id":76561198095581099,"connected_time":2390000000000,"state":"active","ping":59}]},{"server_id":404,"name":"Uncletopia | Dallas | 3 | All Maps","name_short":"dal-3","host":"dal-1.us.uncletopia.com","port":27035,"enabled":true,"region":"us-central","cc":"us","latitude":32.779167,"longitude":-96.80889,"reserved":0,"last_update":"0001-01-01T00:00:00Z","name_a2s":"Uncletopia | Dallas | 3 | All Maps","protocol":17,"map":"koth_viaduct","folder":"tf","game":"Team Fortress","app_id":440,"player_count":0,"max_players":24,"Bots":0,"server_type":"Dedicated","server_os":"Linux","password":true,"vac":true,"version":"7961495","steam_id":85568392924515219,"keywords":["cp","nocrits","nodmgspread","uncletopia"],"game_id":440,"stv_port":27036,"stv_name":"Uncletopia | Dallas | 3 | All Maps | STV","players":null},{"server_id":405,"name":"Uncletopia | Dallas | 4 | Community","name_short":"dal-4","host":"dal-1.us.uncletopia.com","port":27045,"enabled":true,"region":"us-central","cc":"us","latitude":32.779167,"longitude":-96.80889,"reserved":0,"last_update":"0001-01-01T00:00:00Z","name_a2s":"Uncletopia | Dallas | 4 | Community","protocol":17,"map":"workshop/cp_mannbase_rc2a.ugc1900737467","folder":"tf","game":"Team Fortress","app_id":440,"player_count":0,"max_players":24,"Bots":0,"server_type":"Dedicated","server_os":"Linux","password":true,"vac":true,"version":"7961495","steam_id":85568392924515220,"keywords":["cp","nocrits","nodmgspread","uncletopia"],"game_id":440,"stv_port":27046,"stv_name":"Uncletopia | Dallas | 4 | Community | STV","players":null},{"server_id":5,"name":"Uncletopia | Frankfurt | 1 | All Maps","name_short":"frk-1","host":"frk-1.de.uncletopia.com","port":27015,"enabled":true,"region":"eu","cc":"de","latitude":50.110924,"longitude":8.682127,"reserved":0,"last_update":"0001-01-01T00:00:00Z","name_a2s":"Uncletopia | Frankfurt | 1 | All Maps","protocol":17,"map":"koth_highpass","folder":"tf","game":"Team Fortress","app_id":440,"player_count":0,"max_players":24,"Bots":0,"server_type":"Dedicated","server_os":"Linux","password":true,"vac":true,"version":"7961495","steam_id":85568392924469989,"keywords":["cp","nocrits","nodmgspread","uncletopia"],"game_id":440,"stv_port":27016,"stv_name":"Uncletopia | Frankfurt | 1 | All Maps | STV","players":null},{"server_id":110,"name":"Uncletopia | Frankfurt | 2 | All Maps","name_short":"frk-2","host":"frk-1.de.uncletopia.com","port":27025,"enabled":true,"region":"eu","cc":"de","latitude":50.110924,"longitude":8.682127,"reserved":0,"last_update":"0001-01-01T00:00:00Z","name_a2s":"Uncletopia | Frankfurt | 2 | All Maps","protocol":17,"map":"pl_badwater","folder":"tf","game":"Team Fortress","app_id":440,"player_count":0,"max_players":24,"Bots":0,"server_type":"Dedicated","server_os":"Linux","password":true,"vac":true,"version":"7961495","steam_id":85568392924469990,"keywords":["nocrits","nodmgspread","payload","uncletopia"],"game_id":440,"stv_port":27026,"stv_name":"Uncletopia | Frankfurt | 2 | All Maps | STV","players":null},{"server_id":308,"name":"Uncletopia | Frankfurt | 3 | All Maps","name_short":"frk-3","host":"frk-1.de.uncletopia.com","port":27035,"enabled":true,"region":"eu","cc":"de","latitude":50.110924,"longitude":8.682127,"reserved":0,"last_update":"0001-01-01T00:00:00Z","name_a2s":"Uncletopia | Frankfurt | 3 | All Maps","protocol":17,"map":"koth_cascade","folder":"tf","game":"Team Fortress","app_id":440,"player_count":0,"max_players":24,"Bots":0,"server_type":"Dedicated","server_os":"Linux","password":true,"vac":true,"version":"7961495","steam_id":85568392924504274,"keywords":["cp","nocrits","nodmgspread","uncletopia"],"game_id":440,"stv_port":27036,"stv_name":"Uncletopia | Frankfurt | 3 | All Maps | STV","players":null},{"server_id":309,"name":"Uncletopia | Frankfurt | 4 | All Maps","name_short":"frk-4","host":"frk-1.de.uncletopia.com","port":27045,"enabled":true,"region":"eu","cc":"de","latitude":50.110924,"longitude":8.682127,"reserved":0,"last_update":"0001-01-01T00:00:00Z","name_a2s":"Uncletopia | Frankfurt | 4 | All Maps","protocol":17,"map":"koth_highpass","folder":"tf","game":"Team Fortress","app_id":440,"player_count":0,"max_players":24,"Bots":0,"server_type":"Dedicated","server_os":"Linux","password":true,"vac":true,"version":"7961495","steam_id":85568392924504275,"keywords":["cp","nocrits","nodmgspread","uncletopia"],"game_id":440,"stv_port":27046,"stv_name":"Uncletopia | Frankfurt | 4 | All Maps | STV","players":null},{"server_id":310,"name":"Uncletopia | Frankfurt | 5 | All Maps","name_short":"frk-5","host":"frk-1.de.uncletopia.com","port":27055,"enabled":true,"region":"eu","cc":"de","latitude":50.110924,"longitude":8.682127,"reserved":0,"last_update":"0001-01-01T00:00:00Z","name_a2s":"Uncletopia | Frankfurt | 5 | All Maps","protocol":17,"map":"pl_badwater","folder":"tf","game":"Team Fortress","app_id":440,"player_count":0,"max_players":24,"Bots":0,"server_type":"Dedicated","server_os":"Linux","password":true,"vac":true,"version":"7961495","steam_id":85568392924504277,"keywords":["nocrits","nodmgspread","payload","uncletopia"],"game_id":440,"stv_port":27056,"stv_name":"Uncletopia | Frankfurt | 5 | All Maps | STV","players":null},{"server_id":311,"name":"Uncletopia | Frankfurt | 6 | All Maps","name_short":"frk-6","host":"frk-1.de.uncletopia.com","port":27065,"enabled":true,"region":"eu","cc":"de","latitude":50.110924,"longitude":8.682127,"reserved":0,"last_update":"0001-01-01T00:00:00Z","name_a2s":"Uncletopia | Frankfurt | 6 | All Maps","protocol":17,"map":"cp_altitude","folder":"tf","game":"Team Fortress","app_id":440,"player_count":0,"max_players":24,"Bots":0,"server_type":"Dedicated","server_os":"Linux","password":true,"vac":true,"version":"7961495","steam_id":85568392924504278,"keywords":["cp","nocrits","nodmgspread","uncletopia"],"game_id":440,"stv_port":27066,"stv_name":"Uncletopia | Frankfurt | 6 | All Maps | STV","players":null},{"server_id":23,"name":"Uncletopia | Frankfurt | 7 | Stopwatch","name_short":"frk-7","host":"frk-1.de.uncletopia.com","port":27075,"enabled":true,"region":"eu","cc":"de","latitude":50.110924,"longitude":8.682127,"reserved":0,"last_update":"0001-01-01T00:00:00Z","name_a2s":"Uncletopia | Frankfurt | 7 | Stopwatch","protocol":17,"map":"pl_frontier_final","folder":"tf","game":"Team Fortress","app_id":440,"player_count":0,"max_players":24,"Bots":0,"server_type":"Dedicated","server_os":"Linux","password":true,"vac":true,"version":"7961495","steam_id":85568392924742827,"keywords":["nocrits","nodmgspread","payload","uncletopia"],"game_id":440,"stv_port":27076,"stv_name":"Uncletopia | Frankfurt | 7 | Stopwatch | STV","players":null},{"server_id":24,"name":"Uncletopia | Frankfurt | 8 | Community","name_short":"frk-8","host":"frk-1.de.uncletopia.com","port":27085,"enabled":true,"region":"eu","cc":"de","latitude":50.110924,"longitude":8.682127,"reserved":0,"last_update":"0001-01-01T00:00:00Z","name_a2s":"Uncletopia | Frankfurt | 8 | Community","protocol":17,"map":"cp_mountainlab","folder":"tf","game":"Team Fortress","app_id":440,"player_count":0,"max_players":24,"Bots":0,"server_type":"Dedicated","server_os":"Linux","password":true,"vac":true,"version":"7961495","steam_id":85568392924742828,"keywords":["cp","nocrits","nodmgspread","uncletopia"],"game_id":440,"stv_port":27086,"stv_name":"Uncletopia | Frankfurt | 8 | Community | STV","players":null},{"server_id":202,"name":"Uncletopia | Hong Kong | 1 | All Maps","name_short":"hgk-1","host":"hgk-1.hk.uncletopia.com","port":27015,"enabled":true,"region":"asia","cc":"hk","latitude":22.302711,"longitude":114.177216,"reserved":0,"last_update":"0001-01-01T00:00:00Z","name_a2s":"Uncletopia | Hong Kong | 1 | All Maps","protocol":17,"map":"koth_viaduct","folder":"tf","game":"Team Fortress","app_id":440,"player_count":0,"max_players":24,"Bots":0,"server_type":"Dedicated","server_os":"Linux","password":true,"vac":true,"version":"7961495","steam_id":85568392924494504,"keywords":["cp","nocrits","nodmgspread","uncletopia"],"game_id":440,"stv_port":27016,"stv_name":"Uncletopia | Hong Kong | 1 | All Maps | STV","players":null},{"server_id":1,"name":"Uncletopia | Los Angeles | 1 | All Maps","name_short":"lax-1","host":"lax-1.us.uncletopia.com","port":27015,"enabled":true,"region":"us-west","cc":"us","latitude":33.94279,"longitude":-118.41004,"reserved":0,"last_update":"0001-01-01T00:00:00Z","name_a2s":"Uncletopia | Los Angeles | 1 | All Maps","protocol":17,"map":"pl_frontier_final","folder":"tf","game":"Team Fortress","app_id":440,"player_count":1,"max_players":24,"Bots":0,"server_type":"Dedicated","server_os":"Linux","password":true,"vac":true,"version":"7961495","steam_id":85568392924469991,"keywords":["nocrits","nodmgspread","payload","uncletopia"],"game_id":440,"stv_port":27016,"stv_name":"Uncletopia | Los Angeles | 1 | All Maps | STV","players":[{"user_id":182,"name":"gayforgod","steam_id":76561198364882421,"connected_time":142000000000,"state":"active","ping":42}]},{"server_id":112,"name":"Uncletopia | Los Angeles | 2 | All Maps","name_short":"lax-2","host":"lax-1.us.uncletopia.com","port":27025,"enabled":true,"region":"us-west","cc":"us","latitude":33.94279,"longitude":-118.41004,"reserved":0,"last_update":"0001-01-01T00:00:00Z","name_a2s":"Uncletopia | Los Angeles | 2 | All Maps","protocol":17,"map":"cp_powerhouse","folder":"tf","game":"Team Fortress","app_id":440,"player_count":18,"max_players":24,"Bots":0,"server_type":"Dedicated","server_os":"Linux","password":true,"vac":true,"version":"7961495","steam_id":85568392924469992,"keywords":["cp","nocrits","nodmgspread","uncletopia"],"game_id":440,"stv_port":27026,"stv_name":"Uncletopia | Los Angeles | 2 | All Maps | STV","players":[{"user_id":316,"name":"netoc6","steam_id":76561199065312168,"connected_time":1184000000000,"state":"active","ping":120},{"user_id":331,"name":"Smuggley","steam_id":76561198078130271,"connected_time":195000000000,"state":"active","ping":87},{"user_id":332,"name":"Turkeyman5","steam_id":76561198058178808,"connected_time":183000000000,"state":"active","ping":87},{"user_id":292,"name":"ratware","steam_id":76561198170171115,"connected_time":3591000000000,"state":"active","ping":56},{"user_id":324,"name":"AvapXia","steam_id":76561198147476096,"connected_time":509000000000,"state":"active","ping":76},{"user_id":251,"name":"the pizza","steam_id":76561198221331476,"connected_time":6494000000000,"state":"active","ping":51},{"user_id":333,"name":"‚ùÜ -üöÄRandomGavin?üöÄüß∏","steam_id":76561199102839784,"connected_time":93000000000,"state":"active","ping":115},{"user_id":326,"name":"Jtf_1o1","steam_id":76561198319835708,"connected_time":383000000000,"state":"active","ping":63},{"user_id":334,"name":"pigswill","steam_id":76561197999081865,"connected_time":79000000000,"state":"active","ping":120},{"user_id":328,"name":"medium Mike","steam_id":76561198111645213,"connected_time":328000000000,"state":"active","ping":45},{"user_id":329,"name":"Antzen","steam_id":76561198041343470,"connected_time":313000000000,"state":"active","ping":57},{"user_id":336,"name":"MadMozzie","steam_id":76561199476324576,"connected_time":21000000000,"state":"spawning","ping":96},{"user_id":322,"name":"triph","steam_id":76561198067196509,"connected_time":589000000000,"state":"active","ping":38},{"user_id":243,"name":"Fgtfv567","steam_id":76561198071022525,"connected_time":7276000000000,"state":"active","ping":54},{"user_id":315,"name":"Andreshatesmondays","steam_id":76561198889349797,"connected_time":1782000000000,"state":"active","ping":53},{"user_id":274,"name":"Randle of John","steam_id":76561198328210524,"connected_time":4964000000000,"state":"active","ping":45},{"user_id":319,"name":"new ZAland","steam_id":76561198433114405,"connected_time":1149000000000,"state":"active","ping":69},{"user_id":241,"name":"T√ºCold","steam_id":76561198111278197,"connected_time":7335000000000,"state":"active","ping":67}]},{"server_id":324,"name":"Uncletopia | Los Angeles | 3 | All Maps","name_short":"lax-3","host":"lax-1.us.uncletopia.com","port":27035,"enabled":true,"region":"us-west","cc":"us","latitude":33.94279,"longitude":-118.41004,"reserved":0,"last_update":"0001-01-01T00:00:00Z","name_a2s":"Uncletopia | Los Angeles | 3 | All Maps","protocol":17,"map":"pl_barnblitz","folder":"tf","game":"Team Fortress","app_id":440,"player_count":0,"max_players":24,"Bots":0,"server_type":"Dedicated","server_os":"Linux","password":true,"vac":true,"version":"7961495","steam_id":85568392924510198,"keywords":["nocrits","nodmgspread","payload","uncletopia"],"game_id":440,"stv_port":27036,"stv_name":"Uncletopia | Los Angeles | 3 | All Maps | STV","players":null},{"server_id":25,"name":"Uncletopia | Los Angeles | 4 | Stopwatch","name_short":"lax-4","host":"lax-1.us.uncletopia.com","port":27045,"enabled":true,"region":"us-west","cc":"us","latitude":33.94279,"longitude":-118.41004,"reserved":0,"last_update":"0001-01-01T00:00:00Z","name_a2s":"Uncletopia | Los Angeles | 4 | Stopwatch","protocol":17,"map":"workshop/koth_clearcut_b15.ugc2107050255","folder":"tf","game":"Team Fortress","app_id":440,"player_count":0,"max_players":24,"Bots":0,"server_type":"Dedicated","server_os":"Linux","password":true,"vac":true,"version":"7961495","steam_id":85568392924510199,"keywords":["cp","nocrits","nodmgspread","uncletopia"],"game_id":440,"stv_port":27046,"stv_name":"Uncletopia | Los Angeles | 4 | Stopwatch | STV","players":null},{"server_id":11,"name":"Uncletopia | London | 1 | All Maps","name_short":"lon-1","host":"lon-1.uk.uncletopia.com","port":27015,"enabled":true,"region":"eu","cc":"gb","latitude":51.509865,"longitude":-0.118092,"reserved":0,"last_update":"0001-01-01T00:00:00Z","name_a2s":"Uncletopia | London | 1 | All Maps","protocol":17,"map":"koth_highpass","folder":"tf","game":"Team Fortress","app_id":440,"player_count":0,"max_players":24,"Bots":0,"server_type":"Dedicated","server_os":"Linux","password":true,"vac":true,"version":"7961495","steam_id":85568392924367362,"keywords":["cp","nocrits","nodmgspread","uncletopia"],"game_id":440,"stv_port":27016,"stv_name":"Uncletopia | London | 1 | All Maps | STV","players":null},{"server_id":114,"name":"Uncletopia | London | 2 | All Maps","name_short":"lon-2","host":"lon-1.uk.uncletopia.com","port":27025,"enabled":true,"region":"eu","cc":"gb","latitude":51.509865,"longitude":-0.118092,"reserved":0,"last_update":"0001-01-01T00:00:00Z","name_a2s":"Uncletopia | London | 2 | All Maps","protocol":17,"map":"koth_sawmill","folder":"tf","game":"Team Fortress","app_id":440,"player_count":24,"max_players":24,"Bots":0,"server_type":"Dedicated","server_os":"Linux","password":true,"vac":true,"version":"7961495","steam_id":85568392924470941,"keywords":["cp","nocrits","nodmgspread","uncletopia"],"game_id":440,"stv_port":27026,"stv_name":"Uncletopia | London | 2 | All Maps | STV","players":[{"user_id":97,"name":"Paste","steam_id":76561198139275322,"connected_time":1460000000000,"state":"active","ping":81},{"user_id":70,"name":"george","steam_id":76561198443632133,"connected_time":3624000000000,"state":"active","ping":107},{"user_id":72,"name":"Pico","steam_id":76561198063552545,"connected_time":3437000000000,"state":"active","ping":105},{"user_id":90,"name":"Robotomatique","steam_id":76561198354793952,"connected_time":1854000000000,"state":"active","ping":41},{"user_id":75,"name":"Virgil","steam_id":76561198248786778,"connected_time":3337000000000,"state":"active","ping":114},{"user_id":107,"name":"AndrooKeK","steam_id":76561198293934368,"connected_time":885000000000,"state":"active","ping":74},{"user_id":79,"name":"Merciz","steam_id":76561197971808715,"connected_time":2843000000000,"state":"active","ping":99},{"user_id":91,"name":"JustACoomer","steam_id":76561198151433181,"connected_time":1854000000000,"state":"active","ping":47},{"user_id":11,"name":"Zor","steam_id":76561198009851383,"connected_time":7962000000000,"state":"active","ping":67},{"user_id":12,"name":"Enjoyer","steam_id":76561198147399855,"connected_time":7957000000000,"state":"active","ping":130},{"user_id":103,"name":"Pishkolizec Hrabur","steam_id":76561199039277172,"connected_time":1018000000000,"state":"active","ping":73},{"user_id":111,"name":"Yapnor","steam_id":76561198205130675,"connected_time":464000000000,"state":"active","ping":47},{"user_id":96,"name":"Qdarks","steam_id":76561198013391340,"connected_time":1614000000000,"state":"active","ping":145},{"user_id":100,"name":"Íí∞ À∂‚Ä¢ ‡ºù ‚Ä¢À∂Íí±","steam_id":76561198054474684,"connected_time":1243000000000,"state":"active","ping":86},{"user_id":95,"name":"Engineer Chad","steam_id":76561199487629652,"connected_time":1743000000000,"state":"active","ping":72},{"user_id":101,"name":"cat funt","steam_id":76561198845550388,"connected_time":1163000000000,"state":"active","ping":120},{"user_id":106,"name":"chopsticks","steam_id":76561198045899345,"connected_time":987000000000,"state":"active","ping":114},{"user_id":82,"name":"Onbeheerde_Jongeheer","steam_id":76561198051685232,"connected_time":2288000000000,"state":"active","ping":45},{"user_id":112,"name":"TangerineTimmy1729","steam_id":76561198089478290,"connected_time":386000000000,"state":"active","ping":40},{"user_id":108,"name":"Endzor","steam_id":76561198438143885,"connected_time":869000000000,"state":"active","ping":111},{"user_id":109,"name":"CRITICAL_HIT!","steam_id":76561198349330393,"connected_time":710000000000,"state":"active","ping":89},{"user_id":86,"name":"jupi576","steam_id":76561198939395816,"connected_time":2161000000000,"state":"active","ping":104},{"user_id":105,"name":"marrella [she/her]","steam_id":76561198262910410,"connected_time":1013000000000,"state":"active","ping":102},{"user_id":73,"name":"El`Capitano Flex","steam_id":76561198061813730,"connected_time":3437000000000,"state":"active","ping":72}]},{"server_id":320,"name":"Uncletopia | London | 3 | All Maps","name_short":"lon-3","host":"lon-1.uk.uncletopia.com","port":27035,"enabled":true,"region":"eu","cc":"gb","latitude":51.509865,"longitude":-0.118092,"reserved":0,"last_update":"0001-01-01T00:00:00Z","name_a2s":"Uncletopia | London | 3 | All Maps","protocol":17,"map":"cp_process_final","folder":"tf","game":"Team Fortress","app_id":440,"player_count":0,"max_players":24,"Bots":0,"server_type":"Dedicated","server_os":"Linux","password":true,"vac":true,"version":"7961495","steam_id":85568392924510192,"keywords":["cp","nocrits","nodmgspread","uncletopia"],"game_id":440,"stv_port":27036,"stv_name":"Uncletopia | London | 3 | All Maps | STV","players":null},{"server_id":321,"name":"Uncletopia | London | 4 | All Maps","name_short":"lon-4","host":"lon-1.uk.uncletopia.com","port":27045,"enabled":true,"region":"eu","cc":"gb","latitude":51.509865,"longitude":-0.118092,"reserved":0,"last_update":"0001-01-01T00:00:00Z","name_a2s":"Uncletopia | London | 4 | All Maps","protocol":17,"map":"koth_cascade","folder":"tf","game":"Team Fortress","app_id":440,"player_count":0,"max_players":24,"Bots":0,"server_type":"Dedicated","server_os":"Linux","password":true,"vac":true,"version":"7961495","steam_id":85568392924510193,"keywords":["cp","nocrits","nodmgspread","uncletopia"],"game_id":440,"stv_port":27046,"stv_name":"Uncletopia | London | 4 | All Maps | STV","players":null},{"server_id":21,"name":"Uncletopia | London | 5 | All Maps","name_short":"lon-5","host":"lon-1.uk.uncletopia.com","port":27055,"enabled":true,"region":"eu","cc":"gb","latitude":51.509865,"longitude":-0.118092,"reserved":0,"last_update":"0001-01-01T00:00:00Z","name_a2s":"Uncletopia | London | 5 | All Maps","protocol":17,"map":"koth_lakeside_final","folder":"tf","game":"Team Fortress","app_id":440,"player_count":0,"max_players":24,"Bots":0,"server_type":"Dedicated","server_os":"Linux","password":true,"vac":true,"version":"7961495","steam_id":85568392924742829,"keywords":["cp","nocrits","nodmgspread","uncletopia"],"game_id":440,"stv_port":27056,"stv_name":"Uncletopia | London | 5 | All Maps | STV","players":null},{"server_id":22,"name":"Uncletopia | London | 6 | All Maps","name_short":"lon-6","host":"lon-1.uk.uncletopia.com","port":27065,"enabled":true,"region":"eu","cc":"gb","latitude":51.509865,"longitude":-0.118092,"reserved":0,"last_update":"0001-01-01T00:00:00Z","name_a2s":"Uncletopia | London | 6 | All Maps","protocol":17,"map":"cp_dustbowl","folder":"tf","game":"Team Fortress","app_id":440,"player_count":0,"max_players":24,"Bots":0,"server_type":"Dedicated","server_os":"Linux","password":true,"vac":true,"version":"7961495","steam_id":85568392924742830,"keywords":["cp","nocrits","nodmgspread","uncletopia"],"game_id":440,"stv_port":27066,"stv_name":"Uncletopia | London | 6 | All Maps | STV","players":null},{"server_id":40,"name":"Uncletopia | London | 7 | Stopwatch","name_short":"lon-7","host":"lon-1.uk.uncletopia.com","port":27075,"enabled":true,"region":"eu","cc":"gb","latitude":51.509865,"longitude":-0.118092,"reserved":0,"last_update":"0001-01-01T00:00:00Z","name_a2s":"Uncletopia | London | 7 | Stopwatch","protocol":17,"map":"koth_lakeside_final","folder":"tf","game":"Team Fortress","app_id":440,"player_count":0,"max_players":24,"Bots":0,"server_type":"Dedicated","server_os":"Linux","password":true,"vac":true,"version":"7961495","steam_id":85568392924964314,"keywords":["cp","nocrits","nodmgspread","uncletopia"],"game_id":440,"stv_port":27076,"stv_name":"Uncletopia | London | 7 | Stopwatch | STV","players":null},{"server_id":41,"name":"Uncletopia | London | 8 | Community","name_short":"lon-8","host":"lon-1.uk.uncletopia.com","port":27085,"enabled":true,"region":"eu","cc":"gb","latitude":51.509865,"longitude":-0.118092,"reserved":0,"last_update":"0001-01-01T00:00:00Z","name_a2s":"Uncletopia | London | 8 | Community","protocol":17,"map":"cp_snakewater_final1","folder":"tf","game":"Team Fortress","app_id":440,"player_count":0,"max_players":24,"Bots":0,"server_type":"Dedicated","server_os":"Linux","password":true,"vac":true,"version":"7961495","steam_id":85568392924964315,"keywords":["cp","nocrits","nodmgspread","uncletopia"],"game_id":440,"stv_port":27086,"stv_name":"Uncletopia | London | 8 | Community | STV","players":null},{"server_id":300,"name":"Uncletopia | Montr√©al | 1 | One Thousand Uncles","name_short":"mtl-1","host":"mtl-1.ca.uncletopia.com","port":27015,"enabled":true,"region":"us-east","cc":"ca","latitude":45.50889,"longitude":-73.56167,"reserved":0,"last_update":"0001-01-01T00:00:00Z","name_a2s":"","protocol":0,"map":"","folder":"","game":"","app_id":0,"player_count":0,"max_players":0,"Bots":0,"server_type":"","server_os":"","password":false,"vac":false,"version":"","steam_id":0,"keywords":null,"game_id":0,"stv_port":0,"stv_name":"","players":null},{"server_id":301,"name":"Uncletopia | Montr√©al | 2 | One Thousand Uncles","name_short":"mtl-2","host":"mtl-1.ca.uncletopia.com","port":27025,"enabled":true,"region":"us-east","cc":"ca","latitude":45.50889,"longitude":-73.56167,"reserved":0,"last_update":"0001-01-01T00:00:00Z","name_a2s":"","protocol":0,"map":"","folder":"","game":"","app_id":0,"player_count":4,"max_players":0,"Bots":0,"server_type":"","server_os":"","password":false,"vac":false,"version":"","steam_id":0,"keywords":null,"game_id":0,"stv_port":0,"stv_name":"","players":[{"user_id":108,"name":"Holiday Fartcruise","steam_id":76561198043851584,"connected_time":7276000000000,"state":"active","ping":139},{"user_id":141,"name":"Vaun","steam_id":76561198034075317,"connected_time":6254000000000,"state":"active","ping":90},{"user_id":142,"name":"Gay Cake","steam_id":76561198004388831,"connected_time":5410000000000,"state":"active","ping":72},{"user_id":163,"name":"sheep","steam_id":76561198172943006,"connected_time":1423000000000,"state":"active","ping":61}]},{"server_id":302,"name":"Uncletopia | Montr√©al | 3 | One Thousand Uncles","name_short":"mtl-3","host":"mtl-1.ca.uncletopia.com","port":27035,"enabled":true,"region":"us-east","cc":"ca","latitude":45.50889,"longitude":-73.56167,"reserved":0,"last_update":"0001-01-01T00:00:00Z","name_a2s":"","protocol":0,"map":"","folder":"","game":"","app_id":0,"player_count":0,"max_players":0,"Bots":0,"server_type":"","server_os":"","password":false,"vac":false,"version":"","steam_id":0,"keywords":null,"game_id":0,"stv_port":0,"stv_name":"","players":null},{"server_id":13,"name":"Uncletopia | New York City | 1 | All Maps","name_short":"nyc-1","host":"nyc-1.us.uncletopia.com","port":27015,"enabled":true,"region":"us-east","cc":"us","latitude":40.73061,"longitude":-73.93524,"reserved":0,"last_update":"0001-01-01T00:00:00Z","name_a2s":"Uncletopia | New York City | 1 | All Maps","protocol":17,"map":"cp_snakewater_final1","folder":"tf","game":"Team Fortress","app_id":440,"player_count":0,"max_players":24,"Bots":0,"server_type":"Dedicated","server_os":"Linux","password":true,"vac":true,"version":"7961495","steam_id":85568392924469993,"keywords":["cp","nocrits","nodmgspread","uncletopia"],"game_id":440,"stv_port":27016,"stv_name":"Uncletopia | New York City | 1 | All Maps | STV","players":null},{"server_id":14,"name":"Uncletopia | New York City | 2 | All Maps","name_short":"nyc-2","host":"nyc-1.us.uncletopia.com","port":27025,"enabled":true,"region":"us-east","cc":"us","latitude":40.73061,"longitude":-73.93524,"reserved":0,"last_update":"0001-01-01T00:00:00Z","name_a2s":"Uncletopia | New York City | 2 | All Maps","protocol":17,"map":"pl_barnblitz","folder":"tf","game":"Team Fortress","app_id":440,"player_count":0,"max_players":24,"Bots":0,"server_type":"Dedicated","server_os":"Linux","password":true,"vac":true,"version":"7961495","steam_id":85568392924469994,"keywords":["nocrits","nodmgspread","payload","uncletopia"],"game_id":440,"stv_port":27026,"stv_name":"Uncletopia | New York City | 2 | All Maps | STV","players":null},{"server_id":15,"name":"Uncletopia | New York City | 3 | Stopwatch","name_short":"nyc-3","host":"nyc-1.us.uncletopia.com","port":27035,"enabled":true,"region":"us-east","cc":"us","latitude":40.73061,"longitude":-73.93524,"reserved":0,"last_update":"0001-01-01T00:00:00Z","name_a2s":"Uncletopia | New York City | 3 | Stopwatch","protocol":17,"map":"pl_swiftwater_final1","folder":"tf","game":"Team Fortress","app_id":440,"player_count":0,"max_players":24,"Bots":0,"server_type":"Dedicated","server_os":"Linux","password":true,"vac":true,"version":"7961495","steam_id":85568392924742820,"keywords":["nocrits","nodmgspread","payload","uncletopia"],"game_id":440,"stv_port":27036,"stv_name":"Uncletopia | New York City | 3 | Stopwatch | STV","players":null},{"server_id":16,"name":"Uncletopia | New York City | 4 | Community","name_short":"nyc-4","host":"nyc-1.us.uncletopia.com","port":27045,"enabled":true,"region":"us-east","cc":"us","latitude":40.73061,"longitude":-73.93524,"reserved":0,"last_update":"0001-01-01T00:00:00Z","name_a2s":"Uncletopia | New York City | 4 | Community","protocol":17,"map":"workshop/koth_ramjam_rc1.ugc459778887","folder":"tf","game":"Team Fortress","app_id":440,"player_count":0,"max_players":24,"Bots":0,"server_type":"Dedicated","server_os":"Linux","password":true,"vac":true,"version":"7961495","steam_id":85568392924742821,"keywords":["cp","nocrits","nodmgspread","uncletopia"],"game_id":440,"stv_port":27046,"stv_name":"Uncletopia | New York City | 4 | Community | STV","players":null},{"server_id":142,"name":"Uncletopia | S√£o Paulo | 1 | All Maps","name_short":"sao-1","host":"sao-1.br.uncletopia.com","port":27015,"enabled":true,"region":"sa","cc":"br","latitude":-23.533773,"longitude":-46.62529,"reserved":0,"last_update":"0001-01-01T00:00:00Z","name_a2s":"Uncletopia | S√£o Paulo | 1 | All Maps","protocol":17,"map":"cp_dustbowl","folder":"tf","game":"Team Fortress","app_id":440,"player_count":0,"max_players":24,"Bots":0,"server_type":"Dedicated","server_os":"Linux","password":true,"vac":true,"version":"7961495","steam_id":85568392924469996,"keywords":["cp","nocrits","nodmgspread","uncletopia"],"game_id":440,"stv_port":27016,"stv_name":"Uncletopia | S√£o Paulo | 1 | All Maps | STV","players":null},{"server_id":143,"name":"Uncletopia | S√£o Paulo | 2 | Community","name_short":"sao-2","host":"sao-2.br.uncletopia.com","port":27015,"enabled":true,"region":"sa","cc":"br","latitude":-23.533773,"longitude":-46.62529,"reserved":0,"last_update":"0001-01-01T00:00:00Z","name_a2s":"Uncletopia | S√£o Paulo | 2 | Community","protocol":17,"map":"workshop/koth_ramjam_rc1.ugc459778887","folder":"tf","game":"Team Fortress","app_id":440,"player_count":0,"max_players":24,"Bots":0,"server_type":"Dedicated","server_os":"Linux","password":true,"vac":true,"version":"7961495","steam_id":85568392924485349,"keywords":["cp","nocrits","nodmgspread","uncletopia"],"game_id":440,"stv_port":27016,"stv_name":"Uncletopia | S√£o Paulo | 2 | Community | STV","players":null},{"server_id":7,"name":"Uncletopia | Seattle | 1 | All Maps","name_short":"sea-1","host":"sea-1.us.uncletopia.com","port":27015,"enabled":true,"region":"us-west","cc":"us","latitude":47.608013,"longitude":-122.33517,"reserved":0,"last_update":"0001-01-01T00:00:00Z","name_a2s":"Uncletopia | Seattle | 1 | All Maps","protocol":17,"map":"koth_cascade","folder":"tf","game":"Team Fortress","app_id":440,"player_count":24,"max_players":24,"Bots":0,"server_type":"Dedicated","server_os":"Linux","password":true,"vac":true,"version":"7961495","steam_id":85568392924469997,"keywords":["cp","nocrits","nodmgspread","uncletopia"],"game_id":440,"stv_port":27016,"stv_name":"Uncletopia | Seattle | 1 | All Maps | STV","players":[{"user_id":822,"name":":(){ :|:\u0026 };:","steam_id":76561198115242460,"connected_time":2123000000000,"state":"active","ping":45},{"user_id":825,"name":"toes","steam_id":76561198221151676,"connected_time":1220000000000,"state":"active","ping":60},{"user_id":827,"name":"PopcornBucketGames","steam_id":76561199089562026,"connected_time":1207000000000,"state":"active","ping":41},{"user_id":845,"name":"squart guy","steam_id":76561199411560141,"connected_time":267000000000,"state":"active","ping":49},{"user_id":828,"name":"rat gets the cheese","steam_id":76561198031234032,"connected_time":1206000000000,"state":"active","ping":90},{"user_id":791,"name":"The Great Eagle Scourge of 1822","steam_id":76561198325086209,"connected_time":5403000000000,"state":"active","ping":73},{"user_id":849,"name":"Dapper","steam_id":76561198103189993,"connected_time":143000000000,"state":"active","ping":76},{"user_id":842,"name":"Chocc-_-","steam_id":76561198068070211,"connected_time":477000000000,"state":"active","ping":83},{"user_id":846,"name":"Jodi","steam_id":76561198131833567,"connected_time":265000000000,"state":"active","ping":67},{"user_id":812,"name":"fragadelphia","steam_id":76561198066116363,"connected_time":3208000000000,"state":"active","ping":52},{"user_id":641,"name":"Hindmost","steam_id":76561199081837220,"connected_time":20709000000000,"state":"active","ping":114},{"user_id":833,"name":"ManaTail","steam_id":76561198093829608,"connected_time":1067000000000,"state":"active","ping":75},{"user_id":847,"name":"henroo_d","steam_id":76561198197540475,"connected_time":258000000000,"state":"active","ping":56},{"user_id":834,"name":"NEBULA","steam_id":76561198086878595,"connected_time":1064000000000,"state":"active","ping":74},{"user_id":848,"name":"Copy","steam_id":76561198025031590,"connected_time":225000000000,"state":"active","ping":47},{"user_id":839,"name":"arugula muncha","steam_id":76561198131166135,"connected_time":821000000000,"state":"active","ping":41},{"user_id":832,"name":"big fish","steam_id":76561198186479818,"connected_time":1088000000000,"state":"active","ping":76},{"user_id":838,"name":"4 life","steam_id":76561198175961598,"connected_time":823000000000,"state":"active","ping":91},{"user_id":799,"name":"Lamb","steam_id":76561198330819554,"connected_time":4819000000000,"state":"active","ping":74},{"user_id":826,"name":"Sniff","steam_id":76561198010270922,"connected_time":1216000000000,"state":"active","ping":68},{"user_id":836,"name":"Tazzzy18 YTlive","steam_id":76561198280897107,"connected_time":957000000000,"state":"active","ping":45},{"user_id":841,"name":"mega","steam_id":76561198089520959,"connected_time":707000000000,"state":"active","ping":102},{"user_id":811,"name":"profile name","steam_id":76561198032625036,"connected_time":3481000000000,"state":"active","ping":60},{"user_id":843,"name":"rushy :))","steam_id":76561198065825165,"connected_time":435000000000,"state":"active","ping":103}]},{"server_id":119,"name":"Uncletopia | Seattle | 2 | All Maps","name_short":"sea-2","host":"sea-1.us.uncletopia.com","port":27025,"enabled":true,"region":"us-west","cc":"us","latitude":47.608013,"longitude":-122.33517,"reserved":0,"last_update":"0001-01-01T00:00:00Z","name_a2s":"Uncletopia | Seattle | 2 | All Maps","protocol":17,"map":"koth_badlands","folder":"tf","game":"Team Fortress","app_id":440,"player_count":24,"max_players":24,"Bots":0,"server_type":"Dedicated","server_os":"Linux","password":true,"vac":true,"version":"7961495","steam_id":85568392924469998,"keywords":["cp","nocrits","nodmgspread","uncletopia"],"game_id":440,"stv_port":27026,"stv_name":"Uncletopia | Seattle | 2 | All Maps | STV","players":[{"user_id":531,"name":"MonkeyNobody","steam_id":76561199451266605,"connected_time":2775000000000,"state":"active","ping":62},{"user_id":513,"name":"Savaqa","steam_id":76561198158016688,"connected_time":3598000000000,"state":"active","ping":60},{"user_id":551,"name":"Rafl","steam_id":76561198055222756,"connected_time":947000000000,"state":"active","ping":104},{"user_id":514,"name":"mmmBoyo","steam_id":76561198821360261,"connected_time":3564000000000,"state":"active","ping":37},{"user_id":561,"name":"NSupremo","steam_id":76561198246121948,"connected_time":70000000000,"state":"active","ping":59},{"user_id":560,"name":"Deflar","steam_id":76561197967401484,"connected_time":368000000000,"state":"active","ping":103},{"user_id":554,"name":"spiderland","steam_id":76561198335992132,"connected_time":787000000000,"state":"active","ping":42},{"user_id":543,"name":"Fivan","steam_id":76561198097145922,"connected_time":1973000000000,"state":"active","ping":108},{"user_id":521,"name":"Dairyboi","steam_id":76561198119069462,"connected_time":3259000000000,"state":"active","ping":46},{"user_id":522,"name":"resh!","steam_id":76561198066619792,"connected_time":3249000000000,"state":"active","ping":78},{"user_id":523,"name":"mub","steam_id":76561197961943948,"connected_time":3219000000000,"state":"active","ping":46},{"user_id":549,"name":"aristotle_fan2291","steam_id":76561198849108042,"connected_time":1283000000000,"state":"active","ping":78},{"user_id":556,"name":"QwipQwop","steam_id":76561198019028725,"connected_time":504000000000,"state":"active","ping":135},{"user_id":550,"name":"Lumberjane37 (She/Her)","steam_id":76561198014841793,"connected_time":1280000000000,"state":"active","ping":79},{"user_id":431,"name":"io_est","steam_id":76561198079538952,"connected_time":8615000000000,"state":"active","ping":42},{"user_id":527,"name":"WillowWisp","steam_id":76561198049104842,"connected_time":3030000000000,"state":"active","ping":45},{"user_id":547,"name":"Jest","steam_id":76561198170173062,"connected_time":1312000000000,"state":"active","ping":75},{"user_id":546,"name":"Medic!","steam_id":76561198119759695,"connected_time":1552000000000,"state":"active","ping":75},{"user_id":530,"name":"The Caretaker","steam_id":76561198125241411,"connected_time":2805000000000,"state":"active","ping":125},{"user_id":559,"name":"muck","steam_id":76561198120437909,"connected_time":416000000000,"state":"active","ping":107},{"user_id":494,"name":"NormalManPerson","steam_id":76561198007436312,"connected_time":4864000000000,"state":"active","ping":49},{"user_id":544,"name":"The milkman (milks you)","steam_id":76561199155456102,"connected_time":1961000000000,"state":"active","ping":29},{"user_id":536,"name":"2 Point Tom","steam_id":76561198087617008,"connected_time":2393000000000,"state":"active","ping":57},{"user_id":545,"name":"Your Casual Fox","steam_id":76561198079751767,"connected_time":1930000000000,"state":"active","ping":76}]},{"server_id":406,"name":"Uncletopia | Seattle | 3 | Stopwatch","name_short":"sea-3","host":"sea-1.us.uncletopia.com","port":27035,"enabled":true,"region":"us-west","cc":"us","latitude":47.608013,"longitude":-122.33517,"reserved":0,"last_update":"0001-01-01T00:00:00Z","name_a2s":"Uncletopia | Seattle | 3 | Stopwatch","protocol":17,"map":"workshop/koth_clearcut_b15.ugc2107050255","folder":"tf","game":"Team Fortress","app_id":440,"player_count":0,"max_players":24,"Bots":0,"server_type":"Dedicated","server_os":"Linux","password":true,"vac":true,"version":"7961495","steam_id":85568392924515217,"keywords":["cp","nocrits","nodmgspread","uncletopia"],"game_id":440,"stv_port":27036,"stv_name":"Uncletopia | Seattle | 3 | Stopwatch | STV","players":null},{"server_id":17,"name":"Uncletopia | San Francisco | 1 | All Maps","name_short":"sfo-1","host":"sfo-1.us.uncletopia.com","port":27015,"enabled":true,"region":"us-west","cc":"us","latitude":37.77397,"longitude":-122.4313,"reserved":0,"last_update":"0001-01-01T00:00:00Z","name_a2s":"Uncletopia | San Francisco | 1 | All Maps","protocol":17,"map":"pl_upward","folder":"tf","game":"Team Fortress","app_id":440,"player_count":24,"max_players":24,"Bots":0,"server_type":"Dedicated","server_os":"Linux","password":true,"vac":true,"version":"7961495","steam_id":85568392924469999,"keywords":["nocrits","nodmgspread","payload","uncletopia"],"game_id":440,"stv_port":27016,"stv_name":"Uncletopia | San Francisco | 1 | All Maps | STV","players":[{"user_id":470,"name":"WaveSmash","steam_id":76561198208785485,"connected_time":373000000000,"state":"active","ping":74},{"user_id":459,"name":"WhiteRavenHein","steam_id":76561198177166535,"connected_time":1629000000000,"state":"active","ping":60},{"user_id":457,"name":"Scorpianswag","steam_id":76561198260651036,"connected_time":1849000000000,"state":"active","ping":48},{"user_id":449,"name":"Kiilys","steam_id":76561198326068377,"connected_time":2573000000000,"state":"active","ping":80},{"user_id":421,"name":"func_meow","steam_id":76561199013175414,"connected_time":3930000000000,"state":"active","ping":126},{"user_id":469,"name":"Lucas69","steam_id":76561198040019814,"connected_time":411000000000,"state":"active","ping":78},{"user_id":450,"name":"KazmirlYT","steam_id":76561198116008410,"connected_time":2535000000000,"state":"active","ping":78},{"user_id":478,"name":"how do i control my guy?","steam_id":76561198158855211,"connected_time":163000000000,"state":"active","ping":65},{"user_id":453,"name":"Tomoscones","steam_id":76561198813586588,"connected_time":2467000000000,"state":"active","ping":58},{"user_id":468,"name":"Alcohol Hominid","steam_id":76561198320313950,"connected_time":419000000000,"state":"active","ping":98},{"user_id":471,"name":"Ian","steam_id":76561198159334435,"connected_time":312000000000,"state":"active","ping":172},{"user_id":481,"name":"Seshreb","steam_id":76561198846614634,"connected_time":70000000000,"state":"active","ping":68},{"user_id":427,"name":"jovial","steam_id":76561198297130941,"connected_time":3299000000000,"state":"active","ping":57},{"user_id":473,"name":"DamienIsAsian","steam_id":76561198228819444,"connected_time":275000000000,"state":"active","ping":57},{"user_id":402,"name":"Cave Dweller","steam_id":76561198374825685,"connected_time":5466000000000,"state":"active","ping":60},{"user_id":461,"name":"Koffy","steam_id":76561198184386039,"connected_time":1590000000000,"state":"active","ping":88},{"user_id":472,"name":"Galactamarx","steam_id":76561198028065755,"connected_time":302000000000,"state":"active","ping":118},{"user_id":474,"name":"Spam The Alien","steam_id":76561199122290968,"connected_time":267000000000,"state":"active","ping":91},{"user_id":475,"name":"bengineer","steam_id":76561198171912174,"connected_time":258000000000,"state":"active","ping":74},{"user_id":476,"name":"the meat man","steam_id":76561198037921140,"connected_time":239000000000,"state":"active","ping":47},{"user_id":477,"name":"badass","steam_id":76561198404271005,"connected_time":170000000000,"state":"active","ping":74},{"user_id":480,"name":"jasus","steam_id":76561198088035919,"connected_time":140000000000,"state":"active","ping":61},{"user_id":465,"name":"randomguy","steam_id":76561198381258047,"connected_time":1430000000000,"state":"active","ping":78},{"user_id":439,"name":"OzzyAkiro47","steam_id":76561199076449499,"connected_time":3086000000000,"state":"active","ping":63}]},{"server_id":18,"name":"Uncletopia | San Francisco | 2 | All Maps","name_short":"sfo-2","host":"sfo-1.us.uncletopia.com","port":27025,"enabled":true,"region":"us-west","cc":"us","latitude":37.77397,"longitude":-122.4313,"reserved":0,"last_update":"0001-01-01T00:00:00Z","name_a2s":"Uncletopia | San Francisco | 2 | All Maps","protocol":17,"map":"cp_dustbowl","folder":"tf","game":"Team Fortress","app_id":440,"player_count":0,"max_players":24,"Bots":0,"server_type":"Dedicated","server_os":"Linux","password":true,"vac":true,"version":"7961495","steam_id":85568392924470000,"keywords":["cp","nocrits","nodmgspread","uncletopia"],"game_id":440,"stv_port":27026,"stv_name":"Uncletopia | San Francisco | 2 | All Maps | STV","players":null},{"server_id":19,"name":"Uncletopia | San Francisco | 3 | Stopwatch","name_short":"sfo-3","host":"sfo-1.us.uncletopia.com","port":27035,"enabled":true,"region":"us-west","cc":"us","latitude":37.77397,"longitude":-122.4313,"reserved":0,"last_update":"0001-01-01T00:00:00Z","name_a2s":"Uncletopia | San Francisco | 3 | Stopwatch","protocol":17,"map":"workshop/koth_ramjam_rc1.ugc459778887","folder":"tf","game":"Team Fortress","app_id":440,"player_count":0,"max_players":24,"Bots":0,"server_type":"Dedicated","server_os":"Linux","password":true,"vac":true,"version":"7961495","steam_id":85568392924742824,"keywords":["cp","nocrits","nodmgspread","uncletopia"],"game_id":440,"stv_port":27036,"stv_name":"Uncletopia | San Francisco | 3 | Stopwatch | STV","players":null},{"server_id":20,"name":"Uncletopia | San Francisco | 4 | Community","name_short":"sfo-4","host":"sfo-1.us.uncletopia.com","port":27045,"enabled":true,"region":"us-west","cc":"us","latitude":37.77397,"longitude":-122.4313,"reserved":0,"last_update":"0001-01-01T00:00:00Z","name_a2s":"Uncletopia | San Francisco | 4 | Community","protocol":17,"map":"workshop/koth_product_final.ugc454272353","folder":"tf","game":"Team Fortress","app_id":440,"player_count":0,"max_players":24,"Bots":0,"server_type":"Dedicated","server_os":"Linux","password":true,"vac":true,"version":"7961495","steam_id":85568392924742826,"keywords":["cp","nocrits","nodmgspread","uncletopia"],"game_id":440,"stv_port":27046,"stv_name":"Uncletopia | San Francisco | 4 | Community | STV","players":null},{"server_id":141,"name":"Uncletopia | Sydney | 1 | All Maps","name_short":"syd-1","host":"syd-1.au.uncletopia.com","port":27015,"enabled":true,"region":"au","cc":"au","latitude":-33.865143,"longitude":151.2099,"reserved":0,"last_update":"0001-01-01T00:00:00Z","name_a2s":"Uncletopia | Sydney | 1 | All Maps","protocol":17,"map":"koth_viaduct","folder":"tf","game":"Team Fortress","app_id":440,"player_count":23,"max_players":24,"Bots":0,"server_type":"Dedicated","server_os":"Linux","password":true,"vac":true,"version":"7961495","steam_id":85568392924470001,"keywords":["cp","nocrits","nodmgspread","uncletopia"],"game_id":440,"stv_port":27016,"stv_name":"Uncletopia | Sydney | 1 | All Maps | STV","players":[{"user_id":127,"name":"76561199365669004","steam_id":76561199365669004,"connected_time":2251000000000,"state":"active","ping":51},{"user_id":167,"name":"Zieria","steam_id":76561199261811388,"connected_time":76000000000,"state":"active","ping":35},{"user_id":162,"name":"little raw meat boy","steam_id":76561199248254676,"connected_time":334000000000,"state":"active","ping":57},{"user_id":116,"name":"dobsonpilled","steam_id":76561198258226686,"connected_time":2596000000000,"state":"active","ping":81},{"user_id":164,"name":"Sexy Turtle","steam_id":76561198256865969,"connected_time":271000000000,"state":"active","ping":45},{"user_id":168,"name":"dumbvent","steam_id":76561198190062810,"connected_time":71000000000,"state":"active","ping":60},{"user_id":150,"name":"DrPotatogun","steam_id":76561198107664149,"connected_time":696000000000,"state":"active","ping":67},{"user_id":161,"name":"cas ganister","steam_id":76561198879023728,"connected_time":370000000000,"state":"active","ping":52},{"user_id":165,"name":"juusha | NEW PC!","steam_id":76561198911542330,"connected_time":212000000000,"state":"active","ping":79},{"user_id":138,"name":"morrissey apologist","steam_id":76561198133901159,"connected_time":1179000000000,"state":"active","ping":70},{"user_id":100,"name":"Selling Anti-Matter for $543","steam_id":76561198070708382,"connected_time":3039000000000,"state":"active","ping":46},{"user_id":139,"name":"a jar of Vegemite","steam_id":76561198440517245,"connected_time":1173000000000,"state":"active","ping":51},{"user_id":166,"name":"Snowy","steam_id":76561198255720598,"connected_time":188000000000,"state":"active","ping":52},{"user_id":152,"name":"qeuvl","steam_id":76561198170727659,"connected_time":683000000000,"state":"active","ping":75},{"user_id":149,"name":"Lobart√©","steam_id":76561198090116136,"connected_time":725000000000,"state":"active","ping":63},{"user_id":136,"name":"mydnite - Needs island holiday","steam_id":76561197963764145,"connected_time":1332000000000,"state":"active","ping":46},{"user_id":153,"name":"Pompadouraus","steam_id":76561198327530525,"connected_time":636000000000,"state":"active","ping":79},{"user_id":146,"name":"Almighty Tuna","steam_id":76561198010173027,"connected_time":825000000000,"state":"active","ping":75},{"user_id":114,"name":"amps","steam_id":76561198060894632,"connected_time":2748000000000,"state":"active","ping":60},{"user_id":145,"name":"voxii","steam_id":76561198099698281,"connected_time":865000000000,"state":"active","ping":71},{"user_id":117,"name":"splinter","steam_id":76561198829233631,"connected_time":2561000000000,"state":"active","ping":54},{"user_id":159,"name":"human696982","steam_id":76561199496222946,"connected_time":479000000000,"state":"active","ping":169},{"user_id":160,"name":"JayCatnip","steam_id":76561198125106357,"connected_time":434000000000,"state":"active","ping":72}]},{"server_id":123,"name":"Uncletopia | Sydney | 2 | All Maps","name_short":"syd-2","host":"syd-1.au.uncletopia.com","port":27025,"enabled":true,"region":"au","cc":"au","latitude":-33.865143,"longitude":151.2099,"reserved":0,"last_update":"0001-01-01T00:00:00Z","name_a2s":"Uncletopia | Sydney | 2 | All Maps","protocol":17,"map":"koth_lakeside_final","folder":"tf","game":"Team Fortress","app_id":440,"player_count":0,"max_players":24,"Bots":0,"server_type":"Dedicated","server_os":"Linux","password":true,"vac":true,"version":"7961495","steam_id":85568392924470002,"keywords":["cp","nocrits","nodmgspread","uncletopia"],"game_id":440,"stv_port":27026,"stv_name":"Uncletopia | Sydney | 2 | All Maps | STV","players":null},{"server_id":395,"name":"Uncletopia | Sydney | 3 | All Maps","name_short":"syd-3","host":"syd-1.au.uncletopia.com","port":27035,"enabled":true,"region":"au","cc":"au","latitude":-33.865143,"longitude":151.2099,"reserved":0,"last_update":"0001-01-01T00:00:00Z","name_a2s":"Uncletopia | Sydney | 3 | All Maps","protocol":17,"map":"cp_process_final","folder":"tf","game":"Team Fortress","app_id":440,"player_count":0,"max_players":24,"Bots":0,"server_type":"Dedicated","server_os":"Linux","password":true,"vac":true,"version":"7961495","steam_id":85568392925194467,"keywords":["cp","nocrits","nodmgspread","uncletopia"],"game_id":440,"stv_port":27036,"stv_name":"Uncletopia | Sydney | 3 | All Maps | STV","players":null},{"server_id":396,"name":"Uncletopia | Sydney | 4 | All Maps","name_short":"syd-4","host":"syd-1.au.uncletopia.com","port":27045,"enabled":true,"region":"au","cc":"au","latitude":-33.865143,"longitude":151.2099,"reserved":0,"last_update":"0001-01-01T00:00:00Z","name_a2s":"Uncletopia | Sydney | 4 | All Maps","protocol":17,"map":"cp_process_final","folder":"tf","game":"Team Fortress","app_id":440,"player_count":0,"max_players":24,"Bots":0,"server_type":"Dedicated","server_os":"Linux","password":true,"vac":true,"version":"7961495","steam_id":85568392925397958,"keywords":["cp","nocrits","nodmgspread","uncletopia"],"game_id":440,"stv_port":27046,"stv_name":"Uncletopia | Sydney | 4 | All Maps | STV","players":null},{"server_id":58,"name":"Uncletopia | Sydney | 5 | Stopwatch","name_short":"syd-5","host":"syd-1.au.uncletopia.com","port":27055,"enabled":true,"region":"au","cc":"au","latitude":-33.865143,"longitude":151.2099,"reserved":0,"last_update":"0001-01-01T00:00:00Z","name_a2s":"Uncletopia | Sydney | 5 | Stopwatch","protocol":17,"map":"workshop/koth_product_final.ugc454272353","folder":"tf","game":"Team Fortress","app_id":440,"player_count":3,"max_players":24,"Bots":0,"server_type":"Dedicated","server_os":"Linux","password":true,"vac":true,"version":"7961495","steam_id":85568392925397959,"keywords":["cp","nocrits","nodmgspread","uncletopia"],"game_id":440,"stv_port":27056,"stv_name":"Uncletopia | Sydney | 5 | Stopwatch | STV","players":[{"user_id":3,"name":"Matokuo","steam_id":76561198258806237,"connected_time":1025000000000,"state":"active","ping":31},{"user_id":4,"name":"AsqwX","steam_id":76561199024491129,"connected_time":988000000000,"state":"active","ping":39},{"user_id":5,"name":"MatE","steam_id":76561199085104041,"connected_time":936000000000,"state":"active","ping":200}]},{"server_id":59,"name":"Uncletopia | Sydney | 6 | Community","name_short":"syd-6","host":"syd-1.au.uncletopia.com","port":27065,"enabled":true,"region":"au","cc":"au","latitude":-33.865143,"longitude":151.2099,"reserved":0,"last_update":"0001-01-01T00:00:00Z","name_a2s":"Uncletopia | Sydney | 6 | Community","protocol":17,"map":"workshop/cp_sulfur_rc2.ugc619869471","folder":"tf","game":"Team Fortress","app_id":440,"player_count":0,"max_players":24,"Bots":0,"server_type":"Dedicated","server_os":"Linux","password":true,"vac":true,"version":"7961495","steam_id":85568392925397960,"keywords":["cp","nocrits","nodmgspread","uncletopia"],"game_id":440,"stv_port":27066,"stv_name":"Uncletopia | Sydney | 6 | Community | STV","players":null},{"server_id":49,"name":"Uncletopia | Warsaw | 1 | One Thousand Uncles","name_short":"waw-1","host":"waw-1.pl.uncletopia.com","port":27015,"enabled":true,"region":"eu","cc":"pl","latitude":52.2297,"longitude":21.017532,"reserved":0,"last_update":"0001-01-01T00:00:00Z","name_a2s":"Uncletopia | Warsaw | 1 | One Thousand Uncles","protocol":17,"map":"koth_highpass","folder":"tf","game":"Team Fortress","app_id":440,"player_count":0,"max_players":32,"Bots":0,"server_type":"Dedicated","server_os":"Linux","password":true,"vac":true,"version":"7961495","steam_id":85568392925397850,"keywords":["alltalk","cp","danepve","increased_maxplayers","nocrits","norespawntime","uncletopia"],"game_id":440,"stv_port":0,"stv_name":"","players":null},{"server_id":50,"name":"Uncletopia | Warsaw | 2 | One Thousand Uncles","name_short":"waw-2","host":"waw-1.pl.uncletopia.com","port":27025,"enabled":true,"region":"eu","cc":"pl","latitude":52.2297,"longitude":21.017532,"reserved":0,"last_update":"0001-01-01T00:00:00Z","name_a2s":"Uncletopia | Warsaw | 2 | One Thousand Uncles","protocol":17,"map":"pl_goldrush","folder":"tf","game":"Team Fortress","app_id":440,"player_count":0,"max_players":32,"Bots":0,"server_type":"Dedicated","server_os":"Linux","password":true,"vac":true,"version":"7961495","steam_id":85568392925397851,"keywords":["alltalk","danepve","increased_maxplayers","nocrits","norespawntime","payload","uncletopia"],"game_id":440,"stv_port":0,"stv_name":"","players":null},{"server_id":51,"name":"Uncletopia | Warsaw | 3 | All Maps","name_short":"waw-3","host":"waw-1.pl.uncletopia.com","port":27035,"enabled":true,"region":"eu","cc":"pl","latitude":52.2297,"longitude":21.017532,"reserved":0,"last_update":"0001-01-01T00:00:00Z","name_a2s":"Uncletopia | Warsaw | 3 | All Maps","protocol":17,"map":"plr_pipeline","folder":"tf","game":"Team Fortress","app_id":440,"player_count":0,"max_players":24,"Bots":0,"server_type":"Dedicated","server_os":"Linux","password":true,"vac":true,"version":"7961495","steam_id":85568392925397852,"keywords":["nocrits","nodmgspread","payload","uncletopia"],"game_id":440,"stv_port":27036,"stv_name":"Uncletopia | Warsaw | 3 | All Maps | STV","players":null},{"server_id":52,"name":"Uncletopia | Warsaw | 4 | All Maps","name_short":"waw-4","host":"waw-1.pl.uncletopia.com","port":27045,"enabled":true,"region":"eu","cc":"pl","latitude":52.2297,"longitude":21.017532,"reserved":0,"last_update":"0001-01-01T00:00:00Z","name_a2s":"Uncletopia | Warsaw | 4 | All Maps","protocol":17,"map":"pl_snowycoast","folder":"tf","game":"Team Fortress","app_id":440,"player_count":0,"max_players":24,"Bots":0,"server_type":"Dedicated","server_os":"Linux","password":true,"vac":true,"version":"7961495","steam_id":85568392925397853,"keywords":["nocrits","nodmgspread","payload","uncletopia"],"game_id":440,"stv_port":27046,"stv_name":"Uncletopia | Warsaw | 4 | All Maps | STV","players":null},{"server_id":53,"name":"Uncletopia | Warsaw | 5 | Stopwatch","name_short":"waw-5","host":"waw-1.pl.uncletopia.com","port":27055,"enabled":true,"region":"eu","cc":"pl","latitude":52.2297,"longitude":21.017532,"reserved":0,"last_update":"0001-01-01T00:00:00Z","name_a2s":"Uncletopia | Warsaw | 5 | Stopwatch","protocol":17,"map":"workshop/koth_bagel_rc6.ugc2514036946","folder":"tf","game":"Team Fortress","app_id":440,"player_count":0,"max_players":24,"Bots":0,"server_type":"Dedicated","server_os":"Linux","password":true,"vac":true,"version":"7961495","steam_id":85568392925397854,"keywords":["cp","nocrits","nodmgspread","uncletopia"],"game_id":440,"stv_port":27056,"stv_name":"Uncletopia | Warsaw | 5 | Stopwatch | STV","players":null},{"server_id":54,"name":"Uncletopia | Warsaw | 6 | Community","name_short":"waw-6","host":"waw-1.pl.uncletopia.com","port":27065,"enabled":true,"region":"eu","cc":"pl","latitude":52.2297,"longitude":21.017532,"reserved":0,"last_update":"0001-01-01T00:00:00Z","name_a2s":"Uncletopia | Warsaw | 6 | Community","protocol":17,"map":"workshop/pl_badwater_pro_v12.ugc2142942074","folder":"tf","game":"Team Fortress","app_id":440,"player_count":0,"max_players":24,"Bots":0,"server_type":"Dedicated","server_os":"Linux","password":true,"vac":true,"version":"7961495","steam_id":85568392925397856,"keywords":["nocrits","nodmgspread","payload","uncletopia"],"game_id":440,"stv_port":27066,"stv_name":"Uncletopia | Warsaw | 6 | Community | STV","players":null}]}