{"status":true,"message":"","result":[{"server_id":9,"name":"Uncletopia | Atlanta | 1 | All Maps","name_short":"atl-1","host":"atl-1.us.uncletopia.com","port":27015,"enabled":true,"region":"us-east","cc":"us","latitude":33.753746,"longitude":-84.38633,"reserved":0,"last_update":"0001-01-01T00:00:00Z","name_a2s":"Uncletopia | Atlanta | 1 | All Maps","protocol":17,"map":"pl_borneo","folder":"tf","game":"Team Fortress","app_id":440,"player_count":24,"max_players":24,"Bots":0,"server_type":"Dedicated","server_os":"Linux","password":true,"vac":true,"version":"7961495","steam_id":85568392924469982,"keywords":["nocrits","nodmgspread","payload","uncletopia"],"game_id":440,"stv_port":27016,"stv_name":"Uncletopia | Atlanta | 1 | All Maps | STV","players":[{"user_id":88,"name":"Just PYE","steam_id":76561199439622967,"connected_time":3876000000000,"state":"active","ping":73},{"user_id":121,"name":"Eins Shinigami","steam_id":76561199030343810,"connected_time":119000000000,"state":"active","ping":37},{"user_id":119,"name":"Squanchy","steam_id":76561198036319676,"connected_time":193000000000,"state":"active","ping":43},{"user_id":108,"name":"Grim","steam_id":76561198225241776,"connected_time":2018000000000,"state":"active","ping":70},{"user_id":69,"name":"why","steam_id":76561199059732212,"connected_time":7087000000000,"state":"active","ping":53},{"user_id":107,"name":"i got a new old mouse","steam_id":76561198421913648,"connected_time":2086000000000,"state":"active","ping":105},{"user_id":110,"name":"Lefty [Gentlemen of Leisure]","steam_id":76561197980825914,"connected_time":1161000000000,"state":"active","ping":84},{"user_id":98,"name":"Decolour","steam_id":76561199045608372,"connected_time":2630000000000,"state":"active","ping":76},{"user_id":109,"name":"Dreszerg","steam_id":76561198838757422,"connected_time":1773000000000,"state":"active","ping":82},{"user_id":115,"name":"ImWishin","steam_id":76561198277198222,"connected_time":850000000000,"state":"active","ping":61},{"user_id":83,"name":"BeastRyder","steam_id":76561198330281584,"connected_time":4876000000000,"state":"active","ping":78},{"user_id":92,"name":"Trapilicious","steam_id":76561198061430457,"connected_time":3545000000000,"state":"active","ping":68},{"user_id":50,"name":"gretchling","steam_id":76561198046111695,"connected_time":8422000000000,"state":"active","ping":63},{"user_id":74,"name":"Lolxdloldx","steam_id":76561198136887125,"connected_time":6162000000000,"state":"active","ping":99},{"user_id":105,"name":"Melaza Madera","steam_id":76561199031977210,"connected_time":2261000000000,"state":"active","ping":45},{"user_id":46,"name":"marisa kirisame","steam_id":76561198070327681,"connected_time":8628000000000,"state":"active","ping":73},{"user_id":122,"name":"twitch.tv/axities","steam_id":76561198278008225,"connected_time":115000000000,"state":"active","ping":55},{"user_id":113,"name":"You Don't Nomi.","steam_id":76561197969137836,"connected_time":1149000000000,"state":"active","ping":71},{"user_id":118,"name":"Ice","steam_id":76561198045076794,"connected_time":522000000000,"state":"active","ping":70},{"user_id":111,"name":"Artixes","steam_id":76561198379574232,"connected_time":1161000000000,"state":"active","ping":37},{"user_id":120,"name":"funny squid!!!!","steam_id":76561198024264744,"connected_time":147000000000,"state":"active","ping":61},{"user_id":104,"name":"Amy Roxwell","steam_id":76561198303391830,"connected_time":2286000000000,"state":"active","ping":107},{"user_id":80,"name":"hi","steam_id":76561198809577048,"connected_time":5534000000000,"state":"active","ping":107},{"user_id":61,"name":"Nescio","steam_id":76561198119526760,"connected_time":8147000000000,"state":"active","ping":85}]},{"server_id":104,"name":"Uncletopia | Atlanta | 2 | All Maps","name_short":"atl-2","host":"atl-1.us.uncletopia.com","port":27025,"enabled":true,"region":"us-east","cc":"us","latitude":33.753746,"longitude":-84.38633,"reserved":0,"last_update":"0001-01-01T00:00:00Z","name_a2s":"Uncletopia | Atlanta | 2 | All Maps","protocol":17,"map":"koth_cascade","folder":"tf","game":"Team Fortress","app_id":440,"player_count":0,"max_players":24,"Bots":0,"server_type":"Dedicated","server_os":"Linux","password":true,"vac":true,"version":"7961495","steam_id":85568392924469983,"keywords":["cp","nocrits","nodmgspread","uncletopia"],"game_id":440,"stv_port":27026,"stv_name":"Uncletopia | Atlanta | 2 | All Maps | STV","players":null},{"server_id":400,"name":"Uncletopia | Atlanta | 3 | Stopwatch","name_short":"atl-3","host":"atl-1.us.uncletopia.com","port":27035,"enabled":true,"region":"us-east","cc":"us","latitude":33.753746,"longitude":-84.38633,"reserved":0,"last_update":"0001-01-01T00:00:00Z","name_a2s":"Uncletopia | Atlanta | 3 | Stopwatch","protocol":17,"map":"pl_upward","folder":"tf","game":"Team Fortress","app_id":440,"player_count":0,"max_players":24,"Bots":0,"server_type":"Dedicated","server_os":"Linux","password":true,"vac":true,"version":"7961495","steam_id":85568392924515187,"keywords":["nocrits","nodmgspread","payload","uncletopia"],"game_id":440,"stv_port":27036,"stv_name":"Uncletopia | Atlanta | 3 | Stopwatch | STV","players":null},{"server_id":401,"name":"Uncletopia | Atlanta | 4 | Community","name_short":"atl-4","host":"atl-1.us.uncletopia.com","port":27045,"enabled":true,"region":"us-east","cc":"us","latitude":33.753746,"longitude":-84.38633,"reserved":0,"last_update":"0001-01-01T00:00:00Z","name_a2s":"Uncletopia | Atlanta | 4 | Community","protocol":17,"map":"workshop/koth_product_final.ugc454272353","folder":"tf","game":"Team Fortress","app_id":440,"player_count":0,"max_players":24,"Bots":0,"server_type":"Dedicated","server_os":"Linux","password":true,"vac":true,"version":"7961495","steam_id":85568392924515188,"keywords":["cp","nocrits","nodmgspread","uncletopia"],"game_id":440,"stv_port":27046,"stv_name":"Uncletopia | Atlanta | 4 | Community | STV","players":null},{"server_id":2,"name":"Uncletopia | Chicago | 1 | All Maps","name_short":"chi-1","host":"chi-1.us.uncletopia.com","port":27015,"enabled":true,"region":"us-central","cc":"us","latitude":41.881832,"longitude":-87.62318,"reserved":0,"last_update":"0001-01-01T00:00:00Z","name_a2s":"Uncletopia | Chicago | 1 | All Maps","protocol":17,"map":"pl_badwater","folder":"tf","game":"Team Fortress","app_id":440,"player_count":24,"max_players":24,"Bots":0,"server_type":"Dedicated","server_os":"Linux","password":true,"vac":true,"version":"7961495","steam_id":85568392924469984,"keywords":["nocrits","nodmgspread","payload","uncletopia"],"game_id":440,"stv_port":27016,"stv_name":"Uncletopia | Chicago | 1 | All Maps | STV","players":[{"user_id":281,"name":"Zesty Zucchini Ziti","steam_id":76561198092494136,"connected_time":503000000000,"state":"active","ping":64},{"user_id":252,"name":"Swimps","steam_id":76561199095494639,"connected_time":2179000000000,"state":"active","ping":96},{"user_id":250,"name":"Dark Karl","steam_id":76561198115714484,"connected_time":2390000000000,"state":"active","ping":132},{"user_id":273,"name":"Space Lizard","steam_id":76561198056798193,"connected_time":583000000000,"state":"active","ping":73},{"user_id":259,"name":"Bagg","steam_id":76561198882821402,"connected_time":2095000000000,"state":"active","ping":85},{"user_id":283,"name":"Flap","steam_id":76561198078889633,"connected_time":470000000000,"state":"active","ping":56},{"user_id":229,"name":"(She/Her)ChamÃ©niTheÃ¡","steam_id":76561198114244051,"connected_time":3983000000000,"state":"active","ping":83},{"user_id":284,"name":"Aster","steam_id":76561198037920420,"connected_time":455000000000,"state":"active","ping":72},{"user_id":287,"name":"Womanwer","steam_id":76561198194760222,"connected_time":154000000000,"state":"active","ping":92},{"user_id":274,"name":"SpookedYa","steam_id":76561198100124291,"connected_time":577000000000,"state":"active","ping":73},{"user_id":255,"name":"CEO of Sex","steam_id":76561198224175884,"connected_time":2131000000000,"state":"active","ping":106},{"user_id":241,"name":"shalankawanak","steam_id":76561198987719376,"connected_time":2963000000000,"state":"active","ping":57},{"user_id":234,"name":"Tri-Dot","steam_id":76561199075186597,"connected_time":3756000000000,"state":"active","ping":67},{"user_id":285,"name":"Riff III","steam_id":76561198066921423,"connected_time":361000000000,"state":"active","ping":67},{"user_id":276,"name":"barbeque barbara","steam_id":76561198067007335,"connected_time":559000000000,"state":"active","ping":89},{"user_id":257,"name":"Milkmur","steam_id":76561198210043821,"connected_time":2121000000000,"state":"active","ping":74},{"user_id":262,"name":"moe","steam_id":76561198929586245,"connected_time":1889000000000,"state":"active","ping":98},{"user_id":270,"name":"pathways","steam_id":76561198054832333,"connected_time":869000000000,"state":"active","ping":50},{"user_id":288,"name":"StudioMania (#SAVETF2)","steam_id":76561198211315795,"connected_time":138000000000,"state":"active","ping":69},{"user_id":267,"name":"Orange Triangle","steam_id":76561198320498182,"connected_time":1496000000000,"state":"active","ping":55},{"user_id":278,"name":"PyroL","steam_id":76561199231966873,"connected_time":555000000000,"state":"active","ping":88},{"user_id":233,"name":"qory","steam_id":76561198152064890,"connected_time":3923000000000,"state":"active","ping":50},{"user_id":271,"name":"Sove67","steam_id":76561198069919807,"connected_time":726000000000,"state":"active","ping":82},{"user_id":279,"name":"TheGerg","steam_id":76561198257099217,"connected_time":547000000000,"state":"active","ping":75}]},{"server_id":106,"name":"Uncletopia | Chicago | 2 | All Maps","name_short":"chi-2","host":"chi-1.us.uncletopia.com","port":27025,"enabled":true,"region":"us-central","cc":"us","latitude":41.881832,"longitude":-87.62318,"reserved":0,"last_update":"0001-01-01T00:00:00Z","name_a2s":"Uncletopia | Chicago | 2 | All Maps","protocol":17,"map":"koth_badlands","folder":"tf","game":"Team Fortress","app_id":440,"player_count":24,"max_players":24,"Bots":0,"server_type":"Dedicated","server_os":"Linux","password":true,"vac":true,"version":"7961495","steam_id":85568392924469985,"keywords":["cp","nocrits","nodmgspread","uncletopia"],"game_id":440,"stv_port":27026,"stv_name":"Uncletopia | Chicago | 2 | All Maps | STV","players":[{"user_id":130,"name":"cat","steam_id":76561198366828434,"connected_time":1951000000000,"state":"active","ping":85},{"user_id":147,"name":"gooch_masta","steam_id":76561198151578423,"connected_time":300000000000,"state":"active","ping":59},{"user_id":151,"name":"Jruhh","steam_id":76561198842477772,"connected_time":265000000000,"state":"active","ping":173},{"user_id":158,"name":"Pigeon","steam_id":76561198335421580,"connected_time":225000000000,"state":"active","ping":80},{"user_id":161,"name":"serious","steam_id":76561198040671133,"connected_time":1000000000,"state":"spawning","ping":42},{"user_id":141,"name":"DYuji","steam_id":76561198131465572,"connected_time":821000000000,"state":"active","ping":72},{"user_id":152,"name":"Rat Bastard","steam_id":76561198153443658,"connected_time":265000000000,"state":"active","ping":83},{"user_id":17,"name":"Luxembird","steam_id":76561198079992107,"connected_time":10992000000000,"state":"active","ping":86},{"user_id":139,"name":"Andallfor","steam_id":76561198350143349,"connected_time":1318000000000,"state":"active","ping":72},{"user_id":153,"name":"adam0o0","steam_id":76561198052250279,"connected_time":263000000000,"state":"active","ping":69},{"user_id":145,"name":"Glw","steam_id":76561198012410589,"connected_time":491000000000,"state":"active","ping":144},{"user_id":154,"name":"my name jeff","steam_id":76561198179816898,"connected_time":262000000000,"state":"active","ping":81},{"user_id":155,"name":"Nelson TF2EASY.COM","steam_id":76561198850327678,"connected_time":256000000000,"state":"active","ping":90},{"user_id":123,"name":"The Extra Crispy Colonel","steam_id":76561198153495976,"connected_time":2479000000000,"state":"active","ping":46},{"user_id":125,"name":"Hashmere","steam_id":76561198002797253,"connected_time":2353000000000,"state":"active","ping":84},{"user_id":113,"name":"Daksuki","steam_id":76561198084127751,"connected_time":3473000000000,"state":"active","ping":75},{"user_id":114,"name":"1-800-GHOST-DANCE","steam_id":76561198835430429,"connected_time":3447000000000,"state":"active","ping":91},{"user_id":157,"name":"GardenOfStone","steam_id":76561199069870534,"connected_time":245000000000,"state":"active","ping":82},{"user_id":135,"name":"Banks","steam_id":76561198276505537,"connected_time":1693000000000,"state":"active","ping":65},{"user_id":159,"name":"All Tomorrow's Parties","steam_id":76561197995936212,"connected_time":223000000000,"state":"active","ping":58},{"user_id":137,"name":"Jerk Tryhard (roleplay)","steam_id":76561199470538309,"connected_time":1549000000000,"state":"active","ping":147},{"user_id":132,"name":"fish.EXE","steam_id":76561198995564430,"connected_time":1894000000000,"state":"active","ping":62},{"user_id":160,"name":"bonked off the hobo","steam_id":76561198123287268,"connected_time":157000000000,"state":"active","ping":45}]},{"server_id":402,"name":"Uncletopia | Chicago | 3 | All Maps","name_short":"chi-3","host":"chi-1.us.uncletopia.com","port":27035,"enabled":true,"region":"us-central","cc":"us","latitude":41.881832,"longitude":-87.62318,"reserved":0,"last_update":"0001-01-01T00:00:00Z","name_a2s":"Uncletopia | Chicago | 3 | All Maps","protocol":17,"map":"pl_barnblitz","folder":"tf","game":"Team Fortress","app_id":440,"player_count":24,"max_players":24,"Bots":0,"server_type":"Dedicated","server_os":"Linux","password":true,"vac":true,"version":"7961495","steam_id":85568392924515191,"keywords":["nocrits","nodmgspread","payload","uncletopia"],"game_id":440,"stv_port":27036,"stv_name":"Uncletopia | Chicago | 3 | All Maps | STV","players":[{"user_id":84,"name":"lexi","steam_id":76561198176299759,"connected_time":1663000000000,"state":"active","ping":69},{"user_id":93,"name":"Eltonius","steam_id":76561198157560715,"connected_time":1208000000000,"state":"active","ping":159},{"user_id":100,"name":"Rornir","steam_id":76561198081829615,"connected_time":49000000000,"state":"active","ping":41},{"user_id":97,"name":"dipp","steam_id":76561198395577807,"connected_time":851000000000,"state":"active","ping":65},{"user_id":31,"name":"Kng","steam_id":76561198993248203,"connected_time":5014000000000,"state":"active","ping":78},{"user_id":88,"name":"Zonic3259","steam_id":76561199244811831,"connected_time":1386000000000,"state":"active","ping":120},{"user_id":16,"name":"Coach McFish","steam_id":76561198210456405,"connected_time":6331000000000,"state":"active","ping":74},{"user_id":98,"name":"Squid","steam_id":76561197970291999,"connected_time":837000000000,"state":"active","ping":79},{"user_id":103,"name":"soluticn","steam_id":76561198093819043,"connected_time":19000000000,"state":"spawning","ping":50},{"user_id":101,"name":"Blitzy","steam_id":76561198149472890,"connected_time":45000000000,"state":"active","ping":73},{"user_id":75,"name":"msay","steam_id":76561198170888029,"connected_time":2333000000000,"state":"active","ping":93},{"user_id":63,"name":"THORNFIELDGAMER","steam_id":76561199087167473,"connected_time":3088000000000,"state":"active","ping":85},{"user_id":64,"name":"Derplish","steam_id":76561198831714443,"connected_time":3086000000000,"state":"active","ping":71},{"user_id":96,"name":"GrapeFieldGamer","steam_id":76561199382834868,"connected_time":966000000000,"state":"active","ping":68},{"user_id":95,"name":"Carl, Good to see you","steam_id":76561198070574075,"connected_time":1038000000000,"state":"active","ping":69},{"user_id":35,"name":"Raizen","steam_id":76561199092445367,"connected_time":4875000000000,"state":"active","ping":55},{"user_id":82,"name":"Bobby","steam_id":76561198037803087,"connected_time":2014000000000,"state":"active","ping":74},{"user_id":68,"name":"Blitzoetic","steam_id":76561198053239412,"connected_time":2978000000000,"state":"active","ping":109},{"user_id":102,"name":"ðŸ…œðŸ…”ðŸ…”ðŸ…šðŸ…¢ðŸ…£ðŸ…”\ufffd\ufffd\ufffd","steam_id":76561197999748343,"connected_time":41000000000,"state":"active","ping":60},{"user_id":78,"name":"danieljgopen","steam_id":76561199501333770,"connected_time":2236000000000,"state":"active","ping":76},{"user_id":99,"name":"Cat in a fedora","steam_id":76561198187502875,"connected_time":421000000000,"state":"active","ping":75},{"user_id":79,"name":"SanitysEdge","steam_id":76561198130732813,"connected_time":2204000000000,"state":"active","ping":99},{"user_id":94,"name":"Ryoukai","steam_id":76561198023207340,"connected_time":1181000000000,"state":"active","ping":73},{"user_id":91,"name":"Desi_Dude","steam_id":76561199227458673,"connected_time":1332000000000,"state":"active","ping":78}]},{"server_id":403,"name":"Uncletopia | Chicago | 4 | All Maps","name_short":"chi-4","host":"chi-1.us.uncletopia.com","port":27045,"enabled":true,"region":"us-central","cc":"us","latitude":41.881832,"longitude":-87.62318,"reserved":0,"last_update":"0001-01-01T00:00:00Z","name_a2s":"Uncletopia | Chicago | 4 | All Maps","protocol":17,"map":"koth_cascade","folder":"tf","game":"Team Fortress","app_id":440,"player_count":0,"max_players":24,"Bots":0,"server_type":"Dedicated","server_os":"Linux","password":true,"vac":true,"version":"7961495","steam_id":85568392924515193,"keywords":["cp","nocrits","nodmgspread","uncletopia"],"game_id":440,"stv_port":27046,"stv_name":"Uncletopia | Chicago | 4 | All Maps | STV","players":null},{"server_id":36,"name":"Uncletopia | Chicago | 5 | All Maps","name_short":"chi-5","host":"chi-2.us.uncletopia.com","port":27015,"enabled":true,"region":"us-central","cc":"us","latitude":41.881832,"longitude":-87.62318,"reserved":0,"last_update":"0001-01-01T00:00:00Z","name_a2s":"Uncletopia | Chicago | 5 | All Maps","protocol":17,"map":"koth_viaduct","folder":"tf","game":"Team Fortress","app_id":440,"player_count":0,"max_players":24,"Bots":0,"server_type":"Dedicated","server_os":"Linux","password":true,"vac":true,"version":"7961495","steam_id":85568392924866362,"keywords":["cp","nocrits","nodmgspread","uncletopia"],"game_id":440,"stv_port":27016,"stv_name":"Uncletopia | Chicago | 5 | All Maps | STV","players":null},{"server_id":37,"name":"Uncletopia | Chicago | 6 | All Maps","name_short":"chi-6","host":"chi-2.us.uncletopia.com","port":27025,"enabled":true,"region":"us-central","cc":"us","latitude":41.881832,"longitude":-87.62318,"reserved":0,"last_update":"0001-01-01T00:00:00Z","name_a2s":"Uncletopia | Chicago | 6 | All Maps","protocol":17,"map":"koth_highpass","folder":"tf","game":"Team Fortress","app_id":440,"player_count":0,"max_players":24,"Bots":0,"server_type":"Dedicated","server_os":"Linux","password":true,"vac":true,"version":"7961495","steam_id":85568392924866363,"keywords":["cp","nocrits","nodmgspread","uncletopia"],"game_id":440,"stv_port":27026,"stv_name":"Uncletopia | Chicago | 6 | All Maps | STV","players":null},{"server_id":38,"name":"Uncletopia | Chicago | 7 | Stopwatch","name_short":"chi-7","host":"chi-2.us.uncletopia.com","port":27035,"enabled":true,"region":"us-central","cc":"us","latitude":41.881832,"longitude":-87.62318,"reserved":0,"last_update":"0001-01-01T00:00:00Z","name_a2s":"Uncletopia | Chicago | 7 | Stopwatch","protocol":17,"map":"workshop/koth_product_final.ugc454272353","folder":"tf","game":"Team Fortress","app_id":440,"player_count":0,"max_players":24,"Bots":0,"server_type":"Dedicated","server_os":"Linux","password":true,"vac":true,"version":"7961495","steam_id":85568392924866364,"keywords":["cp","nocrits","nodmgspread","uncletopia"],"game_id":440,"stv_port":27036,"stv_name":"Uncletopia | Chicago | 7 | Stopwatch | STV","players":null},{"server_id":39,"name":"Uncletopia | Chicago | 8 | Community","name_short":"chi-8","host":"chi-2.us.uncletopia.com","port":27045,"enabled":true,"region":"us-central","cc":"us","latitude":41.881832,"longitude":-87.62318,"reserved":0,"last_update":"0001-01-01T00:00:00Z","name_a2s":"Uncletopia | Chicago | 8 | Community","protocol":17,"map":"pl_pier","folder":"tf","game":"Team Fortress","app_id":440,"player_count":0,"max_players":24,"Bots":0,"server_type":"Dedicated","server_os":"Linux","password":true,"vac":true,"version":"7961495","steam_id":85568392924866365,"keywords":["nocrits","nodmgspread","payload","uncletopia"],"game_id":440,"stv_port":27046,"stv_name":"Uncletopia | Chicago | 8 | Community | STV","players":null},{"server_id":8,"name":"Uncletopia | Dallas | 1 | All Maps","name_short":"dal-1","host":"dal-1.us.uncletopia.com","port":27015,"enabled":true,"region":"us-central","cc":"us","latitude":32.779167,"longitude":-96.80889,"reserved":0,"last_update":"0001-01-01T00:00:00Z","name_a2s":"Uncletopia | Dallas | 1 | All Maps","protocol":17,"map":"koth_highpass","folder":"tf","game":"Team Fortress","app_id":440,"player_count":0,"max_players":24,"Bots":0,"server_type":"Dedicated","server_os":"Linux","password":true,"vac":true,"version":"7961495","steam_id":85568392924469986,"keywords":["cp","nocrits","nodmgspread","uncletopia"],"game_id":440,"stv_port":27016,"stv_name":"Uncletopia | Dallas | 1 | All Maps | STV","players":null},{"server_id":108,"name":"Uncletopia | Dallas | 2 | All Maps","name_short":"dal-2","host":"dal-1.us.uncletopia.com","port":27025,"enabled":true,"region":"us-central","cc":"us","latitude":32.779167,"longitude":-96.80889,"reserved":0,"last_update":"0001-01-01T00:00:00Z","name_a2s":"Uncletopia | Dallas | 2 | All Maps","protocol":17,"map":"koth_sawmill","folder":"tf","game":"Team Fortress","app_id":440,"player_count":21,"max_players":24,"Bots":0,"server_type":"Dedicated","server_os":"Linux","password":true,"vac":true,"version":"7961495","steam_id":85568392924469988,"keywords":["cp","nocrits","nodmgspread","uncletopia"],"game_id":440,"stv_port":27026,"stv_name":"Uncletopia | Dallas | 2 | All Maps | STV","players":[{"user_id":421,"name":"frenemy","steam_id":76561198011363677,"connected_time":1166000000000,"state":"active","ping":61},{"user_id":433,"name":"TOKENLIZARD","steam_id":76561198218765205,"connected_time":587000000000,"state":"active","ping":57},{"user_id":422,"name":"JustADuck","steam_id":76561198311260943,"connected_time":1164000000000,"state":"active","ping":74},{"user_id":439,"name":"OrangeShoes","steam_id":76561197971249940,"connected_time":88000000000,"state":"active","ping":76},{"user_id":440,"name":"Voodo133","steam_id":76561198042670351,"connected_time":79000000000,"state":"active","ping":102},{"user_id":432,"name":"sleepyâŠ¹","steam_id":76561199200969139,"connected_time":599000000000,"state":"active","ping":105},{"user_id":429,"name":"lv.2 goblin","steam_id":76561198323380643,"connected_time":710000000000,"state":"active","ping":90},{"user_id":424,"name":"Open Mailbox","steam_id":76561198051933580,"connected_time":1068000000000,"state":"active","ping":100},{"user_id":406,"name":"Jake_Spencer","steam_id":76561198025176750,"connected_time":1733000000000,"state":"active","ping":76},{"user_id":441,"name":"CumBoy","steam_id":76561198121411970,"connected_time":70000000000,"state":"active","ping":82},{"user_id":416,"name":"Antwan","steam_id":76561198246200638,"connected_time":1360000000000,"state":"active","ping":44},{"user_id":414,"name":"9Bendy9","steam_id":76561198164023601,"connected_time":1386000000000,"state":"active","ping":100},{"user_id":398,"name":"RATATATATATA","steam_id":76561198288458595,"connected_time":2452000000000,"state":"active","ping":71},{"user_id":415,"name":"hounschellxd","steam_id":76561198165243870,"connected_time":1381000000000,"state":"active","ping":47},{"user_id":442,"name":"Mr. Mime","steam_id":76561199197676776,"connected_time":42000000000,"state":"active","ping":56},{"user_id":370,"name":"Rob","steam_id":76561199187786660,"connected_time":4646000000000,"state":"active","ping":54},{"user_id":437,"name":":)","steam_id":76561198982415497,"connected_time":393000000000,"state":"active","ping":95},{"user_id":305,"name":"mkl","steam_id":76561197986401685,"connected_time":9614000000000,"state":"active","ping":54},{"user_id":443,"name":"JavelinV2","steam_id":76561198188284466,"connected_time":40000000000,"state":"active","ping":73},{"user_id":435,"name":"KaijuCowBelle","steam_id":76561198191619439,"connected_time":522000000000,"state":"active","ping":76},{"user_id":436,"name":"ericgoodheart","steam_id":76561198871056612,"connected_time":513000000000,"state":"active","ping":100}]},{"server_id":404,"name":"Uncletopia | Dallas | 3 | All Maps","name_short":"dal-3","host":"dal-1.us.uncletopia.com","port":27035,"enabled":true,"region":"us-central","cc":"us","latitude":32.779167,"longitude":-96.80889,"reserved":0,"last_update":"0001-01-01T00:00:00Z","name_a2s":"Uncletopia | Dallas | 3 | All Maps","protocol":17,"map":"pl_upward","folder":"tf","game":"Team Fortress","app_id":440,"player_count":0,"max_players":24,"Bots":0,"server_type":"Dedicated","server_os":"Linux","password":true,"vac":true,"version":"7961495","steam_id":85568392924515219,"keywords":["nocrits","nodmgspread","payload","uncletopia"],"game_id":440,"stv_port":27036,"stv_name":"Uncletopia | Dallas | 3 | All Maps | STV","players":null},{"server_id":405,"name":"Uncletopia | Dallas | 4 | Community","name_short":"dal-4","host":"dal-1.us.uncletopia.com","port":27045,"enabled":true,"region":"us-central","cc":"us","latitude":32.779167,"longitude":-96.80889,"reserved":0,"last_update":"0001-01-01T00:00:00Z","name_a2s":"Uncletopia | Dallas | 4 | Community","protocol":17,"map":"workshop/cp_snowbase_b21.ugc2081770490","folder":"tf","game":"Team Fortress","app_id":440,"player_count":0,"max_players":24,"Bots":0,"server_type":"Dedicated","server_os":"Linux","password":true,"vac":true,"version":"7961495","steam_id":85568392924515220,"keywords":["cp","nocrits","nodmgspread","uncletopia"],"game_id":440,"stv_port":27046,"stv_name":"Uncletopia | Dallas | 4 | Community | STV","players":null},{"server_id":5,"name":"Uncletopia | Frankfurt | 1 | All Maps","name_short":"frk-1","host":"frk-1.de.uncletopia.com","port":27015,"enabled":true,"region":"eu","cc":"de","latitude":50.110924,"longitude":8.682127,"reserved":0,"last_update":"0001-01-01T00:00:00Z","name_a2s":"Uncletopia | Frankfurt | 1 | All Maps","protocol":17,"map":"koth_harvest_final","folder":"tf","game":"Team Fortress","app_id":440,"player_count":23,"max_players":24,"Bots":0,"server_type":"Dedicated","server_os":"Linux","password":true,"vac":true,"version":"7961495","steam_id":85568392924469989,"keywords":["cp","nocrits","nodmgspread","uncletopia"],"game_id":440,"stv_port":27016,"stv_name":"Uncletopia | Frankfurt | 1 | All Maps | STV","players":[{"user_id":413,"name":"\u003cGNGWD\u003e CrocAsaurus","steam_id":76561198213982408,"connected_time":1538000000000,"state":"active","ping":60},{"user_id":404,"name":"Just Navlis","steam_id":76561198090479609,"connected_time":2640000000000,"state":"active","ping":44},{"user_id":426,"name":"Hot Cheese Sundae","steam_id":76561198061189527,"connected_time":383000000000,"state":"active","ping":164},{"user_id":429,"name":"DÄ«ng.ZhÃ¨n1996","steam_id":76561198152681460,"connected_time":276000000000,"state":"active","ping":74},{"user_id":314,"name":"agent_richi","steam_id":76561199218542987,"connected_time":9305000000000,"state":"active","ping":45},{"user_id":428,"name":"Jojczak","steam_id":76561198134750964,"connected_time":316000000000,"state":"active","ping":86},{"user_id":405,"name":"Ziltoid","steam_id":76561198020753675,"connected_time":2602000000000,"state":"active","ping":67},{"user_id":376,"name":"Pilaarius","steam_id":76561198120273212,"connected_time":4952000000000,"state":"active","ping":95},{"user_id":386,"name":"Woman (Real)","steam_id":76561199151823932,"connected_time":4143000000000,"state":"active","ping":78},{"user_id":365,"name":"D.T. Katze","steam_id":76561198002280813,"connected_time":6266000000000,"state":"active","ping":135},{"user_id":424,"name":"Vá´€ÊŸá´€êœ°á´€Ê€ @BundesLAN","steam_id":76561198069723799,"connected_time":442000000000,"state":"active","ping":57},{"user_id":379,"name":"xavier","steam_id":76561198076494034,"connected_time":4521000000000,"state":"active","ping":55},{"user_id":422,"name":"mentt","steam_id":76561198091555183,"connected_time":547000000000,"state":"active","ping":83},{"user_id":380,"name":"Bobirulez","steam_id":76561198009125458,"connected_time":4508000000000,"state":"active","ping":74},{"user_id":389,"name":"o_o","steam_id":76561198113045011,"connected_time":4009000000000,"state":"active","ping":78},{"user_id":377,"name":"Vershal Smershal","steam_id":76561198116223995,"connected_time":4918000000000,"state":"active","ping":60},{"user_id":406,"name":"azzy","steam_id":76561198061293740,"connected_time":2515000000000,"state":"active","ping":86},{"user_id":431,"name":"MostSereneDogeBestDoge","steam_id":76561198061196566,"connected_time":14000000000,"state":"active","ping":68},{"user_id":427,"name":"TOP G","steam_id":76561198138928548,"connected_time":357000000000,"state":"active","ping":45},{"user_id":401,"name":"MoistMomMauler","steam_id":76561198069359049,"connected_time":2920000000000,"state":"active","ping":86},{"user_id":414,"name":"hananamanna","steam_id":76561198006570285,"connected_time":1516000000000,"state":"active","ping":106},{"user_id":395,"name":"cister0","steam_id":76561198130195469,"connected_time":3830000000000,"state":"active","ping":74},{"user_id":425,"name":"crit hit!","steam_id":76561198112693639,"connected_time":439000000000,"state":"active","ping":66}]},{"server_id":110,"name":"Uncletopia | Frankfurt | 2 | All Maps","name_short":"frk-2","host":"frk-1.de.uncletopia.com","port":27025,"enabled":true,"region":"eu","cc":"de","latitude":50.110924,"longitude":8.682127,"reserved":0,"last_update":"0001-01-01T00:00:00Z","name_a2s":"Uncletopia | Frankfurt | 2 | All Maps","protocol":17,"map":"cp_snakewater_final1","folder":"tf","game":"Team Fortress","app_id":440,"player_count":22,"max_players":24,"Bots":0,"server_type":"Dedicated","server_os":"Linux","password":true,"vac":true,"version":"7961495","steam_id":85568392924469990,"keywords":["cp","nocrits","nodmgspread","uncletopia"],"game_id":440,"stv_port":27026,"stv_name":"Uncletopia | Frankfurt | 2 | All Maps | STV","players":[{"user_id":206,"name":"Rock..","steam_id":76561198004641963,"connected_time":6108000000000,"state":"active","ping":78},{"user_id":300,"name":"Greyhunter","steam_id":76561197960884202,"connected_time":149000000000,"state":"active","ping":48},{"user_id":276,"name":"Senor Ding Dong","steam_id":76561198102702616,"connected_time":1868000000000,"state":"active","ping":71},{"user_id":265,"name":"soup","steam_id":76561198386933065,"connected_time":2950000000000,"state":"active","ping":60},{"user_id":286,"name":"MISTER SUIIII","steam_id":76561198018330092,"connected_time":1085000000000,"state":"active","ping":72},{"user_id":284,"name":"Gety0","steam_id":76561198044387185,"connected_time":1096000000000,"state":"active","ping":85},{"user_id":271,"name":"Prim","steam_id":76561198043191342,"connected_time":2113000000000,"state":"active","ping":62},{"user_id":285,"name":"Hitotsume","steam_id":76561198129157178,"connected_time":1088000000000,"state":"active","ping":87},{"user_id":283,"name":"Burpman","steam_id":76561198022897937,"connected_time":1267000000000,"state":"active","ping":62},{"user_id":293,"name":"manure merchant","steam_id":76561198010109316,"connected_time":918000000000,"state":"active","ping":56},{"user_id":239,"name":"MUWEQ","steam_id":76561198107615727,"connected_time":4085000000000,"state":"active","ping":71},{"user_id":277,"name":"donatofina","steam_id":76561198353497885,"connected_time":1868000000000,"state":"active","ping":84},{"user_id":282,"name":"void","steam_id":76561198035831433,"connected_time":1467000000000,"state":"active","ping":68},{"user_id":299,"name":"Xanics","steam_id":76561198187813929,"connected_time":155000000000,"state":"active","ping":61},{"user_id":267,"name":"demoman","steam_id":76561198046170435,"connected_time":2936000000000,"state":"active","ping":58},{"user_id":288,"name":"Ace","steam_id":76561198193179149,"connected_time":1078000000000,"state":"active","ping":95},{"user_id":301,"name":"â™¥ artisticTerror â™¥","steam_id":76561198200121427,"connected_time":136000000000,"state":"active","ping":85},{"user_id":278,"name":"Finem Belli","steam_id":76561198227177976,"connected_time":1839000000000,"state":"active","ping":47},{"user_id":302,"name":"Lithe","steam_id":76561198097130024,"connected_time":40000000000,"state":"active","ping":722},{"user_id":281,"name":"QameI","steam_id":76561198251229496,"connected_time":1648000000000,"state":"active","ping":59},{"user_id":290,"name":"rummy","steam_id":76561197997573379,"connected_time":1054000000000,"state":"active","ping":59},{"user_id":296,"name":"Bill_nye_epic","steam_id":76561199216249214,"connected_time":490000000000,"state":"active","ping":131}]},{"server_id":308,"name":"Uncletopia | Frankfurt | 3 | All Maps","name_short":"frk-3","host":"frk-1.de.uncletopia.com","port":27035,"enabled":true,"region":"eu","cc":"de","latitude":50.110924,"longitude":8.682127,"reserved":0,"last_update":"0001-01-01T00:00:00Z","name_a2s":"Uncletopia | Frankfurt | 3 | All Maps","protocol":17,"map":"pl_pier","folder":"tf","game":"Team Fortress","app_id":440,"player_count":24,"max_players":24,"Bots":0,"server_type":"Dedicated","server_os":"Linux","password":true,"vac":true,"version":"7961495","steam_id":85568392924504274,"keywords":["nocrits","nodmgspread","payload","uncletopia"],"game_id":440,"stv_port":27036,"stv_name":"Uncletopia | Frankfurt | 3 | All Maps | STV","players":[{"user_id":354,"name":"CacTus","steam_id":76561199060781446,"connected_time":72000000000,"state":"active","ping":66},{"user_id":311,"name":"Hellheim_Prime","steam_id":76561198379799377,"connected_time":2628000000000,"state":"active","ping":94},{"user_id":330,"name":"meriones","steam_id":76561198034234373,"connected_time":1162000000000,"state":"active","ping":45},{"user_id":309,"name":"GazerBazer","steam_id":76561198879107565,"connected_time":2648000000000,"state":"active","ping":63},{"user_id":319,"name":"Relic","steam_id":76561199499093258,"connected_time":2474000000000,"state":"active","ping":59},{"user_id":353,"name":"dirty rascal","steam_id":76561198000871038,"connected_time":165000000000,"state":"active","ping":60},{"user_id":276,"name":"s3rg_","steam_id":76561198024043213,"connected_time":5823000000000,"state":"active","ping":63},{"user_id":292,"name":"FoOzTV","steam_id":76561197998636728,"connected_time":4675000000000,"state":"active","ping":70},{"user_id":322,"name":"alfus","steam_id":76561198071003109,"connected_time":2086000000000,"state":"active","ping":59},{"user_id":324,"name":"Luuk","steam_id":76561198088266026,"connected_time":1929000000000,"state":"active","ping":53},{"user_id":307,"name":"Spicy raccon","steam_id":76561198408560636,"connected_time":3416000000000,"state":"active","ping":67},{"user_id":293,"name":"Endi","steam_id":76561198914938199,"connected_time":4674000000000,"state":"active","ping":95},{"user_id":336,"name":"laza's","steam_id":76561199074095198,"connected_time":980000000000,"state":"active","ping":111},{"user_id":344,"name":"Asmodeus","steam_id":76561198283156425,"connected_time":747000000000,"state":"active","ping":68},{"user_id":325,"name":"Boki","steam_id":76561198044553351,"connected_time":1689000000000,"state":"active","ping":74},{"user_id":337,"name":"ant753","steam_id":76561198103458889,"connected_time":977000000000,"state":"active","ping":75},{"user_id":334,"name":"Jerry","steam_id":76561199025516691,"connected_time":1002000000000,"state":"active","ping":58},{"user_id":338,"name":"Prox","steam_id":76561198351490981,"connected_time":974000000000,"state":"active","ping":54},{"user_id":351,"name":"kaiji_saleh","steam_id":76561199274325425,"connected_time":288000000000,"state":"active","ping":156},{"user_id":346,"name":"Kraid","steam_id":76561198082387192,"connected_time":659000000000,"state":"active","ping":102},{"user_id":331,"name":"_Alonso","steam_id":76561198041893314,"connected_time":1137000000000,"state":"active","ping":50},{"user_id":340,"name":"Winthworth","steam_id":76561198344675206,"connected_time":972000000000,"state":"active","ping":59},{"user_id":341,"name":"Ultimate Lobster Gaming","steam_id":76561198124401410,"connected_time":970000000000,"state":"active","ping":60},{"user_id":350,"name":"SillyGoose52","steam_id":76561198263233108,"connected_time":326000000000,"state":"active","ping":92}]},{"server_id":309,"name":"Uncletopia | Frankfurt | 4 | All Maps","name_short":"frk-4","host":"frk-1.de.uncletopia.com","port":27045,"enabled":true,"region":"eu","cc":"de","latitude":50.110924,"longitude":8.682127,"reserved":0,"last_update":"0001-01-01T00:00:00Z","name_a2s":"Uncletopia | Frankfurt | 4 | All Maps","protocol":17,"map":"cp_process_final","folder":"tf","game":"Team Fortress","app_id":440,"player_count":24,"max_players":24,"Bots":0,"server_type":"Dedicated","server_os":"Linux","password":true,"vac":true,"version":"7961495","steam_id":85568392924504275,"keywords":["cp","nocrits","nodmgspread","uncletopia"],"game_id":440,"stv_port":27046,"stv_name":"Uncletopia | Frankfurt | 4 | All Maps | STV","players":[{"user_id":554,"name":"Yelowchy","steam_id":76561198199416121,"connected_time":90000000000,"state":"active","ping":60},{"user_id":531,"name":"mumbler","steam_id":76561197970641239,"connected_time":679000000000,"state":"active","ping":48},{"user_id":532,"name":"Snaky","steam_id":76561199000954430,"connected_time":672000000000,"state":"active","ping":97},{"user_id":533,"name":"Strix","steam_id":76561198015322735,"connected_time":672000000000,"state":"active","ping":81},{"user_id":553,"name":"Cardamine","steam_id":76561198100619314,"connected_time":139000000000,"state":"active","ping":73},{"user_id":521,"name":"Dr Bondus Bolongus Dongus","steam_id":76561198378657692,"connected_time":1002000000000,"state":"active","ping":61},{"user_id":513,"name":"Egor Pomidor","steam_id":76561199175688390,"connected_time":1421000000000,"state":"active","ping":75},{"user_id":551,"name":"hhhhhh","steam_id":76561198031982574,"connected_time":226000000000,"state":"active","ping":51},{"user_id":484,"name":"NutSmasherKazimir87","steam_id":76561199116240875,"connected_time":3386000000000,"state":"active","ping":80},{"user_id":547,"name":"Der_Milchmann @BundesLAN","steam_id":76561198001417748,"connected_time":395000000000,"state":"active","ping":45},{"user_id":467,"name":"s a i","steam_id":76561197970379754,"connected_time":4470000000000,"state":"active","ping":53},{"user_id":552,"name":"Nox Equites","steam_id":76561198115438449,"connected_time":201000000000,"state":"active","ping":99},{"user_id":543,"name":"Five Finger Discount","steam_id":76561197994556857,"connected_time":517000000000,"state":"active","ping":60},{"user_id":535,"name":"The cock","steam_id":76561198197304886,"connected_time":647000000000,"state":"active","ping":104},{"user_id":537,"name":"Osek","steam_id":76561197972646003,"connected_time":626000000000,"state":"active","ping":66},{"user_id":545,"name":"MÃ©bh Ã“g MacTÃ­re","steam_id":76561198346399624,"connected_time":467000000000,"state":"active","ping":71},{"user_id":555,"name":"sundjerbxb","steam_id":76561198146776288,"connected_time":22000000000,"state":"spawning","ping":88},{"user_id":538,"name":"jeezo","steam_id":76561198123592400,"connected_time":622000000000,"state":"active","ping":81},{"user_id":515,"name":"Noob_with_source","steam_id":76561198870362103,"connected_time":1415000000000,"state":"active","ping":59},{"user_id":544,"name":"Life goes on","steam_id":76561198103978102,"connected_time":515000000000,"state":"active","ping":84},{"user_id":548,"name":"Cainele Gabriel","steam_id":76561198281270493,"connected_time":349000000000,"state":"active","ping":92},{"user_id":546,"name":"emir","steam_id":76561198113089831,"connected_time":463000000000,"state":"active","ping":90},{"user_id":512,"name":"Janfors","steam_id":76561198874152503,"connected_time":1432000000000,"state":"active","ping":73},{"user_id":527,"name":"Caramel","steam_id":76561198021214844,"connected_time":743000000000,"state":"active","ping":59}]},{"server_id":310,"name":"Uncletopia | Frankfurt | 5 | All Maps","name_short":"frk-5","host":"frk-1.de.uncletopia.com","port":27055,"enabled":true,"region":"eu","cc":"de","latitude":50.110924,"longitude":8.682127,"reserved":0,"last_update":"0001-01-01T00:00:00Z","name_a2s":"Uncletopia | Frankfurt | 5 | All Maps","protocol":17,"map":"pl_upward","folder":"tf","game":"Team Fortress","app_id":440,"player_count":24,"max_players":24,"Bots":0,"server_type":"Dedicated","server_os":"Linux","password":true,"vac":true,"version":"7961495","steam_id":85568392924504277,"keywords":["nocrits","nodmgspread","payload","uncletopia"],"game_id":440,"stv_port":27056,"stv_name":"Uncletopia | Frankfurt | 5 | All Maps | STV","players":[{"user_id":618,"name":"Pofl","steam_id":76561197995110333,"connected_time":2912000000000,"state":"active","ping":60},{"user_id":633,"name":"Bottle O' Scrumpy","steam_id":76561199244250562,"connected_time":1659000000000,"state":"active","ping":109},{"user_id":646,"name":"Arty","steam_id":76561198160100181,"connected_time":698000000000,"state":"active","ping":88},{"user_id":654,"name":"DerpsgonnaDerp","steam_id":76561198141184649,"connected_time":2000000000,"state":"spawning","ping":159},{"user_id":634,"name":"Joo â™¦","steam_id":76561197987609203,"connected_time":1658000000000,"state":"active","ping":73},{"user_id":647,"name":"Hey, IÂ´m Andy!","steam_id":76561198060337777,"connected_time":690000000000,"state":"active","ping":77},{"user_id":645,"name":"johnkleiman","steam_id":76561198375607729,"connected_time":716000000000,"state":"active","ping":57},{"user_id":610,"name":"JeffsJeff","steam_id":76561198966358094,"connected_time":3355000000000,"state":"active","ping":56},{"user_id":627,"name":"Skarp","steam_id":76561198034398376,"connected_time":2197000000000,"state":"active","ping":46},{"user_id":651,"name":"Redsy","steam_id":76561198360088412,"connected_time":78000000000,"state":"active","ping":135},{"user_id":614,"name":"Archive","steam_id":76561198071255385,"connected_time":3109000000000,"state":"active","ping":91},{"user_id":642,"name":"LEO86","steam_id":76561198080740309,"connected_time":1216000000000,"state":"active","ping":60},{"user_id":620,"name":"Temp0_ â™¥","steam_id":76561198162068639,"connected_time":2660000000000,"state":"active","ping":57},{"user_id":561,"name":"overman","steam_id":76561198038348301,"connected_time":6293000000000,"state":"active","ping":67},{"user_id":650,"name":"LEGEND FUMO.","steam_id":76561198061033903,"connected_time":130000000000,"state":"active","ping":48},{"user_id":652,"name":"Mong","steam_id":76561198254497427,"connected_time":58000000000,"state":"active","ping":59},{"user_id":648,"name":"jamkel #savetf2","steam_id":76561199088464666,"connected_time":688000000000,"state":"active","ping":141},{"user_id":653,"name":"Vaffeljarn","steam_id":76561198151060365,"connected_time":47000000000,"state":"active","ping":68},{"user_id":609,"name":"â˜­Kingâ˜­","steam_id":76561199214677088,"connected_time":3398000000000,"state":"active","ping":84},{"user_id":631,"name":"Duane Adelier","steam_id":76561198132233372,"connected_time":1832000000000,"state":"active","ping":56},{"user_id":622,"name":"Lazzinn","steam_id":76561199020156231,"connected_time":2635000000000,"state":"active","ping":53},{"user_id":643,"name":"my mom","steam_id":76561199225201569,"connected_time":1054000000000,"state":"active","ping":136},{"user_id":624,"name":"Mayflies","steam_id":76561198353065570,"connected_time":2613000000000,"state":"active","ping":72},{"user_id":641,"name":"|0FF| BAVSTAVD*","steam_id":76561197975503099,"connected_time":1467000000000,"state":"active","ping":70}]},{"server_id":311,"name":"Uncletopia | Frankfurt | 6 | All Maps","name_short":"frk-6","host":"frk-1.de.uncletopia.com","port":27065,"enabled":true,"region":"eu","cc":"de","latitude":50.110924,"longitude":8.682127,"reserved":0,"last_update":"0001-01-01T00:00:00Z","name_a2s":"Uncletopia | Frankfurt | 6 | All Maps","protocol":17,"map":"pl_pier","folder":"tf","game":"Team Fortress","app_id":440,"player_count":24,"max_players":24,"Bots":0,"server_type":"Dedicated","server_os":"Linux","password":true,"vac":true,"version":"7961495","steam_id":85568392924504278,"keywords":["nocrits","nodmgspread","payload","uncletopia"],"game_id":440,"stv_port":27066,"stv_name":"Uncletopia | Frankfurt | 6 | All Maps | STV","players":[{"user_id":273,"name":"let a fella trial","steam_id":76561198108014277,"connected_time":1512000000000,"state":"active","ping":65},{"user_id":234,"name":"horizon","steam_id":76561198116559510,"connected_time":3515000000000,"state":"active","ping":110},{"user_id":256,"name":"Littleyoshifan","steam_id":76561198445491045,"connected_time":2163000000000,"state":"active","ping":53},{"user_id":188,"name":"Imperial City Guard","steam_id":76561198083355845,"connected_time":7210000000000,"state":"active","ping":58},{"user_id":288,"name":"Jude!","steam_id":76561197983597798,"connected_time":391000000000,"state":"active","ping":50},{"user_id":289,"name":"dre","steam_id":76561198252628006,"connected_time":387000000000,"state":"active","ping":58},{"user_id":285,"name":"monikka","steam_id":76561198297003397,"connected_time":533000000000,"state":"active","ping":75},{"user_id":245,"name":"Naty","steam_id":76561198083488307,"connected_time":3163000000000,"state":"active","ping":70},{"user_id":292,"name":"healing goblin (real)","steam_id":76561198411292601,"connected_time":239000000000,"state":"active","ping":156},{"user_id":291,"name":"Eric Catman","steam_id":76561198802117294,"connected_time":337000000000,"state":"active","ping":76},{"user_id":283,"name":"MakeItRainbow","steam_id":76561198045098064,"connected_time":774000000000,"state":"active","ping":64},{"user_id":286,"name":"cazador","steam_id":76561198123096922,"connected_time":430000000000,"state":"active","ping":94},{"user_id":250,"name":"mohemmedmokhter2005","steam_id":76561199197650506,"connected_time":2710000000000,"state":"active","ping":103},{"user_id":279,"name":"MargoulGetron","steam_id":76561198020551698,"connected_time":828000000000,"state":"active","ping":59},{"user_id":270,"name":"Humm","steam_id":76561198077768823,"connected_time":1887000000000,"state":"active","ping":82},{"user_id":261,"name":"DEMURE","steam_id":76561198263299590,"connected_time":2049000000000,"state":"active","ping":69},{"user_id":281,"name":"PrinzAnalFaust","steam_id":76561198136407626,"connected_time":817000000000,"state":"active","ping":87},{"user_id":248,"name":"Doritoshredder","steam_id":76561198826710752,"connected_time":3071000000000,"state":"active","ping":118},{"user_id":239,"name":"Ã‡odar","steam_id":76561198235518444,"connected_time":3403000000000,"state":"active","ping":50},{"user_id":275,"name":"Erior","steam_id":76561198039462080,"connected_time":1510000000000,"state":"active","ping":87},{"user_id":225,"name":"confusion","steam_id":76561199199499453,"connected_time":4603000000000,"state":"active","ping":74},{"user_id":282,"name":"grumpy","steam_id":76561199042470246,"connected_time":801000000000,"state":"active","ping":59},{"user_id":184,"name":"mary","steam_id":76561198014828037,"connected_time":7647000000000,"state":"active","ping":69},{"user_id":240,"name":"SynthBox3","steam_id":76561199094075745,"connected_time":3395000000000,"state":"active","ping":104}]},{"server_id":23,"name":"Uncletopia | Frankfurt | 7 | Stopwatch","name_short":"frk-7","host":"frk-1.de.uncletopia.com","port":27075,"enabled":true,"region":"eu","cc":"de","latitude":50.110924,"longitude":8.682127,"reserved":0,"last_update":"0001-01-01T00:00:00Z","name_a2s":"Uncletopia | Frankfurt | 7 | Stopwatch","protocol":17,"map":"cp_snakewater_final1","folder":"tf","game":"Team Fortress","app_id":440,"player_count":15,"max_players":24,"Bots":0,"server_type":"Dedicated","server_os":"Linux","password":true,"vac":true,"version":"7961495","steam_id":85568392924742827,"keywords":["cp","nocrits","nodmgspread","uncletopia"],"game_id":440,"stv_port":27076,"stv_name":"Uncletopia | Frankfurt | 7 | Stopwatch | STV","players":[{"user_id":127,"name":"Freddy Fazbear","steam_id":76561198299179114,"connected_time":2943000000000,"state":"active","ping":76},{"user_id":212,"name":"shniper","steam_id":76561199023476841,"connected_time":144000000000,"state":"active","ping":155},{"user_id":214,"name":"selkie","steam_id":76561198329321007,"connected_time":19000000000,"state":"active","ping":98},{"user_id":210,"name":"that shit got me middle handed","steam_id":76561198010239925,"connected_time":314000000000,"state":"active","ping":61},{"user_id":174,"name":"GÃ¼Ã§lÃ¼AYraNsAÄž","steam_id":76561199184988396,"connected_time":1614000000000,"state":"active","ping":103},{"user_id":168,"name":"Marcel","steam_id":76561198348686648,"connected_time":1760000000000,"state":"active","ping":60},{"user_id":186,"name":"jjvthou(NOtdRuNkMeswEaRss)","steam_id":76561199403071554,"connected_time":1196000000000,"state":"active","ping":145},{"user_id":177,"name":"Supercoxylac","steam_id":76561198376300138,"connected_time":1498000000000,"state":"active","ping":71},{"user_id":188,"name":"Lyell","steam_id":76561198350329389,"connected_time":1184000000000,"state":"active","ping":80},{"user_id":161,"name":"Laki","steam_id":76561198126078953,"connected_time":2146000000000,"state":"active","ping":107},{"user_id":205,"name":"Kvikk","steam_id":76561198063104117,"connected_time":664000000000,"state":"active","ping":89},{"user_id":179,"name":"tralalaOuiOui","steam_id":76561197963471507,"connected_time":1393000000000,"state":"active","ping":54},{"user_id":211,"name":"Volxium ore","steam_id":76561198872222015,"connected_time":281000000000,"state":"active","ping":61},{"user_id":185,"name":"hbivnm","steam_id":76561197996468677,"connected_time":1218000000000,"state":"active","ping":60},{"user_id":195,"name":"bigeon","steam_id":76561198078601337,"connected_time":991000000000,"state":"active","ping":89}]},{"server_id":24,"name":"Uncletopia | Frankfurt | 8 | Community","name_short":"frk-8","host":"frk-1.de.uncletopia.com","port":27085,"enabled":true,"region":"eu","cc":"de","latitude":50.110924,"longitude":8.682127,"reserved":0,"last_update":"0001-01-01T00:00:00Z","name_a2s":"Uncletopia | Frankfurt | 8 | Community","protocol":17,"map":"cp_mountainlab","folder":"tf","game":"Team Fortress","app_id":440,"player_count":0,"max_players":24,"Bots":0,"server_type":"Dedicated","server_os":"Linux","password":true,"vac":true,"version":"7961495","steam_id":85568392924742828,"keywords":["cp","nocrits","nodmgspread","uncletopia"],"game_id":440,"stv_port":27086,"stv_name":"Uncletopia | Frankfurt | 8 | Community | STV","players":null},{"server_id":202,"name":"Uncletopia | Hong Kong | 1 | All Maps","name_short":"hgk-1","host":"hgk-1.hk.uncletopia.com","port":27015,"enabled":true,"region":"asia","cc":"hk","latitude":22.302711,"longitude":114.177216,"reserved":0,"last_update":"0001-01-01T00:00:00Z","name_a2s":"Uncletopia | Hong Kong | 1 | All Maps","protocol":17,"map":"koth_lakeside_final","folder":"tf","game":"Team Fortress","app_id":440,"player_count":0,"max_players":24,"Bots":0,"server_type":"Dedicated","server_os":"Linux","password":true,"vac":true,"version":"7961495","steam_id":85568392924494504,"keywords":["cp","nocrits","nodmgspread","uncletopia"],"game_id":440,"stv_port":27016,"stv_name":"Uncletopia | Hong Kong | 1 | All Maps | STV","players":null},{"server_id":1,"name":"Uncletopia | Los Angeles | 1 | All Maps","name_short":"lax-1","host":"lax-1.us.uncletopia.com","port":27015,"enabled":true,"region":"us-west","cc":"us","latitude":33.94279,"longitude":-118.41004,"reserved":0,"last_update":"0001-01-01T00:00:00Z","name_a2s":"Uncletopia | Los Angeles | 1 | All Maps","protocol":17,"map":"pl_snowycoast","folder":"tf","game":"Team Fortress","app_id":440,"player_count":0,"max_players":24,"Bots":0,"server_type":"Dedicated","server_os":"Linux","password":true,"vac":true,"version":"7961495","steam_id":85568392924469991,"keywords":["nocrits","nodmgspread","payload","uncletopia"],"game_id":440,"stv_port":27016,"stv_name":"Uncletopia | Los Angeles | 1 | All Maps | STV","players":null},{"server_id":112,"name":"Uncletopia | Los Angeles | 2 | All Maps","name_short":"lax-2","host":"lax-1.us.uncletopia.com","port":27025,"enabled":true,"region":"us-west","cc":"us","latitude":33.94279,"longitude":-118.41004,"reserved":0,"last_update":"0001-01-01T00:00:00Z","name_a2s":"Uncletopia | Los Angeles | 2 | All Maps","protocol":17,"map":"pl_borneo","folder":"tf","game":"Team Fortress","app_id":440,"player_count":24,"max_players":24,"Bots":0,"server_type":"Dedicated","server_os":"Linux","password":true,"vac":true,"version":"7961495","steam_id":85568392924469992,"keywords":["nocrits","nodmgspread","payload","uncletopia"],"game_id":440,"stv_port":27026,"stv_name":"Uncletopia | Los Angeles | 2 | All Maps | STV","players":[{"user_id":176,"name":"femboy blight","steam_id":76561199338554815,"connected_time":2321000000000,"state":"active","ping":50},{"user_id":212,"name":"hug the harpy","steam_id":76561198088778979,"connected_time":140000000000,"state":"active","ping":90},{"user_id":213,"name":"Crimpbunkle","steam_id":76561198413864523,"connected_time":133000000000,"state":"active","ping":71},{"user_id":211,"name":"0","steam_id":76561198301885443,"connected_time":281000000000,"state":"active","ping":83},{"user_id":214,"name":"Herdez Hot Salsa","steam_id":76561197991740906,"connected_time":107000000000,"state":"active","ping":117},{"user_id":182,"name":"Eden","steam_id":76561198081284664,"connected_time":1754000000000,"state":"active","ping":52},{"user_id":215,"name":"t**** beheader","steam_id":76561199395351700,"connected_time":84000000000,"state":"active","ping":45},{"user_id":216,"name":"Ulrich Stern","steam_id":76561198101739682,"connected_time":81000000000,"state":"active","ping":110},{"user_id":217,"name":"EAT SPIT!","steam_id":76561198096836451,"connected_time":22000000000,"state":"active","ping":47},{"user_id":152,"name":"Gobb","steam_id":76561198028907283,"connected_time":4503000000000,"state":"active","ping":44},{"user_id":197,"name":"greenpeace","steam_id":76561197983221708,"connected_time":896000000000,"state":"active","ping":57},{"user_id":188,"name":"SolarusD","steam_id":76561198029279861,"connected_time":1267000000000,"state":"active","ping":58},{"user_id":168,"name":"mafia is mafia","steam_id":76561198042574722,"connected_time":2854000000000,"state":"active","ping":76},{"user_id":191,"name":"Lazy Broadcasts","steam_id":76561198132871394,"connected_time":1156000000000,"state":"active","ping":94},{"user_id":198,"name":"Freyja","steam_id":76561198207412177,"connected_time":892000000000,"state":"active","ping":79},{"user_id":200,"name":"SneekiCheekiQbone","steam_id":76561198045077980,"connected_time":840000000000,"state":"active","ping":45},{"user_id":201,"name":"(Â° Íœ   Â°)","steam_id":76561198064273568,"connected_time":836000000000,"state":"active","ping":45},{"user_id":204,"name":"Final","steam_id":76561198989154975,"connected_time":717000000000,"state":"active","ping":106},{"user_id":205,"name":"MechanizedContortion","steam_id":76561199146092247,"connected_time":707000000000,"state":"active","ping":51},{"user_id":164,"name":"noceof","steam_id":76561198043656816,"connected_time":3452000000000,"state":"active","ping":163},{"user_id":207,"name":"copper","steam_id":76561198146250533,"connected_time":652000000000,"state":"active","ping":68},{"user_id":208,"name":"Thoselazybones","steam_id":76561198399221114,"connected_time":642000000000,"state":"active","ping":78},{"user_id":210,"name":"BigJ24","steam_id":76561199221437154,"connected_time":629000000000,"state":"active","ping":85},{"user_id":172,"name":"rat","steam_id":76561198130412963,"connected_time":2790000000000,"state":"active","ping":85}]},{"server_id":324,"name":"Uncletopia | Los Angeles | 3 | All Maps","name_short":"lax-3","host":"lax-1.us.uncletopia.com","port":27035,"enabled":true,"region":"us-west","cc":"us","latitude":33.94279,"longitude":-118.41004,"reserved":0,"last_update":"0001-01-01T00:00:00Z","name_a2s":"Uncletopia | Los Angeles | 3 | All Maps","protocol":17,"map":"pl_frontier_final","folder":"tf","game":"Team Fortress","app_id":440,"player_count":0,"max_players":24,"Bots":0,"server_type":"Dedicated","server_os":"Linux","password":true,"vac":true,"version":"7961495","steam_id":85568392924510198,"keywords":["nocrits","nodmgspread","payload","uncletopia"],"game_id":440,"stv_port":27036,"stv_name":"Uncletopia | Los Angeles | 3 | All Maps | STV","players":null},{"server_id":25,"name":"Uncletopia | Los Angeles | 4 | Stopwatch","name_short":"lax-4","host":"lax-1.us.uncletopia.com","port":27045,"enabled":true,"region":"us-west","cc":"us","latitude":33.94279,"longitude":-118.41004,"reserved":0,"last_update":"0001-01-01T00:00:00Z","name_a2s":"Uncletopia | Los Angeles | 4 | Stopwatch","protocol":17,"map":"pl_barnblitz","folder":"tf","game":"Team Fortress","app_id":440,"player_count":0,"max_players":24,"Bots":0,"server_type":"Dedicated","server_os":"Linux","password":true,"vac":true,"version":"7961495","steam_id":85568392924510199,"keywords":["nocrits","nodmgspread","payload","uncletopia"],"game_id":440,"stv_port":27046,"stv_name":"Uncletopia | Los Angeles | 4 | Stopwatch | STV","players":null},{"server_id":11,"name":"Uncletopia | London | 1 | All Maps","name_short":"lon-1","host":"lon-1.uk.uncletopia.com","port":27015,"enabled":true,"region":"eu","cc":"gb","latitude":51.509865,"longitude":-0.118092,"reserved":0,"last_update":"0001-01-01T00:00:00Z","name_a2s":"Uncletopia | London | 1 | All Maps","protocol":17,"map":"pl_upward","folder":"tf","game":"Team Fortress","app_id":440,"player_count":24,"max_players":24,"Bots":0,"server_type":"Dedicated","server_os":"Linux","password":true,"vac":true,"version":"7961495","steam_id":85568392924367362,"keywords":["nocrits","nodmgspread","payload","uncletopia"],"game_id":440,"stv_port":27016,"stv_name":"Uncletopia | London | 1 | All Maps | STV","players":[{"user_id":584,"name":"jimmy bob","steam_id":76561198319583692,"connected_time":4149000000000,"state":"active","ping":56},{"user_id":605,"name":"Black Tom","steam_id":76561198335730273,"connected_time":1648000000000,"state":"active","ping":58},{"user_id":580,"name":"lepicah","steam_id":76561198797345502,"connected_time":4567000000000,"state":"active","ping":75},{"user_id":587,"name":"Croy","steam_id":76561197972552579,"connected_time":3413000000000,"state":"active","ping":43},{"user_id":599,"name":"SOPHIIAA","steam_id":76561198443798981,"connected_time":2474000000000,"state":"active","ping":97},{"user_id":597,"name":"â¸¸aura is a birthday girlâ¸¸","steam_id":76561198066258544,"connected_time":2606000000000,"state":"active","ping":61},{"user_id":602,"name":"whimsy.","steam_id":76561198878171763,"connected_time":2037000000000,"state":"active","ping":54},{"user_id":586,"name":"Shapeshifter","steam_id":76561198052898368,"connected_time":3448000000000,"state":"active","ping":90},{"user_id":570,"name":"Margarito_snake","steam_id":76561198132001394,"connected_time":5213000000000,"state":"active","ping":123},{"user_id":603,"name":"Trans Femtress 2","steam_id":76561198014056212,"connected_time":1995000000000,"state":"active","ping":75},{"user_id":567,"name":"Sir Cauterize","steam_id":76561198047079422,"connected_time":5300000000000,"state":"active","ping":53},{"user_id":592,"name":"Nutty Dark^^","steam_id":76561198036241064,"connected_time":2994000000000,"state":"active","ping":71},{"user_id":607,"name":"KnugenIV","steam_id":76561198127091993,"connected_time":1624000000000,"state":"active","ping":57},{"user_id":608,"name":"Starlitcokey","steam_id":76561198057412230,"connected_time":1623000000000,"state":"active","ping":60},{"user_id":606,"name":"Kahvi","steam_id":76561198723244199,"connected_time":1647000000000,"state":"active","ping":90},{"user_id":609,"name":"Milosz52","steam_id":76561199060940204,"connected_time":1606000000000,"state":"active","ping":75},{"user_id":527,"name":"map","steam_id":76561198370196400,"connected_time":7992000000000,"state":"active","ping":90},{"user_id":576,"name":"Birgit","steam_id":76561198257471705,"connected_time":4736000000000,"state":"active","ping":76},{"user_id":590,"name":"jermany","steam_id":76561198126599355,"connected_time":3372000000000,"state":"active","ping":61},{"user_id":524,"name":"Clown :o)","steam_id":76561198074657015,"connected_time":8603000000000,"state":"active","ping":57},{"user_id":601,"name":"shooer!","steam_id":76561198110531281,"connected_time":2287000000000,"state":"active","ping":73},{"user_id":526,"name":"map premensa iq test","steam_id":76561198106049954,"connected_time":8113000000000,"state":"active","ping":79},{"user_id":611,"name":"nappo","steam_id":76561198060105180,"connected_time":365000000000,"state":"active","ping":74},{"user_id":554,"name":"hmscole09","steam_id":76561198811362788,"connected_time":6073000000000,"state":"active","ping":57}]},{"server_id":114,"name":"Uncletopia | London | 2 | All Maps","name_short":"lon-2","host":"lon-1.uk.uncletopia.com","port":27025,"enabled":true,"region":"eu","cc":"gb","latitude":51.509865,"longitude":-0.118092,"reserved":0,"last_update":"0001-01-01T00:00:00Z","name_a2s":"Uncletopia | London | 2 | All Maps","protocol":17,"map":"koth_cascade","folder":"tf","game":"Team Fortress","app_id":440,"player_count":24,"max_players":24,"Bots":0,"server_type":"Dedicated","server_os":"Linux","password":true,"vac":true,"version":"7961495","steam_id":85568392924470941,"keywords":["cp","nocrits","nodmgspread","uncletopia"],"game_id":440,"stv_port":27026,"stv_name":"Uncletopia | London | 2 | All Maps | STV","players":[{"user_id":566,"name":"Techm32","steam_id":76561198317134994,"connected_time":3299000000000,"state":"active","ping":69},{"user_id":575,"name":"I I | #SaveTF2","steam_id":76561199101935057,"connected_time":2369000000000,"state":"active","ping":100},{"user_id":595,"name":"Alexis :)","steam_id":76561199181821779,"connected_time":1485000000000,"state":"active","ping":48},{"user_id":578,"name":"Excessive Clownery","steam_id":76561198130404188,"connected_time":2251000000000,"state":"active","ping":55},{"user_id":581,"name":"pee","steam_id":76561198249832770,"connected_time":2111000000000,"state":"active","ping":45},{"user_id":603,"name":"dibdabdeb","steam_id":76561198864272307,"connected_time":132000000000,"state":"active","ping":41},{"user_id":588,"name":"LemonLeCitron","steam_id":76561198215545267,"connected_time":1726000000000,"state":"active","ping":85},{"user_id":602,"name":"Sandshee","steam_id":76561198088574666,"connected_time":292000000000,"state":"active","ping":45},{"user_id":562,"name":"Jeffrey Harpen","steam_id":76561199073314677,"connected_time":3381000000000,"state":"active","ping":75},{"user_id":596,"name":"mattpc168","steam_id":76561198108551428,"connected_time":1241000000000,"state":"active","ping":45},{"user_id":589,"name":"Carrot","steam_id":76561198119340863,"connected_time":1709000000000,"state":"active","ping":40},{"user_id":580,"name":"Blat","steam_id":76561199013233409,"connected_time":2168000000000,"state":"active","ping":60},{"user_id":565,"name":"Zerfesh","steam_id":76561198117534358,"connected_time":3338000000000,"state":"active","ping":107},{"user_id":604,"name":"Pinkchup","steam_id":76561198106802803,"connected_time":5000000000,"state":"spawning","ping":79},{"user_id":549,"name":"Beanie","steam_id":76561198173882658,"connected_time":3739000000000,"state":"active","ping":44},{"user_id":550,"name":"skittish maiden","steam_id":76561198096856475,"connected_time":3736000000000,"state":"active","ping":50},{"user_id":584,"name":"Minimi","steam_id":76561198873850443,"connected_time":1873000000000,"state":"active","ping":44},{"user_id":568,"name":"IS3BITEL","steam_id":76561199178060325,"connected_time":3294000000000,"state":"active","ping":80},{"user_id":591,"name":"Kumihari","steam_id":76561198380374523,"connected_time":1624000000000,"state":"active","ping":65},{"user_id":552,"name":"asa004","steam_id":76561198160323444,"connected_time":3716000000000,"state":"active","ping":84},{"user_id":585,"name":"Borat","steam_id":76561198122226417,"connected_time":1771000000000,"state":"active","ping":40},{"user_id":597,"name":"big bug buttz","steam_id":76561198115106008,"connected_time":1007000000000,"state":"active","ping":59},{"user_id":516,"name":"AftiksPL","steam_id":76561198875182686,"connected_time":6524000000000,"state":"active","ping":98},{"user_id":600,"name":"MOMLUVR alice","steam_id":76561198180361759,"connected_time":911000000000,"state":"active","ping":44}]},{"server_id":320,"name":"Uncletopia | London | 3 | All Maps","name_short":"lon-3","host":"lon-1.uk.uncletopia.com","port":27035,"enabled":true,"region":"eu","cc":"gb","latitude":51.509865,"longitude":-0.118092,"reserved":0,"last_update":"0001-01-01T00:00:00Z","name_a2s":"Uncletopia | London | 3 | All Maps","protocol":17,"map":"pl_borneo","folder":"tf","game":"Team Fortress","app_id":440,"player_count":24,"max_players":24,"Bots":0,"server_type":"Dedicated","server_os":"Linux","password":true,"vac":true,"version":"7961495","steam_id":85568392924510192,"keywords":["nocrits","nodmgspread","payload","uncletopia"],"game_id":440,"stv_port":27036,"stv_name":"Uncletopia | London | 3 | All Maps | STV","players":[{"user_id":434,"name":"Artemis","steam_id":76561198199091801,"connected_time":2201000000000,"state":"active","ping":48},{"user_id":446,"name":"yuno appreciator","steam_id":76561198083286511,"connected_time":917000000000,"state":"active","ping":44},{"user_id":420,"name":"Jonak","steam_id":76561198080832458,"connected_time":3250000000000,"state":"active","ping":60},{"user_id":448,"name":"Semtilion","steam_id":76561198107642445,"connected_time":901000000000,"state":"active","ping":109},{"user_id":332,"name":"Reljadin","steam_id":76561198054997553,"connected_time":7844000000000,"state":"active","ping":87},{"user_id":459,"name":"Lowbird","steam_id":76561198137424821,"connected_time":208000000000,"state":"active","ping":60},{"user_id":460,"name":"bowchika wowa #SlavaUkraine","steam_id":76561198159564550,"connected_time":69000000000,"state":"active","ping":73},{"user_id":443,"name":"Guy Incognito","steam_id":76561198043072497,"connected_time":1103000000000,"state":"active","ping":69},{"user_id":456,"name":"Krabs","steam_id":76561198161679477,"connected_time":377000000000,"state":"active","ping":42},{"user_id":441,"name":"James","steam_id":76561198168882012,"connected_time":1966000000000,"state":"active","ping":51},{"user_id":442,"name":"Plep","steam_id":76561198840259819,"connected_time":1186000000000,"state":"active","ping":60},{"user_id":453,"name":"Soup Dog","steam_id":76561198237878322,"connected_time":839000000000,"state":"active","ping":76},{"user_id":398,"name":"YARrICk.Â«+Â»","steam_id":76561197990126485,"connected_time":4154000000000,"state":"active","ping":58},{"user_id":447,"name":"BaconWizard4","steam_id":76561198384591745,"connected_time":913000000000,"state":"active","ping":120},{"user_id":426,"name":"sloppy transgirl toppy","steam_id":76561198057092208,"connected_time":2968000000000,"state":"active","ping":75},{"user_id":449,"name":"Not So Friendly Mouse","steam_id":76561198452471755,"connected_time":898000000000,"state":"active","ping":79},{"user_id":439,"name":"Mr Lemon","steam_id":76561198054685254,"connected_time":1984000000000,"state":"active","ping":61},{"user_id":281,"name":"gamerkiddo","steam_id":76561198047380360,"connected_time":10283000000000,"state":"active","ping":52},{"user_id":462,"name":"Sylvanas","steam_id":76561198154904165,"connected_time":47000000000,"state":"active","ping":107},{"user_id":418,"name":"clunk","steam_id":76561198836460767,"connected_time":3429000000000,"state":"active","ping":89},{"user_id":450,"name":"Sergeant_cross","steam_id":76561198148270425,"connected_time":896000000000,"state":"active","ping":62},{"user_id":452,"name":"wheelie bin","steam_id":76561198040040328,"connected_time":877000000000,"state":"active","ping":45},{"user_id":445,"name":"BenteBent","steam_id":76561198297920637,"connected_time":972000000000,"state":"active","ping":37},{"user_id":455,"name":"1312Kinder","steam_id":76561198874529353,"connected_time":734000000000,"state":"active","ping":88}]},{"server_id":321,"name":"Uncletopia | London | 4 | All Maps","name_short":"lon-4","host":"lon-1.uk.uncletopia.com","port":27045,"enabled":true,"region":"eu","cc":"gb","latitude":51.509865,"longitude":-0.118092,"reserved":0,"last_update":"0001-01-01T00:00:00Z","name_a2s":"Uncletopia | London | 4 | All Maps","protocol":17,"map":"koth_cascade","folder":"tf","game":"Team Fortress","app_id":440,"player_count":24,"max_players":24,"Bots":0,"server_type":"Dedicated","server_os":"Linux","password":true,"vac":true,"version":"7961495","steam_id":85568392924510193,"keywords":["cp","nocrits","nodmgspread","uncletopia"],"game_id":440,"stv_port":27046,"stv_name":"Uncletopia | London | 4 | All Maps | STV","players":[{"user_id":220,"name":"Grillem Dafoe","steam_id":76561198306874574,"connected_time":1945000000000,"state":"active","ping":65},{"user_id":213,"name":"Zero Sleep Gaming","steam_id":76561198982674420,"connected_time":2651000000000,"state":"active","ping":45},{"user_id":183,"name":"Delta Flowers â™¡","steam_id":76561198434811706,"connected_time":4006000000000,"state":"active","ping":47},{"user_id":230,"name":"Naix","steam_id":76561198053893077,"connected_time":435000000000,"state":"active","ping":43},{"user_id":212,"name":"DudeoftheRock","steam_id":76561198059401865,"connected_time":2685000000000,"state":"active","ping":66},{"user_id":209,"name":"Spinya","steam_id":76561198086653667,"connected_time":2715000000000,"state":"active","ping":59},{"user_id":231,"name":"Flashback","steam_id":76561197973978552,"connected_time":427000000000,"state":"active","ping":69},{"user_id":232,"name":"The_Jaystone","steam_id":76561198126280691,"connected_time":410000000000,"state":"active","ping":34},{"user_id":216,"name":"Horo","steam_id":76561198009504508,"connected_time":2482000000000,"state":"active","ping":54},{"user_id":228,"name":"wal","steam_id":76561198066043883,"connected_time":451000000000,"state":"active","ping":54},{"user_id":226,"name":"Not A Fake Uncletopia Server","steam_id":76561198152871288,"connected_time":1170000000000,"state":"active","ping":61},{"user_id":227,"name":"Klorophyte","steam_id":76561198885112655,"connected_time":769000000000,"state":"active","ping":110},{"user_id":214,"name":"Baron","steam_id":76561198021901783,"connected_time":2524000000000,"state":"active","ping":62},{"user_id":162,"name":"Wobblyboyz","steam_id":76561198289356209,"connected_time":6174000000000,"state":"active","ping":51},{"user_id":165,"name":"UltimateSlayer","steam_id":76561198384109309,"connected_time":6140000000000,"state":"active","ping":59},{"user_id":221,"name":"A Shoelace","steam_id":76561198126726364,"connected_time":1923000000000,"state":"active","ping":59},{"user_id":204,"name":"NESS","steam_id":76561197995225318,"connected_time":3192000000000,"state":"active","ping":38},{"user_id":197,"name":"Testy","steam_id":76561198169996602,"connected_time":3547000000000,"state":"active","ping":60},{"user_id":208,"name":"POOTIS #saveTF2","steam_id":76561198384735957,"connected_time":2750000000000,"state":"active","ping":52},{"user_id":233,"name":"Vytuzas","steam_id":76561198012868436,"connected_time":405000000000,"state":"active","ping":77},{"user_id":222,"name":"groyper_8814_bligger","steam_id":76561198276691164,"connected_time":1914000000000,"state":"active","ping":75},{"user_id":217,"name":"Teecho","steam_id":76561197995269610,"connected_time":2464000000000,"state":"active","ping":55},{"user_id":229,"name":"ÐÐ½Ð´Ñ€ÐµÐ¹","steam_id":76561199004027817,"connected_time":451000000000,"state":"active","ping":120},{"user_id":210,"name":"Box Man","steam_id":76561198220732252,"connected_time":2714000000000,"state":"active","ping":57}]},{"server_id":21,"name":"Uncletopia | London | 5 | All Maps","name_short":"lon-5","host":"lon-1.uk.uncletopia.com","port":27055,"enabled":true,"region":"eu","cc":"gb","latitude":51.509865,"longitude":-0.118092,"reserved":0,"last_update":"0001-01-01T00:00:00Z","name_a2s":"Uncletopia | London | 5 | All Maps","protocol":17,"map":"pl_upward","folder":"tf","game":"Team Fortress","app_id":440,"player_count":24,"max_players":24,"Bots":0,"server_type":"Dedicated","server_os":"Linux","password":true,"vac":true,"version":"7961495","steam_id":85568392924742829,"keywords":["nocrits","nodmgspread","payload","uncletopia"],"game_id":440,"stv_port":27056,"stv_name":"Uncletopia | London | 5 | All Maps | STV","players":[{"user_id":147,"name":"steinar","steam_id":76561198441857153,"connected_time":207000000000,"state":"active","ping":85},{"user_id":126,"name":"Vix The Vulpix","steam_id":76561198292181452,"connected_time":1969000000000,"state":"active","ping":155},{"user_id":144,"name":"McAtka","steam_id":76561198019759329,"connected_time":353000000000,"state":"active","ping":68},{"user_id":149,"name":"help","steam_id":76561199056338917,"connected_time":187000000000,"state":"active","ping":157},{"user_id":132,"name":"glorpis","steam_id":76561199225333422,"connected_time":1228000000000,"state":"active","ping":38},{"user_id":105,"name":"meatsoupcube","steam_id":76561198276802249,"connected_time":2504000000000,"state":"active","ping":105},{"user_id":110,"name":"Sirzen","steam_id":76561198170155434,"connected_time":2331000000000,"state":"active","ping":49},{"user_id":139,"name":"Eterneon","steam_id":76561198354080949,"connected_time":637000000000,"state":"active","ping":60},{"user_id":150,"name":"LÃ¶dde","steam_id":76561198274165770,"connected_time":174000000000,"state":"active","ping":69},{"user_id":127,"name":"frosty","steam_id":76561198094560834,"connected_time":1967000000000,"state":"active","ping":46},{"user_id":101,"name":"RÃ­kÃ¬n","steam_id":76561198045221806,"connected_time":2769000000000,"state":"active","ping":97},{"user_id":102,"name":"LetsWinCarlos2012","steam_id":76561199084826822,"connected_time":2755000000000,"state":"active","ping":129},{"user_id":108,"name":"gabagool","steam_id":76561198307111838,"connected_time":2446000000000,"state":"active","ping":34},{"user_id":114,"name":"Big Al","steam_id":76561198079585198,"connected_time":2222000000000,"state":"active","ping":56},{"user_id":137,"name":"Sonnakai","steam_id":76561198051688749,"connected_time":1146000000000,"state":"active","ping":39},{"user_id":151,"name":"giant rat","steam_id":76561198150452131,"connected_time":169000000000,"state":"active","ping":134},{"user_id":138,"name":"United Bank of MONEY","steam_id":76561199380849468,"connected_time":690000000000,"state":"active","ping":60},{"user_id":81,"name":"dash.","steam_id":76561198084796149,"connected_time":3494000000000,"state":"active","ping":45},{"user_id":113,"name":"angry russian man","steam_id":76561198386712795,"connected_time":2240000000000,"state":"active","ping":59},{"user_id":116,"name":"Draco","steam_id":76561198031226933,"connected_time":2174000000000,"state":"active","ping":45},{"user_id":152,"name":"è™¾æ‰¯è›‹.Lonely","steam_id":76561198022989560,"connected_time":149000000000,"state":"active","ping":53},{"user_id":135,"name":"r^f nyanezt","steam_id":76561198253734265,"connected_time":1170000000000,"state":"active","ping":102},{"user_id":133,"name":"Mastenbier","steam_id":76561199067658590,"connected_time":1202000000000,"state":"active","ping":124},{"user_id":143,"name":"Bill Carr","steam_id":76561198110033943,"connected_time":445000000000,"state":"active","ping":37}]},{"server_id":22,"name":"Uncletopia | London | 6 | All Maps","name_short":"lon-6","host":"lon-1.uk.uncletopia.com","port":27065,"enabled":true,"region":"eu","cc":"gb","latitude":51.509865,"longitude":-0.118092,"reserved":0,"last_update":"0001-01-01T00:00:00Z","name_a2s":"Uncletopia | London | 6 | All Maps","protocol":17,"map":"pl_borneo","folder":"tf","game":"Team Fortress","app_id":440,"player_count":24,"max_players":24,"Bots":0,"server_type":"Dedicated","server_os":"Linux","password":true,"vac":true,"version":"7961495","steam_id":85568392924742830,"keywords":["nocrits","nodmgspread","payload","uncletopia"],"game_id":440,"stv_port":27066,"stv_name":"Uncletopia | London | 6 | All Maps | STV","players":[{"user_id":320,"name":"Tort","steam_id":76561198329646769,"connected_time":257000000000,"state":"active","ping":58},{"user_id":309,"name":"Jan PaweÅ‚ DÅ‚ugi","steam_id":76561198002849717,"connected_time":1002000000000,"state":"active","ping":80},{"user_id":323,"name":"Eidolon","steam_id":76561198043919565,"connected_time":150000000000,"state":"active","ping":69},{"user_id":324,"name":"neo","steam_id":76561198803648845,"connected_time":130000000000,"state":"active","ping":75},{"user_id":332,"name":"Slimeby","steam_id":76561198353438688,"connected_time":55000000000,"state":"active","ping":86},{"user_id":325,"name":"Cranbury","steam_id":76561198079170457,"connected_time":124000000000,"state":"active","ping":46},{"user_id":267,"name":"The worst TF2 player","steam_id":76561199184873889,"connected_time":3741000000000,"state":"active","ping":74},{"user_id":297,"name":"Mr.MemeMaker","steam_id":76561198909088766,"connected_time":2115000000000,"state":"active","ping":70},{"user_id":268,"name":"Dumk1dz","steam_id":76561199066954336,"connected_time":3715000000000,"state":"active","ping":57},{"user_id":299,"name":"toomas2018(famous)","steam_id":76561199105796083,"connected_time":1988000000000,"state":"active","ping":73},{"user_id":236,"name":"yush","steam_id":76561198121688934,"connected_time":6255000000000,"state":"active","ping":75},{"user_id":326,"name":"pablo gonzales 2009","steam_id":76561199095487479,"connected_time":114000000000,"state":"active","ping":63},{"user_id":304,"name":"Ullr","steam_id":76561198140547483,"connected_time":1453000000000,"state":"active","ping":45},{"user_id":319,"name":"Bump the Younger","steam_id":76561198036900460,"connected_time":496000000000,"state":"active","ping":72},{"user_id":258,"name":"Space Raccoon","steam_id":76561198038399662,"connected_time":4605000000000,"state":"active","ping":85},{"user_id":327,"name":"Bobo","steam_id":76561198052308399,"connected_time":109000000000,"state":"active","ping":70},{"user_id":315,"name":"A Cat","steam_id":76561199015740181,"connected_time":722000000000,"state":"active","ping":66},{"user_id":328,"name":"padillacampos","steam_id":76561198161923970,"connected_time":105000000000,"state":"active","ping":81},{"user_id":265,"name":"Alpaca","steam_id":76561198029839079,"connected_time":3862000000000,"state":"active","ping":58},{"user_id":283,"name":"Jack","steam_id":76561198209102833,"connected_time":3064000000000,"state":"active","ping":44},{"user_id":329,"name":"Dom Toretto","steam_id":76561198135613866,"connected_time":104000000000,"state":"active","ping":474},{"user_id":302,"name":"glyph","steam_id":76561197980736364,"connected_time":1953000000000,"state":"active","ping":90},{"user_id":234,"name":"Slowest hands in the west","steam_id":76561199286764992,"connected_time":6357000000000,"state":"active","ping":83},{"user_id":308,"name":"laser","steam_id":76561198036030697,"connected_time":1054000000000,"state":"active","ping":70}]},{"server_id":40,"name":"Uncletopia | London | 7 | Stopwatch","name_short":"lon-7","host":"lon-1.uk.uncletopia.com","port":27075,"enabled":true,"region":"eu","cc":"gb","latitude":51.509865,"longitude":-0.118092,"reserved":0,"last_update":"0001-01-01T00:00:00Z","name_a2s":"Uncletopia | London | 7 | Stopwatch","protocol":17,"map":"workshop/koth_product_final.ugc454272353","folder":"tf","game":"Team Fortress","app_id":440,"player_count":0,"max_players":24,"Bots":0,"server_type":"Dedicated","server_os":"Linux","password":true,"vac":true,"version":"7961495","steam_id":85568392924964314,"keywords":["cp","nocrits","nodmgspread","uncletopia"],"game_id":440,"stv_port":27076,"stv_name":"Uncletopia | London | 7 | Stopwatch | STV","players":null},{"server_id":41,"name":"Uncletopia | London | 8 | Community","name_short":"lon-8","host":"lon-1.uk.uncletopia.com","port":27085,"enabled":true,"region":"eu","cc":"gb","latitude":51.509865,"longitude":-0.118092,"reserved":0,"last_update":"0001-01-01T00:00:00Z","name_a2s":"Uncletopia | London | 8 | Community","protocol":17,"map":"workshop/koth_product_final.ugc454272353","folder":"tf","game":"Team Fortress","app_id":440,"player_count":1,"max_players":24,"Bots":0,"server_type":"Dedicated","server_os":"Linux","password":true,"vac":true,"version":"7961495","steam_id":85568392924964315,"keywords":["cp","nocrits","nodmgspread","uncletopia"],"game_id":440,"stv_port":27086,"stv_name":"Uncletopia | London | 8 | Community | STV","players":[{"user_id":12,"name":"lipaul777","steam_id":76561199090751367,"connected_time":1545000000000,"state":"active","ping":70}]},{"server_id":300,"name":"Uncletopia | MontrÃ©al | 1 | One Thousand Uncles","name_short":"mtl-1","host":"mtl-1.ca.uncletopia.com","port":27015,"enabled":true,"region":"us-east","cc":"ca","latitude":45.50889,"longitude":-73.56167,"reserved":0,"last_update":"0001-01-01T00:00:00Z","name_a2s":"","protocol":0,"map":"","folder":"","game":"","app_id":0,"player_count":0,"max_players":0,"Bots":0,"server_type":"","server_os":"","password":false,"vac":false,"version":"","steam_id":0,"keywords":null,"game_id":0,"stv_port":0,"stv_name":"","players":null},{"server_id":301,"name":"Uncletopia | MontrÃ©al | 2 | One Thousand Uncles","name_short":"mtl-2","host":"mtl-1.ca.uncletopia.com","port":27025,"enabled":true,"region":"us-east","cc":"ca","latitude":45.50889,"longitude":-73.56167,"reserved":0,"last_update":"0001-01-01T00:00:00Z","name_a2s":"","protocol":0,"map":"","folder":"","game":"","app_id":0,"player_count":1,"max_players":0,"Bots":0,"server_type":"","server_os":"","password":false,"vac":false,"version":"","steam_id":0,"keywords":null,"game_id":0,"stv_port":0,"stv_name":"","players":[{"user_id":37,"name":"Star_Mann_Jr.","steam_id":76561198071148924,"connected_time":338000000000,"state":"active","ping":110}]},{"server_id":302,"name":"Uncletopia | MontrÃ©al | 3 | One Thousand Uncles","name_short":"mtl-3","host":"mtl-1.ca.uncletopia.com","port":27035,"enabled":true,"region":"us-east","cc":"ca","latitude":45.50889,"longitude":-73.56167,"reserved":0,"last_update":"0001-01-01T00:00:00Z","name_a2s":"","protocol":0,"map":"","folder":"","game":"","app_id":0,"player_count":0,"max_players":0,"Bots":0,"server_type":"","server_os":"","password":false,"vac":false,"version":"","steam_id":0,"keywords":null,"game_id":0,"stv_port":0,"stv_name":"","players":null},{"server_id":13,"name":"Uncletopia | New York City | 1 | All Maps","name_short":"nyc-1","host":"nyc-1.us.uncletopia.com","port":27015,"enabled":true,"region":"us-east","cc":"us","latitude":40.73061,"longitude":-73.93524,"reserved":0,"last_update":"0001-01-01T00:00:00Z","name_a2s":"Uncletopia | New York City | 1 | All Maps","protocol":17,"map":"pl_borneo","folder":"tf","game":"Team Fortress","app_id":440,"player_count":24,"max_players":24,"Bots":0,"server_type":"Dedicated","server_os":"Linux","password":true,"vac":true,"version":"7961495","steam_id":85568392924469993,"keywords":["nocrits","nodmgspread","payload","uncletopia"],"game_id":440,"stv_port":27016,"stv_name":"Uncletopia | New York City | 1 | All Maps | STV","players":[{"user_id":177,"name":"joachym","steam_id":76561198428579761,"connected_time":3097000000000,"state":"active","ping":145},{"user_id":187,"name":"DoggyDogWhirl","steam_id":76561198042841344,"connected_time":2119000000000,"state":"active","ping":54},{"user_id":211,"name":"kikikikoboy","steam_id":76561198073380271,"connected_time":604000000000,"state":"active","ping":68},{"user_id":147,"name":"Bald Vegeta","steam_id":76561198844143746,"connected_time":6955000000000,"state":"active","ping":92},{"user_id":184,"name":"shid","steam_id":76561198105374054,"connected_time":2256000000000,"state":"active","ping":127},{"user_id":199,"name":"Kale","steam_id":76561198088293094,"connected_time":1299000000000,"state":"active","ping":38},{"user_id":181,"name":"kit","steam_id":76561198047403448,"connected_time":2624000000000,"state":"active","ping":49},{"user_id":192,"name":"coda","steam_id":76561198092052685,"connected_time":1943000000000,"state":"active","ping":45},{"user_id":213,"name":"RedBaron","steam_id":76561198972426107,"connected_time":313000000000,"state":"active","ping":56},{"user_id":210,"name":"nethersome","steam_id":76561198892225148,"connected_time":898000000000,"state":"active","ping":57},{"user_id":155,"name":"cl","steam_id":76561199436640904,"connected_time":6302000000000,"state":"active","ping":164},{"user_id":212,"name":"Raine","steam_id":76561198055761141,"connected_time":427000000000,"state":"active","ping":74},{"user_id":214,"name":"may","steam_id":76561198084013989,"connected_time":274000000000,"state":"active","ping":45},{"user_id":202,"name":"MineAGK","steam_id":76561198128372943,"connected_time":1174000000000,"state":"active","ping":83},{"user_id":217,"name":"willow","steam_id":76561198276866938,"connected_time":103000000000,"state":"active","ping":60},{"user_id":88,"name":"GummybearKillr","steam_id":76561198031235750,"connected_time":10846000000000,"state":"active","ping":52},{"user_id":194,"name":"boi15","steam_id":76561198410490773,"connected_time":1688000000000,"state":"active","ping":54},{"user_id":161,"name":"Fordring","steam_id":76561198141998973,"connected_time":5450000000000,"state":"active","ping":89},{"user_id":201,"name":"Jonny4Balls","steam_id":76561198979333994,"connected_time":1187000000000,"state":"active","ping":71},{"user_id":215,"name":"Servaos","steam_id":76561198113244990,"connected_time":212000000000,"state":"active","ping":65},{"user_id":68,"name":"Brawns","steam_id":76561198045190199,"connected_time":12911000000000,"state":"active","ping":56},{"user_id":216,"name":"Action Bastard","steam_id":76561198059552170,"connected_time":193000000000,"state":"active","ping":46},{"user_id":195,"name":"Pox4Dinner","steam_id":76561198036958101,"connected_time":1666000000000,"state":"active","ping":53},{"user_id":207,"name":"Domswish","steam_id":76561198331444240,"connected_time":1103000000000,"state":"active","ping":53}]},{"server_id":14,"name":"Uncletopia | New York City | 2 | All Maps","name_short":"nyc-2","host":"nyc-1.us.uncletopia.com","port":27025,"enabled":true,"region":"us-east","cc":"us","latitude":40.73061,"longitude":-73.93524,"reserved":0,"last_update":"0001-01-01T00:00:00Z","name_a2s":"Uncletopia | New York City | 2 | All Maps","protocol":17,"map":"pl_pier","folder":"tf","game":"Team Fortress","app_id":440,"player_count":24,"max_players":24,"Bots":0,"server_type":"Dedicated","server_os":"Linux","password":true,"vac":true,"version":"7961495","steam_id":85568392924469994,"keywords":["nocrits","nodmgspread","payload","uncletopia"],"game_id":440,"stv_port":27026,"stv_name":"Uncletopia | New York City | 2 | All Maps | STV","players":[{"user_id":124,"name":"Sicko Mode (Chris Pratt Cover)","steam_id":76561198315786174,"connected_time":612000000000,"state":"active","ping":58},{"user_id":93,"name":"DJThunderHeart","steam_id":76561198274197575,"connected_time":2172000000000,"state":"active","ping":45},{"user_id":125,"name":"sen","steam_id":76561198211308328,"connected_time":425000000000,"state":"active","ping":54},{"user_id":131,"name":"numa","steam_id":76561198856016840,"connected_time":88000000000,"state":"active","ping":48},{"user_id":117,"name":"whineapple","steam_id":76561197999215868,"connected_time":866000000000,"state":"active","ping":73},{"user_id":130,"name":"seeyouauntie","steam_id":76561198045852999,"connected_time":249000000000,"state":"active","ping":73},{"user_id":98,"name":"Sizenberg","steam_id":76561198115842661,"connected_time":1874000000000,"state":"active","ping":84},{"user_id":89,"name":"Sooch","steam_id":76561198007043697,"connected_time":2412000000000,"state":"active","ping":60},{"user_id":56,"name":"loscemo","steam_id":76561197994884609,"connected_time":4401000000000,"state":"active","ping":82},{"user_id":88,"name":"menk3","steam_id":76561198120888597,"connected_time":2416000000000,"state":"active","ping":55},{"user_id":111,"name":"goose","steam_id":76561198438565027,"connected_time":983000000000,"state":"active","ping":82},{"user_id":127,"name":"leumas","steam_id":76561198240408540,"connected_time":399000000000,"state":"active","ping":45},{"user_id":25,"name":"Drake the Pixel","steam_id":76561198131824401,"connected_time":6655000000000,"state":"active","ping":44},{"user_id":116,"name":"John Fitzgerald Kennedy","steam_id":76561198371941425,"connected_time":882000000000,"state":"active","ping":53},{"user_id":95,"name":"ToastBag","steam_id":76561199221849528,"connected_time":2131000000000,"state":"active","ping":131},{"user_id":132,"name":"Gargathor the Entity Catcher","steam_id":76561198189429665,"connected_time":44000000000,"state":"active","ping":75},{"user_id":115,"name":"AlmondMilk","steam_id":76561198151229725,"connected_time":886000000000,"state":"active","ping":44},{"user_id":104,"name":"Billy Mays","steam_id":76561197998876324,"connected_time":1367000000000,"state":"active","ping":116},{"user_id":114,"name":"Drapph","steam_id":76561199384213314,"connected_time":906000000000,"state":"active","ping":86},{"user_id":128,"name":"Crouching Noob Hidden Sniper","steam_id":76561197971328473,"connected_time":283000000000,"state":"active","ping":88},{"user_id":91,"name":"izzo","steam_id":76561198206306996,"connected_time":2354000000000,"state":"active","ping":45},{"user_id":119,"name":"FoxyTheFish","steam_id":76561199074190919,"connected_time":819000000000,"state":"active","ping":120},{"user_id":120,"name":"Alexthegreat","steam_id":76561197996796222,"connected_time":818000000000,"state":"active","ping":54},{"user_id":122,"name":"Gibs Degrossi","steam_id":76561198066152609,"connected_time":746000000000,"state":"active","ping":69}]},{"server_id":15,"name":"Uncletopia | New York City | 3 | Stopwatch","name_short":"nyc-3","host":"nyc-1.us.uncletopia.com","port":27035,"enabled":true,"region":"us-east","cc":"us","latitude":40.73061,"longitude":-73.93524,"reserved":0,"last_update":"0001-01-01T00:00:00Z","name_a2s":"Uncletopia | New York City | 3 | Stopwatch","protocol":17,"map":"workshop/pl_barnblitz_pro7.ugc582280235","folder":"tf","game":"Team Fortress","app_id":440,"player_count":0,"max_players":24,"Bots":0,"server_type":"Dedicated","server_os":"Linux","password":true,"vac":true,"version":"7961495","steam_id":85568392924742820,"keywords":["nocrits","nodmgspread","payload","uncletopia"],"game_id":440,"stv_port":27036,"stv_name":"Uncletopia | New York City | 3 | Stopwatch | STV","players":null},{"server_id":16,"name":"Uncletopia | New York City | 4 | Community","name_short":"nyc-4","host":"nyc-1.us.uncletopia.com","port":27045,"enabled":true,"region":"us-east","cc":"us","latitude":40.73061,"longitude":-73.93524,"reserved":0,"last_update":"0001-01-01T00:00:00Z","name_a2s":"Uncletopia | New York City | 4 | Community","protocol":17,"map":"workshop/pl_badwater_pro_v12.ugc2142942074","folder":"tf","game":"Team Fortress","app_id":440,"player_count":2,"max_players":24,"Bots":0,"server_type":"Dedicated","server_os":"Linux","password":true,"vac":true,"version":"7961495","steam_id":85568392924742821,"keywords":["nocrits","nodmgspread","payload","uncletopia"],"game_id":440,"stv_port":27046,"stv_name":"Uncletopia | New York City | 4 | Community | STV","players":[{"user_id":7,"name":"e0e0","steam_id":76561198293839750,"connected_time":611000000000,"state":"active","ping":47},{"user_id":8,"name":"cajun thotsauce","steam_id":76561198101636066,"connected_time":459000000000,"state":"active","ping":104}]},{"server_id":142,"name":"Uncletopia | SÃ£o Paulo | 1 | All Maps","name_short":"sao-1","host":"sao-1.br.uncletopia.com","port":27015,"enabled":true,"region":"sa","cc":"br","latitude":-23.533773,"longitude":-46.62529,"reserved":0,"last_update":"0001-01-01T00:00:00Z","name_a2s":"Uncletopia | SÃ£o Paulo | 1 | All Maps","protocol":17,"map":"pl_frontier_final","folder":"tf","game":"Team Fortress","app_id":440,"player_count":0,"max_players":24,"Bots":0,"server_type":"Dedicated","server_os":"Linux","password":true,"vac":true,"version":"7961495","steam_id":85568392924469996,"keywords":["nocrits","nodmgspread","payload","uncletopia"],"game_id":440,"stv_port":27016,"stv_name":"Uncletopia | SÃ£o Paulo | 1 | All Maps | STV","players":null},{"server_id":143,"name":"Uncletopia | SÃ£o Paulo | 2 | Community","name_short":"sao-2","host":"sao-2.br.uncletopia.com","port":27015,"enabled":true,"region":"sa","cc":"br","latitude":-23.533773,"longitude":-46.62529,"reserved":0,"last_update":"0001-01-01T00:00:00Z","name_a2s":"Uncletopia | SÃ£o Paulo | 2 | Community","protocol":17,"map":"workshop/pl_divulgence_b4b.ugc2884808746","folder":"tf","game":"Team Fortress","app_id":440,"player_count":0,"max_players":24,"Bots":0,"server_type":"Dedicated","server_os":"Linux","password":true,"vac":true,"version":"7961495","steam_id":85568392924485349,"keywords":["nocrits","nodmgspread","payload","uncletopia"],"game_id":440,"stv_port":27016,"stv_name":"Uncletopia | SÃ£o Paulo | 2 | Community | STV","players":null},{"server_id":7,"name":"Uncletopia | Seattle | 1 | All Maps","name_short":"sea-1","host":"sea-1.us.uncletopia.com","port":27015,"enabled":true,"region":"us-west","cc":"us","latitude":47.608013,"longitude":-122.33517,"reserved":0,"last_update":"0001-01-01T00:00:00Z","name_a2s":"Uncletopia | Seattle | 1 | All Maps","protocol":17,"map":"pl_swiftwater_final1","folder":"tf","game":"Team Fortress","app_id":440,"player_count":20,"max_players":24,"Bots":0,"server_type":"Dedicated","server_os":"Linux","password":true,"vac":true,"version":"7961495","steam_id":85568392924469997,"keywords":["nocrits","nodmgspread","payload","uncletopia"],"game_id":440,"stv_port":27016,"stv_name":"Uncletopia | Seattle | 1 | All Maps | STV","players":[{"user_id":63,"name":"Wiggs is the Shiggs","steam_id":76561198078379719,"connected_time":2389000000000,"state":"active","ping":78},{"user_id":99,"name":"dree","steam_id":76561198079178866,"connected_time":429000000000,"state":"active","ping":120},{"user_id":85,"name":"TheMagicMrWaffle","steam_id":76561198104357256,"connected_time":1225000000000,"state":"active","ping":60},{"user_id":94,"name":"Boxcars","steam_id":76561198120978767,"connected_time":749000000000,"state":"active","ping":70},{"user_id":100,"name":"Granny from Hoodwinked","steam_id":76561198116389072,"connected_time":400000000000,"state":"active","ping":39},{"user_id":73,"name":"Blue Banana","steam_id":76561198100077411,"connected_time":1776000000000,"state":"active","ping":74},{"user_id":91,"name":"imasheep","steam_id":76561198210322871,"connected_time":856000000000,"state":"active","ping":88},{"user_id":95,"name":"Nurew","steam_id":76561198052589498,"connected_time":742000000000,"state":"active","ping":47},{"user_id":93,"name":"bear1boss fan","steam_id":76561198047850813,"connected_time":818000000000,"state":"active","ping":46},{"user_id":74,"name":"J O S HÂ³Â²","steam_id":76561198122603779,"connected_time":1749000000000,"state":"active","ping":68},{"user_id":66,"name":"Nom Skirrett","steam_id":76561198014600788,"connected_time":2059000000000,"state":"active","ping":61},{"user_id":76,"name":"Whimsy!","steam_id":76561197989578836,"connected_time":1649000000000,"state":"active","ping":61},{"user_id":69,"name":"w a o w","steam_id":76561198060769385,"connected_time":1899000000000,"state":"active","ping":74},{"user_id":89,"name":"FI LO","steam_id":76561198976530881,"connected_time":866000000000,"state":"active","ping":74},{"user_id":78,"name":"the keebler","steam_id":76561199486326945,"connected_time":1636000000000,"state":"active","ping":120},{"user_id":87,"name":"ArjayTheWeenie","steam_id":76561198275999294,"connected_time":1077000000000,"state":"active","ping":43},{"user_id":65,"name":"woodpigeon","steam_id":76561199488457138,"connected_time":2342000000000,"state":"active","ping":50},{"user_id":48,"name":"Imitation Caucasian","steam_id":76561198320536166,"connected_time":3240000000000,"state":"active","ping":78},{"user_id":102,"name":"ðŸŽ„AndreaJinglingðŸŽ„","steam_id":76561198198658783,"connected_time":78000000000,"state":"active","ping":63},{"user_id":92,"name":"Mr. CubeX","steam_id":76561198805603832,"connected_time":850000000000,"state":"active","ping":99}]},{"server_id":119,"name":"Uncletopia | Seattle | 2 | All Maps","name_short":"sea-2","host":"sea-1.us.uncletopia.com","port":27025,"enabled":true,"region":"us-west","cc":"us","latitude":47.608013,"longitude":-122.33517,"reserved":0,"last_update":"0001-01-01T00:00:00Z","name_a2s":"Uncletopia | Seattle | 2 | All Maps","protocol":17,"map":"pl_frontier_final","folder":"tf","game":"Team Fortress","app_id":440,"player_count":0,"max_players":24,"Bots":0,"server_type":"Dedicated","server_os":"Linux","password":true,"vac":true,"version":"7961495","steam_id":85568392924469998,"keywords":["nocrits","nodmgspread","payload","uncletopia"],"game_id":440,"stv_port":27026,"stv_name":"Uncletopia | Seattle | 2 | All Maps | STV","players":null},{"server_id":406,"name":"Uncletopia | Seattle | 3 | Stopwatch","name_short":"sea-3","host":"sea-1.us.uncletopia.com","port":27035,"enabled":true,"region":"us-west","cc":"us","latitude":47.608013,"longitude":-122.33517,"reserved":0,"last_update":"0001-01-01T00:00:00Z","name_a2s":"Uncletopia | Seattle | 3 | Stopwatch","protocol":17,"map":"pl_upward","folder":"tf","game":"Team Fortress","app_id":440,"player_count":0,"max_players":24,"Bots":0,"server_type":"Dedicated","server_os":"Linux","password":true,"vac":true,"version":"7961495","steam_id":85568392924515217,"keywords":["nocrits","nodmgspread","payload","uncletopia"],"game_id":440,"stv_port":27036,"stv_name":"Uncletopia | Seattle | 3 | Stopwatch | STV","players":null},{"server_id":17,"name":"Uncletopia | San Francisco | 1 | All Maps","name_short":"sfo-1","host":"sfo-1.us.uncletopia.com","port":27015,"enabled":true,"region":"us-west","cc":"us","latitude":37.77397,"longitude":-122.4313,"reserved":0,"last_update":"0001-01-01T00:00:00Z","name_a2s":"Uncletopia | San Francisco | 1 | All Maps","protocol":17,"map":"koth_cascade","folder":"tf","game":"Team Fortress","app_id":440,"player_count":0,"max_players":24,"Bots":0,"server_type":"Dedicated","server_os":"Linux","password":true,"vac":true,"version":"7961495","steam_id":85568392924469999,"keywords":["cp","nocrits","nodmgspread","uncletopia"],"game_id":440,"stv_port":27016,"stv_name":"Uncletopia | San Francisco | 1 | All Maps | STV","players":null},{"server_id":18,"name":"Uncletopia | San Francisco | 2 | All Maps","name_short":"sfo-2","host":"sfo-1.us.uncletopia.com","port":27025,"enabled":true,"region":"us-west","cc":"us","latitude":37.77397,"longitude":-122.4313,"reserved":0,"last_update":"0001-01-01T00:00:00Z","name_a2s":"Uncletopia | San Francisco | 2 | All Maps","protocol":17,"map":"pl_frontier_final","folder":"tf","game":"Team Fortress","app_id":440,"player_count":0,"max_players":24,"Bots":0,"server_type":"Dedicated","server_os":"Linux","password":true,"vac":true,"version":"7961495","steam_id":85568392924470000,"keywords":["nocrits","nodmgspread","payload","uncletopia"],"game_id":440,"stv_port":27026,"stv_name":"Uncletopia | San Francisco | 2 | All Maps | STV","players":null},{"server_id":19,"name":"Uncletopia | San Francisco | 3 | Stopwatch","name_short":"sfo-3","host":"sfo-1.us.uncletopia.com","port":27035,"enabled":true,"region":"us-west","cc":"us","latitude":37.77397,"longitude":-122.4313,"reserved":0,"last_update":"0001-01-01T00:00:00Z","name_a2s":"Uncletopia | San Francisco | 3 | Stopwatch","protocol":17,"map":"pl_pier","folder":"tf","game":"Team Fortress","app_id":440,"player_count":0,"max_players":24,"Bots":0,"server_type":"Dedicated","server_os":"Linux","password":true,"vac":true,"version":"7961495","steam_id":85568392924742824,"keywords":["nocrits","nodmgspread","payload","uncletopia"],"game_id":440,"stv_port":27036,"stv_name":"Uncletopia | San Francisco | 3 | Stopwatch | STV","players":null},{"server_id":20,"name":"Uncletopia | San Francisco | 4 | Community","name_short":"sfo-4","host":"sfo-1.us.uncletopia.com","port":27045,"enabled":true,"region":"us-west","cc":"us","latitude":37.77397,"longitude":-122.4313,"reserved":0,"last_update":"0001-01-01T00:00:00Z","name_a2s":"Uncletopia | San Francisco | 4 | Community","protocol":17,"map":"pl_pier","folder":"tf","game":"Team Fortress","app_id":440,"player_count":0,"max_players":24,"Bots":0,"server_type":"Dedicated","server_os":"Linux","password":true,"vac":true,"version":"7961495","steam_id":85568392924742826,"keywords":["nocrits","nodmgspread","payload","uncletopia"],"game_id":440,"stv_port":27046,"stv_name":"Uncletopia | San Francisco | 4 | Community | STV","players":null},{"server_id":141,"name":"Uncletopia | Sydney | 1 | All Maps","name_short":"syd-1","host":"syd-1.au.uncletopia.com","port":27015,"enabled":true,"region":"au","cc":"au","latitude":-33.865143,"longitude":151.2099,"reserved":0,"last_update":"0001-01-01T00:00:00Z","name_a2s":"Uncletopia | Sydney | 1 | All Maps","protocol":17,"map":"koth_viaduct","folder":"tf","game":"Team Fortress","app_id":440,"player_count":0,"max_players":24,"Bots":0,"server_type":"Dedicated","server_os":"Linux","password":true,"vac":true,"version":"7961495","steam_id":85568392924470001,"keywords":["cp","nocrits","nodmgspread","uncletopia"],"game_id":440,"stv_port":27016,"stv_name":"Uncletopia | Sydney | 1 | All Maps | STV","players":null},{"server_id":123,"name":"Uncletopia | Sydney | 2 | All Maps","name_short":"syd-2","host":"syd-1.au.uncletopia.com","port":27025,"enabled":true,"region":"au","cc":"au","latitude":-33.865143,"longitude":151.2099,"reserved":0,"last_update":"0001-01-01T00:00:00Z","name_a2s":"Uncletopia | Sydney | 2 | All Maps","protocol":17,"map":"koth_lakeside_final","folder":"tf","game":"Team Fortress","app_id":440,"player_count":0,"max_players":24,"Bots":0,"server_type":"Dedicated","server_os":"Linux","password":true,"vac":true,"version":"7961495","steam_id":85568392924470002,"keywords":["cp","nocrits","nodmgspread","uncletopia"],"game_id":440,"stv_port":27026,"stv_name":"Uncletopia | Sydney | 2 | All Maps | STV","players":null},{"server_id":395,"name":"Uncletopia | Sydney | 3 | All Maps","name_short":"syd-3","host":"syd-1.au.uncletopia.com","port":27035,"enabled":true,"region":"au","cc":"au","latitude":-33.865143,"longitude":151.2099,"reserved":0,"last_update":"0001-01-01T00:00:00Z","name_a2s":"Uncletopia | Sydney | 3 | All Maps","protocol":17,"map":"pl_frontier_final","folder":"tf","game":"Team Fortress","app_id":440,"player_count":0,"max_players":24,"Bots":0,"server_type":"Dedicated","server_os":"Linux","password":true,"vac":true,"version":"7961495","steam_id":85568392925194467,"keywords":["nocrits","nodmgspread","payload","uncletopia"],"game_id":440,"stv_port":27036,"stv_name":"Uncletopia | Sydney | 3 | All Maps | STV","players":null},{"server_id":396,"name":"Uncletopia | Sydney | 4 | All Maps","name_short":"syd-4","host":"syd-1.au.uncletopia.com","port":27045,"enabled":true,"region":"au","cc":"au","latitude":-33.865143,"longitude":151.2099,"reserved":0,"last_update":"0001-01-01T00:00:00Z","name_a2s":"Uncletopia | Sydney | 4 | All Maps","protocol":17,"map":"cp_process_final","folder":"tf","game":"Team Fortress","app_id":440,"player_count":0,"max_players":24,"Bots":0,"server_type":"Dedicated","server_os":"Linux","password":true,"vac":true,"version":"7961495","steam_id":85568392925397958,"keywords":["cp","nocrits","nodmgspread","uncletopia"],"game_id":440,"stv_port":27046,"stv_name":"Uncletopia | Sydney | 4 | All Maps | STV","players":null},{"server_id":58,"name":"Uncletopia | Sydney | 5 | Stopwatch","name_short":"syd-5","host":"syd-1.au.uncletopia.com","port":27055,"enabled":true,"region":"au","cc":"au","latitude":-33.865143,"longitude":151.2099,"reserved":0,"last_update":"0001-01-01T00:00:00Z","name_a2s":"Uncletopia | Sydney | 5 | Stopwatch","protocol":17,"map":"pl_frontier_final","folder":"tf","game":"Team Fortress","app_id":440,"player_count":0,"max_players":24,"Bots":0,"server_type":"Dedicated","server_os":"Linux","password":true,"vac":true,"version":"7961495","steam_id":85568392925397959,"keywords":["nocrits","nodmgspread","payload","uncletopia"],"game_id":440,"stv_port":27056,"stv_name":"Uncletopia | Sydney | 5 | Stopwatch | STV","players":null},{"server_id":59,"name":"Uncletopia | Sydney | 6 | Community","name_short":"syd-6","host":"syd-1.au.uncletopia.com","port":27065,"enabled":true,"region":"au","cc":"au","latitude":-33.865143,"longitude":151.2099,"reserved":0,"last_update":"0001-01-01T00:00:00Z","name_a2s":"Uncletopia | Sydney | 6 | Community","protocol":17,"map":"cp_sunshine","folder":"tf","game":"Team Fortress","app_id":440,"player_count":0,"max_players":24,"Bots":0,"server_type":"Dedicated","server_os":"Linux","password":true,"vac":true,"version":"7961495","steam_id":85568392925397960,"keywords":["cp","nocrits","nodmgspread","uncletopia"],"game_id":440,"stv_port":27066,"stv_name":"Uncletopia | Sydney | 6 | Community | STV","players":null},{"server_id":49,"name":"Uncletopia | Warsaw | 1 | One Thousand Uncles","name_short":"waw-1","host":"waw-1.pl.uncletopia.com","port":27015,"enabled":true,"region":"eu","cc":"pl","latitude":52.2297,"longitude":21.017532,"reserved":0,"last_update":"0001-01-01T00:00:00Z","name_a2s":"Uncletopia | Warsaw | 1 | One Thousand Uncles","protocol":17,"map":"cp_mossrock","folder":"tf","game":"Team Fortress","app_id":440,"player_count":0,"max_players":32,"Bots":0,"server_type":"Dedicated","server_os":"Linux","password":true,"vac":true,"version":"7961495","steam_id":85568392925397850,"keywords":["alltalk","cp","danepve","increased_maxplayers","nocrits","norespawntime","uncletopia"],"game_id":440,"stv_port":0,"stv_name":"","players":null},{"server_id":50,"name":"Uncletopia | Warsaw | 2 | One Thousand Uncles","name_short":"waw-2","host":"waw-1.pl.uncletopia.com","port":27025,"enabled":true,"region":"eu","cc":"pl","latitude":52.2297,"longitude":21.017532,"reserved":0,"last_update":"0001-01-01T00:00:00Z","name_a2s":"Uncletopia | Warsaw | 2 | One Thousand Uncles","protocol":17,"map":"pl_hoodoo_final","folder":"tf","game":"Team Fortress","app_id":440,"player_count":29,"max_players":32,"Bots":16,"server_type":"Dedicated","server_os":"Linux","password":true,"vac":true,"version":"7961495","steam_id":85568392925397851,"keywords":["alltalk","bots","danepve","increased_maxplayers","nocrits","norespawntime","payload","uncletopia"],"game_id":440,"stv_port":0,"stv_name":"","players":[{"user_id":622,"name":"Kretes","steam_id":76561198982786431,"connected_time":1741000000000,"state":"active","ping":39},{"user_id":645,"name":"Paraducks","steam_id":76561198083301973,"connected_time":757000000000,"state":"active","ping":69},{"user_id":640,"name":"OMG IS THAT SPY FROM TF2?","steam_id":76561199291684647,"connected_time":1287000000000,"state":"active","ping":41},{"user_id":642,"name":"Sallomone","steam_id":76561198878216775,"connected_time":975000000000,"state":"active","ping":108},{"user_id":646,"name":"ÐÐÐ£Ð¡ ÐžÐ§Ð•ÐœÐ","steam_id":76561199401147916,"connected_time":742000000000,"state":"active","ping":57},{"user_id":647,"name":"tomgru2009","steam_id":76561199466136608,"connected_time":680000000000,"state":"active","ping":48},{"user_id":648,"name":"Dosi","steam_id":76561199032025182,"connected_time":614000000000,"state":"active","ping":44},{"user_id":649,"name":"kreisztata68","steam_id":76561198850290920,"connected_time":566000000000,"state":"active","ping":71},{"user_id":650,"name":"Templario20982","steam_id":76561199026494523,"connected_time":378000000000,"state":"active","ping":104},{"user_id":651,"name":"my finals are tomorrow morning","steam_id":76561198282952165,"connected_time":300000000000,"state":"active","ping":57},{"user_id":652,"name":"P0LSKI $TAL1N","steam_id":76561198356611401,"connected_time":221000000000,"state":"active","ping":46},{"user_id":653,"name":"Jetstream Sam","steam_id":76561199483869868,"connected_time":209000000000,"state":"active","ping":57},{"user_id":655,"name":"Majami","steam_id":76561198054365738,"connected_time":175000000000,"state":"active","ping":76}]},{"server_id":51,"name":"Uncletopia | Warsaw | 3 | All Maps","name_short":"waw-3","host":"waw-1.pl.uncletopia.com","port":27035,"enabled":true,"region":"eu","cc":"pl","latitude":52.2297,"longitude":21.017532,"reserved":0,"last_update":"0001-01-01T00:00:00Z","name_a2s":"Uncletopia | Warsaw | 3 | All Maps","protocol":17,"map":"plr_pipeline","folder":"tf","game":"Team Fortress","app_id":440,"player_count":0,"max_players":24,"Bots":0,"server_type":"Dedicated","server_os":"Linux","password":true,"vac":true,"version":"7961495","steam_id":85568392925397852,"keywords":["nocrits","nodmgspread","payload","uncletopia"],"game_id":440,"stv_port":27036,"stv_name":"Uncletopia | Warsaw | 3 | All Maps | STV","players":null},{"server_id":52,"name":"Uncletopia | Warsaw | 4 | All Maps","name_short":"waw-4","host":"waw-1.pl.uncletopia.com","port":27045,"enabled":true,"region":"eu","cc":"pl","latitude":52.2297,"longitude":21.017532,"reserved":0,"last_update":"0001-01-01T00:00:00Z","name_a2s":"Uncletopia | Warsaw | 4 | All Maps","protocol":17,"map":"koth_highpass","folder":"tf","game":"Team Fortress","app_id":440,"player_count":0,"max_players":24,"Bots":0,"server_type":"Dedicated","server_os":"Linux","password":true,"vac":true,"version":"7961495","steam_id":85568392925397853,"keywords":["cp","nocrits","nodmgspread","uncletopia"],"game_id":440,"stv_port":27046,"stv_name":"Uncletopia | Warsaw | 4 | All Maps | STV","players":null},{"server_id":53,"name":"Uncletopia | Warsaw | 5 | Stopwatch","name_short":"waw-5","host":"waw-1.pl.uncletopia.com","port":27055,"enabled":true,"region":"eu","cc":"pl","latitude":52.2297,"longitude":21.017532,"reserved":0,"last_update":"0001-01-01T00:00:00Z","name_a2s":"Uncletopia | Warsaw | 5 | Stopwatch","protocol":17,"map":"workshop/koth_ramjam_rc1.ugc459778887","folder":"tf","game":"Team Fortress","app_id":440,"player_count":0,"max_players":24,"Bots":0,"server_type":"Dedicated","server_os":"Linux","password":true,"vac":true,"version":"7961495","steam_id":85568392925397854,"keywords":["cp","nocrits","nodmgspread","uncletopia"],"game_id":440,"stv_port":27056,"stv_name":"Uncletopia | Warsaw | 5 | Stopwatch | STV","players":null},{"server_id":54,"name":"Uncletopia | Warsaw | 6 | Community","name_short":"waw-6","host":"waw-1.pl.uncletopia.com","port":27065,"enabled":true,"region":"eu","cc":"pl","latitude":52.2297,"longitude":21.017532,"reserved":0,"last_update":"0001-01-01T00:00:00Z","name_a2s":"Uncletopia | Warsaw | 6 | Community","protocol":17,"map":"workshop/koth_trenchfoot_ab1.ugc731436616","folder":"tf","game":"Team Fortress","app_id":440,"player_count":0,"max_players":24,"Bots":0,"server_type":"Dedicated","server_os":"Linux","password":true,"vac":true,"version":"7961495","steam_id":85568392925397856,"keywords":["cp","nocrits","nodmgspread","uncletopia"],"game_id":440,"stv_port":27066,"stv_name":"Uncletopia | Warsaw | 6 | Community | STV","players":null}]}