{"status":true,"message":"","result":[{"server_id":9,"name":"Uncletopia | Atlanta | 1 | All Maps","name_short":"atl-1","host":"atl-1.us.uncletopia.com","port":27015,"enabled":true,"region":"us-east","cc":"us","latitude":33.753746,"longitude":-84.38633,"reserved":0,"last_update":"0001-01-01T00:00:00Z","name_a2s":"Uncletopia | Atlanta | 1 | All Maps","protocol":17,"map":"pl_borneo","folder":"tf","game":"Team Fortress","app_id":440,"player_count":24,"max_players":24,"Bots":0,"server_type":"Dedicated","server_os":"Linux","password":true,"vac":true,"version":"7882260","steam_id":85568392924469982,"keywords":["nocrits","nodmgspread","payload","uncletopia"],"game_id":440,"stv_port":27016,"stv_name":"Uncletopia | Atlanta | 1 | All Maps | STV","players":[{"user_id":347,"name":"AllMyProblemsAreBecauseOfSociet","steam_id":76561198081617990,"connected_time":1584000000000,"state":"active","ping":114},{"user_id":359,"name":"HarryjusttHarry","steam_id":76561198982810452,"connected_time":747000000000,"state":"active","ping":77},{"user_id":354,"name":"substance","steam_id":76561198050103868,"connected_time":1012000000000,"state":"active","ping":106},{"user_id":344,"name":"--_Cook_--","steam_id":76561198080855748,"connected_time":2068000000000,"state":"active","ping":46},{"user_id":364,"name":"in-n-out double-double¬Æ","steam_id":76561198172454407,"connected_time":53000000000,"state":"active","ping":90},{"user_id":352,"name":"Rockhead","steam_id":76561197995196535,"connected_time":1030000000000,"state":"active","ping":65},{"user_id":337,"name":"t.tv/ibbKitty‚àë:3","steam_id":76561198110858518,"connected_time":2677000000000,"state":"active","ping":76},{"user_id":305,"name":"Voyager","steam_id":76561199128786637,"connected_time":5289000000000,"state":"active","ping":86},{"user_id":355,"name":"Pop","steam_id":76561199012562851,"connected_time":1011000000000,"state":"active","ping":88},{"user_id":342,"name":"freaking","steam_id":76561198148132163,"connected_time":2302000000000,"state":"active","ping":76},{"user_id":340,"name":"V!CT!M","steam_id":76561198962721502,"connected_time":2559000000000,"state":"active","ping":86},{"user_id":350,"name":"Sans (real)","steam_id":76561199084939435,"connected_time":1041000000000,"state":"active","ping":66},{"user_id":349,"name":"Trotsky Gaming","steam_id":76561199101638460,"connected_time":1049000000000,"state":"active","ping":68},{"user_id":353,"name":"Gheeotine","steam_id":76561198010181698,"connected_time":1030000000000,"state":"active","ping":85},{"user_id":343,"name":"SparkStorm","steam_id":76561198095817025,"connected_time":2068000000000,"state":"active","ping":36},{"user_id":358,"name":"Hyperspace","steam_id":76561198397009880,"connected_time":871000000000,"state":"active","ping":64},{"user_id":361,"name":"ATLS 1 | Krissy","steam_id":76561197960848174,"connected_time":283000000000,"state":"active","ping":66},{"user_id":365,"name":"pizzasam","steam_id":76561197972511201,"connected_time":23000000000,"state":"active","ping":119},{"user_id":341,"name":"Ashes!","steam_id":76561197998475441,"connected_time":2445000000000,"state":"active","ping":79},{"user_id":333,"name":"InchMan","steam_id":76561198272658825,"connected_time":2937000000000,"state":"active","ping":80},{"user_id":299,"name":"Yosh","steam_id":76561198027078899,"connected_time":6279000000000,"state":"active","ping":90},{"user_id":301,"name":"Yam Jazzy Jim","steam_id":76561198000788950,"connected_time":6212000000000,"state":"active","ping":75},{"user_id":317,"name":"Onyx","steam_id":76561198275349640,"connected_time":4406000000000,"state":"active","ping":75},{"user_id":346,"name":"Vladikr1","steam_id":76561198401495362,"connected_time":1753000000000,"state":"active","ping":88}]},{"server_id":104,"name":"Uncletopia | Atlanta | 2 | All Maps","name_short":"atl-2","host":"atl-1.us.uncletopia.com","port":27025,"enabled":true,"region":"us-east","cc":"us","latitude":33.753746,"longitude":-84.38633,"reserved":0,"last_update":"0001-01-01T00:00:00Z","name_a2s":"Uncletopia | Atlanta | 2 | All Maps","protocol":17,"map":"pl_frontier_final","folder":"tf","game":"Team Fortress","app_id":440,"player_count":24,"max_players":24,"Bots":0,"server_type":"Dedicated","server_os":"Linux","password":true,"vac":true,"version":"7882260","steam_id":85568392924469983,"keywords":["nocrits","nodmgspread","payload","uncletopia"],"game_id":440,"stv_port":27026,"stv_name":"Uncletopia | Atlanta | 2 | All Maps | STV","players":[{"user_id":216,"name":"FancyBones","steam_id":76561198180198885,"connected_time":1146000000000,"state":"active","ping":65},{"user_id":224,"name":"Pyro she/her","steam_id":76561198214080773,"connected_time":731000000000,"state":"active","ping":53},{"user_id":213,"name":"Spooky Android","steam_id":76561198101671207,"connected_time":1510000000000,"state":"active","ping":74},{"user_id":168,"name":"sock","steam_id":76561199117597830,"connected_time":4794000000000,"state":"active","ping":37},{"user_id":231,"name":"Twissim","steam_id":76561198141842291,"connected_time":495000000000,"state":"active","ping":100},{"user_id":220,"name":"Jazz hates Jazz","steam_id":76561199053475022,"connected_time":876000000000,"state":"active","ping":61},{"user_id":207,"name":"adda","steam_id":76561198309013410,"connected_time":1912000000000,"state":"active","ping":69},{"user_id":221,"name":"awesomeajb08","steam_id":76561199056316311,"connected_time":812000000000,"state":"active","ping":77},{"user_id":222,"name":"RandomPixels","steam_id":76561198844646074,"connected_time":793000000000,"state":"active","ping":74},{"user_id":238,"name":"Grilled Jizo","steam_id":76561199250875340,"connected_time":103000000000,"state":"active","ping":126},{"user_id":223,"name":"INKED!","steam_id":76561198208926572,"connected_time":781000000000,"state":"active","ping":61},{"user_id":196,"name":"Big Tonka","steam_id":76561198891584971,"connected_time":2945000000000,"state":"active","ping":71},{"user_id":237,"name":"Notsocreative","steam_id":76561198236372202,"connected_time":288000000000,"state":"active","ping":76},{"user_id":225,"name":"Saul Goodman","steam_id":76561198958881101,"connected_time":724000000000,"state":"active","ping":87},{"user_id":233,"name":"tooth","steam_id":76561197986437643,"connected_time":373000000000,"state":"active","ping":60},{"user_id":198,"name":"Mindstrain","steam_id":76561199274044215,"connected_time":2751000000000,"state":"active","ping":108},{"user_id":234,"name":"Silverkeys","steam_id":76561197986012496,"connected_time":367000000000,"state":"active","ping":98},{"user_id":227,"name":"Demoman With One Joke","steam_id":76561197993467034,"connected_time":692000000000,"state":"active","ping":74},{"user_id":205,"name":"Dreysidel","steam_id":76561198056496183,"connected_time":2440000000000,"state":"active","ping":95},{"user_id":212,"name":"Lex","steam_id":76561198069948353,"connected_time":1685000000000,"state":"active","ping":91},{"user_id":236,"name":"BooceMaster","steam_id":76561198148520318,"connected_time":322000000000,"state":"active","ping":77},{"user_id":189,"name":"Raptoria","steam_id":76561198105613110,"connected_time":3788000000000,"state":"active","ping":73},{"user_id":235,"name":"El Bondin","steam_id":76561198820792434,"connected_time":361000000000,"state":"active","ping":79},{"user_id":193,"name":"escapegoat","steam_id":76561198188722751,"connected_time":3775000000000,"state":"active","ping":104}]},{"server_id":400,"name":"Uncletopia | Atlanta | 3 | Community","name_short":"atl-3","host":"atl-1.us.uncletopia.com","port":27035,"enabled":true,"region":"us-east","cc":"us","latitude":33.753746,"longitude":-84.38633,"reserved":0,"last_update":"0001-01-01T00:00:00Z","name_a2s":"Uncletopia | Atlanta | 3 | Community","protocol":17,"map":"workshop/pl_cactuscanyon_redux_final2.ugc2579644293","folder":"tf","game":"Team Fortress","app_id":440,"player_count":0,"max_players":24,"Bots":0,"server_type":"Dedicated","server_os":"Linux","password":true,"vac":true,"version":"7882260","steam_id":85568392924515187,"keywords":["nocrits","nodmgspread","payload","uncletopia"],"game_id":440,"stv_port":27036,"stv_name":"Uncletopia | Atlanta | 3 | Community | STV","players":null},{"server_id":401,"name":"Uncletopia | Atlanta | 4 | No Payload","name_short":"atl-4","host":"atl-1.us.uncletopia.com","port":27045,"enabled":true,"region":"us-east","cc":"us","latitude":33.753746,"longitude":-84.38633,"reserved":0,"last_update":"0001-01-01T00:00:00Z","name_a2s":"","protocol":0,"map":"","folder":"","game":"","app_id":0,"player_count":0,"max_players":0,"Bots":0,"server_type":"","server_os":"","password":false,"vac":false,"version":"","steam_id":0,"keywords":null,"game_id":0,"stv_port":0,"stv_name":"","players":null},{"server_id":2,"name":"Uncletopia | Chicago | 1 | All Maps","name_short":"chi-1","host":"chi-1.us.uncletopia.com","port":27015,"enabled":true,"region":"us-central","cc":"us","latitude":41.881832,"longitude":-87.62318,"reserved":0,"last_update":"0001-01-01T00:00:00Z","name_a2s":"Uncletopia | Chicago | 1 | All Maps","protocol":17,"map":"ctf_2fort","folder":"tf","game":"Team Fortress","app_id":440,"player_count":24,"max_players":24,"Bots":0,"server_type":"Dedicated","server_os":"Linux","password":true,"vac":true,"version":"7882260","steam_id":85568392924469984,"keywords":["ctf","nocrits","nodmgspread","uncletopia"],"game_id":440,"stv_port":27016,"stv_name":"Uncletopia | Chicago | 1 | All Maps | STV","players":[{"user_id":580,"name":"Girl [Big Gock Edition]","steam_id":76561198276385778,"connected_time":962000000000,"state":"active","ping":90},{"user_id":582,"name":"Tick","steam_id":76561198184161214,"connected_time":788000000000,"state":"active","ping":41},{"user_id":565,"name":"Kattnesta","steam_id":76561198210927551,"connected_time":1191000000000,"state":"active","ping":53},{"user_id":595,"name":"capybara(happy womens month)","steam_id":76561198798828328,"connected_time":298000000000,"state":"active","ping":46},{"user_id":583,"name":"Toast","steam_id":76561198401995265,"connected_time":708000000000,"state":"active","ping":51},{"user_id":566,"name":"goblino","steam_id":76561198068260422,"connected_time":1183000000000,"state":"active","ping":46},{"user_id":591,"name":"gaming elliptical","steam_id":76561198013456569,"connected_time":375000000000,"state":"active","ping":48},{"user_id":509,"name":"jrdoran","steam_id":76561197984753094,"connected_time":4728000000000,"state":"active","ping":63},{"user_id":567,"name":"fresco","steam_id":76561199101199477,"connected_time":1178000000000,"state":"active","ping":78},{"user_id":568,"name":"dirty dank","steam_id":76561198360904432,"connected_time":1175000000000,"state":"active","ping":68},{"user_id":571,"name":"Grand_Fantasia","steam_id":76561198369996299,"connected_time":1139000000000,"state":"active","ping":117},{"user_id":593,"name":"Owen","steam_id":76561198025446908,"connected_time":350000000000,"state":"active","ping":60},{"user_id":598,"name":"yomo","steam_id":76561198063175935,"connected_time":215000000000,"state":"active","ping":71},{"user_id":570,"name":"The_Man","steam_id":76561199194890696,"connected_time":1168000000000,"state":"active","ping":80},{"user_id":560,"name":"Tarnation Bob","steam_id":76561198107382571,"connected_time":1208000000000,"state":"active","ping":131},{"user_id":572,"name":"|WS| Don't_Taze_Me_Bro","steam_id":76561198043289495,"connected_time":1123000000000,"state":"active","ping":77},{"user_id":596,"name":"Chris P. Bacon","steam_id":76561198000851038,"connected_time":242000000000,"state":"active","ping":78},{"user_id":561,"name":"b√ºddeh","steam_id":76561198070735936,"connected_time":1206000000000,"state":"active","ping":59},{"user_id":519,"name":"AkkiAdachi","steam_id":76561198071164077,"connected_time":4121000000000,"state":"active","ping":73},{"user_id":556,"name":"Maverick","steam_id":76561198322829814,"connected_time":1356000000000,"state":"active","ping":78},{"user_id":581,"name":"aphexjh","steam_id":76561197985854658,"connected_time":880000000000,"state":"active","ping":61},{"user_id":597,"name":"MitzoAtlas","steam_id":76561198160890702,"connected_time":229000000000,"state":"active","ping":76},{"user_id":579,"name":"‡≤†_‡≤†","steam_id":76561198096221632,"connected_time":986000000000,"state":"active","ping":66},{"user_id":599,"name":"Asanez3","steam_id":76561198037381436,"connected_time":211000000000,"state":"active","ping":91}]},{"server_id":106,"name":"Uncletopia | Chicago | 2 | All Maps","name_short":"chi-2","host":"chi-1.us.uncletopia.com","port":27025,"enabled":true,"region":"us-central","cc":"us","latitude":41.881832,"longitude":-87.62318,"reserved":0,"last_update":"0001-01-01T00:00:00Z","name_a2s":"Uncletopia | Chicago | 2 | All Maps","protocol":17,"map":"cp_snakewater_final1","folder":"tf","game":"Team Fortress","app_id":440,"player_count":24,"max_players":24,"Bots":0,"server_type":"Dedicated","server_os":"Linux","password":true,"vac":true,"version":"7882260","steam_id":85568392924469985,"keywords":["cp","nocrits","nodmgspread","uncletopia"],"game_id":440,"stv_port":27026,"stv_name":"Uncletopia | Chicago | 2 | All Maps | STV","players":[{"user_id":142,"name":"Cedric","steam_id":76561198072090580,"connected_time":336000000000,"state":"active","ping":89},{"user_id":110,"name":"ultralisk52","steam_id":76561198051666604,"connected_time":2253000000000,"state":"active","ping":64},{"user_id":112,"name":"Letters","steam_id":76561198035508148,"connected_time":2067000000000,"state":"active","ping":94},{"user_id":113,"name":"momb","steam_id":76561198142234038,"connected_time":2058000000000,"state":"active","ping":91},{"user_id":130,"name":"Knight Minson","steam_id":76561198091567396,"connected_time":908000000000,"state":"active","ping":55},{"user_id":97,"name":"Clit Connoisseur","steam_id":76561198166880794,"connected_time":3463000000000,"state":"active","ping":43},{"user_id":114,"name":"Bongos","steam_id":76561198865285465,"connected_time":2034000000000,"state":"active","ping":107},{"user_id":127,"name":"Axities","steam_id":76561198278008225,"connected_time":1320000000000,"state":"active","ping":77},{"user_id":134,"name":"manbearswineflu","steam_id":76561198083945137,"connected_time":607000000000,"state":"active","ping":59},{"user_id":76,"name":"katryna","steam_id":76561198023440304,"connected_time":5891000000000,"state":"active","ping":57},{"user_id":78,"name":"Skeleton Hotel","steam_id":76561198041704727,"connected_time":5670000000000,"state":"active","ping":56},{"user_id":106,"name":"Famelegion","steam_id":76561198958341424,"connected_time":2494000000000,"state":"active","ping":93},{"user_id":123,"name":"YesMargaret","steam_id":76561198127971751,"connected_time":1905000000000,"state":"active","ping":68},{"user_id":44,"name":"tay k out of prison","steam_id":76561198253731826,"connected_time":7374000000000,"state":"active","ping":54},{"user_id":46,"name":"Infinity","steam_id":76561199134919099,"connected_time":7309000000000,"state":"active","ping":71},{"user_id":135,"name":"Slashes","steam_id":76561197968573499,"connected_time":589000000000,"state":"active","ping":57},{"user_id":118,"name":"Forehead","steam_id":76561198124151399,"connected_time":1983000000000,"state":"active","ping":68},{"user_id":103,"name":"Papy_rat","steam_id":76561198088207937,"connected_time":3012000000000,"state":"active","ping":72},{"user_id":126,"name":"Slugger01","steam_id":76561198975798014,"connected_time":1390000000000,"state":"active","ping":52},{"user_id":120,"name":"carrot cake","steam_id":76561198055174915,"connected_time":1954000000000,"state":"active","ping":70},{"user_id":144,"name":"153x","steam_id":76561198004015349,"connected_time":0,"state":"spawning","ping":0},{"user_id":137,"name":"TJThomas","steam_id":76561198038292405,"connected_time":563000000000,"state":"active","ping":60},{"user_id":143,"name":"funny","steam_id":76561198381715127,"connected_time":78000000000,"state":"active","ping":106},{"user_id":132,"name":"A Puppy","steam_id":76561198828184456,"connected_time":862000000000,"state":"active","ping":63}]},{"server_id":402,"name":"Uncletopia | Chicago | 3 | All Maps","name_short":"chi-3","host":"chi-1.us.uncletopia.com","port":27035,"enabled":true,"region":"us-central","cc":"us","latitude":41.881832,"longitude":-87.62318,"reserved":0,"last_update":"0001-01-01T00:00:00Z","name_a2s":"Uncletopia | Chicago | 3 | All Maps","protocol":17,"map":"pl_borneo","folder":"tf","game":"Team Fortress","app_id":440,"player_count":24,"max_players":24,"Bots":0,"server_type":"Dedicated","server_os":"Linux","password":true,"vac":true,"version":"7882260","steam_id":85568392924515191,"keywords":["nocrits","nodmgspread","payload","uncletopia"],"game_id":440,"stv_port":27036,"stv_name":"Uncletopia | Chicago | 3 | All Maps | STV","players":[{"user_id":331,"name":"Snugboo","steam_id":76561198147970327,"connected_time":40000000000,"state":"active","ping":47},{"user_id":323,"name":"Fudge_Cake","steam_id":76561198059218167,"connected_time":817000000000,"state":"active","ping":76},{"user_id":301,"name":"ikeepitfeed6","steam_id":76561198202843510,"connected_time":1453000000000,"state":"active","ping":74},{"user_id":302,"name":"eat Pant","steam_id":76561197974965536,"connected_time":1448000000000,"state":"active","ping":61},{"user_id":326,"name":"Soda","steam_id":76561198219209367,"connected_time":473000000000,"state":"active","ping":71},{"user_id":258,"name":"PyroEagle","steam_id":76561198296434231,"connected_time":3915000000000,"state":"active","ping":66},{"user_id":292,"name":"M249 | Spectre","steam_id":76561198118334485,"connected_time":1995000000000,"state":"active","ping":74},{"user_id":270,"name":"„ÄåMage„Äç","steam_id":76561198150620467,"connected_time":3227000000000,"state":"active","ping":46},{"user_id":282,"name":"Solivisor","steam_id":76561198846866721,"connected_time":2407000000000,"state":"active","ping":95},{"user_id":314,"name":"jpuzza","steam_id":76561198035535731,"connected_time":1171000000000,"state":"active","ping":78},{"user_id":284,"name":"Pettifogging Milksop","steam_id":76561198074560331,"connected_time":2390000000000,"state":"active","ping":84},{"user_id":315,"name":"an inebriated newt fancier","steam_id":76561197985428155,"connected_time":1168000000000,"state":"active","ping":60},{"user_id":321,"name":"Get Beaned","steam_id":76561198391590820,"connected_time":857000000000,"state":"active","ping":111},{"user_id":329,"name":"Tankless Water Heater","steam_id":76561198014574925,"connected_time":466000000000,"state":"active","ping":62},{"user_id":277,"name":"sad hominem","steam_id":76561198838282369,"connected_time":3003000000000,"state":"active","ping":74},{"user_id":332,"name":"blobb","steam_id":76561198950448488,"connected_time":30000000000,"state":"active","ping":94},{"user_id":293,"name":"anarcho bidenist","steam_id":76561198097588802,"connected_time":1925000000000,"state":"active","ping":48},{"user_id":327,"name":"Matt","steam_id":76561198008108521,"connected_time":471000000000,"state":"active","ping":64},{"user_id":317,"name":"Some random dude","steam_id":76561199477705792,"connected_time":974000000000,"state":"active","ping":123},{"user_id":279,"name":"lost in spaaaaace","steam_id":76561199085974120,"connected_time":2753000000000,"state":"active","ping":78},{"user_id":307,"name":"CaptiveRice","steam_id":76561198120686340,"connected_time":1396000000000,"state":"active","ping":87},{"user_id":330,"name":"Hurricane Bady (Meth Head)","steam_id":76561198253539262,"connected_time":314000000000,"state":"active","ping":63},{"user_id":320,"name":"chanoc","steam_id":76561198026734746,"connected_time":872000000000,"state":"active","ping":91},{"user_id":333,"name":"Trogdor","steam_id":76561198121353181,"connected_time":19000000000,"state":"spawning","ping":116}]},{"server_id":403,"name":"Uncletopia | Chicago | 4 | All Maps","name_short":"chi-4","host":"chi-1.us.uncletopia.com","port":27045,"enabled":true,"region":"us-central","cc":"us","latitude":41.881832,"longitude":-87.62318,"reserved":0,"last_update":"0001-01-01T00:00:00Z","name_a2s":"Uncletopia | Chicago | 4 | All Maps","protocol":17,"map":"pl_badwater","folder":"tf","game":"Team Fortress","app_id":440,"player_count":24,"max_players":24,"Bots":0,"server_type":"Dedicated","server_os":"Linux","password":true,"vac":true,"version":"7882260","steam_id":85568392924515193,"keywords":["nocrits","nodmgspread","payload","uncletopia"],"game_id":440,"stv_port":27046,"stv_name":"Uncletopia | Chicago | 4 | All Maps | STV","players":[{"user_id":487,"name":"Ta5K","steam_id":76561198939558155,"connected_time":1054000000000,"state":"active","ping":45},{"user_id":472,"name":"anotherl2","steam_id":76561198354418895,"connected_time":1747000000000,"state":"active","ping":85},{"user_id":484,"name":"viaomdeghs","steam_id":76561198025295263,"connected_time":1231000000000,"state":"active","ping":74},{"user_id":495,"name":"Jitter","steam_id":76561198330231701,"connected_time":103000000000,"state":"active","ping":53},{"user_id":453,"name":"roflol","steam_id":76561198148059714,"connected_time":2460000000000,"state":"active","ping":60},{"user_id":488,"name":"Antikythera","steam_id":76561198045923020,"connected_time":967000000000,"state":"active","ping":63},{"user_id":473,"name":"I AM Malik","steam_id":76561198322021485,"connected_time":1683000000000,"state":"active","ping":64},{"user_id":490,"name":"that wasnt funny pal","steam_id":76561198837926595,"connected_time":913000000000,"state":"active","ping":129},{"user_id":469,"name":"trobin120","steam_id":76561199122420273,"connected_time":1860000000000,"state":"active","ping":67},{"user_id":496,"name":"Sheev Palpatine","steam_id":76561198252332430,"connected_time":78000000000,"state":"active","ping":71},{"user_id":470,"name":"VividDragon","steam_id":76561198050659285,"connected_time":1843000000000,"state":"active","ping":68},{"user_id":441,"name":"EmmetsPage","steam_id":76561198850070336,"connected_time":3997000000000,"state":"active","ping":71},{"user_id":493,"name":"Mehman","steam_id":76561199020244051,"connected_time":414000000000,"state":"active","ping":104},{"user_id":478,"name":"JustCallMeNoahffs","steam_id":76561198085170243,"connected_time":1356000000000,"state":"active","ping":74},{"user_id":494,"name":"Mangoue","steam_id":76561198844686784,"connected_time":235000000000,"state":"active","ping":78},{"user_id":475,"name":"zero two","steam_id":76561199058650117,"connected_time":1653000000000,"state":"active","ping":91},{"user_id":492,"name":"thisisnotaustin","steam_id":76561198074463510,"connected_time":714000000000,"state":"active","ping":60},{"user_id":465,"name":"Mc_Sausen","steam_id":76561198065716881,"connected_time":2094000000000,"state":"active","ping":91},{"user_id":497,"name":"Pizza Party","steam_id":76561198165730754,"connected_time":67000000000,"state":"active","ping":70},{"user_id":457,"name":"ElChuchoXf","steam_id":76561199235124146,"connected_time":2349000000000,"state":"active","ping":155},{"user_id":446,"name":"esoobac","steam_id":76561198010370396,"connected_time":3589000000000,"state":"active","ping":45},{"user_id":463,"name":"stevert99","steam_id":76561198116762032,"connected_time":2127000000000,"state":"active","ping":60},{"user_id":481,"name":"Epicus Lusor","steam_id":76561198271981088,"connected_time":1286000000000,"state":"active","ping":69},{"user_id":482,"name":"¬øskitt1eS?","steam_id":76561198330093211,"connected_time":1285000000000,"state":"active","ping":67}]},{"server_id":36,"name":"Uncletopia | Chicago | 5 | All Maps","name_short":"chi-5","host":"chi-2.us.uncletopia.com","port":27015,"enabled":true,"region":"us-central","cc":"us","latitude":41.881832,"longitude":-87.62318,"reserved":0,"last_update":"0001-01-01T00:00:00Z","name_a2s":"Uncletopia | Chicago | 5 | All Maps","protocol":17,"map":"cp_dustbowl","folder":"tf","game":"Team Fortress","app_id":440,"player_count":8,"max_players":24,"Bots":0,"server_type":"Dedicated","server_os":"Linux","password":true,"vac":true,"version":"7882260","steam_id":85568392924866362,"keywords":["cp","nocrits","nodmgspread","uncletopia"],"game_id":440,"stv_port":27016,"stv_name":"Uncletopia | Chicago | 5 | All Maps | STV","players":[{"user_id":21,"name":"2","steam_id":76561198116821551,"connected_time":1518000000000,"state":"active","ping":55},{"user_id":35,"name":"Frenemy \u003e:D","steam_id":76561198011363677,"connected_time":153000000000,"state":"active","ping":53},{"user_id":33,"name":"Kindagoodplayer","steam_id":76561198814625843,"connected_time":251000000000,"state":"active","ping":72},{"user_id":24,"name":"gummygeek","steam_id":76561198244543486,"connected_time":1225000000000,"state":"active","ping":104},{"user_id":26,"name":"Yoshimelon","steam_id":76561198253054325,"connected_time":1201000000000,"state":"active","ping":71},{"user_id":27,"name":"ketchup","steam_id":76561197990543589,"connected_time":1189000000000,"state":"active","ping":58},{"user_id":29,"name":"all toasters toast toast","steam_id":76561198140846580,"connected_time":813000000000,"state":"active","ping":55},{"user_id":30,"name":"Chode Mode","steam_id":76561198353840477,"connected_time":798000000000,"state":"active","ping":57}]},{"server_id":37,"name":"Uncletopia | Chicago | 6 | All Maps","name_short":"chi-6","host":"chi-2.us.uncletopia.com","port":27025,"enabled":true,"region":"us-central","cc":"us","latitude":41.881832,"longitude":-87.62318,"reserved":0,"last_update":"0001-01-01T00:00:00Z","name_a2s":"Uncletopia | Chicago | 6 | All Maps","protocol":17,"map":"koth_viaduct","folder":"tf","game":"Team Fortress","app_id":440,"player_count":0,"max_players":24,"Bots":0,"server_type":"Dedicated","server_os":"Linux","password":true,"vac":true,"version":"7882260","steam_id":85568392924866363,"keywords":["cp","nocrits","nodmgspread","uncletopia"],"game_id":440,"stv_port":27026,"stv_name":"Uncletopia | Chicago | 6 | All Maps | STV","players":null},{"server_id":38,"name":"Uncletopia | Chicago | 7 | Stopwatch Beta","name_short":"chi-7","host":"chi-2.us.uncletopia.com","port":27035,"enabled":true,"region":"us-central","cc":"us","latitude":41.881832,"longitude":-87.62318,"reserved":0,"last_update":"0001-01-01T00:00:00Z","name_a2s":"Uncletopia | Chicago | 7 | Stopwatch Beta","protocol":17,"map":"pl_upward","folder":"tf","game":"Team Fortress","app_id":440,"player_count":0,"max_players":24,"Bots":0,"server_type":"Dedicated","server_os":"Linux","password":true,"vac":true,"version":"7882260","steam_id":85568392924866364,"keywords":["nocrits","nodmgspread","payload","uncletopia"],"game_id":440,"stv_port":27036,"stv_name":"Uncletopia | Chicago | 7 | Stopwatch Beta | STV","players":null},{"server_id":39,"name":"Uncletopia | Chicago | 8 | Community","name_short":"chi-8","host":"chi-2.us.uncletopia.com","port":27045,"enabled":true,"region":"us-central","cc":"us","latitude":41.881832,"longitude":-87.62318,"reserved":0,"last_update":"0001-01-01T00:00:00Z","name_a2s":"Uncletopia | Chicago | 8 | Community","protocol":17,"map":"workshop/cp_bruhstbowl_b5.ugc2878604990","folder":"tf","game":"Team Fortress","app_id":440,"player_count":0,"max_players":24,"Bots":0,"server_type":"Dedicated","server_os":"Linux","password":true,"vac":true,"version":"7882260","steam_id":85568392924866365,"keywords":["cp","nocrits","nodmgspread","uncletopia"],"game_id":440,"stv_port":27046,"stv_name":"Uncletopia | Chicago | 8 | Community | STV","players":null},{"server_id":8,"name":"Uncletopia | Dallas | 1 | All Maps","name_short":"dal-1","host":"dal-1.us.uncletopia.com","port":27015,"enabled":true,"region":"us-central","cc":"us","latitude":32.779167,"longitude":-96.80889,"reserved":0,"last_update":"0001-01-01T00:00:00Z","name_a2s":"Uncletopia | Dallas | 1 | All Maps","protocol":17,"map":"cp_gullywash_final1","folder":"tf","game":"Team Fortress","app_id":440,"player_count":21,"max_players":24,"Bots":0,"server_type":"Dedicated","server_os":"Linux","password":true,"vac":true,"version":"7882260","steam_id":85568392924469986,"keywords":["cp","nocrits","nodmgspread","uncletopia"],"game_id":440,"stv_port":27016,"stv_name":"Uncletopia | Dallas | 1 | All Maps | STV","players":[{"user_id":473,"name":"Chunk Stuffer","steam_id":76561198856508573,"connected_time":8062000000000,"state":"active","ping":44},{"user_id":572,"name":"DMM","steam_id":76561198065426171,"connected_time":5000000000,"state":"spawning","ping":50},{"user_id":426,"name":"Unlock The Shock (She/They)","steam_id":76561198823616667,"connected_time":10120000000000,"state":"active","ping":54},{"user_id":542,"name":"B.","steam_id":76561198040445907,"connected_time":3344000000000,"state":"active","ping":72},{"user_id":560,"name":"Kaloop5","steam_id":76561198971254775,"connected_time":978000000000,"state":"active","ping":129},{"user_id":569,"name":"cypherzero","steam_id":76561199182960322,"connected_time":165000000000,"state":"active","ping":46},{"user_id":537,"name":"pabloramirez1998@gmail.com","steam_id":76561198969675306,"connected_time":3640000000000,"state":"active","ping":74},{"user_id":554,"name":"Blue‚õßMelon","steam_id":76561197970926435,"connected_time":1873000000000,"state":"active","ping":85},{"user_id":546,"name":"Pharmaceutical Enthusiast","steam_id":76561198344998550,"connected_time":2602000000000,"state":"active","ping":92},{"user_id":536,"name":"waowaowao","steam_id":76561198068804538,"connected_time":3662000000000,"state":"active","ping":75},{"user_id":551,"name":"White_Wizard_Named_Corona","steam_id":76561198055652735,"connected_time":2243000000000,"state":"active","ping":63},{"user_id":565,"name":"fire","steam_id":76561198044354279,"connected_time":722000000000,"state":"active","ping":75},{"user_id":538,"name":"SaturnSeven777","steam_id":76561199468889421,"connected_time":3521000000000,"state":"active","ping":144},{"user_id":567,"name":"BigBen","steam_id":76561199436711168,"connected_time":624000000000,"state":"active","ping":59},{"user_id":521,"name":"Snoopy","steam_id":76561198273735974,"connected_time":4805000000000,"state":"active","ping":66},{"user_id":555,"name":"FanaticSalt","steam_id":76561199380123059,"connected_time":1675000000000,"state":"active","ping":43},{"user_id":561,"name":"BryGuySky","steam_id":76561199106953638,"connected_time":932000000000,"state":"active","ping":99},{"user_id":564,"name":"Godzylian","steam_id":76561198084832040,"connected_time":748000000000,"state":"active","ping":83},{"user_id":571,"name":"SharkGuillotine","steam_id":76561198109028172,"connected_time":68000000000,"state":"spawning","ping":86},{"user_id":541,"name":"TurkeyJuice","steam_id":76561198193109422,"connected_time":3358000000000,"state":"active","ping":59},{"user_id":562,"name":"2003 Toyota Tacoma","steam_id":76561198220120368,"connected_time":930000000000,"state":"active","ping":45}]},{"server_id":108,"name":"Uncletopia | Dallas | 2 | All Maps","name_short":"dal-2","host":"dal-1.us.uncletopia.com","port":27025,"enabled":true,"region":"us-central","cc":"us","latitude":32.779167,"longitude":-96.80889,"reserved":0,"last_update":"0001-01-01T00:00:00Z","name_a2s":"Uncletopia | Dallas | 2 | All Maps","protocol":17,"map":"pl_upward","folder":"tf","game":"Team Fortress","app_id":440,"player_count":21,"max_players":24,"Bots":0,"server_type":"Dedicated","server_os":"Linux","password":true,"vac":true,"version":"7882260","steam_id":85568392924469988,"keywords":["nocrits","nodmgspread","payload","uncletopia"],"game_id":440,"stv_port":27026,"stv_name":"Uncletopia | Dallas | 2 | All Maps | STV","players":[{"user_id":249,"name":"scrotal recall","steam_id":76561198135945598,"connected_time":1223000000000,"state":"active","ping":70},{"user_id":217,"name":"Gad","steam_id":76561198020792373,"connected_time":3473000000000,"state":"active","ping":60},{"user_id":220,"name":"sammy -bt","steam_id":76561199001307670,"connected_time":3459000000000,"state":"active","ping":105},{"user_id":168,"name":"MeMyBongusAndTheGreatOutdoors","steam_id":76561198097708978,"connected_time":6317000000000,"state":"active","ping":61},{"user_id":256,"name":"De_pressed","steam_id":76561198154619174,"connected_time":89000000000,"state":"active","ping":217},{"user_id":222,"name":"l","steam_id":76561199011185438,"connected_time":3417000000000,"state":"active","ping":61},{"user_id":255,"name":"Specter the Unchained","steam_id":76561198348354629,"connected_time":139000000000,"state":"active","ping":63},{"user_id":261,"name":"dave","steam_id":76561198944952153,"connected_time":31000000000,"state":"active","ping":50},{"user_id":238,"name":"squish","steam_id":76561198186417941,"connected_time":2242000000000,"state":"active","ping":68},{"user_id":262,"name":"Kid named download","steam_id":76561199192074448,"connected_time":11000000000,"state":"spawning","ping":88},{"user_id":254,"name":"Jester","steam_id":76561198153102922,"connected_time":223000000000,"state":"active","ping":55},{"user_id":209,"name":"Rowdyshark101","steam_id":76561199019123695,"connected_time":4196000000000,"state":"active","ping":60},{"user_id":241,"name":"lil homie gay ass","steam_id":76561198044804626,"connected_time":1706000000000,"state":"active","ping":60},{"user_id":260,"name":"kiv","steam_id":76561198838223023,"connected_time":40000000000,"state":"active","ping":75},{"user_id":243,"name":"Edgeiv","steam_id":76561198074539334,"connected_time":1629000000000,"state":"active","ping":108},{"user_id":239,"name":"chiswola","steam_id":76561198046920142,"connected_time":1757000000000,"state":"active","ping":92},{"user_id":190,"name":"D(b) Hell","steam_id":76561198067869016,"connected_time":5361000000000,"state":"active","ping":64},{"user_id":248,"name":"Sirgioblayde","steam_id":76561198059445113,"connected_time":1305000000000,"state":"active","ping":64},{"user_id":245,"name":"Hunky McManpie","steam_id":76561197996694877,"connected_time":1534000000000,"state":"active","ping":87},{"user_id":224,"name":"TheSmokingMan","steam_id":76561198032652995,"connected_time":2968000000000,"state":"active","ping":55},{"user_id":235,"name":"wubber","steam_id":76561198286627157,"connected_time":2337000000000,"state":"active","ping":77}]},{"server_id":5,"name":"Uncletopia | Frankfurt | 1 | All Maps","name_short":"frk-1","host":"frk-1.de.uncletopia.com","port":27015,"enabled":true,"region":"eu","cc":"de","latitude":50.110924,"longitude":8.682127,"reserved":0,"last_update":"0001-01-01T00:00:00Z","name_a2s":"Uncletopia | Frankfurt | 1 | All Maps","protocol":17,"map":"pl_snowycoast","folder":"tf","game":"Team Fortress","app_id":440,"player_count":24,"max_players":24,"Bots":0,"server_type":"Dedicated","server_os":"Linux","password":true,"vac":true,"version":"7882260","steam_id":85568392924469989,"keywords":["nocrits","nodmgspread","payload","uncletopia"],"game_id":440,"stv_port":27016,"stv_name":"Uncletopia | Frankfurt | 1 | All Maps | STV","players":[{"user_id":715,"name":"LiquidSoft","steam_id":76561198377979111,"connected_time":536000000000,"state":"active","ping":64},{"user_id":700,"name":"Dewotter","steam_id":76561198007653168,"connected_time":1674000000000,"state":"active","ping":67},{"user_id":721,"name":"–ú—è—Å–∫–æ","steam_id":76561198016648154,"connected_time":140000000000,"state":"active","ping":62},{"user_id":617,"name":"üòà COCKDESTROYER üòà","steam_id":76561198042846999,"connected_time":7416000000000,"state":"active","ping":62},{"user_id":643,"name":"finbar","steam_id":76561198056812396,"connected_time":6167000000000,"state":"active","ping":79},{"user_id":714,"name":"MaxThoo","steam_id":76561198167904353,"connected_time":598000000000,"state":"active","ping":80},{"user_id":675,"name":"Delta Melta","steam_id":76561198283391403,"connected_time":3263000000000,"state":"active","ping":69},{"user_id":694,"name":"EkkiHinrik","steam_id":76561198078791141,"connected_time":2622000000000,"state":"active","ping":96},{"user_id":722,"name":"Mike","steam_id":76561198228455736,"connected_time":128000000000,"state":"active","ping":76},{"user_id":697,"name":"albania is Greece teritory","steam_id":76561198094433147,"connected_time":1797000000000,"state":"active","ping":78},{"user_id":709,"name":"V·¥Ä ü·¥ÄÍú∞·¥Ä Ä","steam_id":76561198069723799,"connected_time":1043000000000,"state":"active","ping":51},{"user_id":718,"name":"wgbubl","steam_id":76561199133004884,"connected_time":383000000000,"state":"active","ping":97},{"user_id":712,"name":"Milk","steam_id":76561198125876588,"connected_time":888000000000,"state":"active","ping":55},{"user_id":708,"name":"BD[PL]","steam_id":76561198115995871,"connected_time":1087000000000,"state":"active","ping":76},{"user_id":698,"name":"Gryoss","steam_id":76561197999837111,"connected_time":1787000000000,"state":"active","ping":106},{"user_id":713,"name":"D√≥ri St√≥ri","steam_id":76561198103633890,"connected_time":713000000000,"state":"active","ping":99},{"user_id":639,"name":"tallen","steam_id":76561198061708595,"connected_time":6567000000000,"state":"active","ping":86},{"user_id":723,"name":"Vitamin Weee","steam_id":76561199183937747,"connected_time":44000000000,"state":"active","ping":82},{"user_id":696,"name":"Yorian","steam_id":76561198082518719,"connected_time":2019000000000,"state":"active","ping":57},{"user_id":703,"name":"peso enjoyer","steam_id":76561198798177799,"connected_time":1492000000000,"state":"active","ping":73},{"user_id":690,"name":"Edge","steam_id":76561198065735485,"connected_time":2735000000000,"state":"active","ping":75},{"user_id":691,"name":"roaceru","steam_id":76561198072288452,"connected_time":2716000000000,"state":"active","ping":86},{"user_id":629,"name":"Tonne","steam_id":76561197970856766,"connected_time":6986000000000,"state":"active","ping":78},{"user_id":720,"name":"etc","steam_id":76561197998394797,"connected_time":325000000000,"state":"active","ping":57}]},{"server_id":110,"name":"Uncletopia | Frankfurt | 2 | All Maps","name_short":"frk-2","host":"frk-1.de.uncletopia.com","port":27025,"enabled":true,"region":"eu","cc":"de","latitude":50.110924,"longitude":8.682127,"reserved":0,"last_update":"0001-01-01T00:00:00Z","name_a2s":"Uncletopia | Frankfurt | 2 | All Maps","protocol":17,"map":"pl_borneo","folder":"tf","game":"Team Fortress","app_id":440,"player_count":24,"max_players":24,"Bots":0,"server_type":"Dedicated","server_os":"Linux","password":true,"vac":true,"version":"7882260","steam_id":85568392924469990,"keywords":["nocrits","nodmgspread","payload","uncletopia"],"game_id":440,"stv_port":27026,"stv_name":"Uncletopia | Frankfurt | 2 | All Maps | STV","players":[{"user_id":706,"name":"Paladin","steam_id":76561198042593027,"connected_time":3077000000000,"state":"active","ping":81},{"user_id":733,"name":"The real Slim Shady","steam_id":76561198001377076,"connected_time":545000000000,"state":"active","ping":67},{"user_id":734,"name":"dunduu","steam_id":76561198875240717,"connected_time":539000000000,"state":"active","ping":69},{"user_id":735,"name":"QR-M5TR","steam_id":76561198197626135,"connected_time":507000000000,"state":"active","ping":62},{"user_id":721,"name":"JAZZ COMMANDO","steam_id":76561198031766068,"connected_time":1833000000000,"state":"active","ping":57},{"user_id":667,"name":"Accident","steam_id":76561198115160396,"connected_time":7598000000000,"state":"active","ping":69},{"user_id":736,"name":"SoupER","steam_id":76561198063056668,"connected_time":477000000000,"state":"active","ping":59},{"user_id":712,"name":"63756d","steam_id":76561198808699024,"connected_time":2145000000000,"state":"active","ping":55},{"user_id":723,"name":"The Mask...","steam_id":76561198052402891,"connected_time":1447000000000,"state":"active","ping":64},{"user_id":722,"name":"farded farding fardoodoo fardon","steam_id":76561199098960193,"connected_time":1752000000000,"state":"active","ping":57},{"user_id":737,"name":"Lalo","steam_id":76561198184360615,"connected_time":466000000000,"state":"active","ping":90},{"user_id":689,"name":"PP_master69420","steam_id":76561199019913910,"connected_time":5657000000000,"state":"active","ping":66},{"user_id":655,"name":"Wade Wilson's Spoilt C4","steam_id":76561198013884709,"connected_time":9125000000000,"state":"active","ping":78},{"user_id":696,"name":"Rheto","steam_id":76561198113355122,"connected_time":4419000000000,"state":"active","ping":47},{"user_id":724,"name":"smell_my_cheese","steam_id":76561198008517427,"connected_time":1355000000000,"state":"active","ping":68},{"user_id":738,"name":"sam-","steam_id":76561198013770973,"connected_time":424000000000,"state":"active","ping":74},{"user_id":715,"name":"Plop_","steam_id":76561198112567921,"connected_time":2093000000000,"state":"active","ping":45},{"user_id":725,"name":"Potato","steam_id":76561198115604238,"connected_time":1212000000000,"state":"active","ping":59},{"user_id":700,"name":"porkchop","steam_id":76561198353047916,"connected_time":3703000000000,"state":"active","ping":70},{"user_id":703,"name":"plaz","steam_id":76561198394017103,"connected_time":3662000000000,"state":"active","ping":54},{"user_id":728,"name":"Rai","steam_id":76561199408923294,"connected_time":598000000000,"state":"active","ping":83},{"user_id":719,"name":"bad farter","steam_id":76561198261853441,"connected_time":2046000000000,"state":"active","ping":62},{"user_id":704,"name":"w+m1","steam_id":76561198010428082,"connected_time":3613000000000,"state":"active","ping":78},{"user_id":739,"name":"toino_PT","steam_id":76561199008999046,"connected_time":413000000000,"state":"active","ping":45}]},{"server_id":308,"name":"Uncletopia | Frankfurt | 3 | All Maps","name_short":"frk-3","host":"frk-1.de.uncletopia.com","port":27035,"enabled":true,"region":"eu","cc":"de","latitude":50.110924,"longitude":8.682127,"reserved":0,"last_update":"0001-01-01T00:00:00Z","name_a2s":"Uncletopia | Frankfurt | 3 | All Maps","protocol":17,"map":"koth_highpass","folder":"tf","game":"Team Fortress","app_id":440,"player_count":0,"max_players":24,"Bots":0,"server_type":"Dedicated","server_os":"Linux","password":true,"vac":true,"version":"7882260","steam_id":85568392924504274,"keywords":["cp","nocrits","nodmgspread","uncletopia"],"game_id":440,"stv_port":27036,"stv_name":"Uncletopia | Frankfurt | 3 | All Maps | STV","players":null},{"server_id":309,"name":"Uncletopia | Frankfurt | 4 | All Maps","name_short":"frk-4","host":"frk-1.de.uncletopia.com","port":27045,"enabled":true,"region":"eu","cc":"de","latitude":50.110924,"longitude":8.682127,"reserved":0,"last_update":"0001-01-01T00:00:00Z","name_a2s":"Uncletopia | Frankfurt | 4 | All Maps","protocol":17,"map":"pl_badwater","folder":"tf","game":"Team Fortress","app_id":440,"player_count":0,"max_players":24,"Bots":0,"server_type":"Dedicated","server_os":"Linux","password":true,"vac":true,"version":"7882260","steam_id":85568392924504275,"keywords":["nocrits","nodmgspread","payload","uncletopia"],"game_id":440,"stv_port":27046,"stv_name":"Uncletopia | Frankfurt | 4 | All Maps | STV","players":null},{"server_id":310,"name":"Uncletopia | Frankfurt | 5 | All Maps","name_short":"frk-5","host":"frk-1.de.uncletopia.com","port":27055,"enabled":true,"region":"eu","cc":"de","latitude":50.110924,"longitude":8.682127,"reserved":0,"last_update":"0001-01-01T00:00:00Z","name_a2s":"Uncletopia | Frankfurt | 5 | All Maps","protocol":17,"map":"pl_borneo","folder":"tf","game":"Team Fortress","app_id":440,"player_count":24,"max_players":24,"Bots":0,"server_type":"Dedicated","server_os":"Linux","password":true,"vac":true,"version":"7882260","steam_id":85568392924504277,"keywords":["nocrits","nodmgspread","payload","uncletopia"],"game_id":440,"stv_port":27056,"stv_name":"Uncletopia | Frankfurt | 5 | All Maps | STV","players":[{"user_id":99,"name":"Nameless","steam_id":76561198084215731,"connected_time":641000000000,"state":"active","ping":56},{"user_id":96,"name":"kier","steam_id":76561197996297777,"connected_time":965000000000,"state":"active","ping":58},{"user_id":97,"name":"Lyncurion","steam_id":76561199260022725,"connected_time":952000000000,"state":"active","ping":78},{"user_id":86,"name":"Cognitionis","steam_id":76561198236287734,"connected_time":1466000000000,"state":"active","ping":65},{"user_id":104,"name":"‚ò≠King‚ò≠","steam_id":76561199214677088,"connected_time":252000000000,"state":"active","ping":93},{"user_id":100,"name":"yoursbzt","steam_id":76561198201866574,"connected_time":586000000000,"state":"active","ping":67},{"user_id":105,"name":"Balen","steam_id":76561198036522265,"connected_time":226000000000,"state":"active","ping":75},{"user_id":94,"name":"Adrenaline","steam_id":76561197970852048,"connected_time":1106000000000,"state":"active","ping":60},{"user_id":95,"name":"Gaxkang","steam_id":76561198125768571,"connected_time":1091000000000,"state":"active","ping":73},{"user_id":76,"name":"Hercules","steam_id":76561198041164170,"connected_time":2888000000000,"state":"active","ping":60},{"user_id":45,"name":"Doctor Marijuana","steam_id":76561198288289879,"connected_time":4494000000000,"state":"active","ping":61},{"user_id":69,"name":"4","steam_id":76561197964945192,"connected_time":3117000000000,"state":"active","ping":55},{"user_id":47,"name":"Portello","steam_id":76561198002959134,"connected_time":4450000000000,"state":"active","ping":54},{"user_id":89,"name":"flr","steam_id":76561198249327786,"connected_time":1417000000000,"state":"active","ping":74},{"user_id":106,"name":"Claw","steam_id":76561198060985181,"connected_time":90000000000,"state":"active","ping":67},{"user_id":98,"name":"Lazuli","steam_id":76561198058636964,"connected_time":916000000000,"state":"active","ping":62},{"user_id":91,"name":"law of regression","steam_id":76561198038748489,"connected_time":1281000000000,"state":"active","ping":75},{"user_id":77,"name":"Syd","steam_id":76561198020515027,"connected_time":2764000000000,"state":"active","ping":78},{"user_id":92,"name":"I sell exotic parrots","steam_id":76561199192434258,"connected_time":1261000000000,"state":"active","ping":76},{"user_id":72,"name":"astigmatic","steam_id":76561199103959197,"connected_time":3091000000000,"state":"active","ping":87},{"user_id":79,"name":"TidB","steam_id":76561198055342304,"connected_time":2380000000000,"state":"active","ping":59},{"user_id":93,"name":"Flame‚ò†","steam_id":76561198192163673,"connected_time":1236000000000,"state":"active","ping":54},{"user_id":83,"name":"BenchOhBoi","steam_id":76561198089687243,"connected_time":1899000000000,"state":"active","ping":87},{"user_id":63,"name":"HwK!","steam_id":76561198287835588,"connected_time":4125000000000,"state":"active","ping":83}]},{"server_id":311,"name":"Uncletopia | Frankfurt | 6 | All Maps","name_short":"frk-6","host":"frk-1.de.uncletopia.com","port":27065,"enabled":true,"region":"eu","cc":"de","latitude":50.110924,"longitude":8.682127,"reserved":0,"last_update":"0001-01-01T00:00:00Z","name_a2s":"Uncletopia | Frankfurt | 6 | All Maps","protocol":17,"map":"pl_borneo","folder":"tf","game":"Team Fortress","app_id":440,"player_count":24,"max_players":24,"Bots":0,"server_type":"Dedicated","server_os":"Linux","password":true,"vac":true,"version":"7882260","steam_id":85568392924504278,"keywords":["nocrits","nodmgspread","payload","uncletopia"],"game_id":440,"stv_port":27066,"stv_name":"Uncletopia | Frankfurt | 6 | All Maps | STV","players":[{"user_id":142,"name":"I Don't Know","steam_id":76561198841011430,"connected_time":1583000000000,"state":"active","ping":64},{"user_id":158,"name":"Noob_with_source","steam_id":76561198870362103,"connected_time":239000000000,"state":"active","ping":59},{"user_id":161,"name":"c0mpaz","steam_id":76561198165292894,"connected_time":151000000000,"state":"active","ping":63},{"user_id":112,"name":"Pilgram1308","steam_id":76561199082760934,"connected_time":3133000000000,"state":"active","ping":70},{"user_id":160,"name":"Nedguitarmurphy","steam_id":76561198207325745,"connected_time":163000000000,"state":"active","ping":60},{"user_id":117,"name":"eeeeee","steam_id":76561198017786875,"connected_time":3019000000000,"state":"active","ping":53},{"user_id":133,"name":"noble","steam_id":76561197987688539,"connected_time":1918000000000,"state":"active","ping":78},{"user_id":145,"name":"Delusion","steam_id":76561198067347430,"connected_time":1388000000000,"state":"active","ping":102},{"user_id":150,"name":"Doctor Rudy G. Numpad","steam_id":76561198440881106,"connected_time":1159000000000,"state":"active","ping":75},{"user_id":140,"name":"√∞jl√´√±√±g√∏√∞x","steam_id":76561198028713119,"connected_time":1789000000000,"state":"active","ping":58},{"user_id":130,"name":"Smaug [Ger]","steam_id":76561198853461583,"connected_time":1991000000000,"state":"active","ping":70},{"user_id":137,"name":"creator of yiff","steam_id":76561198305806575,"connected_time":1843000000000,"state":"active","ping":65},{"user_id":135,"name":"49.3 lover","steam_id":76561198084056439,"connected_time":1874000000000,"state":"active","ping":45},{"user_id":144,"name":"moneyb√§nger","steam_id":76561198026951600,"connected_time":1441000000000,"state":"active","ping":71},{"user_id":109,"name":"Krocon","steam_id":76561198084906316,"connected_time":3274000000000,"state":"active","ping":83},{"user_id":118,"name":"Carrotcracker","steam_id":76561198034862396,"connected_time":3013000000000,"state":"active","ping":69},{"user_id":156,"name":"skai","steam_id":76561198184881255,"connected_time":424000000000,"state":"active","ping":72},{"user_id":157,"name":"The.Real.Genesis","steam_id":76561198999652040,"connected_time":396000000000,"state":"active","ping":44},{"user_id":119,"name":"DuskDragon911","steam_id":76561198996036702,"connected_time":3012000000000,"state":"active","ping":74},{"user_id":146,"name":"Michael","steam_id":76561198097224892,"connected_time":1375000000000,"state":"active","ping":72},{"user_id":162,"name":"Aspirin Addicted","steam_id":76561198093752331,"connected_time":143000000000,"state":"active","ping":69},{"user_id":111,"name":"Meliodas","steam_id":76561199041315595,"connected_time":3220000000000,"state":"active","ping":64},{"user_id":120,"name":"pAftAq","steam_id":76561198359966356,"connected_time":2981000000000,"state":"active","ping":108},{"user_id":124,"name":"Deckard","steam_id":76561198004704647,"connected_time":2090000000000,"state":"active","ping":79}]},{"server_id":23,"name":"Uncletopia | Frankfurt | 7 | Stopwatch Beta","name_short":"frk-7","host":"frk-1.de.uncletopia.com","port":27075,"enabled":true,"region":"eu","cc":"de","latitude":50.110924,"longitude":8.682127,"reserved":0,"last_update":"0001-01-01T00:00:00Z","name_a2s":"Uncletopia | Frankfurt | 7 | Stopwatch Beta","protocol":17,"map":"workshop/koth_clearcut_b15.ugc2107050255","folder":"tf","game":"Team Fortress","app_id":440,"player_count":0,"max_players":24,"Bots":0,"server_type":"Dedicated","server_os":"Linux","password":true,"vac":true,"version":"7882260","steam_id":85568392924742827,"keywords":["cp","nocrits","nodmgspread","uncletopia"],"game_id":440,"stv_port":27076,"stv_name":"Uncletopia | Frankfurt | 7 | Stopwatch Beta | STV","players":null},{"server_id":24,"name":"Uncletopia | Frankfurt | 8 | Community","name_short":"frk-8","host":"frk-1.de.uncletopia.com","port":27085,"enabled":true,"region":"eu","cc":"de","latitude":50.110924,"longitude":8.682127,"reserved":0,"last_update":"0001-01-01T00:00:00Z","name_a2s":"Uncletopia | Frankfurt | 8 | Community","protocol":17,"map":"workshop/pl_corrode_rc2.ugc546577989","folder":"tf","game":"Team Fortress","app_id":440,"player_count":23,"max_players":24,"Bots":0,"server_type":"Dedicated","server_os":"Linux","password":true,"vac":true,"version":"7882260","steam_id":85568392924742828,"keywords":["nocrits","nodmgspread","payload","uncletopia"],"game_id":440,"stv_port":27086,"stv_name":"Uncletopia | Frankfurt | 8 | Community | STV","players":[{"user_id":544,"name":"Vershal Smershal","steam_id":76561198116223995,"connected_time":2364000000000,"state":"active","ping":60},{"user_id":547,"name":"Max Power","steam_id":76561198019269089,"connected_time":1287000000000,"state":"active","ping":49},{"user_id":545,"name":"Ava9","steam_id":76561198975869024,"connected_time":2311000000000,"state":"active","ping":87},{"user_id":546,"name":"wicked","steam_id":76561198164376035,"connected_time":1618000000000,"state":"active","ping":66},{"user_id":550,"name":"Cirox","steam_id":76561198383142404,"connected_time":1068000000000,"state":"active","ping":86},{"user_id":556,"name":"GuSkand","steam_id":76561198043775605,"connected_time":673000000000,"state":"active","ping":73},{"user_id":527,"name":"Gun Spy","steam_id":76561198112689672,"connected_time":3770000000000,"state":"active","ping":51},{"user_id":557,"name":"Li√∏nHeart","steam_id":76561198081370704,"connected_time":493000000000,"state":"active","ping":55},{"user_id":534,"name":"Scipionemiliano","steam_id":76561198027646559,"connected_time":3358000000000,"state":"active","ping":116},{"user_id":509,"name":"God's Goofiest Goober","steam_id":76561198103175187,"connected_time":4564000000000,"state":"active","ping":52},{"user_id":494,"name":"beri","steam_id":76561198988363799,"connected_time":5861000000000,"state":"active","ping":75},{"user_id":552,"name":"SPONGE","steam_id":76561198040933472,"connected_time":974000000000,"state":"active","ping":61},{"user_id":554,"name":"M2rtRa","steam_id":76561198111036466,"connected_time":897000000000,"state":"active","ping":74},{"user_id":515,"name":"Flonne","steam_id":76561198080168182,"connected_time":4423000000000,"state":"active","ping":84},{"user_id":559,"name":"Borloxos","steam_id":76561198123110073,"connected_time":270000000000,"state":"active","ping":60},{"user_id":542,"name":"Bajas","steam_id":76561198179339326,"connected_time":2452000000000,"state":"active","ping":83},{"user_id":539,"name":"Pet354","steam_id":76561198867294144,"connected_time":2723000000000,"state":"active","ping":48},{"user_id":560,"name":"activated juriy","steam_id":76561198129089861,"connected_time":93000000000,"state":"active","ping":77},{"user_id":541,"name":"Mi Manchi","steam_id":76561198171573129,"connected_time":2580000000000,"state":"active","ping":59},{"user_id":533,"name":"Envy","steam_id":76561198132723219,"connected_time":3503000000000,"state":"active","ping":97},{"user_id":484,"name":"jawA","steam_id":76561198070341774,"connected_time":6598000000000,"state":"active","ping":79},{"user_id":543,"name":"xavier","steam_id":76561198076494034,"connected_time":2440000000000,"state":"active","ping":54},{"user_id":496,"name":"Roza The Catgirl","steam_id":76561198303232001,"connected_time":5722000000000,"state":"active","ping":72}]},{"server_id":202,"name":"Uncletopia | Hong Kong | 1 | All Maps","name_short":"hgk-1","host":"hgk-1.hk.uncletopia.com","port":27015,"enabled":true,"region":"asia","cc":"hk","latitude":22.302711,"longitude":114.177216,"reserved":0,"last_update":"0001-01-01T00:00:00Z","name_a2s":"Uncletopia | Hong Kong | 1 | All Maps","protocol":17,"map":"koth_viaduct","folder":"tf","game":"Team Fortress","app_id":440,"player_count":0,"max_players":24,"Bots":0,"server_type":"Dedicated","server_os":"Linux","password":true,"vac":true,"version":"7882260","steam_id":85568392924494504,"keywords":["cp","nocrits","nodmgspread","uncletopia"],"game_id":440,"stv_port":27016,"stv_name":"Uncletopia | Hong Kong | 1 | All Maps | STV","players":null},{"server_id":1,"name":"Uncletopia | Los Angeles | 1 | All Maps","name_short":"lax-1","host":"lax-1.us.uncletopia.com","port":27015,"enabled":true,"region":"us-west","cc":"us","latitude":33.94279,"longitude":-118.41004,"reserved":0,"last_update":"0001-01-01T00:00:00Z","name_a2s":"Uncletopia | Los Angeles | 1 | All Maps","protocol":17,"map":"ctf_2fort","folder":"tf","game":"Team Fortress","app_id":440,"player_count":3,"max_players":24,"Bots":0,"server_type":"Dedicated","server_os":"Linux","password":true,"vac":true,"version":"7882260","steam_id":85568392924469991,"keywords":["ctf","nocrits","nodmgspread","uncletopia"],"game_id":440,"stv_port":27016,"stv_name":"Uncletopia | Los Angeles | 1 | All Maps | STV","players":[{"user_id":16,"name":"Wackydavo","steam_id":76561197990094209,"connected_time":1404000000000,"state":"active","ping":81},{"user_id":15,"name":"ani (scho-ka-kola enjoyer)","steam_id":76561198047786061,"connected_time":2081000000000,"state":"active","ping":75},{"user_id":14,"name":"Chickenwing","steam_id":76561199347103141,"connected_time":2702000000000,"state":"active","ping":79}]},{"server_id":112,"name":"Uncletopia | Los Angeles | 2 | All Maps","name_short":"lax-2","host":"lax-1.us.uncletopia.com","port":27025,"enabled":true,"region":"us-west","cc":"us","latitude":33.94279,"longitude":-118.41004,"reserved":0,"last_update":"0001-01-01T00:00:00Z","name_a2s":"Uncletopia | Los Angeles | 2 | All Maps","protocol":17,"map":"koth_cascade","folder":"tf","game":"Team Fortress","app_id":440,"player_count":0,"max_players":24,"Bots":0,"server_type":"Dedicated","server_os":"Linux","password":true,"vac":true,"version":"7882260","steam_id":85568392924469992,"keywords":["cp","nocrits","nodmgspread","uncletopia"],"game_id":440,"stv_port":27026,"stv_name":"Uncletopia | Los Angeles | 2 | All Maps | STV","players":null},{"server_id":324,"name":"Uncletopia | Los Angeles | 3 | All Maps","name_short":"lax-3","host":"lax-1.us.uncletopia.com","port":27035,"enabled":true,"region":"us-west","cc":"us","latitude":33.94279,"longitude":-118.41004,"reserved":0,"last_update":"0001-01-01T00:00:00Z","name_a2s":"Uncletopia | Los Angeles | 3 | All Maps","protocol":17,"map":"koth_cascade","folder":"tf","game":"Team Fortress","app_id":440,"player_count":0,"max_players":24,"Bots":0,"server_type":"Dedicated","server_os":"Linux","password":true,"vac":true,"version":"7882260","steam_id":85568392924510198,"keywords":["cp","nocrits","nodmgspread","uncletopia"],"game_id":440,"stv_port":27036,"stv_name":"Uncletopia | Los Angeles | 3 | All Maps | STV","players":null},{"server_id":25,"name":"Uncletopia | Los Angeles | 4 | Stopwatch Beta","name_short":"lax-4","host":"lax-1.us.uncletopia.com","port":27045,"enabled":true,"region":"us-west","cc":"us","latitude":33.94279,"longitude":-118.41004,"reserved":0,"last_update":"0001-01-01T00:00:00Z","name_a2s":"Uncletopia | Los Angeles | 4 | Stopwatch Beta","protocol":17,"map":"koth_viaduct","folder":"tf","game":"Team Fortress","app_id":440,"player_count":0,"max_players":24,"Bots":0,"server_type":"Dedicated","server_os":"Linux","password":true,"vac":true,"version":"7882260","steam_id":85568392924510199,"keywords":["cp","nocrits","nodmgspread","uncletopia"],"game_id":440,"stv_port":27046,"stv_name":"Uncletopia | Los Angeles | 4 | Stopwatch Beta | STV","players":null},{"server_id":11,"name":"Uncletopia | London | 1 | All Maps","name_short":"lon-1","host":"lon-1.uk.uncletopia.com","port":27015,"enabled":true,"region":"eu","cc":"gb","latitude":51.509865,"longitude":-0.118092,"reserved":0,"last_update":"0001-01-01T00:00:00Z","name_a2s":"Uncletopia | London | 1 | All Maps","protocol":17,"map":"pl_swiftwater_final1","folder":"tf","game":"Team Fortress","app_id":440,"player_count":23,"max_players":24,"Bots":0,"server_type":"Dedicated","server_os":"Linux","password":true,"vac":true,"version":"7882260","steam_id":85568392924367362,"keywords":["nocrits","nodmgspread","payload","uncletopia"],"game_id":440,"stv_port":27016,"stv_name":"Uncletopia | London | 1 | All Maps | STV","players":[{"user_id":752,"name":"Fish","steam_id":76561198152128484,"connected_time":2429000000000,"state":"active","ping":44},{"user_id":751,"name":"Prome","steam_id":76561199050383942,"connected_time":2477000000000,"state":"active","ping":51},{"user_id":743,"name":"Kahvi","steam_id":76561198723244199,"connected_time":4421000000000,"state":"active","ping":74},{"user_id":747,"name":"trite","steam_id":76561197983765323,"connected_time":2665000000000,"state":"active","ping":52},{"user_id":654,"name":"KnugenIV","steam_id":76561198127091993,"connected_time":12194000000000,"state":"active","ping":61},{"user_id":517,"name":"‚ô•aura‚ô•","steam_id":76561198066258544,"connected_time":22618000000000,"state":"active","ping":57},{"user_id":770,"name":"dodge","steam_id":76561198085296668,"connected_time":11000000000,"state":"spawning","ping":81},{"user_id":755,"name":"aminoxsos","steam_id":76561198839741609,"connected_time":2146000000000,"state":"active","ping":78},{"user_id":753,"name":"Explosive Poptart","steam_id":76561198023918830,"connected_time":2301000000000,"state":"active","ping":43},{"user_id":764,"name":"Gubad","steam_id":76561198105485260,"connected_time":627000000000,"state":"active","ping":65},{"user_id":698,"name":"Codex","steam_id":76561198068748584,"connected_time":8250000000000,"state":"active","ping":45},{"user_id":737,"name":"Sky‚ô°","steam_id":76561199209906710,"connected_time":4743000000000,"state":"active","ping":49},{"user_id":757,"name":"JOHN GAMING (#1 gunspy)","steam_id":76561199085822219,"connected_time":1761000000000,"state":"active","ping":82},{"user_id":763,"name":"Woman (Real)","steam_id":76561199151823932,"connected_time":853000000000,"state":"active","ping":85},{"user_id":758,"name":"being silly rn","steam_id":76561198048453764,"connected_time":1761000000000,"state":"active","ping":49},{"user_id":745,"name":"Gubbly Bubbins","steam_id":76561198101451654,"connected_time":2678000000000,"state":"active","ping":48},{"user_id":769,"name":"TK","steam_id":76561198163418320,"connected_time":151000000000,"state":"active","ping":70},{"user_id":744,"name":"owo","steam_id":76561198158209651,"connected_time":4213000000000,"state":"active","ping":55},{"user_id":738,"name":"dec","steam_id":76561198009660168,"connected_time":4735000000000,"state":"active","ping":55},{"user_id":768,"name":"ElPay√°77","steam_id":76561198064044243,"connected_time":224000000000,"state":"active","ping":85},{"user_id":750,"name":"flappi","steam_id":76561198072892783,"connected_time":2566000000000,"state":"active","ping":60},{"user_id":739,"name":"SOPHIIEE","steam_id":76561198443798981,"connected_time":4732000000000,"state":"active","ping":51},{"user_id":746,"name":"KPhii","steam_id":76561198970587061,"connected_time":2678000000000,"state":"active","ping":56}]},{"server_id":114,"name":"Uncletopia | London | 2 | All Maps","name_short":"lon-2","host":"lon-1.uk.uncletopia.com","port":27025,"enabled":true,"region":"eu","cc":"gb","latitude":51.509865,"longitude":-0.118092,"reserved":0,"last_update":"0001-01-01T00:00:00Z","name_a2s":"Uncletopia | London | 2 | All Maps","protocol":17,"map":"pl_swiftwater_final1","folder":"tf","game":"Team Fortress","app_id":440,"player_count":23,"max_players":24,"Bots":0,"server_type":"Dedicated","server_os":"Linux","password":true,"vac":true,"version":"7882260","steam_id":85568392924470941,"keywords":["nocrits","nodmgspread","payload","uncletopia"],"game_id":440,"stv_port":27026,"stv_name":"Uncletopia | London | 2 | All Maps | STV","players":[{"user_id":589,"name":"PEPEGA GAMING","steam_id":76561198089975288,"connected_time":192000000000,"state":"active","ping":84},{"user_id":583,"name":"Hentai Lord","steam_id":76561199030449654,"connected_time":463000000000,"state":"active","ping":45},{"user_id":577,"name":"[ Louinskii ]","steam_id":76561198060509154,"connected_time":574000000000,"state":"active","ping":56},{"user_id":552,"name":"Old Shep","steam_id":76561198028017390,"connected_time":3698000000000,"state":"active","ping":98},{"user_id":554,"name":"Soaya","steam_id":76561199101510855,"connected_time":3373000000000,"state":"active","ping":46},{"user_id":586,"name":"Anyhon","steam_id":76561198281331647,"connected_time":307000000000,"state":"active","ping":65},{"user_id":578,"name":"–í–∞–ª–µ—Ä–∞ 228 Pro","steam_id":76561198089885299,"connected_time":573000000000,"state":"active","ping":114},{"user_id":551,"name":"cister0","steam_id":76561198130195469,"connected_time":3811000000000,"state":"active","ping":85},{"user_id":579,"name":"Vestige","steam_id":76561198255752919,"connected_time":573000000000,"state":"active","ping":69},{"user_id":594,"name":"davegrohl","steam_id":76561198138458704,"connected_time":7000000000,"state":"spawning","ping":230},{"user_id":580,"name":"Arty","steam_id":76561198160100181,"connected_time":568000000000,"state":"active","ping":56},{"user_id":588,"name":"mentally disabled","steam_id":76561198163362186,"connected_time":253000000000,"state":"active","ping":167},{"user_id":561,"name":"Kamanie","steam_id":76561198135448255,"connected_time":2024000000000,"state":"active","ping":75},{"user_id":556,"name":"can of lager","steam_id":76561198163081194,"connected_time":2834000000000,"state":"active","ping":44},{"user_id":572,"name":"Aspartus","steam_id":76561198101385763,"connected_time":767000000000,"state":"active","ping":40},{"user_id":582,"name":"Wyro","steam_id":76561199176835169,"connected_time":493000000000,"state":"active","ping":52},{"user_id":587,"name":"Woj5ek banditcamp.com","steam_id":76561198952742706,"connected_time":307000000000,"state":"active","ping":78},{"user_id":563,"name":"Purps","steam_id":76561198053886680,"connected_time":2013000000000,"state":"active","ping":35},{"user_id":590,"name":"Karolek","steam_id":76561198065860769,"connected_time":171000000000,"state":"active","ping":85},{"user_id":592,"name":"ZOOKY","steam_id":76561198028806392,"connected_time":156000000000,"state":"active","ping":44},{"user_id":593,"name":"Dirty Joe","steam_id":76561198142418870,"connected_time":108000000000,"state":"active","ping":45},{"user_id":555,"name":"tone","steam_id":76561197975301462,"connected_time":2924000000000,"state":"active","ping":49},{"user_id":537,"name":"Pipper","steam_id":76561197970326616,"connected_time":5054000000000,"state":"active","ping":72}]},{"server_id":320,"name":"Uncletopia | London | 3 | All Maps","name_short":"lon-3","host":"lon-1.uk.uncletopia.com","port":27035,"enabled":true,"region":"eu","cc":"gb","latitude":51.509865,"longitude":-0.118092,"reserved":0,"last_update":"0001-01-01T00:00:00Z","name_a2s":"Uncletopia | London | 3 | All Maps","protocol":17,"map":"cp_dustbowl","folder":"tf","game":"Team Fortress","app_id":440,"player_count":22,"max_players":24,"Bots":0,"server_type":"Dedicated","server_os":"Linux","password":true,"vac":true,"version":"7882260","steam_id":85568392924510192,"keywords":["cp","nocrits","nodmgspread","uncletopia"],"game_id":440,"stv_port":27036,"stv_name":"Uncletopia | London | 3 | All Maps | STV","players":[{"user_id":226,"name":"HetNet","steam_id":76561198207584963,"connected_time":817000000000,"state":"active","ping":72},{"user_id":223,"name":"Tin","steam_id":76561198022201818,"connected_time":819000000000,"state":"active","ping":45},{"user_id":179,"name":"Meddler","steam_id":76561198033001402,"connected_time":3378000000000,"state":"active","ping":37},{"user_id":212,"name":"okzq","steam_id":76561199105796083,"connected_time":1179000000000,"state":"active","ping":79},{"user_id":174,"name":"GroGroudonDu31","steam_id":76561198155106297,"connected_time":3683000000000,"state":"active","ping":58},{"user_id":239,"name":"Burpman","steam_id":76561198022897937,"connected_time":472000000000,"state":"active","ping":49},{"user_id":241,"name":"Juiceydough","steam_id":76561197997323419,"connected_time":194000000000,"state":"active","ping":82},{"user_id":191,"name":"Creative","steam_id":76561198835034247,"connected_time":2554000000000,"state":"active","ping":76},{"user_id":227,"name":"Slavixi","steam_id":76561198346216149,"connected_time":814000000000,"state":"active","ping":98},{"user_id":171,"name":"antnt","steam_id":76561198112546748,"connected_time":3841000000000,"state":"active","ping":47},{"user_id":244,"name":"Ganasti","steam_id":76561198382925185,"connected_time":67000000000,"state":"active","ping":96},{"user_id":176,"name":"cream gravy","steam_id":76561198973069177,"connected_time":3589000000000,"state":"active","ping":58},{"user_id":213,"name":"Jam","steam_id":76561198010277932,"connected_time":1158000000000,"state":"active","ping":51},{"user_id":229,"name":"Karahu","steam_id":76561198060426885,"connected_time":718000000000,"state":"active","ping":87},{"user_id":238,"name":"-[L]ackWill","steam_id":76561198084665392,"connected_time":587000000000,"state":"active","ping":67},{"user_id":193,"name":"Mussolini","steam_id":76561198218384865,"connected_time":2495000000000,"state":"active","ping":106},{"user_id":235,"name":"mkwii","steam_id":76561198062507768,"connected_time":619000000000,"state":"active","ping":60},{"user_id":232,"name":"venomcake17","steam_id":76561198284643999,"connected_time":688000000000,"state":"active","ping":35},{"user_id":194,"name":"Cataleptic","steam_id":76561197997966949,"connected_time":2488000000000,"state":"active","ping":57},{"user_id":211,"name":"Soerlssoelss√∂en","steam_id":76561197993060585,"connected_time":1668000000000,"state":"active","ping":81},{"user_id":245,"name":"Piotru≈õCHAN","steam_id":76561198324705347,"connected_time":64000000000,"state":"active","ping":54},{"user_id":246,"name":"Alegz","steam_id":76561198287810139,"connected_time":24000000000,"state":"active","ping":82}]},{"server_id":321,"name":"Uncletopia | London | 4 | All Maps","name_short":"lon-4","host":"lon-1.uk.uncletopia.com","port":27045,"enabled":true,"region":"eu","cc":"gb","latitude":51.509865,"longitude":-0.118092,"reserved":0,"last_update":"0001-01-01T00:00:00Z","name_a2s":"Uncletopia | London | 4 | All Maps","protocol":17,"map":"pl_borneo","folder":"tf","game":"Team Fortress","app_id":440,"player_count":24,"max_players":24,"Bots":0,"server_type":"Dedicated","server_os":"Linux","password":true,"vac":true,"version":"7882260","steam_id":85568392924510193,"keywords":["nocrits","nodmgspread","payload","uncletopia"],"game_id":440,"stv_port":27046,"stv_name":"Uncletopia | London | 4 | All Maps | STV","players":[{"user_id":275,"name":"Gry","steam_id":76561198053961616,"connected_time":4459000000000,"state":"active","ping":51},{"user_id":332,"name":"=flashpoint=","steam_id":76561197976774456,"connected_time":212000000000,"state":"active","ping":41},{"user_id":299,"name":"Bull","steam_id":76561199233979726,"connected_time":2954000000000,"state":"active","ping":90},{"user_id":311,"name":"lunaire","steam_id":76561198163344452,"connected_time":2252000000000,"state":"active","ping":95},{"user_id":316,"name":"TobMan","steam_id":76561199132167284,"connected_time":1391000000000,"state":"active","ping":59},{"user_id":317,"name":"U1F","steam_id":76561198053700703,"connected_time":1294000000000,"state":"active","ping":36},{"user_id":301,"name":"Jos√© Antonio Primo de Rivera","steam_id":76561197981932264,"connected_time":2938000000000,"state":"active","ping":54},{"user_id":295,"name":"Jucatron","steam_id":76561198044259577,"connected_time":3413000000000,"state":"active","ping":77},{"user_id":247,"name":"Dex","steam_id":76561197981134247,"connected_time":5732000000000,"state":"active","ping":41},{"user_id":248,"name":"InjuryTime","steam_id":76561199051209821,"connected_time":5634000000000,"state":"active","ping":54},{"user_id":329,"name":"sareena","steam_id":76561198810194062,"connected_time":359000000000,"state":"active","ping":73},{"user_id":148,"name":"Zerfesh","steam_id":76561198117534358,"connected_time":13443000000000,"state":"active","ping":95},{"user_id":327,"name":"Percula","steam_id":76561197980103022,"connected_time":416000000000,"state":"active","ping":64},{"user_id":330,"name":"mr","steam_id":76561199037541925,"connected_time":291000000000,"state":"active","ping":60},{"user_id":319,"name":"sogg√§h","steam_id":76561198046694824,"connected_time":1160000000000,"state":"active","ping":61},{"user_id":303,"name":"Chen","steam_id":76561198440363619,"connected_time":2925000000000,"state":"active","ping":56},{"user_id":331,"name":"Per√§miehen√§","steam_id":76561197968945306,"connected_time":219000000000,"state":"active","ping":77},{"user_id":320,"name":"Serbian knight","steam_id":76561199104258881,"connected_time":1146000000000,"state":"active","ping":81},{"user_id":289,"name":"Mirage","steam_id":76561199013190566,"connected_time":3710000000000,"state":"active","ping":52},{"user_id":334,"name":"BLACK MAN FROM JJBA","steam_id":76561198272948471,"connected_time":44000000000,"state":"spawning","ping":128},{"user_id":305,"name":"giclure :;","steam_id":76561197986362828,"connected_time":2915000000000,"state":"active","ping":51},{"user_id":321,"name":"yeah","steam_id":76561198188642265,"connected_time":1142000000000,"state":"active","ping":69},{"user_id":333,"name":"Suetolog","steam_id":76561199053090212,"connected_time":113000000000,"state":"active","ping":64},{"user_id":335,"name":"MrBigStu234","steam_id":76561198211599767,"connected_time":14000000000,"state":"spawning","ping":44}]},{"server_id":21,"name":"Uncletopia | London | 5 | All Maps","name_short":"lon-5","host":"lon-1.uk.uncletopia.com","port":27055,"enabled":true,"region":"eu","cc":"gb","latitude":51.509865,"longitude":-0.118092,"reserved":0,"last_update":"0001-01-01T00:00:00Z","name_a2s":"Uncletopia | London | 5 | All Maps","protocol":17,"map":"cp_sunshine","folder":"tf","game":"Team Fortress","app_id":440,"player_count":24,"max_players":24,"Bots":0,"server_type":"Dedicated","server_os":"Linux","password":true,"vac":true,"version":"7882260","steam_id":85568392924742829,"keywords":["cp","nocrits","nodmgspread","uncletopia"],"game_id":440,"stv_port":27056,"stv_name":"Uncletopia | London | 5 | All Maps | STV","players":[{"user_id":147,"name":"s a i","steam_id":76561197970379754,"connected_time":8713000000000,"state":"active","ping":60},{"user_id":288,"name":"Maldom","steam_id":76561198000687053,"connected_time":102000000000,"state":"active","ping":59},{"user_id":269,"name":"PK Blizzard","steam_id":76561198039836567,"connected_time":930000000000,"state":"active","ping":45},{"user_id":268,"name":"FlemMan","steam_id":76561198169598475,"connected_time":1046000000000,"state":"active","ping":86},{"user_id":251,"name":"Based Gustavus","steam_id":76561198087778884,"connected_time":2786000000000,"state":"active","ping":71},{"user_id":270,"name":"Sarachnid","steam_id":76561198067163856,"connected_time":865000000000,"state":"active","ping":156},{"user_id":271,"name":"Nerdygirl","steam_id":76561197988217409,"connected_time":829000000000,"state":"active","ping":83},{"user_id":252,"name":"drk","steam_id":76561198072399195,"connected_time":2785000000000,"state":"active","ping":54},{"user_id":287,"name":"Niko (She/They)","steam_id":76561198436817109,"connected_time":162000000000,"state":"active","ping":46},{"user_id":217,"name":"r4s1","steam_id":76561198024034917,"connected_time":4932000000000,"state":"active","ping":57},{"user_id":238,"name":"MEGOS","steam_id":76561198172740637,"connected_time":3223000000000,"state":"active","ping":62},{"user_id":272,"name":"slee (version 2.0)","steam_id":76561199133739473,"connected_time":752000000000,"state":"active","ping":75},{"user_id":273,"name":"Mysterious Stranger","steam_id":76561198061580505,"connected_time":678000000000,"state":"active","ping":52},{"user_id":274,"name":"creature of steel","steam_id":76561198311044984,"connected_time":666000000000,"state":"active","ping":63},{"user_id":284,"name":"HOI","steam_id":76561198061182117,"connected_time":394000000000,"state":"active","ping":46},{"user_id":278,"name":"Janner","steam_id":76561198127045282,"connected_time":565000000000,"state":"active","ping":47},{"user_id":255,"name":"Adrheus","steam_id":76561198149775630,"connected_time":2630000000000,"state":"active","ping":75},{"user_id":279,"name":"Endi","steam_id":76561198914938199,"connected_time":529000000000,"state":"active","ping":101},{"user_id":283,"name":"Raingnome Noir","steam_id":76561198007394958,"connected_time":440000000000,"state":"active","ping":55},{"user_id":281,"name":"Mr.O #deletesniper","steam_id":76561198039567498,"connected_time":479000000000,"state":"active","ping":57},{"user_id":282,"name":"Udinese Dion","steam_id":76561198067931573,"connected_time":470000000000,"state":"active","ping":61},{"user_id":242,"name":"WiiSportKing","steam_id":76561198114139081,"connected_time":3195000000000,"state":"active","ping":55},{"user_id":286,"name":"Superiumentarius","steam_id":76561198081642249,"connected_time":266000000000,"state":"active","ping":60},{"user_id":264,"name":"Guilty_Toast","steam_id":76561199030023425,"connected_time":2351000000000,"state":"active","ping":48}]},{"server_id":22,"name":"Uncletopia | London | 6 | All Maps","name_short":"lon-6","host":"lon-1.uk.uncletopia.com","port":27065,"enabled":true,"region":"eu","cc":"gb","latitude":51.509865,"longitude":-0.118092,"reserved":0,"last_update":"0001-01-01T00:00:00Z","name_a2s":"Uncletopia | London | 6 | All Maps","protocol":17,"map":"pl_pier","folder":"tf","game":"Team Fortress","app_id":440,"player_count":11,"max_players":24,"Bots":0,"server_type":"Dedicated","server_os":"Linux","password":true,"vac":true,"version":"7882260","steam_id":85568392924742830,"keywords":["nocrits","nodmgspread","payload","uncletopia"],"game_id":440,"stv_port":27066,"stv_name":"Uncletopia | London | 6 | All Maps | STV","players":[{"user_id":170,"name":"cock","steam_id":76561198307522022,"connected_time":1923000000000,"state":"active","ping":49},{"user_id":172,"name":"Piquesque","steam_id":76561198286763046,"connected_time":1848000000000,"state":"active","ping":111},{"user_id":189,"name":"the_Qcumber","steam_id":76561199152515819,"connected_time":1106000000000,"state":"active","ping":73},{"user_id":201,"name":"sork","steam_id":76561198082446459,"connected_time":530000000000,"state":"active","ping":76},{"user_id":188,"name":"femidiot‚ù§","steam_id":76561198972654736,"connected_time":1225000000000,"state":"active","ping":69},{"user_id":194,"name":"Anonymous47007","steam_id":76561199005211417,"connected_time":881000000000,"state":"active","ping":81},{"user_id":198,"name":"Moonkey","steam_id":76561199013741389,"connected_time":812000000000,"state":"active","ping":114},{"user_id":179,"name":"Rapop101","steam_id":76561198125796030,"connected_time":1685000000000,"state":"active","ping":73},{"user_id":181,"name":"Mew Mew Kissy Cutie 2","steam_id":76561198334042273,"connected_time":1600000000000,"state":"active","ping":52},{"user_id":199,"name":"citizen","steam_id":76561198094813693,"connected_time":807000000000,"state":"active","ping":81},{"user_id":200,"name":"ZePequenio","steam_id":76561197968506094,"connected_time":802000000000,"state":"active","ping":57}]},{"server_id":40,"name":"Uncletopia | London | 7 | No Payload","name_short":"lon-7","host":"lon-1.uk.uncletopia.com","port":27075,"enabled":true,"region":"eu","cc":"gb","latitude":51.509865,"longitude":-0.118092,"reserved":0,"last_update":"0001-01-01T00:00:00Z","name_a2s":"Uncletopia | London | 7 | No Payload","protocol":17,"map":"cp_sunshine","folder":"tf","game":"Team Fortress","app_id":440,"player_count":0,"max_players":24,"Bots":0,"server_type":"Dedicated","server_os":"Linux","password":true,"vac":true,"version":"7882260","steam_id":85568392924964314,"keywords":["cp","nocrits","nodmgspread","uncletopia"],"game_id":440,"stv_port":27076,"stv_name":"Uncletopia | London | 7 | No Payload | STV","players":null},{"server_id":41,"name":"Uncletopia | London | 8 | Community","name_short":"lon-8","host":"lon-1.uk.uncletopia.com","port":27085,"enabled":true,"region":"eu","cc":"gb","latitude":51.509865,"longitude":-0.118092,"reserved":0,"last_update":"0001-01-01T00:00:00Z","name_a2s":"Uncletopia | London | 8 | Community","protocol":17,"map":"workshop/koth_bagel_rc6.ugc2514036946","folder":"tf","game":"Team Fortress","app_id":440,"player_count":2,"max_players":24,"Bots":0,"server_type":"Dedicated","server_os":"Linux","password":true,"vac":true,"version":"7882260","steam_id":85568392924964315,"keywords":["cp","nocrits","nodmgspread","uncletopia"],"game_id":440,"stv_port":27086,"stv_name":"Uncletopia | London | 8 | Community | STV","players":[{"user_id":27,"name":"Aisforlike","steam_id":76561199482110668,"connected_time":1538000000000,"state":"active","ping":149},{"user_id":28,"name":"odacovA","steam_id":76561199383345208,"connected_time":1441000000000,"state":"active","ping":139}]},{"server_id":300,"name":"Uncletopia | Montr√©al | 1 | All Maps","name_short":"mtl-1","host":"mtl-1.ca.uncletopia.com","port":27015,"enabled":true,"region":"us-east","cc":"ca","latitude":45.50889,"longitude":-73.56167,"reserved":0,"last_update":"0001-01-01T00:00:00Z","name_a2s":"Uncletopia | Montr√©al | 1 | All Maps","protocol":17,"map":"cp_dustbowl","folder":"tf","game":"Team Fortress","app_id":440,"player_count":0,"max_players":24,"Bots":0,"server_type":"Dedicated","server_os":"Linux","password":true,"vac":true,"version":"7882260","steam_id":85568392924500087,"keywords":["cp","nocrits","nodmgspread","uncletopia"],"game_id":440,"stv_port":27016,"stv_name":"Uncletopia | Montr√©al | 1 | All Maps | STV","players":null},{"server_id":301,"name":"Uncletopia | Montr√©al | 2 | All Maps","name_short":"mtl-2","host":"mtl-1.ca.uncletopia.com","port":27025,"enabled":true,"region":"us-east","cc":"ca","latitude":45.50889,"longitude":-73.56167,"reserved":0,"last_update":"0001-01-01T00:00:00Z","name_a2s":"Uncletopia | Montr√©al | 2 | All Maps","protocol":17,"map":"pl_swiftwater_final1","folder":"tf","game":"Team Fortress","app_id":440,"player_count":0,"max_players":24,"Bots":0,"server_type":"Dedicated","server_os":"Linux","password":true,"vac":true,"version":"7882260","steam_id":85568392924500088,"keywords":["nocrits","nodmgspread","payload","uncletopia"],"game_id":440,"stv_port":27026,"stv_name":"Uncletopia | Montr√©al | 2 | All Maps | STV","players":null},{"server_id":302,"name":"Uncletopia | Montr√©al | 3 | All Maps","name_short":"mtl-3","host":"mtl-1.ca.uncletopia.com","port":27035,"enabled":true,"region":"us-east","cc":"ca","latitude":45.50889,"longitude":-73.56167,"reserved":0,"last_update":"0001-01-01T00:00:00Z","name_a2s":"Uncletopia | Montr√©al | 3 | All Maps","protocol":17,"map":"pl_swiftwater_final1","folder":"tf","game":"Team Fortress","app_id":440,"player_count":0,"max_players":24,"Bots":0,"server_type":"Dedicated","server_os":"Linux","password":true,"vac":true,"version":"7882260","steam_id":85568392924500089,"keywords":["nocrits","nodmgspread","payload","uncletopia"],"game_id":440,"stv_port":27036,"stv_name":"Uncletopia | Montr√©al | 3 | All Maps | STV","players":null},{"server_id":303,"name":"Uncletopia | Montr√©al | 4 | No Payload","name_short":"mtl-4","host":"mtl-1.ca.uncletopia.com","port":27045,"enabled":true,"region":"us-east","cc":"ca","latitude":45.50889,"longitude":-73.56167,"reserved":0,"last_update":"0001-01-01T00:00:00Z","name_a2s":"Uncletopia | Montr√©al | 4 | No Payload","protocol":17,"map":"koth_highpass","folder":"tf","game":"Team Fortress","app_id":440,"player_count":0,"max_players":24,"Bots":0,"server_type":"Dedicated","server_os":"Linux","password":true,"vac":true,"version":"7882260","steam_id":85568392924500090,"keywords":["cp","nocrits","nodmgspread","uncletopia"],"game_id":440,"stv_port":27046,"stv_name":"Uncletopia | Montr√©al | 4 | No Payload | STV","players":null},{"server_id":13,"name":"Uncletopia | New York City | 1 | All Maps","name_short":"nyc-1","host":"nyc-1.us.uncletopia.com","port":27015,"enabled":true,"region":"us-east","cc":"us","latitude":40.73061,"longitude":-73.93524,"reserved":0,"last_update":"0001-01-01T00:00:00Z","name_a2s":"Uncletopia | New York City | 1 | All Maps","protocol":17,"map":"cp_dustbowl","folder":"tf","game":"Team Fortress","app_id":440,"player_count":24,"max_players":24,"Bots":0,"server_type":"Dedicated","server_os":"Linux","password":true,"vac":true,"version":"7882260","steam_id":85568392924469993,"keywords":["cp","nocrits","nodmgspread","uncletopia"],"game_id":440,"stv_port":27016,"stv_name":"Uncletopia | New York City | 1 | All Maps | STV","players":[{"user_id":127,"name":"Justcallmedave","steam_id":76561198013700581,"connected_time":3666000000000,"state":"active","ping":55},{"user_id":134,"name":"yellowcat","steam_id":76561198346054736,"connected_time":2829000000000,"state":"active","ping":60},{"user_id":154,"name":"Jeff the 19th","steam_id":76561198189315491,"connected_time":1534000000000,"state":"active","ping":81},{"user_id":93,"name":"CRAZY engineer","steam_id":76561198887937902,"connected_time":6580000000000,"state":"active","ping":45},{"user_id":149,"name":"helen keller","steam_id":76561197979870540,"connected_time":1953000000000,"state":"active","ping":60},{"user_id":105,"name":"dak","steam_id":76561198076596506,"connected_time":4769000000000,"state":"active","ping":74},{"user_id":171,"name":"Senna","steam_id":76561198115830949,"connected_time":456000000000,"state":"active","ping":104},{"user_id":166,"name":"Gary - Mode Ê≠ªÂ∑ùÂøÉ‰∏≠","steam_id":76561198040933595,"connected_time":1023000000000,"state":"active","ping":56},{"user_id":160,"name":"Peepster","steam_id":76561198297854733,"connected_time":1442000000000,"state":"active","ping":85},{"user_id":79,"name":"A damien","steam_id":76561198174767478,"connected_time":8229000000000,"state":"active","ping":89},{"user_id":174,"name":"puddles","steam_id":76561198110832624,"connected_time":249000000000,"state":"active","ping":77},{"user_id":172,"name":"‚òπ","steam_id":76561198804763186,"connected_time":410000000000,"state":"active","ping":45},{"user_id":159,"name":"suger1316","steam_id":76561199079999423,"connected_time":1450000000000,"state":"active","ping":67},{"user_id":173,"name":"Michaelpc1","steam_id":76561198088365519,"connected_time":343000000000,"state":"active","ping":65},{"user_id":175,"name":"Rat Gaming ;)","steam_id":76561199089457640,"connected_time":196000000000,"state":"active","ping":86},{"user_id":161,"name":"nycgremlin","steam_id":76561198054685142,"connected_time":1438000000000,"state":"active","ping":67},{"user_id":162,"name":"Happy Yaoi Friday","steam_id":76561198111290441,"connected_time":1418000000000,"state":"active","ping":43},{"user_id":163,"name":"Failtastic","steam_id":76561198994009973,"connected_time":1396000000000,"state":"active","ping":56},{"user_id":168,"name":"Sully","steam_id":76561198055418425,"connected_time":562000000000,"state":"active","ping":54},{"user_id":147,"name":"nurp","steam_id":76561198071687616,"connected_time":2080000000000,"state":"active","ping":57},{"user_id":165,"name":"KcaptainAwesome","steam_id":76561198319689362,"connected_time":1388000000000,"state":"active","ping":90},{"user_id":112,"name":"Wahooka","steam_id":76561197962240925,"connected_time":4620000000000,"state":"active","ping":47},{"user_id":153,"name":"a literal slave","steam_id":76561199389283507,"connected_time":1612000000000,"state":"active","ping":65},{"user_id":169,"name":"Grebnedulgo The Elder","steam_id":76561199123285878,"connected_time":562000000000,"state":"active","ping":66}]},{"server_id":14,"name":"Uncletopia | New York City | 2 | All Maps","name_short":"nyc-2","host":"nyc-1.us.uncletopia.com","port":27025,"enabled":true,"region":"us-east","cc":"us","latitude":40.73061,"longitude":-73.93524,"reserved":0,"last_update":"0001-01-01T00:00:00Z","name_a2s":"Uncletopia | New York City | 2 | All Maps","protocol":17,"map":"pl_upward","folder":"tf","game":"Team Fortress","app_id":440,"player_count":24,"max_players":24,"Bots":0,"server_type":"Dedicated","server_os":"Linux","password":true,"vac":true,"version":"7882260","steam_id":85568392924469994,"keywords":["nocrits","nodmgspread","payload","uncletopia"],"game_id":440,"stv_port":27026,"stv_name":"Uncletopia | New York City | 2 | All Maps | STV","players":[{"user_id":255,"name":"saib","steam_id":76561198966980576,"connected_time":440000000000,"state":"active","ping":36},{"user_id":200,"name":"Don't Fuckle with Shuckle","steam_id":76561199020102367,"connected_time":4199000000000,"state":"active","ping":83},{"user_id":225,"name":"Haiii :3","steam_id":76561198171466414,"connected_time":2713000000000,"state":"active","ping":82},{"user_id":245,"name":"PageBoiSkull","steam_id":76561198237353578,"connected_time":1589000000000,"state":"active","ping":123},{"user_id":181,"name":"brroddyy","steam_id":76561198343540172,"connected_time":4821000000000,"state":"active","ping":96},{"user_id":250,"name":"threshecutioner612","steam_id":76561199482933802,"connected_time":735000000000,"state":"active","ping":70},{"user_id":240,"name":"Gh0w0st","steam_id":76561199471261226,"connected_time":2006000000000,"state":"active","ping":100},{"user_id":223,"name":"SHADY SWEATER SALESMAN","steam_id":76561198014616865,"connected_time":2923000000000,"state":"active","ping":51},{"user_id":258,"name":"Nic0","steam_id":76561198305690218,"connected_time":316000000000,"state":"active","ping":51},{"user_id":257,"name":"Muffin Lord","steam_id":76561198120532700,"connected_time":386000000000,"state":"active","ping":84},{"user_id":249,"name":"monkey","steam_id":76561198099481645,"connected_time":780000000000,"state":"active","ping":30},{"user_id":192,"name":"Bigsumoslammer","steam_id":76561198044505076,"connected_time":4448000000000,"state":"active","ping":47},{"user_id":227,"name":"Weeb","steam_id":76561198333568146,"connected_time":2654000000000,"state":"active","ping":61},{"user_id":251,"name":"Fishandfish","steam_id":76561198298483804,"connected_time":735000000000,"state":"active","ping":105},{"user_id":190,"name":"deadmilkshake","steam_id":76561199364235892,"connected_time":4495000000000,"state":"active","ping":67},{"user_id":243,"name":"TJGSASQUATCH","steam_id":76561198077806921,"connected_time":1906000000000,"state":"active","ping":71},{"user_id":204,"name":"Ethanol","steam_id":76561198298890887,"connected_time":4190000000000,"state":"active","ping":116},{"user_id":205,"name":"mkhcroy","steam_id":76561198125448762,"connected_time":4188000000000,"state":"active","ping":70},{"user_id":241,"name":"SnickerNoodle","steam_id":76561198064359644,"connected_time":2001000000000,"state":"active","ping":51},{"user_id":252,"name":"peace dog","steam_id":76561198267988522,"connected_time":709000000000,"state":"active","ping":73},{"user_id":256,"name":"turd ferguson","steam_id":76561198071620782,"connected_time":419000000000,"state":"active","ping":63},{"user_id":259,"name":"Vogel","steam_id":76561198872159697,"connected_time":8000000000,"state":"spawning","ping":186},{"user_id":242,"name":"Cheesi","steam_id":76561199417190840,"connected_time":1991000000000,"state":"active","ping":84},{"user_id":244,"name":"gabaghoulio","steam_id":76561198013650292,"connected_time":1848000000000,"state":"active","ping":101}]},{"server_id":15,"name":"Uncletopia | New York City | 3 | Stopwatch Beta","name_short":"nyc-3","host":"nyc-1.us.uncletopia.com","port":27035,"enabled":true,"region":"us-east","cc":"us","latitude":40.73061,"longitude":-73.93524,"reserved":0,"last_update":"0001-01-01T00:00:00Z","name_a2s":"Uncletopia | New York City | 3 | Stopwatch Beta","protocol":17,"map":"pl_borneo","folder":"tf","game":"Team Fortress","app_id":440,"player_count":0,"max_players":24,"Bots":0,"server_type":"Dedicated","server_os":"Linux","password":true,"vac":true,"version":"7882260","steam_id":85568392924742820,"keywords":["nocrits","nodmgspread","payload","uncletopia"],"game_id":440,"stv_port":27036,"stv_name":"Uncletopia | New York City | 3 | Stopwatch Beta | STV","players":null},{"server_id":16,"name":"Uncletopia | New York City | 4 | Community","name_short":"nyc-4","host":"nyc-1.us.uncletopia.com","port":27045,"enabled":true,"region":"us-east","cc":"us","latitude":40.73061,"longitude":-73.93524,"reserved":0,"last_update":"0001-01-01T00:00:00Z","name_a2s":"Uncletopia | New York City | 4 | Community","protocol":17,"map":"cp_altitude","folder":"tf","game":"Team Fortress","app_id":440,"player_count":0,"max_players":24,"Bots":0,"server_type":"Dedicated","server_os":"Linux","password":true,"vac":true,"version":"7882260","steam_id":85568392924742821,"keywords":["cp","nocrits","nodmgspread","uncletopia"],"game_id":440,"stv_port":27046,"stv_name":"Uncletopia | New York City | 4 | Community | STV","players":null},{"server_id":142,"name":"Uncletopia | S√£o Paulo | 1 | All Maps","name_short":"sao-1","host":"sao-1.br.uncletopia.com","port":27015,"enabled":true,"region":"sa","cc":"br","latitude":-23.533773,"longitude":-46.62529,"reserved":0,"last_update":"0001-01-01T00:00:00Z","name_a2s":"Uncletopia | S√£o Paulo | 1 | All Maps","protocol":17,"map":"koth_lakeside_final","folder":"tf","game":"Team Fortress","app_id":440,"player_count":0,"max_players":24,"Bots":0,"server_type":"Dedicated","server_os":"Linux","password":true,"vac":true,"version":"7882260","steam_id":85568392924469996,"keywords":["cp","nocrits","nodmgspread","uncletopia"],"game_id":440,"stv_port":27016,"stv_name":"Uncletopia | S√£o Paulo | 1 | All Maps | STV","players":null},{"server_id":143,"name":"Uncletopia | S√£o Paulo | 2 | All Maps","name_short":"sao-2","host":"sao-2.br.uncletopia.com","port":27015,"enabled":true,"region":"sa","cc":"br","latitude":-23.533773,"longitude":-46.62529,"reserved":0,"last_update":"0001-01-01T00:00:00Z","name_a2s":"Uncletopia | S√£o Paulo | 2 | All Maps","protocol":17,"map":"koth_viaduct","folder":"tf","game":"Team Fortress","app_id":440,"player_count":2,"max_players":24,"Bots":0,"server_type":"Dedicated","server_os":"Linux","password":true,"vac":true,"version":"7882260","steam_id":85568392924485349,"keywords":["cp","nocrits","nodmgspread","uncletopia"],"game_id":440,"stv_port":27016,"stv_name":"Uncletopia | S√£o Paulo | 2 | All Maps | STV","players":[{"user_id":7,"name":"Mikael_01","steam_id":76561199080253129,"connected_time":1090000000000,"state":"active","ping":50},{"user_id":8,"name":"SIUL_PLAY","steam_id":76561199276476317,"connected_time":663000000000,"state":"active","ping":84}]},{"server_id":7,"name":"Uncletopia | Seattle | 1 | All Maps","name_short":"sea-1","host":"sea-1.us.uncletopia.com","port":27015,"enabled":true,"region":"us-west","cc":"us","latitude":47.608013,"longitude":-122.33517,"reserved":0,"last_update":"0001-01-01T00:00:00Z","name_a2s":"Uncletopia | Seattle | 1 | All Maps","protocol":17,"map":"pl_badwater","folder":"tf","game":"Team Fortress","app_id":440,"player_count":24,"max_players":24,"Bots":0,"server_type":"Dedicated","server_os":"Linux","password":true,"vac":true,"version":"7882260","steam_id":85568392924469997,"keywords":["nocrits","nodmgspread","payload","uncletopia"],"game_id":440,"stv_port":27016,"stv_name":"Uncletopia | Seattle | 1 | All Maps | STV","players":[{"user_id":256,"name":"professional sucker double gawk","steam_id":76561199039152146,"connected_time":455000000000,"state":"active","ping":117},{"user_id":259,"name":"All Smiles","steam_id":76561198033317990,"connected_time":347000000000,"state":"active","ping":86},{"user_id":253,"name":"Integral","steam_id":76561198158225481,"connected_time":780000000000,"state":"active","ping":56},{"user_id":250,"name":"DaBananaCatOfPower","steam_id":76561198169902353,"connected_time":1296000000000,"state":"active","ping":141},{"user_id":260,"name":"brg","steam_id":76561197998415548,"connected_time":326000000000,"state":"active","ping":91},{"user_id":142,"name":"lili","steam_id":76561199391478575,"connected_time":10905000000000,"state":"active","ping":64},{"user_id":257,"name":"Jimjonjoe","steam_id":76561199195695913,"connected_time":428000000000,"state":"active","ping":121},{"user_id":248,"name":"1984 bizarre summer","steam_id":76561198068980107,"connected_time":1476000000000,"state":"active","ping":44},{"user_id":202,"name":"jayeskae","steam_id":76561198144220801,"connected_time":6670000000000,"state":"active","ping":49},{"user_id":261,"name":"Sketch","steam_id":76561198294663533,"connected_time":293000000000,"state":"active","ping":64},{"user_id":262,"name":"Dimple #TF2Center","steam_id":76561198980324190,"connected_time":292000000000,"state":"active","ping":56},{"user_id":242,"name":"Big Floppa","steam_id":76561199152552589,"connected_time":1819000000000,"state":"active","ping":61},{"user_id":215,"name":"Moomin","steam_id":76561198072726213,"connected_time":5452000000000,"state":"active","ping":74},{"user_id":264,"name":"StewyVibe","steam_id":76561199159867739,"connected_time":251000000000,"state":"active","ping":87},{"user_id":263,"name":"Rabblerouser","steam_id":76561198127930963,"connected_time":280000000000,"state":"active","ping":77},{"user_id":192,"name":"Ruben","steam_id":76561198048508642,"connected_time":7612000000000,"state":"active","ping":47},{"user_id":222,"name":"blozet","steam_id":76561199120161035,"connected_time":4488000000000,"state":"active","ping":87},{"user_id":268,"name":"skithiryx","steam_id":76561199239926014,"connected_time":127000000000,"state":"active","ping":90},{"user_id":265,"name":"Totally_faraam","steam_id":76561199230162663,"connected_time":216000000000,"state":"active","ping":94},{"user_id":266,"name":"sun","steam_id":76561198011329825,"connected_time":214000000000,"state":"active","ping":68},{"user_id":238,"name":"Quarter Cheese","steam_id":76561198115814588,"connected_time":1951000000000,"state":"active","ping":48},{"user_id":255,"name":"SomeFatPoptart","steam_id":76561198085433807,"connected_time":534000000000,"state":"active","ping":71},{"user_id":174,"name":"rat gets the cheese","steam_id":76561198031234032,"connected_time":8553000000000,"state":"active","ping":96},{"user_id":267,"name":"TrustworthyStranger","steam_id":76561198154105678,"connected_time":202000000000,"state":"active","ping":86}]},{"server_id":119,"name":"Uncletopia | Seattle | 2 | All Maps","name_short":"sea-2","host":"sea-1.us.uncletopia.com","port":27025,"enabled":true,"region":"us-west","cc":"us","latitude":47.608013,"longitude":-122.33517,"reserved":0,"last_update":"0001-01-01T00:00:00Z","name_a2s":"Uncletopia | Seattle | 2 | All Maps","protocol":17,"map":"pl_pier","folder":"tf","game":"Team Fortress","app_id":440,"player_count":24,"max_players":24,"Bots":0,"server_type":"Dedicated","server_os":"Linux","password":true,"vac":true,"version":"7882260","steam_id":85568392924469998,"keywords":["nocrits","nodmgspread","payload","uncletopia"],"game_id":440,"stv_port":27026,"stv_name":"Uncletopia | Seattle | 2 | All Maps | STV","players":[{"user_id":222,"name":"123","steam_id":76561198106308056,"connected_time":531000000000,"state":"active","ping":74},{"user_id":220,"name":"Boxy Brown [AS]","steam_id":76561198137958976,"connected_time":691000000000,"state":"active","ping":68},{"user_id":187,"name":"judesro","steam_id":76561198352244888,"connected_time":2274000000000,"state":"active","ping":114},{"user_id":207,"name":"SHADOW (he/him)","steam_id":76561198207768148,"connected_time":1178000000000,"state":"active","ping":72},{"user_id":201,"name":"SwoopShoot","steam_id":76561199024079388,"connected_time":1423000000000,"state":"active","ping":47},{"user_id":200,"name":"Ask Me For Random Trivia!","steam_id":76561198087065165,"connected_time":1686000000000,"state":"active","ping":119},{"user_id":223,"name":"professional twelve year old","steam_id":76561198858796870,"connected_time":505000000000,"state":"active","ping":44},{"user_id":188,"name":"Frank West","steam_id":76561198388032598,"connected_time":2245000000000,"state":"active","ping":64},{"user_id":195,"name":"LordMorphesus","steam_id":76561198026995104,"connected_time":1888000000000,"state":"active","ping":53},{"user_id":214,"name":"Fermenting Kiwi","steam_id":76561198253303497,"connected_time":846000000000,"state":"active","ping":80},{"user_id":215,"name":"Jammy","steam_id":76561198119652755,"connected_time":824000000000,"state":"active","ping":84},{"user_id":206,"name":"Wolf.6-4","steam_id":76561198985433828,"connected_time":1193000000000,"state":"active","ping":40},{"user_id":164,"name":"nori_420","steam_id":76561199117134203,"connected_time":3904000000000,"state":"active","ping":90},{"user_id":216,"name":"salad","steam_id":76561198022225618,"connected_time":779000000000,"state":"active","ping":71},{"user_id":217,"name":"‚òÇBliffenstimmers‚òÇ","steam_id":76561198059984896,"connected_time":758000000000,"state":"active","ping":128},{"user_id":218,"name":"lol","steam_id":76561198026491738,"connected_time":735000000000,"state":"active","ping":83},{"user_id":208,"name":"AMY ROSE kyaahh","steam_id":76561198097637080,"connected_time":1169000000000,"state":"active","ping":131},{"user_id":224,"name":"loader","steam_id":76561199196442823,"connected_time":299000000000,"state":"active","ping":106},{"user_id":196,"name":"spiritual surcharge","steam_id":76561198164460801,"connected_time":1824000000000,"state":"active","ping":35},{"user_id":219,"name":"MegaBron James","steam_id":76561198066091050,"connected_time":730000000000,"state":"active","ping":54},{"user_id":221,"name":"Dr. Kaytastrophee, PhD","steam_id":76561198012418739,"connected_time":629000000000,"state":"active","ping":111},{"user_id":78,"name":"b3afy","steam_id":76561198084208649,"connected_time":12148000000000,"state":"active","ping":48},{"user_id":168,"name":"COOL master_9","steam_id":76561198073041151,"connected_time":3007000000000,"state":"active","ping":97}]},{"server_id":406,"name":"Uncletopia | Seattle | 3 | Stopwatch Beta","name_short":"sea-3","host":"sea-1.us.uncletopia.com","port":27035,"enabled":true,"region":"us-west","cc":"us","latitude":47.608013,"longitude":-122.33517,"reserved":0,"last_update":"0001-01-01T00:00:00Z","name_a2s":"Uncletopia | Seattle | 3 | Stopwatch Beta","protocol":17,"map":"koth_viaduct","folder":"tf","game":"Team Fortress","app_id":440,"player_count":0,"max_players":24,"Bots":0,"server_type":"Dedicated","server_os":"Linux","password":true,"vac":true,"version":"7882260","steam_id":85568392924515217,"keywords":["cp","nocrits","nodmgspread","uncletopia"],"game_id":440,"stv_port":27036,"stv_name":"Uncletopia | Seattle | 3 | Stopwatch Beta | STV","players":null},{"server_id":17,"name":"Uncletopia | San Francisco | 1 | All Maps","name_short":"sfo-1","host":"sfo-1.us.uncletopia.com","port":27015,"enabled":true,"region":"us-west","cc":"us","latitude":37.77397,"longitude":-122.4313,"reserved":0,"last_update":"0001-01-01T00:00:00Z","name_a2s":"Uncletopia | San Francisco | 1 | All Maps","protocol":17,"map":"koth_lakeside_final","folder":"tf","game":"Team Fortress","app_id":440,"player_count":10,"max_players":24,"Bots":0,"server_type":"Dedicated","server_os":"Linux","password":true,"vac":true,"version":"7882260","steam_id":85568392924469999,"keywords":["cp","nocrits","nodmgspread","uncletopia"],"game_id":440,"stv_port":27016,"stv_name":"Uncletopia | San Francisco | 1 | All Maps | STV","players":[{"user_id":238,"name":"LiveLongNote","steam_id":76561198138118635,"connected_time":806000000000,"state":"active","ping":90},{"user_id":240,"name":"üÖúüÖîüÖîüÖöüÖ¢üÖ£üÖî\ufffd\ufffd\ufffd","steam_id":76561197999748343,"connected_time":206000000000,"state":"active","ping":75},{"user_id":239,"name":"soup","steam_id":76561198077790130,"connected_time":677000000000,"state":"active","ping":106},{"user_id":242,"name":"DraconicApprentice","steam_id":76561199192401120,"connected_time":112000000000,"state":"active","ping":72},{"user_id":243,"name":"Nepeta in Solitary Confinement","steam_id":76561198864226651,"connected_time":36000000000,"state":"active","ping":63},{"user_id":192,"name":"crittr","steam_id":76561198014302068,"connected_time":3882000000000,"state":"active","ping":105},{"user_id":228,"name":"eryn üó∫","steam_id":76561198004433070,"connected_time":1806000000000,"state":"active","ping":89},{"user_id":222,"name":"wuddles","steam_id":76561198025782349,"connected_time":2109000000000,"state":"active","ping":56},{"user_id":234,"name":"King Baldski","steam_id":76561198359568400,"connected_time":1223000000000,"state":"active","ping":180},{"user_id":207,"name":"riSygneD","steam_id":76561198331618687,"connected_time":3464000000000,"state":"active","ping":44}]},{"server_id":18,"name":"Uncletopia | San Francisco | 2 | All Maps","name_short":"sfo-2","host":"sfo-1.us.uncletopia.com","port":27025,"enabled":true,"region":"us-west","cc":"us","latitude":37.77397,"longitude":-122.4313,"reserved":0,"last_update":"0001-01-01T00:00:00Z","name_a2s":"Uncletopia | San Francisco | 2 | All Maps","protocol":17,"map":"cp_mountainlab","folder":"tf","game":"Team Fortress","app_id":440,"player_count":11,"max_players":24,"Bots":0,"server_type":"Dedicated","server_os":"Linux","password":true,"vac":true,"version":"7882260","steam_id":85568392924470000,"keywords":["cp","nocrits","nodmgspread","uncletopia"],"game_id":440,"stv_port":27026,"stv_name":"Uncletopia | San Francisco | 2 | All Maps | STV","players":[{"user_id":36,"name":"andyiscolorless","steam_id":76561199239870921,"connected_time":5484000000000,"state":"active","ping":166},{"user_id":108,"name":"limabean","steam_id":76561198117761205,"connected_time":387000000000,"state":"active","ping":104},{"user_id":107,"name":"Wendall555","steam_id":76561198985637603,"connected_time":441000000000,"state":"active","ping":56},{"user_id":109,"name":"Grassman (Cc)","steam_id":76561198026488532,"connected_time":363000000000,"state":"active","ping":42},{"user_id":96,"name":"superbad","steam_id":76561198065913973,"connected_time":1434000000000,"state":"active","ping":45},{"user_id":84,"name":"Commander Craft","steam_id":76561198072620396,"connected_time":2189000000000,"state":"active","ping":95},{"user_id":30,"name":"Dankest Cat","steam_id":76561198152685045,"connected_time":5659000000000,"state":"active","ping":128},{"user_id":31,"name":"maase","steam_id":76561199215396532,"connected_time":5654000000000,"state":"active","ping":123},{"user_id":32,"name":"DoesZeMason","steam_id":76561198186303547,"connected_time":5639000000000,"state":"active","ping":112},{"user_id":66,"name":"Lord Brocktree","steam_id":76561198415527061,"connected_time":4244000000000,"state":"active","ping":60},{"user_id":67,"name":"XX_Scunt_XX","steam_id":76561198165688673,"connected_time":4162000000000,"state":"active","ping":94}]},{"server_id":19,"name":"Uncletopia | San Francisco | 3 | Stopwatch Beta","name_short":"sfo-3","host":"sfo-1.us.uncletopia.com","port":27035,"enabled":true,"region":"us-west","cc":"us","latitude":37.77397,"longitude":-122.4313,"reserved":0,"last_update":"0001-01-01T00:00:00Z","name_a2s":"Uncletopia | San Francisco | 3 | Stopwatch Beta","protocol":17,"map":"workshop/koth_ramjam_rc1.ugc459778887","folder":"tf","game":"Team Fortress","app_id":440,"player_count":0,"max_players":24,"Bots":0,"server_type":"Dedicated","server_os":"Linux","password":true,"vac":true,"version":"7882260","steam_id":85568392924742824,"keywords":["cp","nocrits","nodmgspread","uncletopia"],"game_id":440,"stv_port":27036,"stv_name":"Uncletopia | San Francisco | 3 | Stopwatch Beta | STV","players":null},{"server_id":20,"name":"Uncletopia | San Francisco | 4 | Community","name_short":"sfo-4","host":"sfo-1.us.uncletopia.com","port":27045,"enabled":true,"region":"us-west","cc":"us","latitude":37.77397,"longitude":-122.4313,"reserved":0,"last_update":"0001-01-01T00:00:00Z","name_a2s":"Uncletopia | San Francisco | 4 | Community","protocol":17,"map":"workshop/pl_vigil_rc9.ugc1266210012","folder":"tf","game":"Team Fortress","app_id":440,"player_count":16,"max_players":24,"Bots":0,"server_type":"Dedicated","server_os":"Linux","password":true,"vac":true,"version":"7882260","steam_id":85568392924742826,"keywords":["nocrits","nodmgspread","payload","uncletopia"],"game_id":440,"stv_port":27046,"stv_name":"Uncletopia | San Francisco | 4 | Community | STV","players":[{"user_id":12,"name":"xerro","steam_id":76561198323340524,"connected_time":2473000000000,"state":"active","ping":99},{"user_id":7,"name":"Victory Fox","steam_id":76561199385254750,"connected_time":2844000000000,"state":"active","ping":98},{"user_id":41,"name":"SecurityCamera","steam_id":76561198117266792,"connected_time":40000000000,"state":"active","ping":108},{"user_id":9,"name":"BeyondHornyLiquidTheMonke","steam_id":76561198390575784,"connected_time":2840000000000,"state":"active","ping":126},{"user_id":13,"name":"I:AM:FULL:OF:FRICKIN:POTASSIUM","steam_id":76561199262432664,"connected_time":2172000000000,"state":"active","ping":75},{"user_id":11,"name":"x333x","steam_id":76561198198527697,"connected_time":2727000000000,"state":"active","ping":106},{"user_id":38,"name":"Unwavering Flavor","steam_id":76561198053306065,"connected_time":268000000000,"state":"active","ping":87},{"user_id":39,"name":"westward (was/were)","steam_id":76561198805512350,"connected_time":169000000000,"state":"active","ping":75},{"user_id":36,"name":"Merchant","steam_id":76561199028854247,"connected_time":450000000000,"state":"active","ping":132},{"user_id":32,"name":"Noctis","steam_id":76561198845208323,"connected_time":772000000000,"state":"active","ping":121},{"user_id":25,"name":"pennyjak","steam_id":76561198427444878,"connected_time":988000000000,"state":"active","ping":93},{"user_id":26,"name":"Apple Burger","steam_id":76561198023395301,"connected_time":987000000000,"state":"active","ping":127},{"user_id":22,"name":"G‡∂ûMER","steam_id":76561198340389876,"connected_time":1311000000000,"state":"active","ping":61},{"user_id":37,"name":"ZƒÅdok","steam_id":76561199111024480,"connected_time":406000000000,"state":"active","ping":112},{"user_id":29,"name":"Mario9501","steam_id":76561198121046345,"connected_time":811000000000,"state":"active","ping":77},{"user_id":34,"name":"Normal Player","steam_id":76561199030848527,"connected_time":605000000000,"state":"active","ping":76}]},{"server_id":141,"name":"Uncletopia | Sydney | 1 | All Maps","name_short":"syd-1","host":"syd-1.au.uncletopia.com","port":27015,"enabled":true,"region":"au","cc":"au","latitude":-33.865143,"longitude":151.2099,"reserved":0,"last_update":"0001-01-01T00:00:00Z","name_a2s":"Uncletopia | Sydney | 1 | All Maps","protocol":17,"map":"koth_viaduct","folder":"tf","game":"Team Fortress","app_id":440,"player_count":0,"max_players":24,"Bots":0,"server_type":"Dedicated","server_os":"Linux","password":true,"vac":true,"version":"7882260","steam_id":85568392924470001,"keywords":["cp","nocrits","nodmgspread","uncletopia"],"game_id":440,"stv_port":27016,"stv_name":"Uncletopia | Sydney | 1 | All Maps | STV","players":null},{"server_id":123,"name":"Uncletopia | Sydney | 2 | All Maps","name_short":"syd-2","host":"syd-1.au.uncletopia.com","port":27025,"enabled":true,"region":"au","cc":"au","latitude":-33.865143,"longitude":151.2099,"reserved":0,"last_update":"0001-01-01T00:00:00Z","name_a2s":"Uncletopia | Sydney | 2 | All Maps","protocol":17,"map":"cp_altitude","folder":"tf","game":"Team Fortress","app_id":440,"player_count":0,"max_players":24,"Bots":0,"server_type":"Dedicated","server_os":"Linux","password":true,"vac":true,"version":"7882260","steam_id":85568392924470002,"keywords":["cp","nocrits","nodmgspread","uncletopia"],"game_id":440,"stv_port":27026,"stv_name":"Uncletopia | Sydney | 2 | All Maps | STV","players":null},{"server_id":395,"name":"Uncletopia | Sydney | 3 | All Maps","name_short":"syd-3","host":"syd-1.au.uncletopia.com","port":27035,"enabled":true,"region":"au","cc":"au","latitude":-33.865143,"longitude":151.2099,"reserved":0,"last_update":"0001-01-01T00:00:00Z","name_a2s":"Uncletopia | Sydney | 3 | All Maps","protocol":17,"map":"koth_viaduct","folder":"tf","game":"Team Fortress","app_id":440,"player_count":0,"max_players":24,"Bots":0,"server_type":"Dedicated","server_os":"Linux","password":true,"vac":true,"version":"7882260","steam_id":85568392925194467,"keywords":["cp","nocrits","nodmgspread","uncletopia"],"game_id":440,"stv_port":27036,"stv_name":"Uncletopia | Sydney | 3 | All Maps | STV","players":null},{"server_id":396,"name":"Uncletopia | Sydney | 4 | All Maps","name_short":"syd-4","host":"syd-1.au.uncletopia.com","port":27045,"enabled":true,"region":"au","cc":"au","latitude":-33.865143,"longitude":151.2099,"reserved":0,"last_update":"0001-01-01T00:00:00Z","name_a2s":"Uncletopia | Sydney | 4 | All Maps","protocol":17,"map":"cp_altitude","folder":"tf","game":"Team Fortress","app_id":440,"player_count":0,"max_players":24,"Bots":0,"server_type":"Dedicated","server_os":"Linux","password":true,"vac":true,"version":"7882260","steam_id":85568392925397958,"keywords":["cp","nocrits","nodmgspread","uncletopia"],"game_id":440,"stv_port":27046,"stv_name":"Uncletopia | Sydney | 4 | All Maps | STV","players":null},{"server_id":58,"name":"Uncletopia | Sydney | 5 | Stopwatch Beta","name_short":"syd-5","host":"syd-1.au.uncletopia.com","port":27055,"enabled":true,"region":"au","cc":"au","latitude":-33.865143,"longitude":151.2099,"reserved":0,"last_update":"0001-01-01T00:00:00Z","name_a2s":"Uncletopia | Sydney | 5 | Stopwatch Beta","protocol":17,"map":"koth_viaduct","folder":"tf","game":"Team Fortress","app_id":440,"player_count":0,"max_players":24,"Bots":0,"server_type":"Dedicated","server_os":"Linux","password":true,"vac":true,"version":"7882260","steam_id":85568392925397959,"keywords":["cp","nocrits","nodmgspread","uncletopia"],"game_id":440,"stv_port":27056,"stv_name":"Uncletopia | Sydney | 5 | Stopwatch Beta | STV","players":null},{"server_id":59,"name":"Uncletopia | Sydney | 6 | Community","name_short":"syd-6","host":"syd-1.au.uncletopia.com","port":27065,"enabled":true,"region":"au","cc":"au","latitude":-33.865143,"longitude":151.2099,"reserved":0,"last_update":"0001-01-01T00:00:00Z","name_a2s":"Uncletopia | Sydney | 6 | Community","protocol":17,"map":"pl_upward","folder":"tf","game":"Team Fortress","app_id":440,"player_count":0,"max_players":24,"Bots":0,"server_type":"Dedicated","server_os":"Linux","password":true,"vac":true,"version":"7882260","steam_id":85568392925397960,"keywords":["nocrits","nodmgspread","payload","uncletopia"],"game_id":440,"stv_port":27066,"stv_name":"Uncletopia | Sydney | 6 | Community | STV","players":null},{"server_id":49,"name":"Uncletopia | Warsaw | 1 | All Maps","name_short":"waw-1","host":"waw-1.pl.uncletopia.com","port":27015,"enabled":true,"region":"eu","cc":"pl","latitude":52.2297,"longitude":21.017532,"reserved":0,"last_update":"0001-01-01T00:00:00Z","name_a2s":"","protocol":0,"map":"","folder":"","game":"","app_id":0,"player_count":0,"max_players":0,"Bots":0,"server_type":"","server_os":"","password":false,"vac":false,"version":"","steam_id":0,"keywords":null,"game_id":0,"stv_port":0,"stv_name":"","players":null},{"server_id":50,"name":"Uncletopia | Warsaw | 2 | All Maps","name_short":"waw-2","host":"waw-1.pl.uncletopia.com","port":27025,"enabled":true,"region":"eu","cc":"pl","latitude":52.2297,"longitude":21.017532,"reserved":0,"last_update":"0001-01-01T00:00:00Z","name_a2s":"Uncletopia | Warsaw | 2 | All Maps","protocol":17,"map":"koth_viaduct","folder":"tf","game":"Team Fortress","app_id":440,"player_count":5,"max_players":24,"Bots":0,"server_type":"Dedicated","server_os":"Linux","password":true,"vac":true,"version":"7882260","steam_id":85568392925397851,"keywords":["cp","nocrits","nodmgspread","uncletopia"],"game_id":440,"stv_port":27026,"stv_name":"Uncletopia | Warsaw | 2 | All Maps | STV","players":[{"user_id":10,"name":"Daikon","steam_id":76561198044017083,"connected_time":2469000000000,"state":"active","ping":69},{"user_id":11,"name":"huffy","steam_id":76561198062827013,"connected_time":2374000000000,"state":"active","ping":71},{"user_id":12,"name":"Brinier","steam_id":76561199012604288,"connected_time":2153000000000,"state":"active","ping":77},{"user_id":13,"name":"myrlejon","steam_id":76561198092480015,"connected_time":1977000000000,"state":"active","ping":62},{"user_id":15,"name":"Uno","steam_id":76561198023465646,"connected_time":1862000000000,"state":"active","ping":60}]},{"server_id":51,"name":"Uncletopia | Warsaw | 3 | All Maps","name_short":"waw-3","host":"waw-1.pl.uncletopia.com","port":27035,"enabled":true,"region":"eu","cc":"pl","latitude":52.2297,"longitude":21.017532,"reserved":0,"last_update":"0001-01-01T00:00:00Z","name_a2s":"Uncletopia | Warsaw | 3 | All Maps","protocol":17,"map":"pl_snowycoast","folder":"tf","game":"Team Fortress","app_id":440,"player_count":0,"max_players":24,"Bots":0,"server_type":"Dedicated","server_os":"Linux","password":true,"vac":true,"version":"7882260","steam_id":85568392925397852,"keywords":["nocrits","nodmgspread","payload","uncletopia"],"game_id":440,"stv_port":27036,"stv_name":"Uncletopia | Warsaw | 3 | All Maps | STV","players":null},{"server_id":52,"name":"Uncletopia | Warsaw | 4 | All Maps","name_short":"waw-4","host":"waw-1.pl.uncletopia.com","port":27045,"enabled":true,"region":"eu","cc":"pl","latitude":52.2297,"longitude":21.017532,"reserved":0,"last_update":"0001-01-01T00:00:00Z","name_a2s":"Uncletopia | Warsaw | 4 | All Maps","protocol":17,"map":"koth_cascade","folder":"tf","game":"Team Fortress","app_id":440,"player_count":0,"max_players":24,"Bots":0,"server_type":"Dedicated","server_os":"Linux","password":true,"vac":true,"version":"7882260","steam_id":85568392925397853,"keywords":["cp","nocrits","nodmgspread","uncletopia"],"game_id":440,"stv_port":27046,"stv_name":"Uncletopia | Warsaw | 4 | All Maps | STV","players":null},{"server_id":53,"name":"Uncletopia | Warsaw | 5 | Stopwatch Beta","name_short":"waw-5","host":"waw-1.pl.uncletopia.com","port":27055,"enabled":true,"region":"eu","cc":"pl","latitude":52.2297,"longitude":21.017532,"reserved":0,"last_update":"0001-01-01T00:00:00Z","name_a2s":"Uncletopia | Warsaw | 5 | Stopwatch Beta","protocol":17,"map":"cp_gullywash_final1","folder":"tf","game":"Team Fortress","app_id":440,"player_count":0,"max_players":24,"Bots":0,"server_type":"Dedicated","server_os":"Linux","password":true,"vac":true,"version":"7882260","steam_id":85568392925397854,"keywords":["cp","nocrits","nodmgspread","uncletopia"],"game_id":440,"stv_port":27056,"stv_name":"Uncletopia | Warsaw | 5 | Stopwatch Beta | STV","players":null},{"server_id":54,"name":"Uncletopia | Warsaw | 6 | Community","name_short":"waw-6","host":"waw-1.pl.uncletopia.com","port":27065,"enabled":true,"region":"eu","cc":"pl","latitude":52.2297,"longitude":21.017532,"reserved":0,"last_update":"0001-01-01T00:00:00Z","name_a2s":"Uncletopia | Warsaw | 6 | Community","protocol":17,"map":"workshop/cp_mannbase_rc2a.ugc1900737467","folder":"tf","game":"Team Fortress","app_id":440,"player_count":0,"max_players":24,"Bots":0,"server_type":"Dedicated","server_os":"Linux","password":true,"vac":true,"version":"7882260","steam_id":85568392925397856,"keywords":["cp","nocrits","nodmgspread","uncletopia"],"game_id":440,"stv_port":27066,"stv_name":"Uncletopia | Warsaw | 6 | Community | STV","players":null}]}