{"status":true,"message":"","result":[{"server_id":9,"name":"Uncletopia | Atlanta | 1 | All Maps","name_short":"atl-1","host":"atl-1.us.uncletopia.com","port":27015,"enabled":true,"region":"us-east","cc":"us","latitude":33.753746,"longitude":-84.38633,"reserved":0,"last_update":"0001-01-01T00:00:00Z","name_a2s":"Uncletopia | Atlanta | 1 | All Maps","protocol":17,"map":"cp_dustbowl","folder":"tf","game":"Team Fortress","app_id":440,"player_count":24,"max_players":24,"Bots":0,"server_type":"Dedicated","server_os":"Linux","password":true,"vac":true,"version":"7961495","steam_id":85568392924469982,"keywords":["cp","nocrits","nodmgspread","uncletopia"],"game_id":440,"stv_port":27016,"stv_name":"Uncletopia | Atlanta | 1 | All Maps | STV","players":null},{"server_id":104,"name":"Uncletopia | Atlanta | 2 | All Maps","name_short":"atl-2","host":"atl-1.us.uncletopia.com","port":27025,"enabled":true,"region":"us-east","cc":"us","latitude":33.753746,"longitude":-84.38633,"reserved":0,"last_update":"0001-01-01T00:00:00Z","name_a2s":"Uncletopia | Atlanta | 2 | All Maps","protocol":17,"map":"cp_dustbowl","folder":"tf","game":"Team Fortress","app_id":440,"player_count":22,"max_players":24,"Bots":0,"server_type":"Dedicated","server_os":"Linux","password":true,"vac":true,"version":"7961495","steam_id":85568392924469983,"keywords":["cp","nocrits","nodmgspread","uncletopia"],"game_id":440,"stv_port":27026,"stv_name":"Uncletopia | Atlanta | 2 | All Maps | STV","players":null},{"server_id":400,"name":"Uncletopia | Atlanta | 3 | Stopwatch","name_short":"atl-3","host":"atl-1.us.uncletopia.com","port":27035,"enabled":true,"region":"us-east","cc":"us","latitude":33.753746,"longitude":-84.38633,"reserved":0,"last_update":"0001-01-01T00:00:00Z","name_a2s":"Uncletopia | Atlanta | 3 | Stopwatch","protocol":17,"map":"cp_metalworks","folder":"tf","game":"Team Fortress","app_id":440,"player_count":0,"max_players":24,"Bots":0,"server_type":"Dedicated","server_os":"Linux","password":true,"vac":true,"version":"7961495","steam_id":85568392924515187,"keywords":["cp","nocrits","nodmgspread","uncletopia"],"game_id":440,"stv_port":27036,"stv_name":"Uncletopia | Atlanta | 3 | Stopwatch | STV","players":null},{"server_id":401,"name":"Uncletopia | Atlanta | 4 | Community","name_short":"atl-4","host":"atl-1.us.uncletopia.com","port":27045,"enabled":true,"region":"us-east","cc":"us","latitude":33.753746,"longitude":-84.38633,"reserved":0,"last_update":"0001-01-01T00:00:00Z","name_a2s":"Uncletopia | Atlanta | 4 | Community","protocol":17,"map":"pl_highwood_b13","folder":"tf","game":"Team Fortress","app_id":440,"player_count":25,"max_players":24,"Bots":0,"server_type":"Dedicated","server_os":"Linux","password":true,"vac":true,"version":"7961495","steam_id":85568392924515188,"keywords":["nocrits","nodmgspread","payload","uncletopia"],"game_id":440,"stv_port":27046,"stv_name":"Uncletopia | Atlanta | 4 | Community | STV","players":null},{"server_id":2,"name":"Uncletopia | Chicago | 1 | All Maps","name_short":"chi-1","host":"chi-1.us.uncletopia.com","port":27015,"enabled":true,"region":"us-central","cc":"us","latitude":41.881832,"longitude":-87.62318,"reserved":0,"last_update":"0001-01-01T00:00:00Z","name_a2s":"Uncletopia | Chicago | 1 | All Maps","protocol":17,"map":"pl_badwater","folder":"tf","game":"Team Fortress","app_id":440,"player_count":24,"max_players":24,"Bots":0,"server_type":"Dedicated","server_os":"Linux","password":true,"vac":true,"version":"7961495","steam_id":85568392924469984,"keywords":["nocrits","nodmgspread","payload","uncletopia"],"game_id":440,"stv_port":27016,"stv_name":"Uncletopia | Chicago | 1 | All Maps | STV","players":[{"user_id":578,"name":"A Puppy","steam_id":76561198828184456,"connected_time":4767000000000,"state":"active","ping":58},{"user_id":606,"name":"Sploof","steam_id":76561198078577114,"connected_time":2391000000000,"state":"active","ping":76},{"user_id":628,"name":"Space Lizard","steam_id":76561198056798193,"connected_time":18000000000,"state":"spawning","ping":59},{"user_id":626,"name":"PINKARCTICFOXYFOX(MYAA)","steam_id":76561199191867474,"connected_time":89000000000,"state":"active","ping":89},{"user_id":627,"name":"Heal Daddy (SMOKE)","steam_id":76561198017631728,"connected_time":81000000000,"state":"active","ping":64},{"user_id":590,"name":"Praise_to_the_Flashlight!","steam_id":76561199001728789,"connected_time":3789000000000,"state":"spawning","ping":158},{"user_id":618,"name":"‚ô•Bunny‚ô•Slut‚ô•","steam_id":76561198206376851,"connected_time":589000000000,"state":"active","ping":89},{"user_id":612,"name":"Capit√°n √Ñxis-Flores","steam_id":76561198353865006,"connected_time":1243000000000,"state":"active","ping":72},{"user_id":614,"name":"bredinstead","steam_id":76561199156464551,"connected_time":1141000000000,"state":"active","ping":58},{"user_id":601,"name":"Bearegard","steam_id":76561198061926542,"connected_time":2997000000000,"state":"active","ping":67},{"user_id":619,"name":"Oli B\u003eQS/BP/Bulk w/ 1.5k+ keys","steam_id":76561198140316312,"connected_time":556000000000,"state":"active","ping":65},{"user_id":629,"name":"fortnitegoku69","steam_id":76561198292814336,"connected_time":15000000000,"state":"active","ping":84},{"user_id":572,"name":"TheOneZoot","steam_id":76561198121944243,"connected_time":5230000000000,"state":"active","ping":69},{"user_id":552,"name":"Khaicchi ‚ô•","steam_id":76561198104454754,"connected_time":6349000000000,"state":"active","ping":174},{"user_id":483,"name":"fish ‚óè","steam_id":76561198999217575,"connected_time":11167000000000,"state":"active","ping":64},{"user_id":610,"name":"JP\u003c3","steam_id":76561198126686695,"connected_time":1495000000000,"state":"active","ping":46},{"user_id":613,"name":"D7NAMM0","steam_id":76561198356245658,"connected_time":1165000000000,"state":"active","ping":58},{"user_id":615,"name":"Spy Gaming","steam_id":76561198453295613,"connected_time":1085000000000,"state":"active","ping":107},{"user_id":602,"name":"get scrongled, idiot","steam_id":76561198115874625,"connected_time":2994000000000,"state":"active","ping":60},{"user_id":611,"name":"ChipE","steam_id":76561198137146627,"connected_time":1344000000000,"state":"active","ping":100},{"user_id":620,"name":"FiddyFoMike","steam_id":76561198057072581,"connected_time":422000000000,"state":"active","ping":90},{"user_id":496,"name":"Subderhenge","steam_id":76561198090955892,"connected_time":9108000000000,"state":"active","ping":90},{"user_id":630,"name":"LFT Roz257","steam_id":76561198842844532,"connected_time":9000000000,"state":"spawning","ping":53},{"user_id":617,"name":"Mix","steam_id":76561198835593895,"connected_time":1014000000000,"state":"active","ping":55}]},{"server_id":106,"name":"Uncletopia | Chicago | 2 | All Maps","name_short":"chi-2","host":"chi-1.us.uncletopia.com","port":27025,"enabled":true,"region":"us-central","cc":"us","latitude":41.881832,"longitude":-87.62318,"reserved":0,"last_update":"0001-01-01T00:00:00Z","name_a2s":"Uncletopia | Chicago | 2 | All Maps","protocol":17,"map":"cp_dustbowl","folder":"tf","game":"Team Fortress","app_id":440,"player_count":24,"max_players":24,"Bots":0,"server_type":"Dedicated","server_os":"Linux","password":true,"vac":true,"version":"7961495","steam_id":85568392924469985,"keywords":["cp","nocrits","nodmgspread","uncletopia"],"game_id":440,"stv_port":27026,"stv_name":"Uncletopia | Chicago | 2 | All Maps | STV","players":[{"user_id":566,"name":"SPIRE_FAN","steam_id":76561198001486573,"connected_time":1634000000000,"state":"active","ping":69},{"user_id":570,"name":"TheKyleB","steam_id":76561198202515104,"connected_time":1426000000000,"state":"active","ping":44},{"user_id":576,"name":"The_atom_bomb","steam_id":76561198139944683,"connected_time":252000000000,"state":"active","ping":59},{"user_id":551,"name":"Semyr","steam_id":76561198125655939,"connected_time":3352000000000,"state":"active","ping":69},{"user_id":523,"name":"Maryam","steam_id":76561198128969186,"connected_time":4496000000000,"state":"active","ping":67},{"user_id":526,"name":"PoisonIvy","steam_id":76561198072384574,"connected_time":4164000000000,"state":"active","ping":49},{"user_id":559,"name":"otstupai davai","steam_id":76561198048013802,"connected_time":2355000000000,"state":"active","ping":91},{"user_id":571,"name":"Lt. Slayer","steam_id":76561198066754651,"connected_time":1201000000000,"state":"active","ping":76},{"user_id":494,"name":"Fiendish Frog","steam_id":76561198029478821,"connected_time":6395000000000,"state":"active","ping":72},{"user_id":572,"name":"Puke Skyfucker","steam_id":76561198012846213,"connected_time":681000000000,"state":"active","ping":76},{"user_id":519,"name":"GreatTimBones","steam_id":76561198409145748,"connected_time":4777000000000,"state":"active","ping":85},{"user_id":577,"name":"Strix","steam_id":76561199014560047,"connected_time":160000000000,"state":"active","ping":88},{"user_id":574,"name":"moonboy","steam_id":76561198172113657,"connected_time":564000000000,"state":"active","ping":94},{"user_id":549,"name":"Hauntedtoaster","steam_id":76561198034655610,"connected_time":3448000000000,"state":"active","ping":88},{"user_id":498,"name":"St. Bobson Q Dugnutt III Esq Sr","steam_id":76561197993459985,"connected_time":6221000000000,"state":"active","ping":81},{"user_id":481,"name":"Someone","steam_id":76561198171783286,"connected_time":7284000000000,"state":"active","ping":70},{"user_id":560,"name":"Sanguine","steam_id":76561198015176528,"connected_time":2299000000000,"state":"active","ping":84},{"user_id":505,"name":"1 Great Wooden Dad","steam_id":76561198377126974,"connected_time":5184000000000,"state":"active","ping":87},{"user_id":575,"name":"jimmy hat","steam_id":76561198046632405,"connected_time":353000000000,"state":"active","ping":83},{"user_id":550,"name":"mcjuice","steam_id":76561198087730829,"connected_time":3447000000000,"state":"active","ping":68},{"user_id":562,"name":"Major Woody","steam_id":76561198835541533,"connected_time":1924000000000,"state":"active","ping":78},{"user_id":573,"name":"dasboot","steam_id":76561198027322901,"connected_time":664000000000,"state":"active","ping":56},{"user_id":385,"name":"stormfoam","steam_id":76561198936871387,"connected_time":12700000000000,"state":"active","ping":74},{"user_id":443,"name":"eipi","steam_id":76561199084492097,"connected_time":9380000000000,"state":"active","ping":86}]},{"server_id":402,"name":"Uncletopia | Chicago | 3 | All Maps","name_short":"chi-3","host":"chi-1.us.uncletopia.com","port":27035,"enabled":true,"region":"us-central","cc":"us","latitude":41.881832,"longitude":-87.62318,"reserved":0,"last_update":"0001-01-01T00:00:00Z","name_a2s":"Uncletopia | Chicago | 3 | All Maps","protocol":17,"map":"pl_snowycoast","folder":"tf","game":"Team Fortress","app_id":440,"player_count":24,"max_players":24,"Bots":0,"server_type":"Dedicated","server_os":"Linux","password":true,"vac":true,"version":"7961495","steam_id":85568392924515191,"keywords":["nocrits","nodmgspread","payload","uncletopia"],"game_id":440,"stv_port":27036,"stv_name":"Uncletopia | Chicago | 3 | All Maps | STV","players":[{"user_id":596,"name":"Wang of Wall St","steam_id":76561198047460598,"connected_time":2965000000000,"state":"active","ping":75},{"user_id":484,"name":"hej","steam_id":76561197996366940,"connected_time":10003000000000,"state":"active","ping":60},{"user_id":556,"name":"benjamator67","steam_id":76561198209002860,"connected_time":5413000000000,"state":"active","ping":51},{"user_id":608,"name":"GibbusGod","steam_id":76561199232436690,"connected_time":1728000000000,"state":"active","ping":87},{"user_id":582,"name":"The strongest ‚ë® ball","steam_id":76561198126760743,"connected_time":3801000000000,"state":"active","ping":78},{"user_id":619,"name":"firetamer2","steam_id":76561198040886980,"connected_time":900000000000,"state":"active","ping":62},{"user_id":528,"name":"Strange Diplomat","steam_id":76561198428191920,"connected_time":7478000000000,"state":"active","ping":70},{"user_id":630,"name":"turnip","steam_id":76561197999375941,"connected_time":109000000000,"state":"active","ping":85},{"user_id":538,"name":"Uwu Micster","steam_id":76561198843890616,"connected_time":6484000000000,"state":"active","ping":85},{"user_id":602,"name":"Wild_Rumpus","steam_id":76561198066393719,"connected_time":2147000000000,"state":"active","ping":59},{"user_id":632,"name":"sibling bane üü† „ÉÑ","steam_id":76561198196769297,"connected_time":10000000000,"state":"spawning","ping":45},{"user_id":626,"name":"Anor","steam_id":76561198356139775,"connected_time":224000000000,"state":"active","ping":85},{"user_id":623,"name":"yomommasabitch","steam_id":76561198323217150,"connected_time":558000000000,"state":"active","ping":69},{"user_id":587,"name":"QuarticalPhysics","steam_id":76561198061386266,"connected_time":3658000000000,"state":"active","ping":78},{"user_id":624,"name":"LVL","steam_id":76561198334403617,"connected_time":398000000000,"state":"active","ping":58},{"user_id":620,"name":"DrD","steam_id":76561198067266383,"connected_time":899000000000,"state":"active","ping":81},{"user_id":631,"name":"AmICoolYet","steam_id":76561198276327369,"connected_time":69000000000,"state":"active","ping":71},{"user_id":611,"name":"Captain Malarkey","steam_id":76561198869924281,"connected_time":1481000000000,"state":"active","ping":55},{"user_id":622,"name":"badboy6996","steam_id":76561197969386201,"connected_time":560000000000,"state":"active","ping":46},{"user_id":625,"name":"Kim Wexler","steam_id":76561198964107245,"connected_time":230000000000,"state":"active","ping":98},{"user_id":628,"name":"j020","steam_id":76561198243358410,"connected_time":177000000000,"state":"active","ping":77},{"user_id":627,"name":"shortyjp6680","steam_id":76561198818010509,"connected_time":221000000000,"state":"active","ping":70},{"user_id":629,"name":"storyboard","steam_id":76561199088496817,"connected_time":143000000000,"state":"active","ping":89},{"user_id":540,"name":"Lia_Rein","steam_id":76561198151569597,"connected_time":6112000000000,"state":"active","ping":145}]},{"server_id":403,"name":"Uncletopia | Chicago | 4 | All Maps","name_short":"chi-4","host":"chi-1.us.uncletopia.com","port":27045,"enabled":true,"region":"us-central","cc":"us","latitude":41.881832,"longitude":-87.62318,"reserved":0,"last_update":"0001-01-01T00:00:00Z","name_a2s":"Uncletopia | Chicago | 4 | All Maps","protocol":17,"map":"cp_mercenarypark","folder":"tf","game":"Team Fortress","app_id":440,"player_count":23,"max_players":24,"Bots":0,"server_type":"Dedicated","server_os":"Linux","password":true,"vac":true,"version":"7961495","steam_id":85568392924515193,"keywords":["cp","nocrits","nodmgspread","uncletopia"],"game_id":440,"stv_port":27046,"stv_name":"Uncletopia | Chicago | 4 | All Maps | STV","players":[{"user_id":719,"name":"Xyverle","steam_id":76561198799726415,"connected_time":718000000000,"state":"active","ping":57},{"user_id":702,"name":"Skeleton Hotel","steam_id":76561198041704727,"connected_time":2576000000000,"state":"active","ping":57},{"user_id":711,"name":"Patchy","steam_id":76561198008112883,"connected_time":2011000000000,"state":"active","ping":77},{"user_id":715,"name":"HalfDead","steam_id":76561198049700226,"connected_time":1078000000000,"state":"active","ping":82},{"user_id":707,"name":"Sofa King","steam_id":76561198401562448,"connected_time":2087000000000,"state":"active","ping":81},{"user_id":714,"name":"CheeseCake488","steam_id":76561199407617942,"connected_time":1774000000000,"state":"active","ping":127},{"user_id":691,"name":"Renegade","steam_id":76561198066847055,"connected_time":3279000000000,"state":"active","ping":60},{"user_id":720,"name":"Professor","steam_id":76561198097038169,"connected_time":648000000000,"state":"active","ping":62},{"user_id":678,"name":"RandomInternetUser","steam_id":76561199230027049,"connected_time":3616000000000,"state":"active","ping":62},{"user_id":721,"name":"duck, duck, LOVE","steam_id":76561198010706701,"connected_time":598000000000,"state":"active","ping":69},{"user_id":682,"name":"feudal","steam_id":76561198057374871,"connected_time":3548000000000,"state":"active","ping":54},{"user_id":669,"name":"bluebird","steam_id":76561198065219155,"connected_time":4086000000000,"state":"active","ping":42},{"user_id":718,"name":"harold","steam_id":76561199016285746,"connected_time":748000000000,"state":"active","ping":85},{"user_id":687,"name":"TheGirthquake","steam_id":76561198238895056,"connected_time":3416000000000,"state":"active","ping":79},{"user_id":700,"name":"Tony Holyfawk","steam_id":76561197979204444,"connected_time":2695000000000,"state":"active","ping":80},{"user_id":712,"name":"Generator","steam_id":76561198011762257,"connected_time":1982000000000,"state":"active","ping":130},{"user_id":708,"name":"Space‚≠êTaffy","steam_id":76561198002271720,"connected_time":2084000000000,"state":"active","ping":63},{"user_id":722,"name":"Mint Jelly","steam_id":76561197991286751,"connected_time":336000000000,"state":"active","ping":39},{"user_id":697,"name":"Grop Noise","steam_id":76561198145445403,"connected_time":2920000000000,"state":"active","ping":54},{"user_id":703,"name":"Rornir","steam_id":76561198081829615,"connected_time":2528000000000,"state":"active","ping":40},{"user_id":716,"name":"mistib7","steam_id":76561198219911404,"connected_time":779000000000,"state":"active","ping":72},{"user_id":713,"name":"vanilla latt√©","steam_id":76561198243990636,"connected_time":1972000000000,"state":"active","ping":76},{"user_id":685,"name":"Chubbles","steam_id":76561198237619472,"connected_time":3509000000000,"state":"active","ping":72}]},{"server_id":36,"name":"Uncletopia | Chicago | 5 | All Maps","name_short":"chi-5","host":"chi-2.us.uncletopia.com","port":27015,"enabled":true,"region":"us-central","cc":"us","latitude":41.881832,"longitude":-87.62318,"reserved":0,"last_update":"0001-01-01T00:00:00Z","name_a2s":"Uncletopia | Chicago | 5 | All Maps","protocol":17,"map":"pl_borneo","folder":"tf","game":"Team Fortress","app_id":440,"player_count":24,"max_players":24,"Bots":0,"server_type":"Dedicated","server_os":"Linux","password":true,"vac":true,"version":"7961495","steam_id":85568392924866362,"keywords":["nocrits","nodmgspread","payload","uncletopia"],"game_id":440,"stv_port":27016,"stv_name":"Uncletopia | Chicago | 5 | All Maps | STV","players":[{"user_id":515,"name":"loser","steam_id":76561198259380127,"connected_time":3113000000000,"state":"active","ping":58},{"user_id":557,"name":"Five","steam_id":76561198026640473,"connected_time":472000000000,"state":"active","ping":72},{"user_id":529,"name":"c","steam_id":76561198881665250,"connected_time":2394000000000,"state":"active","ping":90},{"user_id":552,"name":"the 04","steam_id":76561198164502862,"connected_time":925000000000,"state":"active","ping":78},{"user_id":559,"name":"Lane","steam_id":76561197965828506,"connected_time":151000000000,"state":"active","ping":46},{"user_id":558,"name":"TheElderFrog","steam_id":76561197985743135,"connected_time":435000000000,"state":"active","ping":75},{"user_id":553,"name":"D UCK","steam_id":76561198075844142,"connected_time":905000000000,"state":"active","ping":53},{"user_id":456,"name":"SilentFootba11","steam_id":76561199006570947,"connected_time":5496000000000,"state":"active","ping":71},{"user_id":524,"name":"ROME MiG-23MLD","steam_id":76561198236109724,"connected_time":2510000000000,"state":"active","ping":58},{"user_id":541,"name":"Shorts","steam_id":76561198025009692,"connected_time":1417000000000,"state":"active","ping":83},{"user_id":526,"name":"Loaf","steam_id":76561198446378419,"connected_time":2488000000000,"state":"active","ping":82},{"user_id":494,"name":"super clickteam fusion","steam_id":76561198275101482,"connected_time":4347000000000,"state":"active","ping":139},{"user_id":545,"name":"CP Sound","steam_id":76561198276345462,"connected_time":1230000000000,"state":"active","ping":76},{"user_id":528,"name":"SIN K4RMA","steam_id":76561198869287223,"connected_time":2418000000000,"state":"active","ping":81},{"user_id":548,"name":"MEATBALL","steam_id":76561198028499312,"connected_time":1190000000000,"state":"active","ping":60},{"user_id":556,"name":"only a spoonful","steam_id":76561198113180616,"connected_time":618000000000,"state":"active","ping":70},{"user_id":498,"name":"Am I Good At The Video Game?","steam_id":76561198046053281,"connected_time":4316000000000,"state":"active","ping":72},{"user_id":499,"name":"Mirelas","steam_id":76561198839360212,"connected_time":4315000000000,"state":"active","ping":83},{"user_id":504,"name":"The Wave","steam_id":76561198268225109,"connected_time":4207000000000,"state":"active","ping":92},{"user_id":505,"name":"Sheets","steam_id":76561198182088207,"connected_time":4204000000000,"state":"active","ping":53},{"user_id":549,"name":"boogiedog","steam_id":76561198074678273,"connected_time":1167000000000,"state":"active","ping":60},{"user_id":531,"name":"[DATS‚û°] Sugar Meowth","steam_id":76561197995251793,"connected_time":2391000000000,"state":"active","ping":90},{"user_id":550,"name":"Quiet Kid Wit A Rlly Large BP","steam_id":76561198106147222,"connected_time":1121000000000,"state":"active","ping":73},{"user_id":551,"name":"tim-","steam_id":76561199119101315,"connected_time":1027000000000,"state":"active","ping":76}]},{"server_id":37,"name":"Uncletopia | Chicago | 6 | All Maps","name_short":"chi-6","host":"chi-2.us.uncletopia.com","port":27025,"enabled":true,"region":"us-central","cc":"us","latitude":41.881832,"longitude":-87.62318,"reserved":0,"last_update":"0001-01-01T00:00:00Z","name_a2s":"Uncletopia | Chicago | 6 | All Maps","protocol":17,"map":"pl_badwater","folder":"tf","game":"Team Fortress","app_id":440,"player_count":24,"max_players":24,"Bots":0,"server_type":"Dedicated","server_os":"Linux","password":true,"vac":true,"version":"7961495","steam_id":85568392924866363,"keywords":["nocrits","nodmgspread","payload","uncletopia"],"game_id":440,"stv_port":27026,"stv_name":"Uncletopia | Chicago | 6 | All Maps | STV","players":[{"user_id":428,"name":"MechaZard","steam_id":76561198985919768,"connected_time":3589000000000,"state":"active","ping":83},{"user_id":471,"name":"Dude","steam_id":76561199058616824,"connected_time":1809000000000,"state":"active","ping":66},{"user_id":500,"name":"NoobCesar","steam_id":76561198095250755,"connected_time":74000000000,"state":"active","ping":71},{"user_id":458,"name":"cass","steam_id":76561198074502046,"connected_time":2038000000000,"state":"active","ping":118},{"user_id":498,"name":"subway burger","steam_id":76561198979494052,"connected_time":164000000000,"state":"active","ping":92},{"user_id":499,"name":"volta","steam_id":76561199214283884,"connected_time":96000000000,"state":"active","ping":120},{"user_id":431,"name":"gamerlegend47","steam_id":76561198122776598,"connected_time":3539000000000,"state":"active","ping":70},{"user_id":479,"name":"Lore","steam_id":76561198098407538,"connected_time":1334000000000,"state":"active","ping":46},{"user_id":492,"name":"Mimt1111","steam_id":76561198392370897,"connected_time":414000000000,"state":"active","ping":92},{"user_id":487,"name":"Orca?","steam_id":76561198164341099,"connected_time":519000000000,"state":"active","ping":78},{"user_id":493,"name":"doughsbury pillboy","steam_id":76561198042801618,"connected_time":408000000000,"state":"active","ping":54},{"user_id":494,"name":"Lad","steam_id":76561197990645296,"connected_time":375000000000,"state":"active","ping":88},{"user_id":496,"name":"Furioso","steam_id":76561198408747483,"connected_time":293000000000,"state":"active","ping":74},{"user_id":466,"name":"hoodùñìùñéùñåùñåùñÜFERDA_v","steam_id":76561198171058111,"connected_time":1989000000000,"state":"active","ping":70},{"user_id":477,"name":"bullseye","steam_id":76561198173469502,"connected_time":1397000000000,"state":"active","ping":82},{"user_id":501,"name":"Your Alcoholic Dad","steam_id":76561198214494745,"connected_time":57000000000,"state":"active","ping":55},{"user_id":488,"name":"SnakeEyes505","steam_id":76561198267634428,"connected_time":482000000000,"state":"active","ping":71},{"user_id":470,"name":"twix","steam_id":76561198040912048,"connected_time":1826000000000,"state":"active","ping":49},{"user_id":463,"name":"tap to collect gold","steam_id":76561198822328368,"connected_time":1995000000000,"state":"active","ping":132},{"user_id":473,"name":"RandySandcastle#FERDA","steam_id":76561198121581363,"connected_time":1777000000000,"state":"active","ping":56},{"user_id":452,"name":"THORNFIELDGAMER","steam_id":76561199087167473,"connected_time":2200000000000,"state":"active","ping":90},{"user_id":442,"name":"FrostStorm","steam_id":76561198142685151,"connected_time":2923000000000,"state":"active","ping":64},{"user_id":502,"name":"Ludcmorais","steam_id":76561198359217809,"connected_time":33000000000,"state":"spawning","ping":176},{"user_id":468,"name":"G-SHIESTY","steam_id":76561198109881598,"connected_time":1984000000000,"state":"active","ping":65}]},{"server_id":38,"name":"Uncletopia | Chicago | 7 | Stopwatch","name_short":"chi-7","host":"chi-2.us.uncletopia.com","port":27035,"enabled":true,"region":"us-central","cc":"us","latitude":41.881832,"longitude":-87.62318,"reserved":0,"last_update":"0001-01-01T00:00:00Z","name_a2s":"Uncletopia | Chicago | 7 | Stopwatch","protocol":17,"map":"workshop/koth_product_final.ugc454272353","folder":"tf","game":"Team Fortress","app_id":440,"player_count":18,"max_players":24,"Bots":0,"server_type":"Dedicated","server_os":"Linux","password":true,"vac":true,"version":"7961495","steam_id":85568392924866364,"keywords":["cp","nocrits","nodmgspread","uncletopia"],"game_id":440,"stv_port":27036,"stv_name":"Uncletopia | Chicago | 7 | Stopwatch | STV","players":[{"user_id":27,"name":"jimmyfnaf172198yay","steam_id":76561198311446636,"connected_time":1848000000000,"state":"active","ping":57},{"user_id":53,"name":"Dr. Maybe","steam_id":76561198268304564,"connected_time":309000000000,"state":"active","ping":82},{"user_id":59,"name":"Comfy Monkey","steam_id":76561197998434936,"connected_time":92000000000,"state":"active","ping":48},{"user_id":30,"name":"QwipQwop","steam_id":76561198019028725,"connected_time":1635000000000,"state":"active","ping":85},{"user_id":31,"name":"Asanez3","steam_id":76561198037381436,"connected_time":1567000000000,"state":"active","ping":73},{"user_id":55,"name":"Vernas","steam_id":76561198118897256,"connected_time":231000000000,"state":"active","ping":61},{"user_id":57,"name":"austinsmith","steam_id":76561198167838540,"connected_time":159000000000,"state":"active","ping":70},{"user_id":60,"name":"Œ£lectrœÉWingPixy","steam_id":76561198118670424,"connected_time":79000000000,"state":"active","ping":73},{"user_id":36,"name":"Calypso","steam_id":76561198082939544,"connected_time":1356000000000,"state":"active","ping":86},{"user_id":61,"name":"clanker","steam_id":76561198880773196,"connected_time":34000000000,"state":"active","ping":103},{"user_id":62,"name":"akmaster26","steam_id":76561198142973165,"connected_time":14000000000,"state":"active","ping":82},{"user_id":44,"name":"eryn üó∫","steam_id":76561198004433070,"connected_time":640000000000,"state":"active","ping":76},{"user_id":46,"name":"Juanseparra564","steam_id":76561198176662903,"connected_time":577000000000,"state":"active","ping":114},{"user_id":47,"name":"uhhh","steam_id":76561198894548454,"connected_time":566000000000,"state":"active","ping":95},{"user_id":48,"name":"SquidGames","steam_id":76561198081856310,"connected_time":566000000000,"state":"active","ping":91},{"user_id":49,"name":"Gammaplex","steam_id":76561198981228176,"connected_time":556000000000,"state":"active","ping":56},{"user_id":63,"name":"SuckonTat","steam_id":76561199367308528,"connected_time":12000000000,"state":"active","ping":75},{"user_id":52,"name":"tailuk","steam_id":76561198012536215,"connected_time":519000000000,"state":"active","ping":76}]},{"server_id":39,"name":"Uncletopia | Chicago | 8 | Community","name_short":"chi-8","host":"chi-2.us.uncletopia.com","port":27045,"enabled":true,"region":"us-central","cc":"us","latitude":41.881832,"longitude":-87.62318,"reserved":0,"last_update":"0001-01-01T00:00:00Z","name_a2s":"Uncletopia | Chicago | 8 | Community","protocol":17,"map":"workshop/koth_ramjam_rc1.ugc459778887","folder":"tf","game":"Team Fortress","app_id":440,"player_count":0,"max_players":24,"Bots":0,"server_type":"Dedicated","server_os":"Linux","password":true,"vac":true,"version":"7961495","steam_id":85568392924866365,"keywords":["cp","nocrits","nodmgspread","uncletopia"],"game_id":440,"stv_port":27046,"stv_name":"Uncletopia | Chicago | 8 | Community | STV","players":null},{"server_id":8,"name":"Uncletopia | Dallas | 1 | All Maps","name_short":"dal-1","host":"dal-1.us.uncletopia.com","port":27015,"enabled":true,"region":"us-central","cc":"us","latitude":32.779167,"longitude":-96.80889,"reserved":0,"last_update":"0001-01-01T00:00:00Z","name_a2s":"Uncletopia | Dallas | 1 | All Maps","protocol":17,"map":"cp_altitude","folder":"tf","game":"Team Fortress","app_id":440,"player_count":24,"max_players":24,"Bots":0,"server_type":"Dedicated","server_os":"Linux","password":true,"vac":true,"version":"7961495","steam_id":85568392924469986,"keywords":["cp","nocrits","nodmgspread","uncletopia"],"game_id":440,"stv_port":27016,"stv_name":"Uncletopia | Dallas | 1 | All Maps | STV","players":[{"user_id":553,"name":"DlTTO","steam_id":76561199427026752,"connected_time":1988000000000,"state":"active","ping":87},{"user_id":559,"name":"dailydiamond","steam_id":76561199123582502,"connected_time":1273000000000,"state":"active","ping":98},{"user_id":532,"name":"yippeeee","steam_id":76561198026563351,"connected_time":5459000000000,"state":"active","ping":75},{"user_id":560,"name":"RedCrayons‚Ñ¢","steam_id":76561197986925673,"connected_time":1263000000000,"state":"active","ping":89},{"user_id":507,"name":"Ballista","steam_id":76561197983182562,"connected_time":8554000000000,"state":"active","ping":47},{"user_id":554,"name":"·∂ú ∞·µò·µá","steam_id":76561197960983902,"connected_time":1859000000000,"state":"active","ping":39},{"user_id":567,"name":"Vaun Leon","steam_id":76561199223266577,"connected_time":881000000000,"state":"active","ping":74},{"user_id":503,"name":"THRONGLER","steam_id":76561198198563466,"connected_time":8594000000000,"state":"active","ping":38},{"user_id":521,"name":"leesh","steam_id":76561198079603938,"connected_time":6793000000000,"state":"active","ping":60},{"user_id":543,"name":"LampMan","steam_id":76561198079857527,"connected_time":3127000000000,"state":"active","ping":53},{"user_id":530,"name":"Sweet Tooth","steam_id":76561198830158092,"connected_time":5975000000000,"state":"active","ping":73},{"user_id":556,"name":"Sqooky","steam_id":76561198838054669,"connected_time":1825000000000,"state":"active","ping":166},{"user_id":574,"name":"another breloom","steam_id":76561198006938024,"connected_time":64000000000,"state":"active","ping":75},{"user_id":514,"name":"dumbest girl alive","steam_id":76561198062263639,"connected_time":7722000000000,"state":"active","ping":47},{"user_id":577,"name":"Glaceon","steam_id":76561198177715869,"connected_time":45000000000,"state":"active","ping":61},{"user_id":562,"name":"gretchling","steam_id":76561198046111695,"connected_time":1199000000000,"state":"active","ping":45},{"user_id":569,"name":"FakeSnakeJake","steam_id":76561198254288853,"connected_time":815000000000,"state":"active","ping":62},{"user_id":570,"name":"Philo","steam_id":76561198061873341,"connected_time":772000000000,"state":"active","ping":94},{"user_id":566,"name":"Lydia","steam_id":76561198800417942,"connected_time":1086000000000,"state":"active","ping":97},{"user_id":544,"name":"Inflation Jumpscare","steam_id":76561198137862444,"connected_time":3106000000000,"state":"active","ping":48},{"user_id":504,"name":"Homvel","steam_id":76561198000848413,"connected_time":8589000000000,"state":"active","ping":124},{"user_id":571,"name":"Herbal.T.73","steam_id":76561198012745038,"connected_time":362000000000,"state":"active","ping":109},{"user_id":572,"name":"Hedless","steam_id":76561197992723400,"connected_time":113000000000,"state":"active","ping":87},{"user_id":576,"name":"copper","steam_id":76561198146250533,"connected_time":59000000000,"state":"active","ping":97}]},{"server_id":108,"name":"Uncletopia | Dallas | 2 | All Maps","name_short":"dal-2","host":"dal-1.us.uncletopia.com","port":27025,"enabled":true,"region":"us-central","cc":"us","latitude":32.779167,"longitude":-96.80889,"reserved":0,"last_update":"0001-01-01T00:00:00Z","name_a2s":"Uncletopia | Dallas | 2 | All Maps","protocol":17,"map":"pl_pier","folder":"tf","game":"Team Fortress","app_id":440,"player_count":22,"max_players":24,"Bots":0,"server_type":"Dedicated","server_os":"Linux","password":true,"vac":true,"version":"7961495","steam_id":85568392924469988,"keywords":["nocrits","nodmgspread","payload","uncletopia"],"game_id":440,"stv_port":27026,"stv_name":"Uncletopia | Dallas | 2 | All Maps | STV","players":[{"user_id":505,"name":"ReDiculous22","steam_id":76561198038391383,"connected_time":1138000000000,"state":"active","ping":35},{"user_id":447,"name":"Mick","steam_id":76561198972619900,"connected_time":6120000000000,"state":"active","ping":49},{"user_id":506,"name":"HoneyOTU","steam_id":76561198200366607,"connected_time":267000000000,"state":"active","ping":179},{"user_id":501,"name":"Gary Busey","steam_id":76561197970096950,"connected_time":1493000000000,"state":"active","ping":41},{"user_id":468,"name":"Spinch","steam_id":76561198296224166,"connected_time":4079000000000,"state":"active","ping":69},{"user_id":478,"name":"1000 Gigglebytes of clown girls","steam_id":76561198290719848,"connected_time":2439000000000,"state":"active","ping":92},{"user_id":507,"name":"El G√ºey","steam_id":76561197970450546,"connected_time":201000000000,"state":"active","ping":110},{"user_id":483,"name":"DesolateCabbage","steam_id":76561198064467423,"connected_time":2377000000000,"state":"active","ping":51},{"user_id":480,"name":"Asbestos McFlave","steam_id":76561198001136560,"connected_time":2424000000000,"state":"active","ping":97},{"user_id":497,"name":"Winter Turtle","steam_id":76561199013760076,"connected_time":1549000000000,"state":"active","ping":81},{"user_id":504,"name":"Vanillex","steam_id":76561199125632814,"connected_time":1165000000000,"state":"active","ping":40},{"user_id":446,"name":"pea ttv/peabeanz","steam_id":76561198119551968,"connected_time":6292000000000,"state":"active","ping":98},{"user_id":493,"name":"Stupid","steam_id":76561198167318640,"connected_time":2051000000000,"state":"active","ping":37},{"user_id":470,"name":"CeLeb144","steam_id":76561199089907740,"connected_time":4069000000000,"state":"active","ping":62},{"user_id":416,"name":"Publo","steam_id":76561198161777140,"connected_time":9427000000000,"state":"active","ping":52},{"user_id":508,"name":"Sylvaris","steam_id":76561198156678773,"connected_time":99000000000,"state":"active","ping":57},{"user_id":489,"name":"sloth (be nice im cringe)","steam_id":76561198047098172,"connected_time":2163000000000,"state":"active","ping":91},{"user_id":496,"name":"Cosmic sR","steam_id":76561198081738675,"connected_time":1605000000000,"state":"active","ping":76},{"user_id":485,"name":"BurnN8or101","steam_id":76561198132668224,"connected_time":2340000000000,"state":"active","ping":73},{"user_id":490,"name":"Miss Rin","steam_id":76561198337607363,"connected_time":2155000000000,"state":"active","ping":87},{"user_id":477,"name":"axolotl","steam_id":76561198028490882,"connected_time":2458000000000,"state":"active","ping":72},{"user_id":435,"name":"Giselle","steam_id":76561198162593640,"connected_time":8566000000000,"state":"active","ping":102}]},{"server_id":404,"name":"Uncletopia | Dallas | 3 | All Maps","name_short":"dal-3","host":"dal-1.us.uncletopia.com","port":27035,"enabled":true,"region":"us-central","cc":"us","latitude":32.779167,"longitude":-96.80889,"reserved":0,"last_update":"0001-01-01T00:00:00Z","name_a2s":"Uncletopia | Dallas | 3 | All Maps","protocol":17,"map":"pl_swiftwater_final1","folder":"tf","game":"Team Fortress","app_id":440,"player_count":24,"max_players":24,"Bots":0,"server_type":"Dedicated","server_os":"Linux","password":true,"vac":true,"version":"7961495","steam_id":85568392924515219,"keywords":["nocrits","nodmgspread","payload","uncletopia"],"game_id":440,"stv_port":27036,"stv_name":"Uncletopia | Dallas | 3 | All Maps | STV","players":[{"user_id":57,"name":"Snoopy","steam_id":76561198273735974,"connected_time":26270000000000,"state":"active","ping":71},{"user_id":407,"name":"kemonostyle","steam_id":76561198054280340,"connected_time":942000000000,"state":"active","ping":105},{"user_id":401,"name":"Phos","steam_id":76561198122339506,"connected_time":1373000000000,"state":"active","ping":74},{"user_id":417,"name":"ieatboogersAGAGAGAGAGAGA","steam_id":76561198096737300,"connected_time":337000000000,"state":"active","ping":157},{"user_id":414,"name":"Wilfred Carr","steam_id":76561198039149060,"connected_time":682000000000,"state":"active","ping":75},{"user_id":416,"name":"chud smoker","steam_id":76561198120973162,"connected_time":490000000000,"state":"active","ping":92},{"user_id":379,"name":"isucktoomuch****","steam_id":76561198075165369,"connected_time":2458000000000,"state":"active","ping":88},{"user_id":408,"name":"caspian","steam_id":76561197985724357,"connected_time":939000000000,"state":"active","ping":121},{"user_id":380,"name":"NIYC Rambo","steam_id":76561198136384326,"connected_time":2446000000000,"state":"active","ping":86},{"user_id":381,"name":"RangerArrows","steam_id":76561198965353821,"connected_time":2443000000000,"state":"active","ping":91},{"user_id":382,"name":"¬øskitt1eS?","steam_id":76561198330093211,"connected_time":2424000000000,"state":"active","ping":61},{"user_id":403,"name":"gagobears","steam_id":76561198086008437,"connected_time":1299000000000,"state":"active","ping":54},{"user_id":409,"name":"Big Unck","steam_id":76561198024658073,"connected_time":921000000000,"state":"active","ping":89},{"user_id":410,"name":"Captain_Eldeezee","steam_id":76561198301560834,"connected_time":894000000000,"state":"active","ping":41},{"user_id":418,"name":"Masked","steam_id":76561198093697845,"connected_time":315000000000,"state":"active","ping":66},{"user_id":366,"name":"Joe Camel","steam_id":76561198205531739,"connected_time":3149000000000,"state":"active","ping":119},{"user_id":419,"name":"Cat","steam_id":76561198132362099,"connected_time":314000000000,"state":"active","ping":109},{"user_id":376,"name":"Raz","steam_id":76561198002426150,"connected_time":2651000000000,"state":"active","ping":46},{"user_id":391,"name":"Jaydyn","steam_id":76561198140326797,"connected_time":2074000000000,"state":"active","ping":103},{"user_id":413,"name":"Owencr","steam_id":76561198121386522,"connected_time":717000000000,"state":"active","ping":80},{"user_id":404,"name":"Jack the Dripper","steam_id":76561198043911582,"connected_time":1298000000000,"state":"active","ping":79},{"user_id":415,"name":"chem‚ú®","steam_id":76561198972045654,"connected_time":649000000000,"state":"active","ping":81},{"user_id":392,"name":"james may","steam_id":76561198043857339,"connected_time":2054000000000,"state":"active","ping":82},{"user_id":334,"name":"Jack \"Hee Ho\" Frost","steam_id":76561198353395198,"connected_time":6655000000000,"state":"active","ping":88}]},{"server_id":405,"name":"Uncletopia | Dallas | 4 | Community","name_short":"dal-4","host":"dal-1.us.uncletopia.com","port":27045,"enabled":true,"region":"us-central","cc":"us","latitude":32.779167,"longitude":-96.80889,"reserved":0,"last_update":"0001-01-01T00:00:00Z","name_a2s":"Uncletopia | Dallas | 4 | Community","protocol":17,"map":"workshop/cp_glassworks_rc6a.ugc454118349","folder":"tf","game":"Team Fortress","app_id":440,"player_count":24,"max_players":24,"Bots":0,"server_type":"Dedicated","server_os":"Linux","password":true,"vac":true,"version":"7961495","steam_id":85568392924515220,"keywords":["cp","nocrits","nodmgspread","uncletopia"],"game_id":440,"stv_port":27046,"stv_name":"Uncletopia | Dallas | 4 | Community | STV","players":[{"user_id":121,"name":"a_person747","steam_id":76561198368387023,"connected_time":8846000000000,"state":"active","ping":76},{"user_id":235,"name":"loooooooooooooooooooooooooooooi","steam_id":76561198138934898,"connected_time":393000000000,"state":"active","ping":54},{"user_id":217,"name":"malarkeyman","steam_id":76561198844473584,"connected_time":2555000000000,"state":"active","ping":62},{"user_id":236,"name":"Plague","steam_id":76561198151672053,"connected_time":384000000000,"state":"active","ping":107},{"user_id":237,"name":"bigfart1995","steam_id":76561199189831372,"connected_time":366000000000,"state":"active","ping":150},{"user_id":216,"name":"Rin \"Hindwing\" Redtail","steam_id":76561199074865638,"connected_time":2661000000000,"state":"active","ping":49},{"user_id":238,"name":"why?","steam_id":76561198170390298,"connected_time":346000000000,"state":"active","ping":50},{"user_id":222,"name":"Oninja94","steam_id":76561199467195274,"connected_time":2317000000000,"state":"active","ping":101},{"user_id":201,"name":"Noiceman","steam_id":76561199016137482,"connected_time":3580000000000,"state":"active","ping":53},{"user_id":178,"name":"orange cat","steam_id":76561198060748016,"connected_time":5833000000000,"state":"active","ping":91},{"user_id":243,"name":"tiredfisherman69","steam_id":76561199228963816,"connected_time":70000000000,"state":"active","ping":77},{"user_id":242,"name":"Û†Ä°Û†Ä°","steam_id":76561198348035053,"connected_time":100000000000,"state":"spawning","ping":209},{"user_id":195,"name":"Hawkborne","steam_id":76561198107249245,"connected_time":4766000000000,"state":"active","ping":69},{"user_id":223,"name":"Lezabel","steam_id":76561198970753261,"connected_time":2208000000000,"state":"active","ping":73},{"user_id":230,"name":"MoonRiver","steam_id":76561198110263264,"connected_time":1180000000000,"state":"active","ping":75},{"user_id":229,"name":"Noobynoob15","steam_id":76561199497020916,"connected_time":1511000000000,"state":"active","ping":99},{"user_id":241,"name":"Baannaannaa","steam_id":76561198042895194,"connected_time":268000000000,"state":"active","ping":144},{"user_id":193,"name":"Coach McFish","steam_id":76561198210456405,"connected_time":4808000000000,"state":"active","ping":92},{"user_id":232,"name":"A funni crow","steam_id":76561198162041422,"connected_time":1097000000000,"state":"active","ping":73},{"user_id":227,"name":"Whapper","steam_id":76561198044029606,"connected_time":1803000000000,"state":"active","ping":89},{"user_id":231,"name":"Rainy Day Roger","steam_id":76561198101783759,"connected_time":1169000000000,"state":"active","ping":99},{"user_id":199,"name":"1zzy","steam_id":76561199384568014,"connected_time":3997000000000,"state":"active","ping":47},{"user_id":211,"name":"Mer","steam_id":76561198192171041,"connected_time":3091000000000,"state":"active","ping":143},{"user_id":234,"name":"nrj1998pelma.six","steam_id":76561198425503395,"connected_time":900000000000,"state":"active","ping":36}]},{"server_id":5,"name":"Uncletopia | Frankfurt | 1 | All Maps","name_short":"frk-1","host":"frk-1.de.uncletopia.com","port":27015,"enabled":true,"region":"eu","cc":"de","latitude":50.110924,"longitude":8.682127,"reserved":0,"last_update":"0001-01-01T00:00:00Z","name_a2s":"Uncletopia | Frankfurt | 1 | All Maps","protocol":17,"map":"koth_cascade","folder":"tf","game":"Team Fortress","app_id":440,"player_count":0,"max_players":24,"Bots":0,"server_type":"Dedicated","server_os":"Linux","password":true,"vac":true,"version":"7961495","steam_id":85568392924469989,"keywords":["cp","nocrits","nodmgspread","uncletopia"],"game_id":440,"stv_port":27016,"stv_name":"Uncletopia | Frankfurt | 1 | All Maps | STV","players":null},{"server_id":110,"name":"Uncletopia | Frankfurt | 2 | All Maps","name_short":"frk-2","host":"frk-1.de.uncletopia.com","port":27025,"enabled":true,"region":"eu","cc":"de","latitude":50.110924,"longitude":8.682127,"reserved":0,"last_update":"0001-01-01T00:00:00Z","name_a2s":"Uncletopia | Frankfurt | 2 | All Maps","protocol":17,"map":"koth_highpass","folder":"tf","game":"Team Fortress","app_id":440,"player_count":0,"max_players":24,"Bots":0,"server_type":"Dedicated","server_os":"Linux","password":true,"vac":true,"version":"7961495","steam_id":85568392924469990,"keywords":["cp","nocrits","nodmgspread","uncletopia"],"game_id":440,"stv_port":27026,"stv_name":"Uncletopia | Frankfurt | 2 | All Maps | STV","players":null},{"server_id":308,"name":"Uncletopia | Frankfurt | 3 | All Maps","name_short":"frk-3","host":"frk-1.de.uncletopia.com","port":27035,"enabled":true,"region":"eu","cc":"de","latitude":50.110924,"longitude":8.682127,"reserved":0,"last_update":"0001-01-01T00:00:00Z","name_a2s":"Uncletopia | Frankfurt | 3 | All Maps","protocol":17,"map":"koth_viaduct","folder":"tf","game":"Team Fortress","app_id":440,"player_count":0,"max_players":24,"Bots":0,"server_type":"Dedicated","server_os":"Linux","password":true,"vac":true,"version":"7961495","steam_id":85568392924504274,"keywords":["cp","nocrits","nodmgspread","uncletopia"],"game_id":440,"stv_port":27036,"stv_name":"Uncletopia | Frankfurt | 3 | All Maps | STV","players":null},{"server_id":309,"name":"Uncletopia | Frankfurt | 4 | All Maps","name_short":"frk-4","host":"frk-1.de.uncletopia.com","port":27045,"enabled":true,"region":"eu","cc":"de","latitude":50.110924,"longitude":8.682127,"reserved":0,"last_update":"0001-01-01T00:00:00Z","name_a2s":"Uncletopia | Frankfurt | 4 | All Maps","protocol":17,"map":"pl_swiftwater_final1","folder":"tf","game":"Team Fortress","app_id":440,"player_count":0,"max_players":24,"Bots":0,"server_type":"Dedicated","server_os":"Linux","password":true,"vac":true,"version":"7961495","steam_id":85568392924504275,"keywords":["nocrits","nodmgspread","payload","uncletopia"],"game_id":440,"stv_port":27046,"stv_name":"Uncletopia | Frankfurt | 4 | All Maps | STV","players":null},{"server_id":310,"name":"Uncletopia | Frankfurt | 5 | All Maps","name_short":"frk-5","host":"frk-1.de.uncletopia.com","port":27055,"enabled":true,"region":"eu","cc":"de","latitude":50.110924,"longitude":8.682127,"reserved":0,"last_update":"0001-01-01T00:00:00Z","name_a2s":"Uncletopia | Frankfurt | 5 | All Maps","protocol":17,"map":"pl_pier","folder":"tf","game":"Team Fortress","app_id":440,"player_count":0,"max_players":24,"Bots":0,"server_type":"Dedicated","server_os":"Linux","password":true,"vac":true,"version":"7961495","steam_id":85568392924504277,"keywords":["nocrits","nodmgspread","payload","uncletopia"],"game_id":440,"stv_port":27056,"stv_name":"Uncletopia | Frankfurt | 5 | All Maps | STV","players":null},{"server_id":311,"name":"Uncletopia | Frankfurt | 6 | All Maps","name_short":"frk-6","host":"frk-1.de.uncletopia.com","port":27065,"enabled":true,"region":"eu","cc":"de","latitude":50.110924,"longitude":8.682127,"reserved":0,"last_update":"0001-01-01T00:00:00Z","name_a2s":"Uncletopia | Frankfurt | 6 | All Maps","protocol":17,"map":"pl_upward","folder":"tf","game":"Team Fortress","app_id":440,"player_count":0,"max_players":24,"Bots":0,"server_type":"Dedicated","server_os":"Linux","password":true,"vac":true,"version":"7961495","steam_id":85568392924504278,"keywords":["nocrits","nodmgspread","payload","uncletopia"],"game_id":440,"stv_port":27066,"stv_name":"Uncletopia | Frankfurt | 6 | All Maps | STV","players":null},{"server_id":23,"name":"Uncletopia | Frankfurt | 7 | Stopwatch","name_short":"frk-7","host":"frk-1.de.uncletopia.com","port":27075,"enabled":true,"region":"eu","cc":"de","latitude":50.110924,"longitude":8.682127,"reserved":0,"last_update":"0001-01-01T00:00:00Z","name_a2s":"Uncletopia | Frankfurt | 7 | Stopwatch","protocol":17,"map":"workshop/koth_ashville_final.ugc2130459942","folder":"tf","game":"Team Fortress","app_id":440,"player_count":0,"max_players":24,"Bots":0,"server_type":"Dedicated","server_os":"Linux","password":true,"vac":true,"version":"7961495","steam_id":85568392924742827,"keywords":["cp","nocrits","nodmgspread","uncletopia"],"game_id":440,"stv_port":27076,"stv_name":"Uncletopia | Frankfurt | 7 | Stopwatch | STV","players":null},{"server_id":24,"name":"Uncletopia | Frankfurt | 8 | Community","name_short":"frk-8","host":"frk-1.de.uncletopia.com","port":27085,"enabled":true,"region":"eu","cc":"de","latitude":50.110924,"longitude":8.682127,"reserved":0,"last_update":"0001-01-01T00:00:00Z","name_a2s":"Uncletopia | Frankfurt | 8 | Community","protocol":17,"map":"workshop/pl_corrode_rc2.ugc546577989","folder":"tf","game":"Team Fortress","app_id":440,"player_count":0,"max_players":24,"Bots":0,"server_type":"Dedicated","server_os":"Linux","password":true,"vac":true,"version":"7961495","steam_id":85568392924742828,"keywords":["nocrits","nodmgspread","payload","uncletopia"],"game_id":440,"stv_port":27086,"stv_name":"Uncletopia | Frankfurt | 8 | Community | STV","players":null},{"server_id":202,"name":"Uncletopia | Hong Kong | 1 | All Maps","name_short":"hgk-1","host":"hgk-1.hk.uncletopia.com","port":27015,"enabled":true,"region":"asia","cc":"hk","latitude":22.302711,"longitude":114.177216,"reserved":0,"last_update":"0001-01-01T00:00:00Z","name_a2s":"Uncletopia | Hong Kong | 1 | All Maps","protocol":17,"map":"pl_badwater","folder":"tf","game":"Team Fortress","app_id":440,"player_count":23,"max_players":24,"Bots":0,"server_type":"Dedicated","server_os":"Linux","password":true,"vac":true,"version":"7961495","steam_id":85568392924494504,"keywords":["nocrits","nodmgspread","payload","uncletopia"],"game_id":440,"stv_port":27016,"stv_name":"Uncletopia | Hong Kong | 1 | All Maps | STV","players":[{"user_id":17,"name":"wood","steam_id":76561198446479114,"connected_time":4253000000000,"state":"active","ping":74},{"user_id":34,"name":"Alka","steam_id":76561198268872312,"connected_time":2618000000000,"state":"active","ping":81},{"user_id":21,"name":"Onion Farmer","steam_id":76561198449452640,"connected_time":3870000000000,"state":"active","ping":96},{"user_id":26,"name":"Tet","steam_id":76561198253488438,"connected_time":3116000000000,"state":"active","ping":91},{"user_id":28,"name":"JDSFE","steam_id":76561198975490851,"connected_time":2945000000000,"state":"active","ping":85},{"user_id":72,"name":"dark","steam_id":76561198074036366,"connected_time":159000000000,"state":"active","ping":104},{"user_id":58,"name":"Corbezy","steam_id":76561197993398349,"connected_time":1039000000000,"state":"active","ping":99},{"user_id":29,"name":"SmeechSmeech","steam_id":76561198139374838,"connected_time":2935000000000,"state":"active","ping":58},{"user_id":30,"name":"Nephew Nate","steam_id":76561199137872034,"connected_time":2853000000000,"state":"active","ping":103},{"user_id":73,"name":"RockGaming2008","steam_id":76561198872566128,"connected_time":139000000000,"state":"active","ping":89},{"user_id":71,"name":"lshleo","steam_id":76561198366975960,"connected_time":254000000000,"state":"active","ping":96},{"user_id":33,"name":"neth","steam_id":76561198217995369,"connected_time":2704000000000,"state":"active","ping":81},{"user_id":60,"name":"E","steam_id":76561198796342005,"connected_time":861000000000,"state":"active","ping":107},{"user_id":39,"name":"TomProPlayer","steam_id":76561199223292521,"connected_time":2097000000000,"state":"active","ping":72},{"user_id":44,"name":"Vortex Swagger","steam_id":76561198833527091,"connected_time":1566000000000,"state":"active","ping":99},{"user_id":45,"name":"Corn_Archer","steam_id":76561199185044554,"connected_time":1560000000000,"state":"active","ping":77},{"user_id":55,"name":"Krazy hamburger (f2p)","steam_id":76561199468329214,"connected_time":1138000000000,"state":"active","ping":127},{"user_id":47,"name":"¬ßaveh!","steam_id":76561198141410845,"connected_time":1542000000000,"state":"active","ping":101},{"user_id":61,"name":"GLA_PostalService","steam_id":76561199230196794,"connected_time":812000000000,"state":"active","ping":77},{"user_id":49,"name":"hakos balls","steam_id":76561198074339034,"connected_time":1468000000000,"state":"active","ping":76},{"user_id":57,"name":"pigswillflyy","steam_id":76561199224662145,"connected_time":1090000000000,"state":"active","ping":92},{"user_id":62,"name":"toad„ÉÑ","steam_id":76561198082199290,"connected_time":798000000000,"state":"active","ping":45},{"user_id":66,"name":"SunShine","steam_id":76561198323642446,"connected_time":586000000000,"state":"active","ping":102}]},{"server_id":1,"name":"Uncletopia | Los Angeles | 1 | All Maps","name_short":"lax-1","host":"lax-1.us.uncletopia.com","port":27015,"enabled":true,"region":"us-west","cc":"us","latitude":33.94279,"longitude":-118.41004,"reserved":0,"last_update":"0001-01-01T00:00:00Z","name_a2s":"Uncletopia | Los Angeles | 1 | All Maps","protocol":17,"map":"cp_steel","folder":"tf","game":"Team Fortress","app_id":440,"player_count":24,"max_players":24,"Bots":0,"server_type":"Dedicated","server_os":"Linux","password":true,"vac":true,"version":"7961495","steam_id":85568392924469991,"keywords":["cp","nocrits","nodmgspread","uncletopia"],"game_id":440,"stv_port":27016,"stv_name":"Uncletopia | Los Angeles | 1 | All Maps | STV","players":[{"user_id":749,"name":"Indigolake","steam_id":76561198202215807,"connected_time":2631000000000,"state":"active","ping":127},{"user_id":775,"name":"Igrium","steam_id":76561198119549811,"connected_time":1132000000000,"state":"active","ping":66},{"user_id":719,"name":"mastercylinder","steam_id":76561197993700163,"connected_time":4785000000000,"state":"active","ping":57},{"user_id":750,"name":"Ice cream sandwich","steam_id":76561198172748357,"connected_time":2596000000000,"state":"active","ping":59},{"user_id":730,"name":"||:‚ô©‚ô©‚ô©‚ô™:|| Opplydead","steam_id":76561198028630334,"connected_time":3403000000000,"state":"active","ping":51},{"user_id":777,"name":"Action-Flash","steam_id":76561198042438122,"connected_time":626000000000,"state":"active","ping":122},{"user_id":768,"name":"OddSlaush","steam_id":76561198043898488,"connected_time":1852000000000,"state":"active","ping":37},{"user_id":765,"name":"a chicken","steam_id":76561198313121580,"connected_time":2173000000000,"state":"active","ping":46},{"user_id":779,"name":"wow! you're goated","steam_id":76561198084708100,"connected_time":503000000000,"state":"active","ping":49},{"user_id":738,"name":"Christian Bonnie","steam_id":76561199194702127,"connected_time":3049000000000,"state":"active","ping":94},{"user_id":766,"name":"Fireheart888","steam_id":76561198044555953,"connected_time":2073000000000,"state":"active","ping":150},{"user_id":648,"name":"walrooos","steam_id":76561198024521839,"connected_time":8727000000000,"state":"active","ping":37},{"user_id":740,"name":"CometDrg0n_","steam_id":76561198175713051,"connected_time":3023000000000,"state":"active","ping":73},{"user_id":763,"name":"Mainyx","steam_id":76561198811844438,"connected_time":2370000000000,"state":"active","ping":53},{"user_id":743,"name":"erm what the scallop???","steam_id":76561198338610196,"connected_time":2785000000000,"state":"active","ping":73},{"user_id":771,"name":"BigGoose","steam_id":76561198833281392,"connected_time":1415000000000,"state":"active","ping":107},{"user_id":764,"name":"Velgrauder","steam_id":76561198848526938,"connected_time":2341000000000,"state":"active","ping":83},{"user_id":773,"name":"i cant aim","steam_id":76561198065873462,"connected_time":1384000000000,"state":"active","ping":46},{"user_id":762,"name":"Kelkith","steam_id":76561197985450422,"connected_time":2453000000000,"state":"active","ping":153},{"user_id":747,"name":"alien","steam_id":76561198007464245,"connected_time":2721000000000,"state":"active","ping":102},{"user_id":778,"name":"wilian","steam_id":76561198085614455,"connected_time":609000000000,"state":"active","ping":116},{"user_id":757,"name":"Unwiseman","steam_id":76561198009683331,"connected_time":2529000000000,"state":"active","ping":120},{"user_id":770,"name":"Ginnunga","steam_id":76561198000320083,"connected_time":1422000000000,"state":"active","ping":64},{"user_id":761,"name":"The_Pacific_gamer","steam_id":76561198089491446,"connected_time":2483000000000,"state":"active","ping":73}]},{"server_id":112,"name":"Uncletopia | Los Angeles | 2 | All Maps","name_short":"lax-2","host":"lax-1.us.uncletopia.com","port":27025,"enabled":true,"region":"us-west","cc":"us","latitude":33.94279,"longitude":-118.41004,"reserved":0,"last_update":"0001-01-01T00:00:00Z","name_a2s":"Uncletopia | Los Angeles | 2 | All Maps","protocol":17,"map":"pl_badwater","folder":"tf","game":"Team Fortress","app_id":440,"player_count":24,"max_players":24,"Bots":0,"server_type":"Dedicated","server_os":"Linux","password":true,"vac":true,"version":"7961495","steam_id":85568392924469992,"keywords":["nocrits","nodmgspread","payload","uncletopia"],"game_id":440,"stv_port":27026,"stv_name":"Uncletopia | Los Angeles | 2 | All Maps | STV","players":[{"user_id":221,"name":"gamerkiddude08","steam_id":76561198403417575,"connected_time":3625000000000,"state":"active","ping":76},{"user_id":193,"name":"shitass (Reaping and Sowing)","steam_id":76561198210572481,"connected_time":5215000000000,"state":"active","ping":45},{"user_id":239,"name":"Tree_Rainbows","steam_id":76561198069106057,"connected_time":2371000000000,"state":"active","ping":106},{"user_id":219,"name":"FlexTape","steam_id":76561198871834867,"connected_time":3639000000000,"state":"active","ping":74},{"user_id":240,"name":"NagitoTheLucky","steam_id":76561198065096327,"connected_time":2345000000000,"state":"active","ping":61},{"user_id":235,"name":"dAiLyGrInD","steam_id":76561198163531915,"connected_time":2505000000000,"state":"active","ping":90},{"user_id":220,"name":"Cowboyfos","steam_id":76561199055740230,"connected_time":3627000000000,"state":"active","ping":54},{"user_id":262,"name":"bean","steam_id":76561198279162581,"connected_time":753000000000,"state":"active","ping":54},{"user_id":263,"name":"caca sniffer","steam_id":76561199099914725,"connected_time":743000000000,"state":"active","ping":75},{"user_id":264,"name":"Wasted Youth","steam_id":76561198055672460,"connected_time":706000000000,"state":"active","ping":69},{"user_id":241,"name":"Dreamzapp","steam_id":76561199084936632,"connected_time":2319000000000,"state":"active","ping":69},{"user_id":247,"name":"Nuclear Phoenix","steam_id":76561198164655990,"connected_time":2171000000000,"state":"active","ping":82},{"user_id":265,"name":"BaconBlitz","steam_id":76561198079461770,"connected_time":705000000000,"state":"active","ping":76},{"user_id":266,"name":"Just A Skunk Femboy","steam_id":76561199080883834,"connected_time":704000000000,"state":"active","ping":119},{"user_id":267,"name":"intek","steam_id":76561198052705291,"connected_time":663000000000,"state":"active","ping":118},{"user_id":268,"name":"Toaster","steam_id":76561199275830628,"connected_time":651000000000,"state":"active","ping":77},{"user_id":258,"name":"magunyamu","steam_id":76561198823083676,"connected_time":1245000000000,"state":"active","ping":59},{"user_id":259,"name":"GUGGA","steam_id":76561199254658224,"connected_time":1175000000000,"state":"active","ping":51},{"user_id":274,"name":"NotSharky","steam_id":76561198078910436,"connected_time":351000000000,"state":"active","ping":51},{"user_id":256,"name":"fertile moist and well drained","steam_id":76561198031409921,"connected_time":1441000000000,"state":"active","ping":49},{"user_id":269,"name":";D","steam_id":76561198130312064,"connected_time":612000000000,"state":"active","ping":50},{"user_id":174,"name":"Underscorn","steam_id":76561198374209415,"connected_time":6048000000000,"state":"active","ping":98},{"user_id":275,"name":"TMM","steam_id":76561198306809688,"connected_time":202000000000,"state":"active","ping":127},{"user_id":273,"name":"Jomdac","steam_id":76561198150447896,"connected_time":404000000000,"state":"active","ping":53}]},{"server_id":324,"name":"Uncletopia | Los Angeles | 3 | All Maps","name_short":"lax-3","host":"lax-1.us.uncletopia.com","port":27035,"enabled":true,"region":"us-west","cc":"us","latitude":33.94279,"longitude":-118.41004,"reserved":0,"last_update":"0001-01-01T00:00:00Z","name_a2s":"Uncletopia | Los Angeles | 3 | All Maps","protocol":17,"map":"cp_process_final","folder":"tf","game":"Team Fortress","app_id":440,"player_count":24,"max_players":24,"Bots":0,"server_type":"Dedicated","server_os":"Linux","password":true,"vac":true,"version":"7961495","steam_id":85568392924510198,"keywords":["cp","nocrits","nodmgspread","uncletopia"],"game_id":440,"stv_port":27036,"stv_name":"Uncletopia | Los Angeles | 3 | All Maps | STV","players":[{"user_id":20,"name":"Neckbeard","steam_id":76561198167546068,"connected_time":1794000000000,"state":"active","ping":100},{"user_id":15,"name":"A S T R A L","steam_id":76561198350245055,"connected_time":2122000000000,"state":"active","ping":114},{"user_id":16,"name":"Gavin8130","steam_id":76561198188935558,"connected_time":2043000000000,"state":"active","ping":104},{"user_id":18,"name":"Jimmy","steam_id":76561198857959855,"connected_time":1900000000000,"state":"active","ping":49},{"user_id":19,"name":"Cinnifox","steam_id":76561198068773971,"connected_time":1883000000000,"state":"active","ping":84},{"user_id":22,"name":"CamWtheDestroyer","steam_id":76561198950777742,"connected_time":1677000000000,"state":"active","ping":143},{"user_id":23,"name":"Crowvette","steam_id":76561198000457496,"connected_time":1542000000000,"state":"active","ping":46},{"user_id":24,"name":"tum","steam_id":76561198084712019,"connected_time":1459000000000,"state":"active","ping":48},{"user_id":25,"name":"Pile of Spinach","steam_id":76561198043068841,"connected_time":1456000000000,"state":"active","ping":64},{"user_id":27,"name":"Hornis the Great","steam_id":76561198139929833,"connected_time":1442000000000,"state":"active","ping":77},{"user_id":48,"name":"jerss","steam_id":76561199034027802,"connected_time":298000000000,"state":"active","ping":97},{"user_id":29,"name":"depeche","steam_id":76561199497603020,"connected_time":1340000000000,"state":"active","ping":45},{"user_id":50,"name":"Starkiller","steam_id":76561198101643120,"connected_time":243000000000,"state":"active","ping":85},{"user_id":31,"name":"stargaze","steam_id":76561198103614972,"connected_time":1251000000000,"state":"active","ping":51},{"user_id":43,"name":"MyHeadHz","steam_id":76561198090654531,"connected_time":701000000000,"state":"active","ping":84},{"user_id":46,"name":"Jack from Jack in The Box","steam_id":76561199083594971,"connected_time":526000000000,"state":"active","ping":49},{"user_id":47,"name":"beto_charly95","steam_id":76561198147754039,"connected_time":520000000000,"state":"active","ping":66},{"user_id":35,"name":"will (vqinet)","steam_id":76561199055929199,"connected_time":1146000000000,"state":"active","ping":63},{"user_id":41,"name":"Chilihuahua","steam_id":76561198004929152,"connected_time":968000000000,"state":"active","ping":72},{"user_id":37,"name":"rad killl raccoon","steam_id":76561198980975595,"connected_time":1137000000000,"state":"active","ping":90},{"user_id":38,"name":"Caker1234","steam_id":76561198871989710,"connected_time":1085000000000,"state":"active","ping":59},{"user_id":49,"name":"mrthugpug1732","steam_id":76561198881200768,"connected_time":292000000000,"state":"active","ping":56},{"user_id":51,"name":"Silvermace","steam_id":76561198090696843,"connected_time":241000000000,"state":"active","ping":44},{"user_id":42,"name":"potato_games","steam_id":76561199120708182,"connected_time":870000000000,"state":"active","ping":72}]},{"server_id":25,"name":"Uncletopia | Los Angeles | 4 | Stopwatch","name_short":"lax-4","host":"lax-1.us.uncletopia.com","port":27045,"enabled":true,"region":"us-west","cc":"us","latitude":33.94279,"longitude":-118.41004,"reserved":0,"last_update":"0001-01-01T00:00:00Z","name_a2s":"Uncletopia | Los Angeles | 4 | Stopwatch","protocol":17,"map":"koth_highpass","folder":"tf","game":"Team Fortress","app_id":440,"player_count":0,"max_players":24,"Bots":0,"server_type":"Dedicated","server_os":"Linux","password":true,"vac":true,"version":"7961495","steam_id":85568392924510199,"keywords":["cp","nocrits","nodmgspread","uncletopia"],"game_id":440,"stv_port":27046,"stv_name":"Uncletopia | Los Angeles | 4 | Stopwatch | STV","players":null},{"server_id":11,"name":"Uncletopia | London | 1 | All Maps","name_short":"lon-1","host":"lon-1.uk.uncletopia.com","port":27015,"enabled":true,"region":"eu","cc":"gb","latitude":51.509865,"longitude":-0.118092,"reserved":0,"last_update":"0001-01-01T00:00:00Z","name_a2s":"Uncletopia | London | 1 | All Maps","protocol":17,"map":"koth_viaduct","folder":"tf","game":"Team Fortress","app_id":440,"player_count":19,"max_players":24,"Bots":0,"server_type":"Dedicated","server_os":"Linux","password":true,"vac":true,"version":"7961495","steam_id":85568392924367362,"keywords":["cp","nocrits","nodmgspread","uncletopia"],"game_id":440,"stv_port":27016,"stv_name":"Uncletopia | London | 1 | All Maps | STV","players":[{"user_id":944,"name":"Penis Contortionist","steam_id":76561198073663784,"connected_time":831000000000,"state":"active","ping":35},{"user_id":947,"name":"ouroya","steam_id":76561198269138985,"connected_time":524000000000,"state":"active","ping":125},{"user_id":941,"name":"BreadBox","steam_id":76561198086399953,"connected_time":915000000000,"state":"active","ping":75},{"user_id":953,"name":"Nova_JB","steam_id":76561198126865030,"connected_time":117000000000,"state":"active","ping":71},{"user_id":896,"name":"Sinnamonsters","steam_id":76561198423422354,"connected_time":5318000000000,"state":"active","ping":137},{"user_id":949,"name":"Grumble","steam_id":76561198053880090,"connected_time":453000000000,"state":"active","ping":87},{"user_id":925,"name":"jjkun786","steam_id":76561199438517484,"connected_time":1569000000000,"state":"active","ping":78},{"user_id":950,"name":"Tattletails","steam_id":76561198055690341,"connected_time":356000000000,"state":"active","ping":58},{"user_id":911,"name":"pirin√ß sava≈ü√ßƒ±sƒ±","steam_id":76561198305854178,"connected_time":2830000000000,"state":"active","ping":78},{"user_id":931,"name":"noseb","steam_id":76561199480942903,"connected_time":1294000000000,"state":"active","ping":77},{"user_id":923,"name":"Wild Meep","steam_id":76561198199271438,"connected_time":1867000000000,"state":"active","ping":135},{"user_id":951,"name":"loko","steam_id":76561198258675383,"connected_time":338000000000,"state":"active","ping":74},{"user_id":928,"name":"peruna","steam_id":76561198000721196,"connected_time":1523000000000,"state":"active","ping":83},{"user_id":952,"name":"God Emperor of Mankind","steam_id":76561198300869935,"connected_time":139000000000,"state":"active","ping":53},{"user_id":946,"name":"Zedifo","steam_id":76561198044032070,"connected_time":703000000000,"state":"active","ping":46},{"user_id":934,"name":"Psyche","steam_id":76561198091662001,"connected_time":1181000000000,"state":"active","ping":62},{"user_id":935,"name":"Habimbi","steam_id":76561198047271252,"connected_time":1178000000000,"state":"active","ping":67},{"user_id":939,"name":"Qdarks","steam_id":76561198013391340,"connected_time":996000000000,"state":"active","ping":140},{"user_id":940,"name":"Engie's best friend","steam_id":76561197961707932,"connected_time":984000000000,"state":"active","ping":59}]},{"server_id":114,"name":"Uncletopia | London | 2 | All Maps","name_short":"lon-2","host":"lon-1.uk.uncletopia.com","port":27025,"enabled":true,"region":"eu","cc":"gb","latitude":51.509865,"longitude":-0.118092,"reserved":0,"last_update":"0001-01-01T00:00:00Z","name_a2s":"Uncletopia | London | 2 | All Maps","protocol":17,"map":"pl_upward","folder":"tf","game":"Team Fortress","app_id":440,"player_count":0,"max_players":24,"Bots":0,"server_type":"Dedicated","server_os":"Linux","password":true,"vac":true,"version":"7961495","steam_id":85568392924470941,"keywords":["nocrits","nodmgspread","payload","uncletopia"],"game_id":440,"stv_port":27026,"stv_name":"Uncletopia | London | 2 | All Maps | STV","players":null},{"server_id":320,"name":"Uncletopia | London | 3 | All Maps","name_short":"lon-3","host":"lon-1.uk.uncletopia.com","port":27035,"enabled":true,"region":"eu","cc":"gb","latitude":51.509865,"longitude":-0.118092,"reserved":0,"last_update":"0001-01-01T00:00:00Z","name_a2s":"Uncletopia | London | 3 | All Maps","protocol":17,"map":"koth_cascade","folder":"tf","game":"Team Fortress","app_id":440,"player_count":0,"max_players":24,"Bots":0,"server_type":"Dedicated","server_os":"Linux","password":true,"vac":true,"version":"7961495","steam_id":85568392924510192,"keywords":["cp","nocrits","nodmgspread","uncletopia"],"game_id":440,"stv_port":27036,"stv_name":"Uncletopia | London | 3 | All Maps | STV","players":null},{"server_id":321,"name":"Uncletopia | London | 4 | All Maps","name_short":"lon-4","host":"lon-1.uk.uncletopia.com","port":27045,"enabled":true,"region":"eu","cc":"gb","latitude":51.509865,"longitude":-0.118092,"reserved":0,"last_update":"0001-01-01T00:00:00Z","name_a2s":"Uncletopia | London | 4 | All Maps","protocol":17,"map":"koth_badlands","folder":"tf","game":"Team Fortress","app_id":440,"player_count":0,"max_players":24,"Bots":0,"server_type":"Dedicated","server_os":"Linux","password":true,"vac":true,"version":"7961495","steam_id":85568392924510193,"keywords":["cp","nocrits","nodmgspread","uncletopia"],"game_id":440,"stv_port":27046,"stv_name":"Uncletopia | London | 4 | All Maps | STV","players":null},{"server_id":21,"name":"Uncletopia | London | 5 | All Maps","name_short":"lon-5","host":"lon-1.uk.uncletopia.com","port":27055,"enabled":true,"region":"eu","cc":"gb","latitude":51.509865,"longitude":-0.118092,"reserved":0,"last_update":"0001-01-01T00:00:00Z","name_a2s":"Uncletopia | London | 5 | All Maps","protocol":17,"map":"koth_lakeside_final","folder":"tf","game":"Team Fortress","app_id":440,"player_count":0,"max_players":24,"Bots":0,"server_type":"Dedicated","server_os":"Linux","password":true,"vac":true,"version":"7961495","steam_id":85568392924742829,"keywords":["cp","nocrits","nodmgspread","uncletopia"],"game_id":440,"stv_port":27056,"stv_name":"Uncletopia | London | 5 | All Maps | STV","players":null},{"server_id":22,"name":"Uncletopia | London | 6 | All Maps","name_short":"lon-6","host":"lon-1.uk.uncletopia.com","port":27065,"enabled":true,"region":"eu","cc":"gb","latitude":51.509865,"longitude":-0.118092,"reserved":0,"last_update":"0001-01-01T00:00:00Z","name_a2s":"Uncletopia | London | 6 | All Maps","protocol":17,"map":"cp_steel","folder":"tf","game":"Team Fortress","app_id":440,"player_count":3,"max_players":24,"Bots":0,"server_type":"Dedicated","server_os":"Linux","password":true,"vac":true,"version":"7961495","steam_id":85568392924742830,"keywords":["cp","nocrits","nodmgspread","uncletopia"],"game_id":440,"stv_port":27066,"stv_name":"Uncletopia | London | 6 | All Maps | STV","players":[{"user_id":610,"name":"Marcus","steam_id":76561198205027963,"connected_time":2008000000000,"state":"active","ping":59},{"user_id":596,"name":"pezza","steam_id":76561197995173247,"connected_time":3379000000000,"state":"active","ping":56},{"user_id":513,"name":"Glitch","steam_id":76561198081895538,"connected_time":9866000000000,"state":"active","ping":51}]},{"server_id":40,"name":"Uncletopia | London | 7 | Stopwatch","name_short":"lon-7","host":"lon-1.uk.uncletopia.com","port":27075,"enabled":true,"region":"eu","cc":"gb","latitude":51.509865,"longitude":-0.118092,"reserved":0,"last_update":"0001-01-01T00:00:00Z","name_a2s":"Uncletopia | London | 7 | Stopwatch","protocol":17,"map":"workshop/pl_barnblitz_pro7.ugc582280235","folder":"tf","game":"Team Fortress","app_id":440,"player_count":0,"max_players":24,"Bots":0,"server_type":"Dedicated","server_os":"Linux","password":true,"vac":true,"version":"7961495","steam_id":85568392924964314,"keywords":["nocrits","nodmgspread","payload","uncletopia"],"game_id":440,"stv_port":27076,"stv_name":"Uncletopia | London | 7 | Stopwatch | STV","players":null},{"server_id":41,"name":"Uncletopia | London | 8 | Community","name_short":"lon-8","host":"lon-1.uk.uncletopia.com","port":27085,"enabled":true,"region":"eu","cc":"gb","latitude":51.509865,"longitude":-0.118092,"reserved":0,"last_update":"0001-01-01T00:00:00Z","name_a2s":"Uncletopia | London | 8 | Community","protocol":17,"map":"workshop/koth_synthetic_rc6a.ugc1549817316","folder":"tf","game":"Team Fortress","app_id":440,"player_count":0,"max_players":24,"Bots":0,"server_type":"Dedicated","server_os":"Linux","password":true,"vac":true,"version":"7961495","steam_id":85568392924964315,"keywords":["cp","nocrits","nodmgspread","uncletopia"],"game_id":440,"stv_port":27086,"stv_name":"Uncletopia | London | 8 | Community | STV","players":null},{"server_id":300,"name":"Uncletopia | Montr√©al | 1 | One Thousand Uncles","name_short":"mtl-1","host":"mtl-1.ca.uncletopia.com","port":27015,"enabled":true,"region":"us-east","cc":"ca","latitude":45.50889,"longitude":-73.56167,"reserved":0,"last_update":"0001-01-01T00:00:00Z","name_a2s":"","protocol":0,"map":"","folder":"","game":"","app_id":0,"player_count":11,"max_players":0,"Bots":0,"server_type":"","server_os":"","password":false,"vac":false,"version":"","steam_id":0,"keywords":null,"game_id":0,"stv_port":0,"stv_name":"","players":[{"user_id":398,"name":"Mom's Spaghetti","steam_id":76561198131338197,"connected_time":2354000000000,"state":"active","ping":67},{"user_id":428,"name":"DogeEatMeat","steam_id":76561199051212534,"connected_time":124000000000,"state":"active","ping":62},{"user_id":424,"name":"Literally Roxy's Wife Tsuyu","steam_id":76561198175421763,"connected_time":1204000000000,"state":"active","ping":75},{"user_id":386,"name":"Brenda Delam","steam_id":76561198006983771,"connected_time":3044000000000,"state":"active","ping":83},{"user_id":430,"name":"ExplosiveGamer21","steam_id":76561198132370955,"connected_time":77000000000,"state":"active","ping":123},{"user_id":425,"name":"Cacoona","steam_id":76561198272738226,"connected_time":1038000000000,"state":"active","ping":51},{"user_id":404,"name":"barth","steam_id":76561198292896412,"connected_time":1794000000000,"state":"active","ping":70},{"user_id":376,"name":"smugleafthesmug","steam_id":76561198844190634,"connected_time":4107000000000,"state":"active","ping":78},{"user_id":427,"name":"e2_e8","steam_id":76561198025032556,"connected_time":776000000000,"state":"active","ping":55},{"user_id":391,"name":"Breezy","steam_id":76561198046903890,"connected_time":2913000000000,"state":"active","ping":51},{"user_id":429,"name":"ChoiBoi9001","steam_id":76561199401392691,"connected_time":117000000000,"state":"active","ping":54}]},{"server_id":301,"name":"Uncletopia | Montr√©al | 2 | One Thousand Uncles","name_short":"mtl-2","host":"mtl-1.ca.uncletopia.com","port":27025,"enabled":true,"region":"us-east","cc":"ca","latitude":45.50889,"longitude":-73.56167,"reserved":0,"last_update":"0001-01-01T00:00:00Z","name_a2s":"","protocol":0,"map":"","folder":"","game":"","app_id":0,"player_count":11,"max_players":0,"Bots":0,"server_type":"","server_os":"","password":false,"vac":false,"version":"","steam_id":0,"keywords":null,"game_id":0,"stv_port":0,"stv_name":"","players":[{"user_id":157,"name":"doomed","steam_id":76561198340512594,"connected_time":13385000000000,"state":"active","ping":58},{"user_id":4,"name":"Yep","steam_id":76561198041437251,"connected_time":22310000000000,"state":"active","ping":61},{"user_id":421,"name":"Sleeves","steam_id":76561198842216661,"connected_time":276000000000,"state":"active","ping":69},{"user_id":22,"name":"Diplomatic Dentist","steam_id":76561198203304151,"connected_time":22295000000000,"state":"active","ping":85},{"user_id":273,"name":"Ask Nicely For Heals","steam_id":76561198138478907,"connected_time":6547000000000,"state":"active","ping":87},{"user_id":238,"name":"minenice","steam_id":76561198300878163,"connected_time":8894000000000,"state":"active","ping":44},{"user_id":376,"name":"A Disappointment","steam_id":76561198150306783,"connected_time":1966000000000,"state":"active","ping":84},{"user_id":351,"name":"Im Groot","steam_id":76561198294943420,"connected_time":2919000000000,"state":"active","ping":81},{"user_id":422,"name":"Engineer","steam_id":76561199094795248,"connected_time":12000000000,"state":"spawning","ping":220},{"user_id":402,"name":"giant_dork","steam_id":76561199105606956,"connected_time":1190000000000,"state":"active","ping":71},{"user_id":209,"name":"Ata","steam_id":76561198349085545,"connected_time":10404000000000,"state":"active","ping":112}]},{"server_id":302,"name":"Uncletopia | Montr√©al | 3 | One Thousand Uncles","name_short":"mtl-3","host":"mtl-1.ca.uncletopia.com","port":27035,"enabled":true,"region":"us-east","cc":"ca","latitude":45.50889,"longitude":-73.56167,"reserved":0,"last_update":"0001-01-01T00:00:00Z","name_a2s":"","protocol":0,"map":"","folder":"","game":"","app_id":0,"player_count":6,"max_players":0,"Bots":0,"server_type":"","server_os":"","password":false,"vac":false,"version":"","steam_id":0,"keywords":null,"game_id":0,"stv_port":0,"stv_name":"","players":[{"user_id":446,"name":"Amber","steam_id":76561198031298701,"connected_time":6491000000000,"state":"active","ping":53},{"user_id":550,"name":"Bronze Age Furvert","steam_id":76561198859118263,"connected_time":457000000000,"state":"active","ping":61},{"user_id":479,"name":"ChozoChorizo","steam_id":76561198272609196,"connected_time":4627000000000,"state":"active","ping":60},{"user_id":480,"name":"sheep","steam_id":76561198172943006,"connected_time":4443000000000,"state":"active","ping":60},{"user_id":481,"name":"Skeptical","steam_id":76561198038261789,"connected_time":4433000000000,"state":"active","ping":115},{"user_id":482,"name":"ODDLOG","steam_id":76561198397624578,"connected_time":4417000000000,"state":"active","ping":68}]},{"server_id":13,"name":"Uncletopia | New York City | 1 | All Maps","name_short":"nyc-1","host":"nyc-1.us.uncletopia.com","port":27015,"enabled":true,"region":"us-east","cc":"us","latitude":40.73061,"longitude":-73.93524,"reserved":0,"last_update":"0001-01-01T00:00:00Z","name_a2s":"Uncletopia | New York City | 1 | All Maps","protocol":17,"map":"pl_pier","folder":"tf","game":"Team Fortress","app_id":440,"player_count":24,"max_players":24,"Bots":0,"server_type":"Dedicated","server_os":"Linux","password":true,"vac":true,"version":"7961495","steam_id":85568392924469993,"keywords":["nocrits","nodmgspread","payload","uncletopia"],"game_id":440,"stv_port":27016,"stv_name":"Uncletopia | New York City | 1 | All Maps | STV","players":[{"user_id":582,"name":"Problem?","steam_id":76561198836105984,"connected_time":45000000000,"state":"spawning","ping":49},{"user_id":516,"name":"ndvr","steam_id":76561199379200102,"connected_time":5984000000000,"state":"active","ping":54},{"user_id":576,"name":"Doxycycline hyclate devourer","steam_id":76561198352997734,"connected_time":892000000000,"state":"active","ping":57},{"user_id":526,"name":"High School Nudical","steam_id":76561198172120615,"connected_time":5399000000000,"state":"active","ping":32},{"user_id":572,"name":"Person","steam_id":76561198093244204,"connected_time":1569000000000,"state":"active","ping":65},{"user_id":559,"name":"Terror-Billy #SaveTF2","steam_id":76561198328141870,"connected_time":2291000000000,"state":"active","ping":67},{"user_id":563,"name":"DiscoTraveler","steam_id":76561199240168088,"connected_time":1901000000000,"state":"active","ping":49},{"user_id":541,"name":"wise","steam_id":76561198030066204,"connected_time":4316000000000,"state":"active","ping":45},{"user_id":553,"name":"too deep for most to understand","steam_id":76561198022636144,"connected_time":3763000000000,"state":"active","ping":43},{"user_id":578,"name":"dirk's dirty dingleberry dining","steam_id":76561197972601902,"connected_time":729000000000,"state":"active","ping":105},{"user_id":547,"name":"MondoDong","steam_id":76561197991400109,"connected_time":4251000000000,"state":"active","ping":48},{"user_id":535,"name":"Jax$","steam_id":76561198025717379,"connected_time":5048000000000,"state":"active","ping":71},{"user_id":577,"name":"Rodriguez1219","steam_id":76561198797915802,"connected_time":849000000000,"state":"active","ping":59},{"user_id":554,"name":"wool","steam_id":76561198869689933,"connected_time":3356000000000,"state":"active","ping":60},{"user_id":557,"name":"It's FoolMoon","steam_id":76561198153344375,"connected_time":3013000000000,"state":"active","ping":37},{"user_id":536,"name":"JC00K","steam_id":76561198000167107,"connected_time":4795000000000,"state":"active","ping":57},{"user_id":579,"name":"Butters495","steam_id":76561197998689042,"connected_time":694000000000,"state":"active","ping":72},{"user_id":436,"name":"Scoob","steam_id":76561198078633301,"connected_time":11832000000000,"state":"active","ping":49},{"user_id":580,"name":"noided","steam_id":76561198353924837,"connected_time":85000000000,"state":"active","ping":63},{"user_id":518,"name":"Bee_Pirate","steam_id":76561199000599111,"connected_time":5968000000000,"state":"active","ping":57},{"user_id":581,"name":"CosmicKlown","steam_id":76561198158386235,"connected_time":60000000000,"state":"spawning","ping":54},{"user_id":570,"name":"space man","steam_id":76561198066333670,"connected_time":1633000000000,"state":"active","ping":57},{"user_id":574,"name":"y!","steam_id":76561199342162423,"connected_time":1204000000000,"state":"active","ping":69},{"user_id":556,"name":"Lil Hannibal Lecter","steam_id":76561198065808386,"connected_time":3028000000000,"state":"active","ping":77}]},{"server_id":14,"name":"Uncletopia | New York City | 2 | All Maps","name_short":"nyc-2","host":"nyc-1.us.uncletopia.com","port":27025,"enabled":true,"region":"us-east","cc":"us","latitude":40.73061,"longitude":-73.93524,"reserved":0,"last_update":"0001-01-01T00:00:00Z","name_a2s":"Uncletopia | New York City | 2 | All Maps","protocol":17,"map":"koth_lakeside_final","folder":"tf","game":"Team Fortress","app_id":440,"player_count":24,"max_players":24,"Bots":0,"server_type":"Dedicated","server_os":"Linux","password":true,"vac":true,"version":"7961495","steam_id":85568392924469994,"keywords":["cp","nocrits","nodmgspread","uncletopia"],"game_id":440,"stv_port":27026,"stv_name":"Uncletopia | New York City | 2 | All Maps | STV","players":[{"user_id":834,"name":"Jus71n","steam_id":76561198133487430,"connected_time":1420000000000,"state":"active","ping":57},{"user_id":813,"name":"Two-Teste Tommy","steam_id":76561198064308936,"connected_time":2690000000000,"state":"active","ping":57},{"user_id":844,"name":"FISH PLATINUM","steam_id":76561198443518811,"connected_time":227000000000,"state":"active","ping":132},{"user_id":819,"name":"noisyninjaboy","steam_id":76561198173452229,"connected_time":2356000000000,"state":"active","ping":111},{"user_id":807,"name":"hooley","steam_id":76561198041923067,"connected_time":3125000000000,"state":"active","ping":49},{"user_id":784,"name":"Messed","steam_id":76561198331239994,"connected_time":4829000000000,"state":"active","ping":52},{"user_id":839,"name":"rei ayanami plush (real)","steam_id":76561198401646789,"connected_time":1333000000000,"state":"active","ping":61},{"user_id":822,"name":"Pixeled","steam_id":76561198088917077,"connected_time":2276000000000,"state":"active","ping":85},{"user_id":823,"name":"Blue","steam_id":76561199093604072,"connected_time":2273000000000,"state":"active","ping":73},{"user_id":831,"name":"zero two","steam_id":76561199058650117,"connected_time":1752000000000,"state":"active","ping":117},{"user_id":824,"name":"Scorp","steam_id":76561198298708340,"connected_time":2256000000000,"state":"active","ping":58},{"user_id":845,"name":"Mufalito","steam_id":76561198951889482,"connected_time":108000000000,"state":"active","ping":113},{"user_id":802,"name":"MemoxJota (F2P)","steam_id":76561198862661338,"connected_time":3291000000000,"state":"active","ping":122},{"user_id":804,"name":"Goose of Wisdom","steam_id":76561198233465044,"connected_time":3196000000000,"state":"active","ping":86},{"user_id":847,"name":"toastman","steam_id":76561198207073088,"connected_time":77000000000,"state":"active","ping":79},{"user_id":848,"name":"Cold shoulder","steam_id":76561198453824178,"connected_time":3000000000,"state":"spawning","ping":119},{"user_id":825,"name":"KouhaiKiller","steam_id":76561198291276038,"connected_time":2253000000000,"state":"active","ping":84},{"user_id":837,"name":"hopdon","steam_id":76561198051616613,"connected_time":1392000000000,"state":"active","ping":94},{"user_id":846,"name":"Wique","steam_id":76561198071217597,"connected_time":107000000000,"state":"active","ping":69},{"user_id":836,"name":"ÀóÀèÀãNima¬¥ÀéÀó","steam_id":76561198102045762,"connected_time":1404000000000,"state":"active","ping":74},{"user_id":793,"name":"UNIT 220","steam_id":76561198042243497,"connected_time":3806000000000,"state":"active","ping":70},{"user_id":814,"name":"CoziestGlobe","steam_id":76561198199237735,"connected_time":2655000000000,"state":"active","ping":74},{"user_id":841,"name":"PaRogeko","steam_id":76561198069171954,"connected_time":1151000000000,"state":"active","ping":65},{"user_id":562,"name":"zpalmtree","steam_id":76561198134307620,"connected_time":16638000000000,"state":"active","ping":68}]},{"server_id":15,"name":"Uncletopia | New York City | 3 | Stopwatch","name_short":"nyc-3","host":"nyc-1.us.uncletopia.com","port":27035,"enabled":true,"region":"us-east","cc":"us","latitude":40.73061,"longitude":-73.93524,"reserved":0,"last_update":"0001-01-01T00:00:00Z","name_a2s":"Uncletopia | New York City | 3 | Stopwatch","protocol":17,"map":"koth_lakeside_final","folder":"tf","game":"Team Fortress","app_id":440,"player_count":0,"max_players":24,"Bots":0,"server_type":"Dedicated","server_os":"Linux","password":true,"vac":true,"version":"7961495","steam_id":85568392924742820,"keywords":["cp","nocrits","nodmgspread","uncletopia"],"game_id":440,"stv_port":27036,"stv_name":"Uncletopia | New York City | 3 | Stopwatch | STV","players":null},{"server_id":16,"name":"Uncletopia | New York City | 4 | Community","name_short":"nyc-4","host":"nyc-1.us.uncletopia.com","port":27045,"enabled":true,"region":"us-east","cc":"us","latitude":40.73061,"longitude":-73.93524,"reserved":0,"last_update":"0001-01-01T00:00:00Z","name_a2s":"Uncletopia | New York City | 4 | Community","protocol":17,"map":"workshop/pl_cactuscanyon_redux_final2.ugc2579644293","folder":"tf","game":"Team Fortress","app_id":440,"player_count":24,"max_players":24,"Bots":0,"server_type":"Dedicated","server_os":"Linux","password":true,"vac":true,"version":"7961495","steam_id":85568392924742821,"keywords":["nocrits","nodmgspread","payload","uncletopia"],"game_id":440,"stv_port":27046,"stv_name":"Uncletopia | New York City | 4 | Community | STV","players":[{"user_id":460,"name":"hamilton","steam_id":76561198034096096,"connected_time":4083000000000,"state":"active","ping":57},{"user_id":467,"name":"a little guy","steam_id":76561198085888959,"connected_time":3748000000000,"state":"active","ping":59},{"user_id":508,"name":"snow","steam_id":76561198018184698,"connected_time":333000000000,"state":"active","ping":57},{"user_id":462,"name":"Arkh","steam_id":76561198862003669,"connected_time":3944000000000,"state":"active","ping":59},{"user_id":518,"name":"ThiccNicc","steam_id":76561198236828842,"connected_time":106000000000,"state":"active","ping":59},{"user_id":503,"name":"hobojoemama","steam_id":76561198108345568,"connected_time":752000000000,"state":"active","ping":75},{"user_id":509,"name":"VisibleForce","steam_id":76561198104178938,"connected_time":319000000000,"state":"active","ping":64},{"user_id":504,"name":"Mr. Bitches","steam_id":76561198011514727,"connected_time":740000000000,"state":"active","ping":82},{"user_id":510,"name":"melon soda","steam_id":76561198066748230,"connected_time":300000000000,"state":"active","ping":54},{"user_id":483,"name":"Rat King (Deposed)","steam_id":76561198271907916,"connected_time":2574000000000,"state":"active","ping":46},{"user_id":512,"name":"Crystall","steam_id":76561198346607700,"connected_time":273000000000,"state":"active","ping":55},{"user_id":513,"name":"Captain Chicken","steam_id":76561198047767530,"connected_time":229000000000,"state":"active","ping":115},{"user_id":502,"name":"Fields","steam_id":76561197985545953,"connected_time":902000000000,"state":"active","ping":91},{"user_id":515,"name":"AzuriteFoxx","steam_id":76561198998093240,"connected_time":192000000000,"state":"active","ping":60},{"user_id":469,"name":"aversa","steam_id":76561198840460101,"connected_time":3606000000000,"state":"active","ping":46},{"user_id":516,"name":"[SLAG]redgunnit","steam_id":76561198058053644,"connected_time":186000000000,"state":"active","ping":82},{"user_id":497,"name":"alphanerd2","steam_id":76561198029109358,"connected_time":1172000000000,"state":"active","ping":61},{"user_id":484,"name":"ej","steam_id":76561198059281026,"connected_time":2530000000000,"state":"active","ping":124},{"user_id":489,"name":"Neophyte","steam_id":76561198027183394,"connected_time":1980000000000,"state":"active","ping":112},{"user_id":519,"name":"A Rope, for big pits","steam_id":76561198068044782,"connected_time":105000000000,"state":"active","ping":59},{"user_id":480,"name":"roythecyclops","steam_id":76561198055295759,"connected_time":2656000000000,"state":"active","ping":65},{"user_id":520,"name":"defcon","steam_id":76561198100656328,"connected_time":94000000000,"state":"active","ping":89},{"user_id":172,"name":"deadpixel","steam_id":76561198150249843,"connected_time":22696000000000,"state":"active","ping":72},{"user_id":486,"name":"Dylan","steam_id":76561198060996590,"connected_time":2480000000000,"state":"active","ping":121}]},{"server_id":142,"name":"Uncletopia | S√£o Paulo | 1 | All Maps","name_short":"sao-1","host":"sao-1.br.uncletopia.com","port":27015,"enabled":true,"region":"sa","cc":"br","latitude":-23.533773,"longitude":-46.62529,"reserved":0,"last_update":"0001-01-01T00:00:00Z","name_a2s":"Uncletopia | S√£o Paulo | 1 | All Maps","protocol":17,"map":"ctf_2fort","folder":"tf","game":"Team Fortress","app_id":440,"player_count":0,"max_players":24,"Bots":0,"server_type":"Dedicated","server_os":"Linux","password":true,"vac":true,"version":"7961495","steam_id":85568392924469996,"keywords":["ctf","nocrits","nodmgspread","uncletopia"],"game_id":440,"stv_port":27016,"stv_name":"Uncletopia | S√£o Paulo | 1 | All Maps | STV","players":null},{"server_id":143,"name":"Uncletopia | S√£o Paulo | 2 | Community","name_short":"sao-2","host":"sao-2.br.uncletopia.com","port":27015,"enabled":true,"region":"sa","cc":"br","latitude":-23.533773,"longitude":-46.62529,"reserved":0,"last_update":"0001-01-01T00:00:00Z","name_a2s":"Uncletopia | S√£o Paulo | 2 | Community","protocol":17,"map":"workshop/koth_product_final.ugc454272353","folder":"tf","game":"Team Fortress","app_id":440,"player_count":0,"max_players":24,"Bots":0,"server_type":"Dedicated","server_os":"Linux","password":true,"vac":true,"version":"7961495","steam_id":85568392924485349,"keywords":["cp","nocrits","nodmgspread","uncletopia"],"game_id":440,"stv_port":27016,"stv_name":"Uncletopia | S√£o Paulo | 2 | Community | STV","players":null},{"server_id":7,"name":"Uncletopia | Seattle | 1 | All Maps","name_short":"sea-1","host":"sea-1.us.uncletopia.com","port":27015,"enabled":true,"region":"us-west","cc":"us","latitude":47.608013,"longitude":-122.33517,"reserved":0,"last_update":"0001-01-01T00:00:00Z","name_a2s":"Uncletopia | Seattle | 1 | All Maps","protocol":17,"map":"koth_lakeside_final","folder":"tf","game":"Team Fortress","app_id":440,"player_count":24,"max_players":24,"Bots":0,"server_type":"Dedicated","server_os":"Linux","password":true,"vac":true,"version":"7961495","steam_id":85568392924469997,"keywords":["cp","nocrits","nodmgspread","uncletopia"],"game_id":440,"stv_port":27016,"stv_name":"Uncletopia | Seattle | 1 | All Maps | STV","players":[{"user_id":641,"name":"Neb","steam_id":76561198883473473,"connected_time":362000000000,"state":"active","ping":43},{"user_id":639,"name":"hazel","steam_id":76561198037292232,"connected_time":671000000000,"state":"active","ping":119},{"user_id":612,"name":"Spectre","steam_id":76561198037535169,"connected_time":2860000000000,"state":"active","ping":63},{"user_id":583,"name":"nolove","steam_id":76561198274550638,"connected_time":5034000000000,"state":"active","ping":112},{"user_id":606,"name":"jayeskae","steam_id":76561198144220801,"connected_time":2932000000000,"state":"active","ping":79},{"user_id":595,"name":"Ayayayayayahuasca","steam_id":76561199002906056,"connected_time":3905000000000,"state":"active","ping":49},{"user_id":566,"name":"mub","steam_id":76561197961943948,"connected_time":6538000000000,"state":"active","ping":45},{"user_id":622,"name":"Gm_Trash","steam_id":76561199445091548,"connected_time":2508000000000,"state":"active","ping":59},{"user_id":596,"name":"Steeb","steam_id":76561198008058593,"connected_time":3864000000000,"state":"active","ping":75},{"user_id":597,"name":"SkobeBeef","steam_id":76561198078638948,"connected_time":3827000000000,"state":"active","ping":60},{"user_id":640,"name":"oil","steam_id":76561198099980149,"connected_time":660000000000,"state":"active","ping":76},{"user_id":623,"name":"RexCreeper456","steam_id":76561199319578396,"connected_time":2436000000000,"state":"active","ping":103},{"user_id":642,"name":"ThePriceIsRice","steam_id":76561198079069543,"connected_time":348000000000,"state":"active","ping":60},{"user_id":613,"name":"framp down","steam_id":76561198006316527,"connected_time":2783000000000,"state":"active","ping":86},{"user_id":624,"name":"Grunt","steam_id":76561198200758903,"connected_time":2394000000000,"state":"active","ping":75},{"user_id":638,"name":"BOMB DETONATION IN 2","steam_id":76561198011675372,"connected_time":952000000000,"state":"active","ping":50},{"user_id":592,"name":"keithykeithers","steam_id":76561197995552615,"connected_time":4103000000000,"state":"active","ping":47},{"user_id":582,"name":"smeasly","steam_id":76561198028718812,"connected_time":5039000000000,"state":"active","ping":40},{"user_id":607,"name":"DubiousDodo","steam_id":76561198828172686,"connected_time":2928000000000,"state":"active","ping":76},{"user_id":548,"name":"Karg","steam_id":76561198091387866,"connected_time":8247000000000,"state":"active","ping":64},{"user_id":631,"name":"‰πÉ„Ñ•„Ññ„Ññ·ó™„Ñö„Ñí‰πáÂçÇÂ∞∫","steam_id":76561198206490352,"connected_time":1645000000000,"state":"active","ping":74},{"user_id":636,"name":"Wendigo","steam_id":76561197994528974,"connected_time":1131000000000,"state":"active","ping":75},{"user_id":637,"name":"(K.A.T) Iris","steam_id":76561199247095754,"connected_time":1128000000000,"state":"active","ping":91},{"user_id":603,"name":"card carrying member","steam_id":76561198043558709,"connected_time":3588000000000,"state":"active","ping":46}]},{"server_id":119,"name":"Uncletopia | Seattle | 2 | All Maps","name_short":"sea-2","host":"sea-1.us.uncletopia.com","port":27025,"enabled":true,"region":"us-west","cc":"us","latitude":47.608013,"longitude":-122.33517,"reserved":0,"last_update":"0001-01-01T00:00:00Z","name_a2s":"Uncletopia | Seattle | 2 | All Maps","protocol":17,"map":"pl_pier","folder":"tf","game":"Team Fortress","app_id":440,"player_count":24,"max_players":24,"Bots":0,"server_type":"Dedicated","server_os":"Linux","password":true,"vac":true,"version":"7961495","steam_id":85568392924469998,"keywords":["nocrits","nodmgspread","payload","uncletopia"],"game_id":440,"stv_port":27026,"stv_name":"Uncletopia | Seattle | 2 | All Maps | STV","players":[{"user_id":455,"name":"Amateur Glaswegian","steam_id":76561198030851956,"connected_time":592000000000,"state":"active","ping":50},{"user_id":462,"name":"type \"bad med\" to kick","steam_id":76561198076402476,"connected_time":243000000000,"state":"active","ping":73},{"user_id":456,"name":"totally not a pile of beans","steam_id":76561198119851931,"connected_time":542000000000,"state":"active","ping":122},{"user_id":441,"name":"greens beans","steam_id":76561198153611491,"connected_time":2651000000000,"state":"active","ping":39},{"user_id":457,"name":"[NAMELESS]SUSSYSURFER56","steam_id":76561198361547224,"connected_time":525000000000,"state":"active","ping":34},{"user_id":407,"name":"A Can of AriZona Green Tea","steam_id":76561198062481133,"connected_time":6263000000000,"state":"active","ping":76},{"user_id":433,"name":"MrYadaization","steam_id":76561198050770818,"connected_time":3274000000000,"state":"active","ping":55},{"user_id":439,"name":"t","steam_id":76561198175988929,"connected_time":2869000000000,"state":"active","ping":86},{"user_id":388,"name":"ilun","steam_id":76561198042913843,"connected_time":7742000000000,"state":"active","ping":50},{"user_id":431,"name":"Birby","steam_id":76561198884009768,"connected_time":3314000000000,"state":"active","ping":62},{"user_id":449,"name":"Hindmost","steam_id":76561199081837220,"connected_time":1927000000000,"state":"active","ping":95},{"user_id":351,"name":"Eden","steam_id":76561198081284664,"connected_time":10328000000000,"state":"active","ping":85},{"user_id":391,"name":"PROFESSIONAL KILLSTREAK SHOTGUN","steam_id":76561199488457138,"connected_time":7389000000000,"state":"active","ping":56},{"user_id":454,"name":"Cursed","steam_id":76561199161458959,"connected_time":658000000000,"state":"active","ping":141},{"user_id":458,"name":"Borked","steam_id":76561197984964095,"connected_time":505000000000,"state":"active","ping":75},{"user_id":459,"name":"catfish in a pond","steam_id":76561199482661310,"connected_time":484000000000,"state":"active","ping":48},{"user_id":451,"name":"KitKat","steam_id":76561198191536489,"connected_time":1374000000000,"state":"active","ping":70},{"user_id":415,"name":"prime example of furry L","steam_id":76561198097745857,"connected_time":5207000000000,"state":"active","ping":65},{"user_id":460,"name":"Kamin","steam_id":76561198255299559,"connected_time":455000000000,"state":"active","ping":149},{"user_id":445,"name":"lasky","steam_id":76561198017030029,"connected_time":2515000000000,"state":"active","ping":71},{"user_id":418,"name":"O","steam_id":76561198450073779,"connected_time":4757000000000,"state":"active","ping":49},{"user_id":461,"name":"Macho Man","steam_id":76561198062247260,"connected_time":446000000000,"state":"active","ping":70},{"user_id":448,"name":"Portal2Player","steam_id":76561198062870114,"connected_time":1931000000000,"state":"active","ping":149},{"user_id":375,"name":"a cat plushie","steam_id":76561198080046542,"connected_time":8307000000000,"state":"active","ping":48}]},{"server_id":406,"name":"Uncletopia | Seattle | 3 | Stopwatch","name_short":"sea-3","host":"sea-1.us.uncletopia.com","port":27035,"enabled":true,"region":"us-west","cc":"us","latitude":47.608013,"longitude":-122.33517,"reserved":0,"last_update":"0001-01-01T00:00:00Z","name_a2s":"Uncletopia | Seattle | 3 | Stopwatch","protocol":17,"map":"workshop/koth_ramjam_rc1.ugc459778887","folder":"tf","game":"Team Fortress","app_id":440,"player_count":2,"max_players":24,"Bots":0,"server_type":"Dedicated","server_os":"Linux","password":true,"vac":true,"version":"7961495","steam_id":85568392924515217,"keywords":["cp","nocrits","nodmgspread","uncletopia"],"game_id":440,"stv_port":27036,"stv_name":"Uncletopia | Seattle | 3 | Stopwatch | STV","players":[{"user_id":17,"name":"basement","steam_id":76561198936592005,"connected_time":130000000000,"state":"active","ping":61},{"user_id":18,"name":"jocsanbruh","steam_id":76561198227338548,"connected_time":66000000000,"state":"active","ping":30}]},{"server_id":17,"name":"Uncletopia | San Francisco | 1 | All Maps","name_short":"sfo-1","host":"sfo-1.us.uncletopia.com","port":27015,"enabled":true,"region":"us-west","cc":"us","latitude":37.77397,"longitude":-122.4313,"reserved":0,"last_update":"0001-01-01T00:00:00Z","name_a2s":"Uncletopia | San Francisco | 1 | All Maps","protocol":17,"map":"cp_dustbowl","folder":"tf","game":"Team Fortress","app_id":440,"player_count":24,"max_players":24,"Bots":0,"server_type":"Dedicated","server_os":"Linux","password":true,"vac":true,"version":"7961495","steam_id":85568392924469999,"keywords":["cp","nocrits","nodmgspread","uncletopia"],"game_id":440,"stv_port":27016,"stv_name":"Uncletopia | San Francisco | 1 | All Maps | STV","players":[{"user_id":485,"name":"Momazos","steam_id":76561198346410032,"connected_time":919000000000,"state":"active","ping":61},{"user_id":459,"name":"SHHHHHkebab","steam_id":76561198001611431,"connected_time":2688000000000,"state":"active","ping":114},{"user_id":500,"name":"aisu","steam_id":76561198043768507,"connected_time":190000000000,"state":"active","ping":95},{"user_id":471,"name":"Frostyfoods257","steam_id":76561198332197599,"connected_time":1468000000000,"state":"active","ping":54},{"user_id":460,"name":"RandomGuy","steam_id":76561198000897889,"connected_time":2687000000000,"state":"active","ping":56},{"user_id":479,"name":"Ralph Kramden (Slim Charles)","steam_id":76561197981687895,"connected_time":1153000000000,"state":"active","ping":64},{"user_id":449,"name":"Flinkerdoodle","steam_id":76561198052111706,"connected_time":3750000000000,"state":"active","ping":85},{"user_id":468,"name":"Smelly","steam_id":76561198380507370,"connected_time":2087000000000,"state":"active","ping":84},{"user_id":480,"name":"Orange","steam_id":76561198128077361,"connected_time":1137000000000,"state":"active","ping":115},{"user_id":484,"name":"Ash","steam_id":76561199160949493,"connected_time":1082000000000,"state":"active","ping":70},{"user_id":481,"name":"HungryHippo","steam_id":76561198047615363,"connected_time":1136000000000,"state":"active","ping":59},{"user_id":495,"name":"DrDallas","steam_id":76561198267631716,"connected_time":488000000000,"state":"active","ping":64},{"user_id":486,"name":"Firedust19","steam_id":76561198153238631,"connected_time":857000000000,"state":"active","ping":79},{"user_id":434,"name":"Caspian","steam_id":76561199041466962,"connected_time":4990000000000,"state":"active","ping":49},{"user_id":487,"name":"Wyvern","steam_id":76561198392331213,"connected_time":848000000000,"state":"active","ping":71},{"user_id":413,"name":"Van Tastic","steam_id":76561198063855523,"connected_time":6489000000000,"state":"active","ping":81},{"user_id":493,"name":"legalize nuclear bombs","steam_id":76561198418172095,"connected_time":715000000000,"state":"active","ping":89},{"user_id":497,"name":"stinky wink","steam_id":76561199075375089,"connected_time":430000000000,"state":"active","ping":74},{"user_id":489,"name":"Epifiny","steam_id":76561198027958086,"connected_time":801000000000,"state":"active","ping":118},{"user_id":458,"name":"Irritated Duck","steam_id":76561198247792076,"connected_time":3266000000000,"state":"active","ping":81},{"user_id":496,"name":"Professional Virgin","steam_id":76561199074327402,"connected_time":452000000000,"state":"active","ping":106},{"user_id":454,"name":"C^a^L","steam_id":76561198241124222,"connected_time":3656000000000,"state":"active","ping":48},{"user_id":492,"name":"Wordly Eggplant","steam_id":76561198166704083,"connected_time":741000000000,"state":"active","ping":85},{"user_id":445,"name":"PizzaMuncher89","steam_id":76561199121856753,"connected_time":4458000000000,"state":"active","ping":90}]},{"server_id":18,"name":"Uncletopia | San Francisco | 2 | All Maps","name_short":"sfo-2","host":"sfo-1.us.uncletopia.com","port":27025,"enabled":true,"region":"us-west","cc":"us","latitude":37.77397,"longitude":-122.4313,"reserved":0,"last_update":"0001-01-01T00:00:00Z","name_a2s":"Uncletopia | San Francisco | 2 | All Maps","protocol":17,"map":"koth_cascade","folder":"tf","game":"Team Fortress","app_id":440,"player_count":0,"max_players":24,"Bots":0,"server_type":"Dedicated","server_os":"Linux","password":true,"vac":true,"version":"7961495","steam_id":85568392924470000,"keywords":["cp","nocrits","nodmgspread","uncletopia"],"game_id":440,"stv_port":27026,"stv_name":"Uncletopia | San Francisco | 2 | All Maps | STV","players":null},{"server_id":19,"name":"Uncletopia | San Francisco | 3 | Stopwatch","name_short":"sfo-3","host":"sfo-1.us.uncletopia.com","port":27035,"enabled":true,"region":"us-west","cc":"us","latitude":37.77397,"longitude":-122.4313,"reserved":0,"last_update":"0001-01-01T00:00:00Z","name_a2s":"Uncletopia | San Francisco | 3 | Stopwatch","protocol":17,"map":"workshop/pl_badwater_pro_v12.ugc2142942074","folder":"tf","game":"Team Fortress","app_id":440,"player_count":0,"max_players":24,"Bots":0,"server_type":"Dedicated","server_os":"Linux","password":true,"vac":true,"version":"7961495","steam_id":85568392924742824,"keywords":["nocrits","nodmgspread","payload","uncletopia"],"game_id":440,"stv_port":27036,"stv_name":"Uncletopia | San Francisco | 3 | Stopwatch | STV","players":null},{"server_id":20,"name":"Uncletopia | San Francisco | 4 | Community","name_short":"sfo-4","host":"sfo-1.us.uncletopia.com","port":27045,"enabled":true,"region":"us-west","cc":"us","latitude":37.77397,"longitude":-122.4313,"reserved":0,"last_update":"0001-01-01T00:00:00Z","name_a2s":"Uncletopia | San Francisco | 4 | Community","protocol":17,"map":"workshop/cp_mannbase_rc2a.ugc1900737467","folder":"tf","game":"Team Fortress","app_id":440,"player_count":0,"max_players":24,"Bots":0,"server_type":"Dedicated","server_os":"Linux","password":true,"vac":true,"version":"7961495","steam_id":85568392924742826,"keywords":["cp","nocrits","nodmgspread","uncletopia"],"game_id":440,"stv_port":27046,"stv_name":"Uncletopia | San Francisco | 4 | Community | STV","players":null},{"server_id":141,"name":"Uncletopia | Sydney | 1 | All Maps","name_short":"syd-1","host":"syd-1.au.uncletopia.com","port":27015,"enabled":true,"region":"au","cc":"au","latitude":-33.865143,"longitude":151.2099,"reserved":0,"last_update":"0001-01-01T00:00:00Z","name_a2s":"Uncletopia | Sydney | 1 | All Maps","protocol":17,"map":"pl_frontier_final","folder":"tf","game":"Team Fortress","app_id":440,"player_count":24,"max_players":24,"Bots":0,"server_type":"Dedicated","server_os":"Linux","password":true,"vac":true,"version":"7961495","steam_id":85568392924470001,"keywords":["nocrits","nodmgspread","payload","uncletopia"],"game_id":440,"stv_port":27016,"stv_name":"Uncletopia | Sydney | 1 | All Maps | STV","players":[{"user_id":199,"name":"pastlifemartyredsaint","steam_id":76561198061572340,"connected_time":433000000000,"state":"active","ping":97},{"user_id":200,"name":"Pompadouraus","steam_id":76561198327530525,"connected_time":311000000000,"state":"active","ping":75},{"user_id":130,"name":"reClyde beans","steam_id":76561198301282416,"connected_time":4680000000000,"state":"active","ping":54},{"user_id":201,"name":"horrid webbon ·òõ‚ÅêÃ§·ïê·ê∑","steam_id":76561198061998379,"connected_time":304000000000,"state":"active","ping":46},{"user_id":136,"name":"TheBeanBoy","steam_id":76561198041163829,"connected_time":4451000000000,"state":"active","ping":55},{"user_id":205,"name":"Bandit","steam_id":76561199265569380,"connected_time":121000000000,"state":"active","ping":163},{"user_id":202,"name":"Bonker","steam_id":76561198845159846,"connected_time":222000000000,"state":"active","ping":60},{"user_id":186,"name":"Engineer gaming","steam_id":76561199155717525,"connected_time":793000000000,"state":"active","ping":137},{"user_id":163,"name":"tim88435","steam_id":76561198089653987,"connected_time":2923000000000,"state":"active","ping":49},{"user_id":203,"name":"SlurpyAnt","steam_id":76561198868808062,"connected_time":201000000000,"state":"active","ping":54},{"user_id":191,"name":"Cheese","steam_id":76561198862913374,"connected_time":605000000000,"state":"active","ping":57},{"user_id":197,"name":"Golfing with Joel","steam_id":76561199161637215,"connected_time":459000000000,"state":"active","ping":98},{"user_id":31,"name":"‚Ä† Reeve","steam_id":76561197969102326,"connected_time":11798000000000,"state":"active","ping":64},{"user_id":196,"name":"P. Ness","steam_id":76561198037664265,"connected_time":470000000000,"state":"active","ping":59},{"user_id":177,"name":"Speed-moment","steam_id":76561198138604894,"connected_time":1967000000000,"state":"active","ping":45},{"user_id":124,"name":"wigglywoogus higglehuggus","steam_id":76561198063481761,"connected_time":5286000000000,"state":"active","ping":44},{"user_id":198,"name":"garf","steam_id":76561198374572387,"connected_time":459000000000,"state":"active","ping":33},{"user_id":181,"name":"Mr Salad","steam_id":76561198436690197,"connected_time":1066000000000,"state":"active","ping":60},{"user_id":182,"name":"Joode","steam_id":76561198258671002,"connected_time":1042000000000,"state":"active","ping":53},{"user_id":204,"name":"Sparky","steam_id":76561198117687688,"connected_time":201000000000,"state":"active","ping":69},{"user_id":144,"name":"yoga","steam_id":76561199163801558,"connected_time":3853000000000,"state":"active","ping":58},{"user_id":145,"name":"Stab Calloway","steam_id":76561198027827983,"connected_time":3828000000000,"state":"active","ping":48},{"user_id":184,"name":"Sexy Turtle","steam_id":76561198256865969,"connected_time":945000000000,"state":"active","ping":45},{"user_id":178,"name":"Fire_Dragon1","steam_id":76561198978045930,"connected_time":1858000000000,"state":"active","ping":56}]},{"server_id":123,"name":"Uncletopia | Sydney | 2 | All Maps","name_short":"syd-2","host":"syd-1.au.uncletopia.com","port":27025,"enabled":true,"region":"au","cc":"au","latitude":-33.865143,"longitude":151.2099,"reserved":0,"last_update":"0001-01-01T00:00:00Z","name_a2s":"Uncletopia | Sydney | 2 | All Maps","protocol":17,"map":"koth_lakeside_final","folder":"tf","game":"Team Fortress","app_id":440,"player_count":0,"max_players":24,"Bots":0,"server_type":"Dedicated","server_os":"Linux","password":true,"vac":true,"version":"7961495","steam_id":85568392924470002,"keywords":["cp","nocrits","nodmgspread","uncletopia"],"game_id":440,"stv_port":27026,"stv_name":"Uncletopia | Sydney | 2 | All Maps | STV","players":null},{"server_id":395,"name":"Uncletopia | Sydney | 3 | All Maps","name_short":"syd-3","host":"syd-1.au.uncletopia.com","port":27035,"enabled":true,"region":"au","cc":"au","latitude":-33.865143,"longitude":151.2099,"reserved":0,"last_update":"0001-01-01T00:00:00Z","name_a2s":"Uncletopia | Sydney | 3 | All Maps","protocol":17,"map":"cp_sunshine","folder":"tf","game":"Team Fortress","app_id":440,"player_count":0,"max_players":24,"Bots":0,"server_type":"Dedicated","server_os":"Linux","password":true,"vac":true,"version":"7961495","steam_id":85568392925194467,"keywords":["cp","nocrits","nodmgspread","uncletopia"],"game_id":440,"stv_port":27036,"stv_name":"Uncletopia | Sydney | 3 | All Maps | STV","players":null},{"server_id":396,"name":"Uncletopia | Sydney | 4 | All Maps","name_short":"syd-4","host":"syd-1.au.uncletopia.com","port":27045,"enabled":true,"region":"au","cc":"au","latitude":-33.865143,"longitude":151.2099,"reserved":0,"last_update":"0001-01-01T00:00:00Z","name_a2s":"Uncletopia | Sydney | 4 | All Maps","protocol":17,"map":"cp_process_final","folder":"tf","game":"Team Fortress","app_id":440,"player_count":0,"max_players":24,"Bots":0,"server_type":"Dedicated","server_os":"Linux","password":true,"vac":true,"version":"7961495","steam_id":85568392925397958,"keywords":["cp","nocrits","nodmgspread","uncletopia"],"game_id":440,"stv_port":27046,"stv_name":"Uncletopia | Sydney | 4 | All Maps | STV","players":null},{"server_id":58,"name":"Uncletopia | Sydney | 5 | Stopwatch","name_short":"syd-5","host":"syd-1.au.uncletopia.com","port":27055,"enabled":true,"region":"au","cc":"au","latitude":-33.865143,"longitude":151.2099,"reserved":0,"last_update":"0001-01-01T00:00:00Z","name_a2s":"Uncletopia | Sydney | 5 | Stopwatch","protocol":17,"map":"koth_highpass","folder":"tf","game":"Team Fortress","app_id":440,"player_count":0,"max_players":24,"Bots":0,"server_type":"Dedicated","server_os":"Linux","password":true,"vac":true,"version":"7961495","steam_id":85568392925397959,"keywords":["cp","nocrits","nodmgspread","uncletopia"],"game_id":440,"stv_port":27056,"stv_name":"Uncletopia | Sydney | 5 | Stopwatch | STV","players":null},{"server_id":59,"name":"Uncletopia | Sydney | 6 | Community","name_short":"syd-6","host":"syd-1.au.uncletopia.com","port":27065,"enabled":true,"region":"au","cc":"au","latitude":-33.865143,"longitude":151.2099,"reserved":0,"last_update":"0001-01-01T00:00:00Z","name_a2s":"Uncletopia | Sydney | 6 | Community","protocol":17,"map":"cp_sunshine","folder":"tf","game":"Team Fortress","app_id":440,"player_count":0,"max_players":24,"Bots":0,"server_type":"Dedicated","server_os":"Linux","password":true,"vac":true,"version":"7961495","steam_id":85568392925397960,"keywords":["cp","nocrits","nodmgspread","uncletopia"],"game_id":440,"stv_port":27066,"stv_name":"Uncletopia | Sydney | 6 | Community | STV","players":null},{"server_id":49,"name":"Uncletopia | Warsaw | 1 | One Thousand Uncles","name_short":"waw-1","host":"waw-1.pl.uncletopia.com","port":27015,"enabled":true,"region":"eu","cc":"pl","latitude":52.2297,"longitude":21.017532,"reserved":0,"last_update":"0001-01-01T00:00:00Z","name_a2s":"Uncletopia | Warsaw | 1 | One Thousand Uncles","protocol":17,"map":"pl_goldrush","folder":"tf","game":"Team Fortress","app_id":440,"player_count":0,"max_players":32,"Bots":0,"server_type":"Dedicated","server_os":"Linux","password":true,"vac":true,"version":"7961495","steam_id":85568392925397850,"keywords":["alltalk","danepve","increased_maxplayers","nocrits","norespawntime","payload","uncletopia"],"game_id":440,"stv_port":0,"stv_name":"","players":null},{"server_id":50,"name":"Uncletopia | Warsaw | 2 | One Thousand Uncles","name_short":"waw-2","host":"waw-1.pl.uncletopia.com","port":27025,"enabled":true,"region":"eu","cc":"pl","latitude":52.2297,"longitude":21.017532,"reserved":0,"last_update":"0001-01-01T00:00:00Z","name_a2s":"Uncletopia | Warsaw | 2 | One Thousand Uncles","protocol":17,"map":"pl_swiftwater_final1","folder":"tf","game":"Team Fortress","app_id":440,"player_count":0,"max_players":32,"Bots":0,"server_type":"Dedicated","server_os":"Linux","password":true,"vac":true,"version":"7961495","steam_id":85568392925397851,"keywords":["alltalk","danepve","increased_maxplayers","nocrits","norespawntime","payload","uncletopia"],"game_id":440,"stv_port":0,"stv_name":"","players":null},{"server_id":51,"name":"Uncletopia | Warsaw | 3 | All Maps","name_short":"waw-3","host":"waw-1.pl.uncletopia.com","port":27035,"enabled":true,"region":"eu","cc":"pl","latitude":52.2297,"longitude":21.017532,"reserved":0,"last_update":"0001-01-01T00:00:00Z","name_a2s":"Uncletopia | Warsaw | 3 | All Maps","protocol":17,"map":"koth_cascade","folder":"tf","game":"Team Fortress","app_id":440,"player_count":0,"max_players":24,"Bots":0,"server_type":"Dedicated","server_os":"Linux","password":true,"vac":true,"version":"7961495","steam_id":85568392925397852,"keywords":["cp","nocrits","nodmgspread","uncletopia"],"game_id":440,"stv_port":27036,"stv_name":"Uncletopia | Warsaw | 3 | All Maps | STV","players":null},{"server_id":52,"name":"Uncletopia | Warsaw | 4 | All Maps","name_short":"waw-4","host":"waw-1.pl.uncletopia.com","port":27045,"enabled":true,"region":"eu","cc":"pl","latitude":52.2297,"longitude":21.017532,"reserved":0,"last_update":"0001-01-01T00:00:00Z","name_a2s":"Uncletopia | Warsaw | 4 | All Maps","protocol":17,"map":"koth_lakeside_final","folder":"tf","game":"Team Fortress","app_id":440,"player_count":0,"max_players":24,"Bots":0,"server_type":"Dedicated","server_os":"Linux","password":true,"vac":true,"version":"7961495","steam_id":85568392925397853,"keywords":["cp","nocrits","nodmgspread","uncletopia"],"game_id":440,"stv_port":27046,"stv_name":"Uncletopia | Warsaw | 4 | All Maps | STV","players":null},{"server_id":53,"name":"Uncletopia | Warsaw | 5 | Stopwatch","name_short":"waw-5","host":"waw-1.pl.uncletopia.com","port":27055,"enabled":true,"region":"eu","cc":"pl","latitude":52.2297,"longitude":21.017532,"reserved":0,"last_update":"0001-01-01T00:00:00Z","name_a2s":"Uncletopia | Warsaw | 5 | Stopwatch","protocol":17,"map":"workshop/koth_product_final.ugc454272353","folder":"tf","game":"Team Fortress","app_id":440,"player_count":0,"max_players":24,"Bots":0,"server_type":"Dedicated","server_os":"Linux","password":true,"vac":true,"version":"7961495","steam_id":85568392925397854,"keywords":["cp","nocrits","nodmgspread","uncletopia"],"game_id":440,"stv_port":27056,"stv_name":"Uncletopia | Warsaw | 5 | Stopwatch | STV","players":null},{"server_id":54,"name":"Uncletopia | Warsaw | 6 | Community","name_short":"waw-6","host":"waw-1.pl.uncletopia.com","port":27065,"enabled":true,"region":"eu","cc":"pl","latitude":52.2297,"longitude":21.017532,"reserved":0,"last_update":"0001-01-01T00:00:00Z","name_a2s":"Uncletopia | Warsaw | 6 | Community","protocol":17,"map":"workshop/koth_kemptown_rc1.ugc767410655","folder":"tf","game":"Team Fortress","app_id":440,"player_count":0,"max_players":24,"Bots":0,"server_type":"Dedicated","server_os":"Linux","password":true,"vac":true,"version":"7961495","steam_id":85568392925397856,"keywords":["cp","nocrits","nodmgspread","uncletopia"],"game_id":440,"stv_port":27066,"stv_name":"Uncletopia | Warsaw | 6 | Community | STV","players":null}]}