{"status":true,"message":"","result":[{"server_id":9,"name":"Uncletopia | Atlanta | 1 | All Maps","name_short":"atl-1","host":"atl-1.us.uncletopia.com","port":27015,"enabled":true,"region":"us-east","cc":"us","latitude":33.753746,"longitude":-84.38633,"reserved":0,"last_update":"0001-01-01T00:00:00Z","name_a2s":"Uncletopia | Atlanta | 1 | All Maps","protocol":17,"map":"pl_swiftwater_final1","folder":"tf","game":"Team Fortress","app_id":440,"player_count":22,"max_players":24,"Bots":0,"server_type":"Dedicated","server_os":"Linux","password":true,"vac":true,"version":"7757534","steam_id":85568392924469982,"keywords":["nocrits","nodmgspread","payload","uncletopia"],"game_id":440,"stv_port":27016,"stv_name":"Uncletopia | Atlanta | 1 | All Maps | STV","players":[{"user_id":20,"name":"box","steam_id":76561198985635309,"connected_time":2038000000000,"state":"active","ping":95},{"user_id":38,"name":"TF2 need a sex update","steam_id":76561199103964705,"connected_time":1308000000000,"state":"active","ping":96},{"user_id":16,"name":"Towns","steam_id":76561198984662863,"connected_time":2828000000000,"state":"active","ping":49},{"user_id":42,"name":"Riboflavin","steam_id":76561198077328593,"connected_time":1165000000000,"state":"active","ping":83},{"user_id":21,"name":"\u003c blank \u003e","steam_id":76561198012566503,"connected_time":2029000000000,"state":"active","ping":97},{"user_id":22,"name":"nemo","steam_id":76561198319990195,"connected_time":1966000000000,"state":"active","ping":77},{"user_id":62,"name":"Huge","steam_id":76561199030987614,"connected_time":17000000000,"state":"active","ping":130},{"user_id":46,"name":"crippling fumo addiction","steam_id":76561198115874625,"connected_time":1043000000000,"state":"active","ping":57},{"user_id":63,"name":"Emails","steam_id":76561198836919458,"connected_time":17000000000,"state":"active","ping":88},{"user_id":55,"name":"SHUT 'EM DOWN","steam_id":76561198111259720,"connected_time":608000000000,"state":"active","ping":87},{"user_id":29,"name":"Disambiguation","steam_id":76561198133963270,"connected_time":1752000000000,"state":"active","ping":58},{"user_id":34,"name":"mepng","steam_id":76561199018758598,"connected_time":1491000000000,"state":"active","ping":82},{"user_id":43,"name":"1000 Ping","steam_id":76561198098330939,"connected_time":1082000000000,"state":"active","ping":135},{"user_id":44,"name":"uzr","steam_id":76561198799343084,"connected_time":1079000000000,"state":"active","ping":110},{"user_id":39,"name":"‡ºò ‚ãÜÀöüéßCaffeine‚òï*Àñ¬∞","steam_id":76561199259309294,"connected_time":1302000000000,"state":"spawning","ping":78},{"user_id":40,"name":"Belmore","steam_id":76561198009355231,"connected_time":1289000000000,"state":"active","ping":116},{"user_id":57,"name":"Cruisin'","steam_id":76561199245457119,"connected_time":258000000000,"state":"active","ping":79},{"user_id":60,"name":"potty trained","steam_id":76561198141557766,"connected_time":57000000000,"state":"active","ping":62},{"user_id":51,"name":"nerfington","steam_id":76561198062785419,"connected_time":888000000000,"state":"active","ping":66},{"user_id":58,"name":"stardust","steam_id":76561198413930183,"connected_time":109000000000,"state":"active","ping":61},{"user_id":64,"name":"shephield","steam_id":76561197965111567,"connected_time":12000000000,"state":"active","ping":56},{"user_id":59,"name":"[DEEP] Fitts1099","steam_id":76561198044986906,"connected_time":87000000000,"state":"active","ping":68}]},{"server_id":400,"name":"Uncletopia | Atlanta | 3 | Community","name_short":"atl-3","host":"atl-1.us.uncletopia.com","port":27035,"enabled":true,"region":"us-east","cc":"us","latitude":33.753746,"longitude":-84.38633,"reserved":0,"last_update":"0001-01-01T00:00:00Z","name_a2s":"Uncletopia | Atlanta | 3 | Community","protocol":17,"map":"workshop/cp_kalinka_rc6a.ugc1272700588","folder":"tf","game":"Team Fortress","app_id":440,"player_count":22,"max_players":32,"Bots":0,"server_type":"Dedicated","server_os":"Linux","password":true,"vac":true,"version":"7757534","steam_id":85568392924515187,"keywords":["cp","increased_maxplayers","nocrits","nodmgspread","uncletopia"],"game_id":440,"stv_port":27036,"stv_name":"Uncletopia | Atlanta | 3 | Community | STV","players":[{"user_id":127,"name":"Needs McTherapy","steam_id":76561198168876878,"connected_time":1297000000000,"state":"active","ping":69},{"user_id":136,"name":"Dengar","steam_id":76561198144992228,"connected_time":1146000000000,"state":"active","ping":60},{"user_id":134,"name":"Nukalaunch","steam_id":76561199255653942,"connected_time":1188000000000,"state":"active","ping":113},{"user_id":133,"name":"Ivan the Terrible","steam_id":76561198139595241,"connected_time":1218000000000,"state":"active","ping":170},{"user_id":130,"name":"gulch","steam_id":76561199227946025,"connected_time":1282000000000,"state":"active","ping":84},{"user_id":149,"name":"LordZahe","steam_id":76561198241749034,"connected_time":35000000000,"state":"active","ping":68},{"user_id":26,"name":"Banaba Breab","steam_id":76561198250789086,"connected_time":3964000000000,"state":"active","ping":121},{"user_id":24,"name":"big gay bowacunga","steam_id":76561198389398163,"connected_time":4047000000000,"state":"active","ping":76},{"user_id":89,"name":"‰∫∫ √ò–ê–ê–ê√ò‰∫∫","steam_id":76561198944032480,"connected_time":2416000000000,"state":"active","ping":174},{"user_id":91,"name":"Its Dr.Stoned","steam_id":76561198079622791,"connected_time":2336000000000,"state":"active","ping":63},{"user_id":137,"name":"Nightfall","steam_id":76561198169718867,"connected_time":1113000000000,"state":"active","ping":93},{"user_id":66,"name":"boombox","steam_id":76561198237013798,"connected_time":3145000000000,"state":"active","ping":81},{"user_id":126,"name":"elevated bread","steam_id":76561198161824724,"connected_time":1360000000000,"state":"active","ping":86},{"user_id":28,"name":"Pinkie Pie!","steam_id":76561198104679689,"connected_time":3954000000000,"state":"active","ping":123},{"user_id":140,"name":"land0","steam_id":76561198321264704,"connected_time":873000000000,"state":"active","ping":113},{"user_id":32,"name":"Walmart Employee","steam_id":76561198840373909,"connected_time":3868000000000,"state":"active","ping":80},{"user_id":49,"name":"no vc no c","steam_id":76561197989503095,"connected_time":3572000000000,"state":"active","ping":196},{"user_id":87,"name":"gustav (they/them)","steam_id":76561199012685740,"connected_time":2488000000000,"state":"active","ping":54},{"user_id":128,"name":"mu","steam_id":76561197997530228,"connected_time":1293000000000,"state":"active","ping":120},{"user_id":69,"name":"Kim Wexler","steam_id":76561199080236071,"connected_time":3077000000000,"state":"active","ping":76},{"user_id":46,"name":"Titus Tyrwitt","steam_id":76561197990779673,"connected_time":3603000000000,"state":"active","ping":60},{"user_id":51,"name":"Dartel","steam_id":76561197963977254,"connected_time":3547000000000,"state":"active","ping":81}]},{"server_id":401,"name":"Uncletopia | Atlanta | 4 | No Payload","name_short":"atl-4","host":"atl-1.us.uncletopia.com","port":27045,"enabled":true,"region":"us-east","cc":"us","latitude":33.753746,"longitude":-84.38633,"reserved":0,"last_update":"0001-01-01T00:00:00Z","name_a2s":"","protocol":0,"map":"","folder":"","game":"","app_id":0,"player_count":0,"max_players":0,"Bots":0,"server_type":"","server_os":"","password":false,"vac":false,"version":"","steam_id":0,"keywords":null,"game_id":0,"stv_port":0,"stv_name":"","players":null},{"server_id":2,"name":"Uncletopia | Chicago | 1 | All Maps","name_short":"chi-1","host":"chi-1.us.uncletopia.com","port":27015,"enabled":true,"region":"us-central","cc":"us","latitude":41.881832,"longitude":-87.62318,"reserved":0,"last_update":"0001-01-01T00:00:00Z","name_a2s":"Uncletopia | Chicago | 1 | All Maps","protocol":17,"map":"pl_frontier_final","folder":"tf","game":"Team Fortress","app_id":440,"player_count":0,"max_players":24,"Bots":0,"server_type":"Dedicated","server_os":"Linux","password":true,"vac":true,"version":"7757534","steam_id":85568392924469984,"keywords":["nocrits","nodmgspread","payload","uncletopia"],"game_id":440,"stv_port":27016,"stv_name":"Uncletopia | Chicago | 1 | All Maps | STV","players":null},{"server_id":106,"name":"Uncletopia | Chicago | 2 | All Maps","name_short":"chi-2","host":"chi-1.us.uncletopia.com","port":27025,"enabled":true,"region":"us-central","cc":"us","latitude":41.881832,"longitude":-87.62318,"reserved":0,"last_update":"0001-01-01T00:00:00Z","name_a2s":"Uncletopia | Chicago | 2 | All Maps","protocol":17,"map":"koth_viaduct","folder":"tf","game":"Team Fortress","app_id":440,"player_count":0,"max_players":24,"Bots":0,"server_type":"Dedicated","server_os":"Linux","password":true,"vac":true,"version":"7757534","steam_id":85568392924469985,"keywords":["cp","nocrits","nodmgspread","uncletopia"],"game_id":440,"stv_port":27026,"stv_name":"Uncletopia | Chicago | 2 | All Maps | STV","players":null},{"server_id":402,"name":"Uncletopia | Chicago | 3 | All Maps","name_short":"chi-3","host":"chi-1.us.uncletopia.com","port":27035,"enabled":true,"region":"us-central","cc":"us","latitude":41.881832,"longitude":-87.62318,"reserved":0,"last_update":"0001-01-01T00:00:00Z","name_a2s":"Uncletopia | Chicago | 3 | All Maps","protocol":17,"map":"cp_mountainlab","folder":"tf","game":"Team Fortress","app_id":440,"player_count":24,"max_players":24,"Bots":0,"server_type":"Dedicated","server_os":"Linux","password":true,"vac":true,"version":"7757534","steam_id":85568392924515191,"keywords":["cp","nocrits","nodmgspread","uncletopia"],"game_id":440,"stv_port":27036,"stv_name":"Uncletopia | Chicago | 3 | All Maps | STV","players":[{"user_id":126,"name":"Your Local Queer Librarian","steam_id":76561198013077080,"connected_time":3406000000000,"state":"active","ping":55},{"user_id":143,"name":"reis","steam_id":76561199232952016,"connected_time":1501000000000,"state":"active","ping":182},{"user_id":131,"name":"Kilphax","steam_id":76561197993814144,"connected_time":2400000000000,"state":"active","ping":61},{"user_id":146,"name":"T√ñZI","steam_id":76561198045268695,"connected_time":1363000000000,"state":"active","ping":56},{"user_id":164,"name":"T.TV/WhatsWater","steam_id":76561198036410259,"connected_time":183000000000,"state":"active","ping":59},{"user_id":157,"name":"defs","steam_id":76561198134813102,"connected_time":540000000000,"state":"active","ping":56},{"user_id":158,"name":"Peri","steam_id":76561198255311543,"connected_time":529000000000,"state":"active","ping":63},{"user_id":128,"name":"Ziath","steam_id":76561198094009164,"connected_time":3298000000000,"state":"active","ping":65},{"user_id":144,"name":"AdorableMew","steam_id":76561198186706405,"connected_time":1456000000000,"state":"active","ping":73},{"user_id":140,"name":"shokie","steam_id":76561197997961542,"connected_time":2089000000000,"state":"active","ping":75},{"user_id":151,"name":"Slippery","steam_id":76561199469441947,"connected_time":1164000000000,"state":"active","ping":56},{"user_id":130,"name":"Invisorum","steam_id":76561198051902115,"connected_time":2406000000000,"state":"active","ping":128},{"user_id":159,"name":"Juubers","steam_id":76561198088229792,"connected_time":473000000000,"state":"active","ping":54},{"user_id":127,"name":"TheGreatDong","steam_id":76561198000634178,"connected_time":3386000000000,"state":"active","ping":111},{"user_id":156,"name":"CJDGuy","steam_id":76561198213009545,"connected_time":563000000000,"state":"active","ping":79},{"user_id":163,"name":"Vivzen","steam_id":76561198972619900,"connected_time":327000000000,"state":"active","ping":74},{"user_id":160,"name":"legalizenuclearbombs","steam_id":76561199246416357,"connected_time":443000000000,"state":"active","ping":128},{"user_id":165,"name":"Hermit_","steam_id":76561198013807290,"connected_time":110000000000,"state":"active","ping":83},{"user_id":97,"name":"LunarStorm","steam_id":76561198321826743,"connected_time":5953000000000,"state":"active","ping":65},{"user_id":154,"name":"M@verick","steam_id":76561198006363519,"connected_time":583000000000,"state":"active","ping":74},{"user_id":153,"name":"redindy","steam_id":76561198070154445,"connected_time":734000000000,"state":"active","ping":74},{"user_id":161,"name":"cars extended warranty","steam_id":76561199084950961,"connected_time":430000000000,"state":"active","ping":161},{"user_id":162,"name":"Zieax","steam_id":76561198043911078,"connected_time":402000000000,"state":"active","ping":76},{"user_id":123,"name":"Enderneer","steam_id":76561198012136653,"connected_time":3781000000000,"state":"active","ping":59}]},{"server_id":403,"name":"Uncletopia | Chicago | 4 | All Maps","name_short":"chi-4","host":"chi-1.us.uncletopia.com","port":27045,"enabled":true,"region":"us-central","cc":"us","latitude":41.881832,"longitude":-87.62318,"reserved":0,"last_update":"0001-01-01T00:00:00Z","name_a2s":"Uncletopia | Chicago | 4 | All Maps","protocol":17,"map":"pl_pier","folder":"tf","game":"Team Fortress","app_id":440,"player_count":24,"max_players":24,"Bots":0,"server_type":"Dedicated","server_os":"Linux","password":true,"vac":true,"version":"7757534","steam_id":85568392924515193,"keywords":["nocrits","nodmgspread","payload","uncletopia"],"game_id":440,"stv_port":27046,"stv_name":"Uncletopia | Chicago | 4 | All Maps | STV","players":[{"user_id":114,"name":"The Big","steam_id":76561198078572184,"connected_time":7412000000000,"state":"active","ping":79},{"user_id":209,"name":"JennaShinx","steam_id":76561198074773762,"connected_time":280000000000,"state":"active","ping":56},{"user_id":173,"name":"ItsTanleyCrunch","steam_id":76561198037915942,"connected_time":2399000000000,"state":"active","ping":73},{"user_id":191,"name":"OMG*","steam_id":76561197962607364,"connected_time":1003000000000,"state":"active","ping":74},{"user_id":201,"name":"I'm Only 4 Inches","steam_id":76561198055542546,"connected_time":565000000000,"state":"active","ping":51},{"user_id":202,"name":"Omni-S","steam_id":76561198082396372,"connected_time":548000000000,"state":"active","ping":78},{"user_id":203,"name":"Ember","steam_id":76561198089021697,"connected_time":424000000000,"state":"active","ping":65},{"user_id":207,"name":"Konrad Vilulf","steam_id":76561198111124481,"connected_time":304000000000,"state":"active","ping":85},{"user_id":194,"name":"Slug Warrior","steam_id":76561197996052704,"connected_time":925000000000,"state":"active","ping":75},{"user_id":206,"name":"puffy","steam_id":76561198411347037,"connected_time":319000000000,"state":"active","ping":73},{"user_id":118,"name":"det","steam_id":76561198170859755,"connected_time":7338000000000,"state":"active","ping":47},{"user_id":216,"name":"Peeshitter","steam_id":76561198406025351,"connected_time":130000000000,"state":"active","ping":84},{"user_id":171,"name":"Monsterjessy","steam_id":76561198035630985,"connected_time":2506000000000,"state":"active","ping":60},{"user_id":208,"name":"Gheeotine","steam_id":76561198010181698,"connected_time":299000000000,"state":"active","ping":88},{"user_id":179,"name":"lite","steam_id":76561198300633951,"connected_time":1383000000000,"state":"active","ping":107},{"user_id":196,"name":"Six","steam_id":76561198052472822,"connected_time":790000000000,"state":"active","ping":62},{"user_id":210,"name":"Dallas","steam_id":76561198066542919,"connected_time":273000000000,"state":"active","ping":98},{"user_id":200,"name":"Lifial","steam_id":76561198271885819,"connected_time":625000000000,"state":"active","ping":76},{"user_id":211,"name":"PKBEAST_7","steam_id":76561198177136537,"connected_time":259000000000,"state":"active","ping":89},{"user_id":212,"name":"Alaea WInters","steam_id":76561198116274337,"connected_time":226000000000,"state":"active","ping":63},{"user_id":213,"name":"Pyrovision Enthusiast","steam_id":76561198211892779,"connected_time":202000000000,"state":"active","ping":60},{"user_id":214,"name":"Zero","steam_id":76561199383267408,"connected_time":193000000000,"state":"active","ping":72},{"user_id":215,"name":"SlitherDoodle","steam_id":76561198000275473,"connected_time":179000000000,"state":"active","ping":64},{"user_id":178,"name":"‚ô•dumb bimbo‚ô•","steam_id":76561198054925421,"connected_time":1473000000000,"state":"active","ping":59}]},{"server_id":36,"name":"Uncletopia | Chicago | 5 | All Maps","name_short":"chi-5","host":"chi-2.us.uncletopia.com","port":27015,"enabled":true,"region":"us-central","cc":"us","latitude":41.881832,"longitude":-87.62318,"reserved":0,"last_update":"0001-01-01T00:00:00Z","name_a2s":"Uncletopia | Chicago | 5 | All Maps","protocol":17,"map":"koth_cascade","folder":"tf","game":"Team Fortress","app_id":440,"player_count":0,"max_players":24,"Bots":0,"server_type":"Dedicated","server_os":"Linux","password":true,"vac":true,"version":"7757534","steam_id":85568392924866362,"keywords":["cp","nocrits","nodmgspread","uncletopia"],"game_id":440,"stv_port":27016,"stv_name":"Uncletopia | Chicago | 5 | All Maps | STV","players":null},{"server_id":37,"name":"Uncletopia | Chicago | 6 | All Maps","name_short":"chi-6","host":"chi-2.us.uncletopia.com","port":27025,"enabled":true,"region":"us-central","cc":"us","latitude":41.881832,"longitude":-87.62318,"reserved":0,"last_update":"0001-01-01T00:00:00Z","name_a2s":"Uncletopia | Chicago | 6 | All Maps","protocol":17,"map":"koth_cascade","folder":"tf","game":"Team Fortress","app_id":440,"player_count":0,"max_players":24,"Bots":0,"server_type":"Dedicated","server_os":"Linux","password":true,"vac":true,"version":"7757534","steam_id":85568392924866363,"keywords":["cp","nocrits","nodmgspread","uncletopia"],"game_id":440,"stv_port":27026,"stv_name":"Uncletopia | Chicago | 6 | All Maps | STV","players":null},{"server_id":38,"name":"Uncletopia | Chicago | 7 | Stopwatch Beta","name_short":"chi-7","host":"chi-2.us.uncletopia.com","port":27035,"enabled":true,"region":"us-central","cc":"us","latitude":41.881832,"longitude":-87.62318,"reserved":0,"last_update":"0001-01-01T00:00:00Z","name_a2s":"Uncletopia | Chicago | 7 | Stopwatch Beta","protocol":17,"map":"pl_upward","folder":"tf","game":"Team Fortress","app_id":440,"player_count":0,"max_players":24,"Bots":0,"server_type":"Dedicated","server_os":"Linux","password":true,"vac":true,"version":"7757534","steam_id":85568392924866364,"keywords":["nocrits","nodmgspread","payload","uncletopia"],"game_id":440,"stv_port":27036,"stv_name":"Uncletopia | Chicago | 7 | Stopwatch Beta | STV","players":null},{"server_id":39,"name":"Uncletopia | Chicago | 8 | Community","name_short":"chi-8","host":"chi-2.us.uncletopia.com","port":27045,"enabled":true,"region":"us-central","cc":"us","latitude":41.881832,"longitude":-87.62318,"reserved":0,"last_update":"0001-01-01T00:00:00Z","name_a2s":"Uncletopia | Chicago | 8 | Community","protocol":17,"map":"pl_barnblitz","folder":"tf","game":"Team Fortress","app_id":440,"player_count":0,"max_players":24,"Bots":0,"server_type":"Dedicated","server_os":"Linux","password":true,"vac":true,"version":"7757534","steam_id":85568392924866365,"keywords":["nocrits","nodmgspread","payload","uncletopia"],"game_id":440,"stv_port":27046,"stv_name":"Uncletopia | Chicago | 8 | Community | STV","players":null},{"server_id":8,"name":"Uncletopia | Dallas | 1 | All Maps","name_short":"dal-1","host":"dal-1.us.uncletopia.com","port":27015,"enabled":true,"region":"us-central","cc":"us","latitude":32.779167,"longitude":-96.80889,"reserved":0,"last_update":"0001-01-01T00:00:00Z","name_a2s":"Uncletopia | Dallas | 1 | All Maps","protocol":17,"map":"pl_swiftwater_final1","folder":"tf","game":"Team Fortress","app_id":440,"player_count":24,"max_players":24,"Bots":0,"server_type":"Dedicated","server_os":"Linux","password":true,"vac":true,"version":"7757534","steam_id":85568392924469986,"keywords":["nocrits","nodmgspread","payload","uncletopia"],"game_id":440,"stv_port":27016,"stv_name":"Uncletopia | Dallas | 1 | All Maps | STV","players":[{"user_id":278,"name":"Paper Route Frank @GasOnDeck","steam_id":76561198035161555,"connected_time":659000000000,"state":"active","ping":34},{"user_id":116,"name":"4 Itchy Tasty","steam_id":76561198009869383,"connected_time":14909000000000,"state":"active","ping":76},{"user_id":253,"name":"Sam","steam_id":76561198146472900,"connected_time":2660000000000,"state":"active","ping":110},{"user_id":275,"name":"Jacck916","steam_id":76561198176874157,"connected_time":919000000000,"state":"active","ping":104},{"user_id":277,"name":"A Car Without A Lid","steam_id":76561199217901965,"connected_time":800000000000,"state":"active","ping":72},{"user_id":265,"name":"Kymat","steam_id":76561198056367793,"connected_time":2167000000000,"state":"active","ping":73},{"user_id":279,"name":"Cody","steam_id":76561198173125775,"connected_time":645000000000,"state":"active","ping":97},{"user_id":246,"name":"WalkinMan","steam_id":76561198047941142,"connected_time":3614000000000,"state":"active","ping":70},{"user_id":280,"name":"kfdhgljkdfhkjdhkfj","steam_id":76561198043896691,"connected_time":617000000000,"state":"active","ping":75},{"user_id":249,"name":"Faust main","steam_id":76561198971799149,"connected_time":3083000000000,"state":"active","ping":75},{"user_id":284,"name":"Ashley H√©lo√Øse","steam_id":76561198103653429,"connected_time":440000000000,"state":"active","ping":76},{"user_id":272,"name":"e","steam_id":76561198131245396,"connected_time":1117000000000,"state":"active","ping":72},{"user_id":282,"name":"Boomer Aang","steam_id":76561198025269875,"connected_time":572000000000,"state":"active","ping":102},{"user_id":149,"name":"Shuual","steam_id":76561198004395256,"connected_time":12168000000000,"state":"active","ping":75},{"user_id":255,"name":"Doctor Bear  ï ‚Ä¢·¥•‚Ä¢ î","steam_id":76561197968103161,"connected_time":2612000000000,"state":"active","ping":83},{"user_id":245,"name":"Cunny Warrior 77","steam_id":76561198811760680,"connected_time":4230000000000,"state":"active","ping":91},{"user_id":283,"name":"king_nebblit","steam_id":76561199183321935,"connected_time":565000000000,"state":"active","ping":77},{"user_id":274,"name":"Fox","steam_id":76561198063507627,"connected_time":1110000000000,"state":"active","ping":35},{"user_id":251,"name":"Path To Victory","steam_id":76561198026958898,"connected_time":2801000000000,"state":"active","ping":109},{"user_id":273,"name":"The Lonely Croc","steam_id":76561198123241396,"connected_time":1113000000000,"state":"active","ping":75},{"user_id":285,"name":"grandma","steam_id":76561198962318010,"connected_time":434000000000,"state":"active","ping":99},{"user_id":258,"name":"Milotic","steam_id":76561198047995713,"connected_time":2586000000000,"state":"active","ping":98},{"user_id":286,"name":"trans rights","steam_id":76561198044183038,"connected_time":387000000000,"state":"active","ping":70},{"user_id":230,"name":"177013","steam_id":76561198072303290,"connected_time":5316000000000,"state":"active","ping":89}]},{"server_id":108,"name":"Uncletopia | Dallas | 2 | All Maps","name_short":"dal-2","host":"dal-1.us.uncletopia.com","port":27025,"enabled":true,"region":"us-central","cc":"us","latitude":32.779167,"longitude":-96.80889,"reserved":0,"last_update":"0001-01-01T00:00:00Z","name_a2s":"Uncletopia | Dallas | 2 | All Maps","protocol":17,"map":"cp_process_final","folder":"tf","game":"Team Fortress","app_id":440,"player_count":0,"max_players":24,"Bots":0,"server_type":"Dedicated","server_os":"Linux","password":true,"vac":true,"version":"7757534","steam_id":85568392924469988,"keywords":["cp","nocrits","nodmgspread","uncletopia"],"game_id":440,"stv_port":27026,"stv_name":"Uncletopia | Dallas | 2 | All Maps | STV","players":null},{"server_id":5,"name":"Uncletopia | Frankfurt | 1 | All Maps","name_short":"frk-1","host":"frk-1.de.uncletopia.com","port":27015,"enabled":true,"region":"eu","cc":"de","latitude":50.110924,"longitude":8.682127,"reserved":0,"last_update":"0001-01-01T00:00:00Z","name_a2s":"Uncletopia | Frankfurt | 1 | All Maps","protocol":17,"map":"koth_harvest_final","folder":"tf","game":"Team Fortress","app_id":440,"player_count":22,"max_players":24,"Bots":0,"server_type":"Dedicated","server_os":"Linux","password":true,"vac":true,"version":"7757534","steam_id":85568392924469989,"keywords":["cp","nocrits","nodmgspread","uncletopia"],"game_id":440,"stv_port":27016,"stv_name":"Uncletopia | Frankfurt | 1 | All Maps | STV","players":[{"user_id":124,"name":"St√ºmpy","steam_id":76561198255904077,"connected_time":564000000000,"state":"active","ping":66},{"user_id":134,"name":"Ghost11","steam_id":76561198068892992,"connected_time":100000000000,"state":"active","ping":101},{"user_id":95,"name":"kektuse","steam_id":76561198088426580,"connected_time":2522000000000,"state":"active","ping":55},{"user_id":128,"name":"SpeedyBoy","steam_id":76561199222795521,"connected_time":343000000000,"state":"active","ping":96},{"user_id":97,"name":"citronous","steam_id":76561198093290934,"connected_time":2513000000000,"state":"active","ping":59},{"user_id":104,"name":"poliakov.noam","steam_id":76561199259322961,"connected_time":1985000000000,"state":"active","ping":105},{"user_id":102,"name":"VIN WEASEL","steam_id":76561198014387066,"connected_time":2181000000000,"state":"active","ping":49},{"user_id":118,"name":"spearfishNL","steam_id":76561199077022985,"connected_time":815000000000,"state":"active","ping":59},{"user_id":92,"name":"anairat","steam_id":76561198863788240,"connected_time":3132000000000,"state":"active","ping":77},{"user_id":119,"name":"pardner","steam_id":76561198451471161,"connected_time":754000000000,"state":"active","ping":66},{"user_id":106,"name":"ike","steam_id":76561198039573338,"connected_time":1892000000000,"state":"active","ping":90},{"user_id":109,"name":"Owl","steam_id":76561198248266580,"connected_time":1438000000000,"state":"active","ping":68},{"user_id":129,"name":"JOK'R","steam_id":76561198140741944,"connected_time":305000000000,"state":"active","ping":131},{"user_id":100,"name":"Captain HandicappedCock","steam_id":76561198109850402,"connected_time":2263000000000,"state":"active","ping":64},{"user_id":132,"name":"Dithmarschen","steam_id":76561198068917140,"connected_time":173000000000,"state":"active","ping":92},{"user_id":130,"name":"Economic crisis","steam_id":76561198063562843,"connected_time":303000000000,"state":"active","ping":54},{"user_id":131,"name":"Ham Man","steam_id":76561198888755969,"connected_time":274000000000,"state":"active","ping":79},{"user_id":110,"name":"Big Trader","steam_id":76561197992364667,"connected_time":1206000000000,"state":"active","ping":79},{"user_id":91,"name":"Salih","steam_id":76561198287934839,"connected_time":3279000000000,"state":"active","ping":54},{"user_id":133,"name":"Carl","steam_id":76561198045638738,"connected_time":150000000000,"state":"active","ping":76},{"user_id":122,"name":"trk","steam_id":76561198079111788,"connected_time":740000000000,"state":"active","ping":77},{"user_id":70,"name":"InBox","steam_id":76561198122125341,"connected_time":4304000000000,"state":"active","ping":80}]},{"server_id":110,"name":"Uncletopia | Frankfurt | 2 | All Maps","name_short":"frk-2","host":"frk-1.de.uncletopia.com","port":27025,"enabled":true,"region":"eu","cc":"de","latitude":50.110924,"longitude":8.682127,"reserved":0,"last_update":"0001-01-01T00:00:00Z","name_a2s":"Uncletopia | Frankfurt | 2 | All Maps","protocol":17,"map":"cp_dustbowl","folder":"tf","game":"Team Fortress","app_id":440,"player_count":21,"max_players":24,"Bots":0,"server_type":"Dedicated","server_os":"Linux","password":true,"vac":true,"version":"7757534","steam_id":85568392924469990,"keywords":["cp","nocrits","nodmgspread","uncletopia"],"game_id":440,"stv_port":27026,"stv_name":"Uncletopia | Frankfurt | 2 | All Maps | STV","players":[{"user_id":97,"name":"THVG","steam_id":76561199156685368,"connected_time":302000000000,"state":"active","ping":60},{"user_id":90,"name":"Off-Brand Jesus","steam_id":76561198797266244,"connected_time":556000000000,"state":"active","ping":59},{"user_id":85,"name":"latin lover","steam_id":76561198153742397,"connected_time":693000000000,"state":"active","ping":73},{"user_id":22,"name":"KillerQueen (he/they/she)","steam_id":76561199019399725,"connected_time":4592000000000,"state":"active","ping":61},{"user_id":78,"name":"K√∏sm√Ø","steam_id":76561198074938275,"connected_time":1572000000000,"state":"active","ping":76},{"user_id":19,"name":"Veile","steam_id":76561199007201531,"connected_time":4751000000000,"state":"active","ping":85},{"user_id":101,"name":"Prim","steam_id":76561198043191342,"connected_time":257000000000,"state":"active","ping":81},{"user_id":48,"name":"Rose-Marie","steam_id":76561198055611092,"connected_time":3251000000000,"state":"active","ping":63},{"user_id":86,"name":"Derpy Engineer HD","steam_id":76561198103184085,"connected_time":690000000000,"state":"active","ping":84},{"user_id":91,"name":"THE TOAD APPEARS ! ! !","steam_id":76561198870327755,"connected_time":547000000000,"state":"active","ping":81},{"user_id":92,"name":"Bingus","steam_id":76561198149152939,"connected_time":537000000000,"state":"active","ping":86},{"user_id":103,"name":"schlogy","steam_id":76561198129157178,"connected_time":32000000000,"state":"active","ping":88},{"user_id":64,"name":"ArikMor","steam_id":76561199124472513,"connected_time":2596000000000,"state":"active","ping":118},{"user_id":72,"name":"Thors","steam_id":76561197968739075,"connected_time":1706000000000,"state":"active","ping":33},{"user_id":69,"name":"DN77","steam_id":76561199121396324,"connected_time":2008000000000,"state":"active","ping":95},{"user_id":82,"name":"Autumnsky","steam_id":76561198055161203,"connected_time":1093000000000,"state":"active","ping":53},{"user_id":95,"name":"marti parti","steam_id":76561198410342598,"connected_time":410000000000,"state":"active","ping":84},{"user_id":39,"name":"Kruthal","steam_id":76561198245726582,"connected_time":3954000000000,"state":"active","ping":75},{"user_id":76,"name":"Û†Ä°Û†Ä°HELE","steam_id":76561198886612260,"connected_time":1669000000000,"state":"active","ping":70},{"user_id":94,"name":"Spoingus","steam_id":76561198161402859,"connected_time":523000000000,"state":"active","ping":80},{"user_id":77,"name":"disc0rd","steam_id":76561197985965776,"connected_time":1658000000000,"state":"active","ping":66}]},{"server_id":308,"name":"Uncletopia | Frankfurt | 3 | All Maps","name_short":"frk-3","host":"frk-1.de.uncletopia.com","port":27035,"enabled":true,"region":"eu","cc":"de","latitude":50.110924,"longitude":8.682127,"reserved":0,"last_update":"0001-01-01T00:00:00Z","name_a2s":"Uncletopia | Frankfurt | 3 | All Maps","protocol":17,"map":"pl_upward","folder":"tf","game":"Team Fortress","app_id":440,"player_count":24,"max_players":24,"Bots":0,"server_type":"Dedicated","server_os":"Linux","password":true,"vac":true,"version":"7757534","steam_id":85568392924504274,"keywords":["nocrits","nodmgspread","payload","uncletopia"],"game_id":440,"stv_port":27036,"stv_name":"Uncletopia | Frankfurt | 3 | All Maps | STV","players":[{"user_id":95,"name":"balls2","steam_id":76561198018757672,"connected_time":3367000000000,"state":"active","ping":82},{"user_id":100,"name":"Mor'du","steam_id":76561198274105878,"connected_time":2802000000000,"state":"active","ping":76},{"user_id":138,"name":"ko4ake","steam_id":76561199231825575,"connected_time":188000000000,"state":"active","ping":76},{"user_id":109,"name":"Rin-Nakaret","steam_id":76561197971051188,"connected_time":1996000000000,"state":"active","ping":73},{"user_id":128,"name":"Zelmor","steam_id":76561197997708311,"connected_time":899000000000,"state":"active","ping":45},{"user_id":132,"name":"astigmatic","steam_id":76561199103959197,"connected_time":547000000000,"state":"active","ping":97},{"user_id":116,"name":"Slav-matros","steam_id":76561198251977912,"connected_time":1517000000000,"state":"active","ping":56},{"user_id":82,"name":"After8","steam_id":76561198090750865,"connected_time":4043000000000,"state":"active","ping":65},{"user_id":118,"name":"Edge","steam_id":76561198223956388,"connected_time":1168000000000,"state":"active","ping":81},{"user_id":88,"name":"glyph","steam_id":76561197980736364,"connected_time":3546000000000,"state":"active","ping":87},{"user_id":108,"name":"4","steam_id":76561197964945192,"connected_time":2301000000000,"state":"active","ping":48},{"user_id":123,"name":"JohkupohkuXD","steam_id":76561198391108762,"connected_time":1126000000000,"state":"active","ping":82},{"user_id":121,"name":"chr","steam_id":76561198073016365,"connected_time":1144000000000,"state":"active","ping":79},{"user_id":113,"name":"ALARM","steam_id":76561198120686521,"connected_time":1616000000000,"state":"active","ping":50},{"user_id":122,"name":"wootabs","steam_id":76561198831766743,"connected_time":1138000000000,"state":"active","ping":71},{"user_id":73,"name":"scorch shot main","steam_id":76561198083615367,"connected_time":5210000000000,"state":"active","ping":51},{"user_id":130,"name":"Bat in a thousand","steam_id":76561198320506848,"connected_time":721000000000,"state":"active","ping":51},{"user_id":94,"name":"mercenarypit","steam_id":76561198161935108,"connected_time":3384000000000,"state":"active","ping":61},{"user_id":77,"name":"Xx_„Åà„Å™„Å™„ÇìxX69","steam_id":76561199427679148,"connected_time":4222000000000,"state":"active","ping":107},{"user_id":140,"name":"Adam","steam_id":76561198045660732,"connected_time":66000000000,"state":"active","ping":64},{"user_id":139,"name":"ok","steam_id":76561198044451693,"connected_time":186000000000,"state":"active","ping":105},{"user_id":32,"name":"Pico","steam_id":76561198063552545,"connected_time":8285000000000,"state":"active","ping":100},{"user_id":135,"name":"Lordware","steam_id":76561198022011299,"connected_time":506000000000,"state":"active","ping":85},{"user_id":137,"name":"Builder2395","steam_id":76561198133246006,"connected_time":399000000000,"state":"active","ping":71}]},{"server_id":309,"name":"Uncletopia | Frankfurt | 4 | All Maps","name_short":"frk-4","host":"frk-1.de.uncletopia.com","port":27045,"enabled":true,"region":"eu","cc":"de","latitude":50.110924,"longitude":8.682127,"reserved":0,"last_update":"0001-01-01T00:00:00Z","name_a2s":"Uncletopia | Frankfurt | 4 | All Maps","protocol":17,"map":"pl_frontier_final","folder":"tf","game":"Team Fortress","app_id":440,"player_count":24,"max_players":24,"Bots":0,"server_type":"Dedicated","server_os":"Linux","password":true,"vac":true,"version":"7757534","steam_id":85568392924504275,"keywords":["nocrits","nodmgspread","payload","uncletopia"],"game_id":440,"stv_port":27046,"stv_name":"Uncletopia | Frankfurt | 4 | All Maps | STV","players":[{"user_id":397,"name":"hey kid, wanna see my Octagon?","steam_id":76561198066287297,"connected_time":2154000000000,"state":"active","ping":45},{"user_id":425,"name":"Swedish Vegan","steam_id":76561198042775020,"connected_time":473000000000,"state":"active","ping":77},{"user_id":432,"name":"Daniel Day-Lewis","steam_id":76561198147249160,"connected_time":255000000000,"state":"active","ping":102},{"user_id":418,"name":"A non elite gamer","steam_id":76561199040460389,"connected_time":835000000000,"state":"active","ping":96},{"user_id":426,"name":"PilloF","steam_id":76561198088635943,"connected_time":425000000000,"state":"active","ping":70},{"user_id":439,"name":"Nightmare Tune","steam_id":76561198880493433,"connected_time":0,"state":"connecting","ping":0},{"user_id":396,"name":"joe","steam_id":76561198026484403,"connected_time":2165000000000,"state":"active","ping":66},{"user_id":428,"name":"decomposing like a dead rose","steam_id":76561198147277460,"connected_time":397000000000,"state":"active","ping":60},{"user_id":384,"name":"Pingutaro","steam_id":76561198112803718,"connected_time":3331000000000,"state":"active","ping":67},{"user_id":385,"name":"Explosive_kink","steam_id":76561198998702838,"connected_time":3323000000000,"state":"active","ping":69},{"user_id":433,"name":"Msuni","steam_id":76561198334903726,"connected_time":251000000000,"state":"active","ping":81},{"user_id":429,"name":"mercedes nuts","steam_id":76561198023211417,"connected_time":385000000000,"state":"active","ping":63},{"user_id":363,"name":"posht0O \u003e:)","steam_id":76561198106182078,"connected_time":5122000000000,"state":"active","ping":97},{"user_id":430,"name":"Sketch gaming","steam_id":76561198863658864,"connected_time":345000000000,"state":"active","ping":59},{"user_id":431,"name":"purrrr","steam_id":76561198184881255,"connected_time":324000000000,"state":"active","ping":75},{"user_id":435,"name":"PuutarhaTonttu","steam_id":76561198864628661,"connected_time":157000000000,"state":"active","ping":74},{"user_id":436,"name":"R0X","steam_id":76561198047876624,"connected_time":154000000000,"state":"active","ping":73},{"user_id":408,"name":"Maestro_69","steam_id":76561199153246582,"connected_time":1604000000000,"state":"active","ping":146},{"user_id":437,"name":"Z√°por√°k","steam_id":76561198207175503,"connected_time":134000000000,"state":"active","ping":56},{"user_id":424,"name":"Doctor Mobius","steam_id":76561197971281806,"connected_time":563000000000,"state":"active","ping":65},{"user_id":438,"name":"Seb, Comrade","steam_id":76561198040279587,"connected_time":128000000000,"state":"active","ping":105},{"user_id":412,"name":"HRCR118","steam_id":76561199146388596,"connected_time":1454000000000,"state":"active","ping":122},{"user_id":381,"name":"Spetse","steam_id":76561197990649972,"connected_time":3587000000000,"state":"active","ping":85},{"user_id":417,"name":"kamekame","steam_id":76561198047108054,"connected_time":1017000000000,"state":"active","ping":94}]},{"server_id":310,"name":"Uncletopia | Frankfurt | 5 | All Maps","name_short":"frk-5","host":"frk-1.de.uncletopia.com","port":27055,"enabled":true,"region":"eu","cc":"de","latitude":50.110924,"longitude":8.682127,"reserved":0,"last_update":"0001-01-01T00:00:00Z","name_a2s":"Uncletopia | Frankfurt | 5 | All Maps","protocol":17,"map":"pl_frontier_final","folder":"tf","game":"Team Fortress","app_id":440,"player_count":1,"max_players":24,"Bots":0,"server_type":"Dedicated","server_os":"Linux","password":true,"vac":true,"version":"7757534","steam_id":85568392924504277,"keywords":["nocrits","nodmgspread","payload","uncletopia"],"game_id":440,"stv_port":27056,"stv_name":"Uncletopia | Frankfurt | 5 | All Maps | STV","players":[{"user_id":34,"name":"poopygamer93 (very racist)","steam_id":76561199100040000,"connected_time":27000000000,"state":"active","ping":68}]},{"server_id":311,"name":"Uncletopia | Frankfurt | 6 | All Maps","name_short":"frk-6","host":"frk-1.de.uncletopia.com","port":27065,"enabled":true,"region":"eu","cc":"de","latitude":50.110924,"longitude":8.682127,"reserved":0,"last_update":"0001-01-01T00:00:00Z","name_a2s":"Uncletopia | Frankfurt | 6 | All Maps","protocol":17,"map":"pl_snowycoast","folder":"tf","game":"Team Fortress","app_id":440,"player_count":24,"max_players":24,"Bots":0,"server_type":"Dedicated","server_os":"Linux","password":true,"vac":true,"version":"7757534","steam_id":85568392924504278,"keywords":["nocrits","nodmgspread","payload","uncletopia"],"game_id":440,"stv_port":27066,"stv_name":"Uncletopia | Frankfurt | 6 | All Maps | STV","players":[{"user_id":51,"name":"Gman","steam_id":76561199135387666,"connected_time":693000000000,"state":"active","ping":100},{"user_id":52,"name":"Tedkon","steam_id":76561198034141061,"connected_time":686000000000,"state":"active","ping":143},{"user_id":15,"name":"joe mama","steam_id":76561198162446976,"connected_time":3227000000000,"state":"active","ping":51},{"user_id":16,"name":"WAGOOGUS","steam_id":76561198195893307,"connected_time":3222000000000,"state":"active","ping":63},{"user_id":34,"name":"Fratm_Wolf","steam_id":76561199100512277,"connected_time":1227000000000,"state":"active","ping":60},{"user_id":53,"name":"Covetousix","steam_id":76561198293936824,"connected_time":461000000000,"state":"active","ping":81},{"user_id":54,"name":"holykyckling","steam_id":76561198040661615,"connected_time":458000000000,"state":"active","ping":75},{"user_id":23,"name":"Balls","steam_id":76561198086400484,"connected_time":1793000000000,"state":"active","ping":85},{"user_id":43,"name":"SHIMMY GETS GRABED","steam_id":76561198106049954,"connected_time":994000000000,"state":"active","ping":81},{"user_id":30,"name":"butt tickling bandit","steam_id":76561198884449271,"connected_time":1363000000000,"state":"active","ping":56},{"user_id":26,"name":"jonbob","steam_id":76561197963506620,"connected_time":1435000000000,"state":"active","ping":66},{"user_id":41,"name":"the drip is real","steam_id":76561199033066517,"connected_time":1031000000000,"state":"active","ping":86},{"user_id":29,"name":"Lux","steam_id":76561198060417740,"connected_time":1396000000000,"state":"active","ping":46},{"user_id":55,"name":"Brinier","steam_id":76561199012604288,"connected_time":396000000000,"state":"active","ping":68},{"user_id":58,"name":"porta","steam_id":76561198876318011,"connected_time":57000000000,"state":"active","ping":59},{"user_id":35,"name":"Guy with squares as username","steam_id":76561198269524918,"connected_time":1227000000000,"state":"active","ping":60},{"user_id":36,"name":"Szaleniec","steam_id":76561198018261588,"connected_time":1188000000000,"state":"active","ping":71},{"user_id":39,"name":"œÉsiris","steam_id":76561198050791602,"connected_time":1055000000000,"state":"active","ping":45},{"user_id":40,"name":"Lyra","steam_id":76561198043601838,"connected_time":1054000000000,"state":"active","ping":60},{"user_id":44,"name":"lettuce at 58p","steam_id":76561199401283123,"connected_time":917000000000,"state":"active","ping":59},{"user_id":45,"name":"Speibsackerl","steam_id":76561198058135257,"connected_time":894000000000,"state":"active","ping":72},{"user_id":47,"name":"Russenluster","steam_id":76561198118016220,"connected_time":882000000000,"state":"active","ping":59},{"user_id":57,"name":"Wujek Cacek","steam_id":76561198010267943,"connected_time":310000000000,"state":"active","ping":72},{"user_id":50,"name":"Chambersite","steam_id":76561198197022399,"connected_time":821000000000,"state":"active","ping":67}]},{"server_id":23,"name":"Uncletopia | Frankfurt | 7 | Stopwatch Beta","name_short":"frk-7","host":"frk-1.de.uncletopia.com","port":27075,"enabled":true,"region":"eu","cc":"de","latitude":50.110924,"longitude":8.682127,"reserved":0,"last_update":"0001-01-01T00:00:00Z","name_a2s":"Uncletopia | Frankfurt | 7 | Stopwatch Beta","protocol":17,"map":"workshop/koth_ramjam_rc1.ugc459778887","folder":"tf","game":"Team Fortress","app_id":440,"player_count":0,"max_players":24,"Bots":0,"server_type":"Dedicated","server_os":"Linux","password":true,"vac":true,"version":"7757534","steam_id":85568392924742827,"keywords":["cp","nocrits","nodmgspread","uncletopia"],"game_id":440,"stv_port":27076,"stv_name":"Uncletopia | Frankfurt | 7 | Stopwatch Beta | STV","players":null},{"server_id":24,"name":"Uncletopia | Frankfurt | 8 | Community","name_short":"frk-8","host":"frk-1.de.uncletopia.com","port":27085,"enabled":true,"region":"eu","cc":"de","latitude":50.110924,"longitude":8.682127,"reserved":0,"last_update":"0001-01-01T00:00:00Z","name_a2s":"Uncletopia | Frankfurt | 8 | Community","protocol":17,"map":"workshop/pl_badwater_pro_v12.ugc2142942074","folder":"tf","game":"Team Fortress","app_id":440,"player_count":0,"max_players":24,"Bots":0,"server_type":"Dedicated","server_os":"Linux","password":true,"vac":true,"version":"7757534","steam_id":85568392924742828,"keywords":["nocrits","nodmgspread","payload","uncletopia"],"game_id":440,"stv_port":27086,"stv_name":"Uncletopia | Frankfurt | 8 | Community | STV","players":null},{"server_id":202,"name":"Uncletopia | Hong Kong | 1 | All Maps","name_short":"hgk-1","host":"hgk-1.hk.uncletopia.com","port":27015,"enabled":true,"region":"asia","cc":"hk","latitude":22.302711,"longitude":114.177216,"reserved":0,"last_update":"0001-01-01T00:00:00Z","name_a2s":"Uncletopia | Hong Kong | 1 | All Maps","protocol":17,"map":"pl_snowycoast","folder":"tf","game":"Team Fortress","app_id":440,"player_count":0,"max_players":24,"Bots":0,"server_type":"Dedicated","server_os":"Linux","password":true,"vac":true,"version":"7757534","steam_id":85568392924494504,"keywords":["nocrits","nodmgspread","payload","uncletopia"],"game_id":440,"stv_port":27016,"stv_name":"Uncletopia | Hong Kong | 1 | All Maps | STV","players":null},{"server_id":1,"name":"Uncletopia | Los Angeles | 1 | All Maps","name_short":"lax-1","host":"lax-1.us.uncletopia.com","port":27015,"enabled":true,"region":"us-west","cc":"us","latitude":33.94279,"longitude":-118.41004,"reserved":0,"last_update":"0001-01-01T00:00:00Z","name_a2s":"Uncletopia | Los Angeles | 1 | All Maps","protocol":17,"map":"koth_viaduct","folder":"tf","game":"Team Fortress","app_id":440,"player_count":0,"max_players":24,"Bots":0,"server_type":"Dedicated","server_os":"Linux","password":true,"vac":true,"version":"7757534","steam_id":85568392924469991,"keywords":["cp","nocrits","nodmgspread","uncletopia"],"game_id":440,"stv_port":27016,"stv_name":"Uncletopia | Los Angeles | 1 | All Maps | STV","players":null},{"server_id":112,"name":"Uncletopia | Los Angeles | 2 | All Maps","name_short":"lax-2","host":"lax-1.us.uncletopia.com","port":27025,"enabled":true,"region":"us-west","cc":"us","latitude":33.94279,"longitude":-118.41004,"reserved":0,"last_update":"0001-01-01T00:00:00Z","name_a2s":"Uncletopia | Los Angeles | 2 | All Maps","protocol":17,"map":"koth_cascade","folder":"tf","game":"Team Fortress","app_id":440,"player_count":0,"max_players":24,"Bots":0,"server_type":"Dedicated","server_os":"Linux","password":true,"vac":true,"version":"7757534","steam_id":85568392924469992,"keywords":["cp","nocrits","nodmgspread","uncletopia"],"game_id":440,"stv_port":27026,"stv_name":"Uncletopia | Los Angeles | 2 | All Maps | STV","players":null},{"server_id":324,"name":"Uncletopia | Los Angeles | 3 | All Maps","name_short":"lax-3","host":"lax-1.us.uncletopia.com","port":27035,"enabled":true,"region":"us-west","cc":"us","latitude":33.94279,"longitude":-118.41004,"reserved":0,"last_update":"0001-01-01T00:00:00Z","name_a2s":"Uncletopia | Los Angeles | 3 | All Maps","protocol":17,"map":"pl_pier","folder":"tf","game":"Team Fortress","app_id":440,"player_count":0,"max_players":24,"Bots":0,"server_type":"Dedicated","server_os":"Linux","password":true,"vac":true,"version":"7757534","steam_id":85568392924510198,"keywords":["nocrits","nodmgspread","payload","uncletopia"],"game_id":440,"stv_port":27036,"stv_name":"Uncletopia | Los Angeles | 3 | All Maps | STV","players":null},{"server_id":25,"name":"Uncletopia | Los Angeles | 4 | Stopwatch Beta","name_short":"lax-4","host":"lax-1.us.uncletopia.com","port":27045,"enabled":true,"region":"us-west","cc":"us","latitude":33.94279,"longitude":-118.41004,"reserved":0,"last_update":"0001-01-01T00:00:00Z","name_a2s":"Uncletopia | Los Angeles | 4 | Stopwatch Beta","protocol":17,"map":"pl_frontier_final","folder":"tf","game":"Team Fortress","app_id":440,"player_count":0,"max_players":24,"Bots":0,"server_type":"Dedicated","server_os":"Linux","password":true,"vac":true,"version":"7757534","steam_id":85568392924510199,"keywords":["nocrits","nodmgspread","payload","uncletopia"],"game_id":440,"stv_port":27046,"stv_name":"Uncletopia | Los Angeles | 4 | Stopwatch Beta | STV","players":null},{"server_id":11,"name":"Uncletopia | London | 1 | All Maps","name_short":"lon-1","host":"lon-1.uk.uncletopia.com","port":27015,"enabled":true,"region":"eu","cc":"gb","latitude":51.509865,"longitude":-0.118092,"reserved":0,"last_update":"0001-01-01T00:00:00Z","name_a2s":"Uncletopia | London | 1 | All Maps","protocol":17,"map":"pl_upward","folder":"tf","game":"Team Fortress","app_id":440,"player_count":24,"max_players":24,"Bots":0,"server_type":"Dedicated","server_os":"Linux","password":true,"vac":true,"version":"7757534","steam_id":85568392924367362,"keywords":["nocrits","nodmgspread","payload","uncletopia"],"game_id":440,"stv_port":27016,"stv_name":"Uncletopia | London | 1 | All Maps | STV","players":[{"user_id":575,"name":"most sane mentalist","steam_id":76561198310095220,"connected_time":918000000000,"state":"active","ping":30},{"user_id":516,"name":"Sandshee","steam_id":76561198088574666,"connected_time":4612000000000,"state":"active","ping":43},{"user_id":567,"name":"Dr Sex","steam_id":76561198029044617,"connected_time":1382000000000,"state":"active","ping":51},{"user_id":576,"name":"Bloody","steam_id":76561198005754592,"connected_time":800000000000,"state":"active","ping":73},{"user_id":578,"name":"Majami","steam_id":76561198054365738,"connected_time":69000000000,"state":"active","ping":90},{"user_id":579,"name":"IcyDaily","steam_id":76561199443789798,"connected_time":58000000000,"state":"active","ping":62},{"user_id":573,"name":"„ÉÜ„Ç§„É´„Çπ","steam_id":76561198022403271,"connected_time":997000000000,"state":"active","ping":46},{"user_id":556,"name":"Wattseyy","steam_id":76561198248567360,"connected_time":1848000000000,"state":"active","ping":31},{"user_id":481,"name":"ThatGamingKiwi","steam_id":76561199170522237,"connected_time":7638000000000,"state":"active","ping":148},{"user_id":512,"name":"Andreyka","steam_id":76561198038447927,"connected_time":5039000000000,"state":"active","ping":116},{"user_id":533,"name":"Penis Contortionist","steam_id":76561198073663784,"connected_time":3370000000000,"state":"active","ping":40},{"user_id":574,"name":"Solymr ibn Wali Barad","steam_id":76561198044008976,"connected_time":994000000000,"state":"active","ping":54},{"user_id":565,"name":"Commander DM","steam_id":76561198059236770,"connected_time":1683000000000,"state":"active","ping":72},{"user_id":558,"name":"AfricanCommie","steam_id":76561198798803845,"connected_time":1824000000000,"state":"active","ping":46},{"user_id":571,"name":"Doofenshmirtz","steam_id":76561199095819413,"connected_time":1150000000000,"state":"active","ping":68},{"user_id":570,"name":"r yw","steam_id":76561198088624259,"connected_time":1172000000000,"state":"active","ping":60},{"user_id":555,"name":"Dolcelatte","steam_id":76561198038501770,"connected_time":2025000000000,"state":"active","ping":62},{"user_id":563,"name":"Orange Catface","steam_id":76561198963378933,"connected_time":1771000000000,"state":"active","ping":44},{"user_id":572,"name":"VolcanicArts","steam_id":76561198063453246,"connected_time":1054000000000,"state":"active","ping":51},{"user_id":577,"name":"JordanMJenkins","steam_id":76561198045493233,"connected_time":296000000000,"state":"active","ping":39},{"user_id":580,"name":"Cogsworth","steam_id":76561198101859889,"connected_time":30000000000,"state":"active","ping":151},{"user_id":560,"name":"tactical783","steam_id":76561199051688560,"connected_time":1787000000000,"state":"active","ping":76},{"user_id":550,"name":"banyesz","steam_id":76561198152997658,"connected_time":2509000000000,"state":"active","ping":89},{"user_id":561,"name":"antlionguard","steam_id":76561198072747143,"connected_time":1787000000000,"state":"active","ping":109}]},{"server_id":114,"name":"Uncletopia | London | 2 | All Maps","name_short":"lon-2","host":"lon-1.uk.uncletopia.com","port":27025,"enabled":true,"region":"eu","cc":"gb","latitude":51.509865,"longitude":-0.118092,"reserved":0,"last_update":"0001-01-01T00:00:00Z","name_a2s":"Uncletopia | London | 2 | All Maps","protocol":17,"map":"pl_badwater","folder":"tf","game":"Team Fortress","app_id":440,"player_count":24,"max_players":24,"Bots":0,"server_type":"Dedicated","server_os":"Linux","password":true,"vac":true,"version":"7757534","steam_id":85568392924470941,"keywords":["nocrits","nodmgspread","payload","uncletopia"],"game_id":440,"stv_port":27026,"stv_name":"Uncletopia | London | 2 | All Maps | STV","players":[{"user_id":60,"name":"When Life gives you Lemons","steam_id":76561198318290663,"connected_time":1233000000000,"state":"active","ping":58},{"user_id":55,"name":"MentleGen","steam_id":76561198061190210,"connected_time":1547000000000,"state":"active","ping":46},{"user_id":83,"name":"Vitamin Weee","steam_id":76561199183937747,"connected_time":79000000000,"state":"active","ping":88},{"user_id":57,"name":"bobek","steam_id":76561198092312720,"connected_time":1465000000000,"state":"active","ping":63},{"user_id":16,"name":"Dr. Cox","steam_id":76561198246629218,"connected_time":2945000000000,"state":"active","ping":100},{"user_id":66,"name":"Alpaca","steam_id":76561198071132354,"connected_time":875000000000,"state":"active","ping":103},{"user_id":67,"name":"quickfast","steam_id":76561199438900919,"connected_time":860000000000,"state":"active","ping":44},{"user_id":47,"name":"Major","steam_id":76561198086483282,"connected_time":1979000000000,"state":"active","ping":45},{"user_id":79,"name":"System","steam_id":76561199442503973,"connected_time":269000000000,"state":"active","ping":59},{"user_id":77,"name":"Fran","steam_id":76561199070516960,"connected_time":485000000000,"state":"active","ping":80},{"user_id":71,"name":"_zipfile","steam_id":76561198066133808,"connected_time":567000000000,"state":"active","ping":71},{"user_id":72,"name":"P Diddy","steam_id":76561198829344838,"connected_time":561000000000,"state":"active","ping":48},{"user_id":69,"name":"Wuffington","steam_id":76561198033762881,"connected_time":813000000000,"state":"active","ping":50},{"user_id":64,"name":"Hash09","steam_id":76561198858691080,"connected_time":1079000000000,"state":"active","ping":126},{"user_id":82,"name":"Salami","steam_id":76561197990985059,"connected_time":133000000000,"state":"active","ping":69},{"user_id":80,"name":"EdSuedi","steam_id":76561199387956486,"connected_time":220000000000,"state":"active","ping":60},{"user_id":81,"name":"Aregularhuman","steam_id":76561198343319848,"connected_time":199000000000,"state":"active","ping":46},{"user_id":36,"name":"Uncle Owen","steam_id":76561198157999291,"connected_time":2325000000000,"state":"active","ping":90},{"user_id":78,"name":"Topia","steam_id":76561198163571788,"connected_time":340000000000,"state":"active","ping":106},{"user_id":76,"name":"Adopted?","steam_id":76561198118667043,"connected_time":506000000000,"state":"active","ping":50},{"user_id":40,"name":"SPONGE","steam_id":76561198040933472,"connected_time":2197000000000,"state":"active","ping":63},{"user_id":42,"name":"Tomau5","steam_id":76561198027409468,"connected_time":2167000000000,"state":"active","ping":57},{"user_id":53,"name":"Clitorina","steam_id":76561198077570815,"connected_time":1621000000000,"state":"active","ping":42},{"user_id":45,"name":"thatoneguy","steam_id":76561199010480747,"connected_time":2057000000000,"state":"active","ping":157}]},{"server_id":320,"name":"Uncletopia | London | 3 | All Maps","name_short":"lon-3","host":"lon-1.uk.uncletopia.com","port":27035,"enabled":true,"region":"eu","cc":"gb","latitude":51.509865,"longitude":-0.118092,"reserved":0,"last_update":"0001-01-01T00:00:00Z","name_a2s":"Uncletopia | London | 3 | All Maps","protocol":17,"map":"pl_snowycoast","folder":"tf","game":"Team Fortress","app_id":440,"player_count":24,"max_players":24,"Bots":0,"server_type":"Dedicated","server_os":"Linux","password":true,"vac":true,"version":"7757534","steam_id":85568392924510192,"keywords":["nocrits","nodmgspread","payload","uncletopia"],"game_id":440,"stv_port":27036,"stv_name":"Uncletopia | London | 3 | All Maps | STV","players":[{"user_id":450,"name":"no. 1 lucki fan","steam_id":76561198022382969,"connected_time":1122000000000,"state":"active","ping":75},{"user_id":387,"name":"Shibus","steam_id":76561198077328359,"connected_time":5367000000000,"state":"active","ping":55},{"user_id":430,"name":"frosty","steam_id":76561198094560834,"connected_time":2358000000000,"state":"active","ping":49},{"user_id":454,"name":"CalicoCat12","steam_id":76561198081933130,"connected_time":653000000000,"state":"active","ping":62},{"user_id":429,"name":"jovi_","steam_id":76561198449280552,"connected_time":2460000000000,"state":"active","ping":49},{"user_id":427,"name":"Saul Goodman","steam_id":76561199256645319,"connected_time":2524000000000,"state":"active","ping":115},{"user_id":458,"name":"MaypulSoyrup","steam_id":76561199213966821,"connected_time":508000000000,"state":"active","ping":73},{"user_id":410,"name":"Mafew","steam_id":76561198119993886,"connected_time":3709000000000,"state":"active","ping":56},{"user_id":465,"name":"MIMI:CS","steam_id":76561198255389232,"connected_time":95000000000,"state":"spawning","ping":57},{"user_id":460,"name":"CouT1nho","steam_id":76561198203926376,"connected_time":353000000000,"state":"active","ping":38},{"user_id":466,"name":"Magica","steam_id":76561198965200359,"connected_time":61000000000,"state":"active","ping":75},{"user_id":457,"name":"Qxillum","steam_id":76561198037201297,"connected_time":571000000000,"state":"active","ping":54},{"user_id":463,"name":"DEADASS","steam_id":76561198051701484,"connected_time":154000000000,"state":"active","ping":65},{"user_id":437,"name":"Baguette","steam_id":76561199069435825,"connected_time":2179000000000,"state":"active","ping":48},{"user_id":461,"name":"Big Balls Bill","steam_id":76561198045998627,"connected_time":261000000000,"state":"active","ping":46},{"user_id":445,"name":"Mowelic","steam_id":76561198873641222,"connected_time":1493000000000,"state":"active","ping":90},{"user_id":455,"name":"Shlongulator","steam_id":76561198149779201,"connected_time":643000000000,"state":"active","ping":54},{"user_id":334,"name":"john fortress","steam_id":76561198013237629,"connected_time":7750000000000,"state":"active","ping":87},{"user_id":424,"name":"dongus","steam_id":76561198042774930,"connected_time":2651000000000,"state":"active","ping":66},{"user_id":462,"name":"Pottery Knight","steam_id":76561198094455814,"connected_time":255000000000,"state":"active","ping":99},{"user_id":434,"name":"mimi","steam_id":76561198060648946,"connected_time":2238000000000,"state":"active","ping":63},{"user_id":442,"name":"Micha≈Ç","steam_id":76561198320346362,"connected_time":1802000000000,"state":"active","ping":70},{"user_id":464,"name":"Posture Check","steam_id":76561198053897197,"connected_time":115000000000,"state":"active","ping":40},{"user_id":446,"name":"PotatoBob","steam_id":76561199192517531,"connected_time":1392000000000,"state":"active","ping":62}]},{"server_id":321,"name":"Uncletopia | London | 4 | All Maps","name_short":"lon-4","host":"lon-1.uk.uncletopia.com","port":27045,"enabled":true,"region":"eu","cc":"gb","latitude":51.509865,"longitude":-0.118092,"reserved":0,"last_update":"0001-01-01T00:00:00Z","name_a2s":"Uncletopia | London | 4 | All Maps","protocol":17,"map":"pl_frontier_final","folder":"tf","game":"Team Fortress","app_id":440,"player_count":24,"max_players":24,"Bots":0,"server_type":"Dedicated","server_os":"Linux","password":true,"vac":true,"version":"7757534","steam_id":85568392924510193,"keywords":["nocrits","nodmgspread","payload","uncletopia"],"game_id":440,"stv_port":27046,"stv_name":"Uncletopia | London | 4 | All Maps | STV","players":[{"user_id":327,"name":"awsomemcawsome","steam_id":76561198223232604,"connected_time":549000000000,"state":"active","ping":62},{"user_id":328,"name":"washed up","steam_id":76561198275742101,"connected_time":400000000000,"state":"active","ping":68},{"user_id":262,"name":"Luuk","steam_id":76561198088266026,"connected_time":5962000000000,"state":"active","ping":34},{"user_id":309,"name":"Tata Cobraz0r","steam_id":76561198017693962,"connected_time":1438000000000,"state":"active","ping":84},{"user_id":331,"name":"Spoodie","steam_id":76561198981267180,"connected_time":323000000000,"state":"active","ping":76},{"user_id":329,"name":"Nobaddy","steam_id":76561198037871007,"connected_time":370000000000,"state":"active","ping":66},{"user_id":307,"name":"UNQ Mihai","steam_id":76561199181038346,"connected_time":2114000000000,"state":"active","ping":71},{"user_id":323,"name":"Gnarville","steam_id":76561198006373329,"connected_time":1203000000000,"state":"active","ping":47},{"user_id":172,"name":"Grillem Dafoe","steam_id":76561198306874574,"connected_time":12039000000000,"state":"active","ping":67},{"user_id":334,"name":"yosh","steam_id":76561199316310715,"connected_time":36000000000,"state":"active","ping":104},{"user_id":330,"name":"HeresyMan","steam_id":76561198169154183,"connected_time":364000000000,"state":"active","ping":80},{"user_id":315,"name":"Stu","steam_id":76561198131449281,"connected_time":1392000000000,"state":"active","ping":46},{"user_id":332,"name":"Aash","steam_id":76561198041530759,"connected_time":174000000000,"state":"active","ping":55},{"user_id":319,"name":"Blind","steam_id":76561198310295139,"connected_time":1261000000000,"state":"active","ping":88},{"user_id":318,"name":"Farmercy","steam_id":76561198000038039,"connected_time":1267000000000,"state":"active","ping":71},{"user_id":322,"name":"WolfmanCZ","steam_id":76561199157141414,"connected_time":1234000000000,"state":"active","ping":77},{"user_id":270,"name":"Miczu555PL","steam_id":76561198058500895,"connected_time":5481000000000,"state":"active","ping":73},{"user_id":312,"name":"[dopijus]","steam_id":76561198943009513,"connected_time":1429000000000,"state":"active","ping":100},{"user_id":326,"name":"Jughead","steam_id":76561198000355410,"connected_time":726000000000,"state":"active","ping":48},{"user_id":299,"name":"Zerfesh","steam_id":76561198117534358,"connected_time":3291000000000,"state":"active","ping":93},{"user_id":310,"name":"Shovelhalfrusty","steam_id":76561198346447513,"connected_time":1433000000000,"state":"active","ping":74},{"user_id":333,"name":"Luk3","steam_id":76561198340519063,"connected_time":168000000000,"state":"active","ping":64},{"user_id":324,"name":"Ziy???","steam_id":76561197995765491,"connected_time":1143000000000,"state":"active","ping":48},{"user_id":306,"name":"SynthBox3","steam_id":76561199094075745,"connected_time":2216000000000,"state":"active","ping":104}]},{"server_id":21,"name":"Uncletopia | London | 5 | All Maps","name_short":"lon-5","host":"lon-1.uk.uncletopia.com","port":27055,"enabled":true,"region":"eu","cc":"gb","latitude":51.509865,"longitude":-0.118092,"reserved":0,"last_update":"0001-01-01T00:00:00Z","name_a2s":"Uncletopia | London | 5 | All Maps","protocol":17,"map":"plr_pipeline","folder":"tf","game":"Team Fortress","app_id":440,"player_count":4,"max_players":24,"Bots":0,"server_type":"Dedicated","server_os":"Linux","password":true,"vac":true,"version":"7757534","steam_id":85568392924742829,"keywords":["nocrits","nodmgspread","payload","uncletopia"],"game_id":440,"stv_port":27056,"stv_name":"Uncletopia | London | 5 | All Maps | STV","players":[{"user_id":7,"name":"Versus","steam_id":76561198882476443,"connected_time":396000000000,"state":"active","ping":85},{"user_id":11,"name":"Mr.Max","steam_id":76561198327872503,"connected_time":176000000000,"state":"active","ping":94},{"user_id":9,"name":"placuszek francuski","steam_id":76561198987229346,"connected_time":245000000000,"state":"active","ping":70},{"user_id":12,"name":"ran is running","steam_id":76561199443185667,"connected_time":68000000000,"state":"active","ping":132}]},{"server_id":22,"name":"Uncletopia | London | 6 | All Maps","name_short":"lon-6","host":"lon-1.uk.uncletopia.com","port":27065,"enabled":true,"region":"eu","cc":"gb","latitude":51.509865,"longitude":-0.118092,"reserved":0,"last_update":"0001-01-01T00:00:00Z","name_a2s":"Uncletopia | London | 6 | All Maps","protocol":17,"map":"koth_cascade","folder":"tf","game":"Team Fortress","app_id":440,"player_count":0,"max_players":24,"Bots":0,"server_type":"Dedicated","server_os":"Linux","password":true,"vac":true,"version":"7757534","steam_id":85568392924742830,"keywords":["cp","nocrits","nodmgspread","uncletopia"],"game_id":440,"stv_port":27066,"stv_name":"Uncletopia | London | 6 | All Maps | STV","players":null},{"server_id":40,"name":"Uncletopia | London | 7 | No Payload","name_short":"lon-7","host":"lon-1.uk.uncletopia.com","port":27075,"enabled":true,"region":"eu","cc":"gb","latitude":51.509865,"longitude":-0.118092,"reserved":0,"last_update":"0001-01-01T00:00:00Z","name_a2s":"Uncletopia | London | 7 | No Payload","protocol":17,"map":"cp_steel","folder":"tf","game":"Team Fortress","app_id":440,"player_count":9,"max_players":24,"Bots":0,"server_type":"Dedicated","server_os":"Linux","password":true,"vac":true,"version":"7757534","steam_id":85568392924964314,"keywords":["cp","nocrits","nodmgspread","uncletopia"],"game_id":440,"stv_port":27076,"stv_name":"Uncletopia | London | 7 | No Payload | STV","players":[{"user_id":301,"name":"llectorium","steam_id":76561198021504253,"connected_time":276000000000,"state":"active","ping":130},{"user_id":259,"name":"akakez","steam_id":76561198095432821,"connected_time":4166000000000,"state":"active","ping":111},{"user_id":296,"name":"BlueBlueFox","steam_id":76561198053817230,"connected_time":1137000000000,"state":"active","ping":91},{"user_id":298,"name":"fried","steam_id":76561198307522022,"connected_time":745000000000,"state":"active","ping":46},{"user_id":278,"name":"Wir suchen dich!","steam_id":76561198307613521,"connected_time":2366000000000,"state":"active","ping":58},{"user_id":303,"name":"brtaba","steam_id":76561198796334790,"connected_time":57000000000,"state":"active","ping":61},{"user_id":304,"name":"Our great leader, Stalin.","steam_id":76561198195695906,"connected_time":48000000000,"state":"active","ping":30},{"user_id":287,"name":"Septicmotion","steam_id":76561199090085056,"connected_time":1766000000000,"state":"active","ping":59},{"user_id":270,"name":"Fat Pigeon","steam_id":76561198817940142,"connected_time":3217000000000,"state":"active","ping":45}]},{"server_id":41,"name":"Uncletopia | London | 8 | Community","name_short":"lon-8","host":"lon-1.uk.uncletopia.com","port":27085,"enabled":true,"region":"eu","cc":"gb","latitude":51.509865,"longitude":-0.118092,"reserved":0,"last_update":"0001-01-01T00:00:00Z","name_a2s":"Uncletopia | London | 8 | Community","protocol":17,"map":"workshop/rd_asteroid_redux_b1.ugc2154902912","folder":"tf","game":"Team Fortress","app_id":440,"player_count":0,"max_players":24,"Bots":0,"server_type":"Dedicated","server_os":"Linux","password":true,"vac":true,"version":"7757534","steam_id":85568392924964315,"keywords":["beta","nocrits","nodmgspread","rd","uncletopia"],"game_id":440,"stv_port":27086,"stv_name":"Uncletopia | London | 8 | Community | STV","players":null},{"server_id":300,"name":"Uncletopia | Montr√©al | 1 | All Maps","name_short":"mtl-1","host":"mtl-1.ca.uncletopia.com","port":27015,"enabled":true,"region":"us-east","cc":"ca","latitude":45.50889,"longitude":-73.56167,"reserved":0,"last_update":"0001-01-01T00:00:00Z","name_a2s":"Uncletopia | Montr√©al | 1 | All Maps","protocol":17,"map":"pl_snowycoast","folder":"tf","game":"Team Fortress","app_id":440,"player_count":0,"max_players":24,"Bots":0,"server_type":"Dedicated","server_os":"Linux","password":true,"vac":true,"version":"7757534","steam_id":85568392924500087,"keywords":["nocrits","nodmgspread","payload","uncletopia"],"game_id":440,"stv_port":27016,"stv_name":"Uncletopia | Montr√©al | 1 | All Maps | STV","players":null},{"server_id":301,"name":"Uncletopia | Montr√©al | 2 | All Maps","name_short":"mtl-2","host":"mtl-1.ca.uncletopia.com","port":27025,"enabled":true,"region":"us-east","cc":"ca","latitude":45.50889,"longitude":-73.56167,"reserved":0,"last_update":"0001-01-01T00:00:00Z","name_a2s":"Uncletopia | Montr√©al | 2 | All Maps","protocol":17,"map":"pl_snowycoast","folder":"tf","game":"Team Fortress","app_id":440,"player_count":0,"max_players":24,"Bots":0,"server_type":"Dedicated","server_os":"Linux","password":true,"vac":true,"version":"7757534","steam_id":85568392924500088,"keywords":["nocrits","nodmgspread","payload","uncletopia"],"game_id":440,"stv_port":27026,"stv_name":"Uncletopia | Montr√©al | 2 | All Maps | STV","players":null},{"server_id":302,"name":"Uncletopia | Montr√©al | 3 | All Maps","name_short":"mtl-3","host":"mtl-1.ca.uncletopia.com","port":27035,"enabled":true,"region":"us-east","cc":"ca","latitude":45.50889,"longitude":-73.56167,"reserved":0,"last_update":"0001-01-01T00:00:00Z","name_a2s":"Uncletopia | Montr√©al | 3 | All Maps","protocol":17,"map":"cp_dustbowl","folder":"tf","game":"Team Fortress","app_id":440,"player_count":0,"max_players":24,"Bots":0,"server_type":"Dedicated","server_os":"Linux","password":true,"vac":true,"version":"7757534","steam_id":85568392924500089,"keywords":["cp","nocrits","nodmgspread","uncletopia"],"game_id":440,"stv_port":27036,"stv_name":"Uncletopia | Montr√©al | 3 | All Maps | STV","players":null},{"server_id":303,"name":"Uncletopia | Montr√©al | 4 | No Payload","name_short":"mtl-4","host":"mtl-1.ca.uncletopia.com","port":27045,"enabled":true,"region":"us-east","cc":"ca","latitude":45.50889,"longitude":-73.56167,"reserved":0,"last_update":"0001-01-01T00:00:00Z","name_a2s":"Uncletopia | Montr√©al | 4 | No Payload","protocol":17,"map":"pl_borneo","folder":"tf","game":"Team Fortress","app_id":440,"player_count":0,"max_players":24,"Bots":0,"server_type":"Dedicated","server_os":"Linux","password":true,"vac":true,"version":"7757534","steam_id":85568392924500090,"keywords":["nocrits","nodmgspread","payload","uncletopia"],"game_id":440,"stv_port":27046,"stv_name":"Uncletopia | Montr√©al | 4 | No Payload | STV","players":null},{"server_id":13,"name":"Uncletopia | New York City | 1 | All Maps","name_short":"nyc-1","host":"nyc-1.us.uncletopia.com","port":27015,"enabled":true,"region":"us-east","cc":"us","latitude":40.73061,"longitude":-73.93524,"reserved":0,"last_update":"0001-01-01T00:00:00Z","name_a2s":"Uncletopia | New York City | 1 | All Maps","protocol":17,"map":"cp_sunshine","folder":"tf","game":"Team Fortress","app_id":440,"player_count":20,"max_players":24,"Bots":0,"server_type":"Dedicated","server_os":"Linux","password":true,"vac":true,"version":"7757534","steam_id":85568392924469993,"keywords":["cp","nocrits","nodmgspread","uncletopia"],"game_id":440,"stv_port":27016,"stv_name":"Uncletopia | New York City | 1 | All Maps | STV","players":[{"user_id":149,"name":"nforce","steam_id":76561198015525483,"connected_time":1695000000000,"state":"connecting","ping":86},{"user_id":175,"name":"Big Sauce","steam_id":76561198046654750,"connected_time":10000000000,"state":"connecting","ping":110},{"user_id":128,"name":"furnace_user","steam_id":76561197995620232,"connected_time":2696000000000,"state":"connecting","ping":43},{"user_id":163,"name":"Slashes","steam_id":76561197968573499,"connected_time":978000000000,"state":"connecting","ping":47},{"user_id":170,"name":"rudy","steam_id":76561198088712799,"connected_time":325000000000,"state":"connecting","ping":96},{"user_id":176,"name":"R3TR0OWL","steam_id":76561198271055229,"connected_time":4000000000,"state":"connecting","ping":143},{"user_id":153,"name":"Primitive","steam_id":76561198060500671,"connected_time":1278000000000,"state":"connecting","ping":51},{"user_id":154,"name":"gritty 2024","steam_id":76561198165567310,"connected_time":1231000000000,"state":"connecting","ping":55},{"user_id":155,"name":"CC-Crazy","steam_id":76561198805238059,"connected_time":1226000000000,"state":"connecting","ping":41},{"user_id":156,"name":"[WKB‚úø] ‰Ω†ÁöÑ‰Ω†","steam_id":76561198010094350,"connected_time":1152000000000,"state":"connecting","ping":89},{"user_id":174,"name":"Fribas","steam_id":76561198138502813,"connected_time":104000000000,"state":"connecting","ping":79},{"user_id":159,"name":"basiliotornado","steam_id":76561198409009569,"connected_time":1119000000000,"state":"connecting","ping":74},{"user_id":130,"name":"Squid121","steam_id":76561198038832034,"connected_time":2678000000000,"state":"connecting","ping":132},{"user_id":160,"name":"neet","steam_id":76561197968115168,"connected_time":1108000000000,"state":"connecting","ping":68},{"user_id":172,"name":"Gato","steam_id":76561198063521721,"connected_time":318000000000,"state":"connecting","ping":119},{"user_id":173,"name":"steelborg","steam_id":76561198427292802,"connected_time":228000000000,"state":"connecting","ping":113},{"user_id":165,"name":"ruimario","steam_id":76561198406752631,"connected_time":734000000000,"state":"connecting","ping":82},{"user_id":147,"name":"Frajer","steam_id":76561198059129680,"connected_time":1772000000000,"state":"connecting","ping":73},{"user_id":168,"name":"bape man","steam_id":76561198059128837,"connected_time":570000000000,"state":"connecting","ping":51},{"user_id":169,"name":"lost in spaaaaace","steam_id":76561199085974120,"connected_time":466000000000,"state":"connecting","ping":61}]},{"server_id":14,"name":"Uncletopia | New York City | 2 | All Maps","name_short":"nyc-2","host":"nyc-1.us.uncletopia.com","port":27025,"enabled":true,"region":"us-east","cc":"us","latitude":40.73061,"longitude":-73.93524,"reserved":0,"last_update":"0001-01-01T00:00:00Z","name_a2s":"Uncletopia | New York City | 2 | All Maps","protocol":17,"map":"pl_pier","folder":"tf","game":"Team Fortress","app_id":440,"player_count":0,"max_players":24,"Bots":0,"server_type":"Dedicated","server_os":"Linux","password":true,"vac":true,"version":"7757534","steam_id":85568392924469994,"keywords":["nocrits","nodmgspread","payload","uncletopia"],"game_id":440,"stv_port":27026,"stv_name":"Uncletopia | New York City | 2 | All Maps | STV","players":null},{"server_id":15,"name":"Uncletopia | New York City | 3 | Stopwatch Beta","name_short":"nyc-3","host":"nyc-1.us.uncletopia.com","port":27035,"enabled":true,"region":"us-east","cc":"us","latitude":40.73061,"longitude":-73.93524,"reserved":0,"last_update":"0001-01-01T00:00:00Z","name_a2s":"Uncletopia | New York City | 3 | Stopwatch Beta","protocol":17,"map":"cp_mountainlab","folder":"tf","game":"Team Fortress","app_id":440,"player_count":0,"max_players":24,"Bots":0,"server_type":"Dedicated","server_os":"Linux","password":true,"vac":true,"version":"7757534","steam_id":85568392924742820,"keywords":["cp","nocrits","nodmgspread","uncletopia"],"game_id":440,"stv_port":27036,"stv_name":"Uncletopia | New York City | 3 | Stopwatch Beta | STV","players":null},{"server_id":16,"name":"Uncletopia | New York City | 4 | Community","name_short":"nyc-4","host":"nyc-1.us.uncletopia.com","port":27045,"enabled":true,"region":"us-east","cc":"us","latitude":40.73061,"longitude":-73.93524,"reserved":0,"last_update":"0001-01-01T00:00:00Z","name_a2s":"Uncletopia | New York City | 4 | Community","protocol":17,"map":"pl_borneo","folder":"tf","game":"Team Fortress","app_id":440,"player_count":0,"max_players":24,"Bots":0,"server_type":"Dedicated","server_os":"Linux","password":true,"vac":true,"version":"7757534","steam_id":85568392924742821,"keywords":["nocrits","nodmgspread","payload","uncletopia"],"game_id":440,"stv_port":27046,"stv_name":"Uncletopia | New York City | 4 | Community | STV","players":null},{"server_id":142,"name":"Uncletopia | S√£o Paulo | 1 | All Maps","name_short":"sao-1","host":"sao-1.br.uncletopia.com","port":27015,"enabled":true,"region":"sa","cc":"br","latitude":-23.533773,"longitude":-46.62529,"reserved":0,"last_update":"0001-01-01T00:00:00Z","name_a2s":"Uncletopia | S√£o Paulo | 1 | All Maps","protocol":17,"map":"pl_snowycoast","folder":"tf","game":"Team Fortress","app_id":440,"player_count":0,"max_players":24,"Bots":0,"server_type":"Dedicated","server_os":"Linux","password":true,"vac":true,"version":"7757534","steam_id":85568392924469996,"keywords":["nocrits","nodmgspread","payload","uncletopia"],"game_id":440,"stv_port":27016,"stv_name":"Uncletopia | S√£o Paulo | 1 | All Maps | STV","players":null},{"server_id":143,"name":"Uncletopia | S√£o Paulo | 2 | All Maps","name_short":"sao-2","host":"sao-2.br.uncletopia.com","port":27015,"enabled":true,"region":"sa","cc":"br","latitude":-23.533773,"longitude":-46.62529,"reserved":0,"last_update":"0001-01-01T00:00:00Z","name_a2s":"Uncletopia | S√£o Paulo | 2 | All Maps","protocol":17,"map":"koth_lakeside_final","folder":"tf","game":"Team Fortress","app_id":440,"player_count":0,"max_players":24,"Bots":0,"server_type":"Dedicated","server_os":"Linux","password":true,"vac":true,"version":"7757534","steam_id":85568392924485349,"keywords":["cp","nocrits","nodmgspread","uncletopia"],"game_id":440,"stv_port":27016,"stv_name":"Uncletopia | S√£o Paulo | 2 | All Maps | STV","players":null},{"server_id":7,"name":"Uncletopia | Seattle | 1 | All Maps","name_short":"sea-1","host":"sea-1.us.uncletopia.com","port":27015,"enabled":true,"region":"us-west","cc":"us","latitude":47.608013,"longitude":-122.33517,"reserved":0,"last_update":"0001-01-01T00:00:00Z","name_a2s":"Uncletopia | Seattle | 1 | All Maps","protocol":17,"map":"pl_pier","folder":"tf","game":"Team Fortress","app_id":440,"player_count":1,"max_players":24,"Bots":0,"server_type":"Dedicated","server_os":"Linux","password":true,"vac":true,"version":"7757534","steam_id":85568392924469997,"keywords":["nocrits","nodmgspread","payload","uncletopia"],"game_id":440,"stv_port":27016,"stv_name":"Uncletopia | Seattle | 1 | All Maps | STV","players":[{"user_id":7,"name":"Strikerbolt","steam_id":76561199095622897,"connected_time":4000000000,"state":"spawning","ping":69}]},{"server_id":119,"name":"Uncletopia | Seattle | 2 | All Maps","name_short":"sea-2","host":"sea-1.us.uncletopia.com","port":27025,"enabled":true,"region":"us-west","cc":"us","latitude":47.608013,"longitude":-122.33517,"reserved":0,"last_update":"0001-01-01T00:00:00Z","name_a2s":"Uncletopia | Seattle | 2 | All Maps","protocol":17,"map":"cp_mountainlab","folder":"tf","game":"Team Fortress","app_id":440,"player_count":24,"max_players":24,"Bots":0,"server_type":"Dedicated","server_os":"Linux","password":true,"vac":true,"version":"7757534","steam_id":85568392924469998,"keywords":["cp","nocrits","nodmgspread","uncletopia"],"game_id":440,"stv_port":27026,"stv_name":"Uncletopia | Seattle | 2 | All Maps | STV","players":[{"user_id":6,"name":"volta","steam_id":76561199214283884,"connected_time":3374000000000,"state":"active","ping":147},{"user_id":7,"name":"Lightatex","steam_id":76561199068097196,"connected_time":3353000000000,"state":"active","ping":100},{"user_id":14,"name":"{907}DarkestFury","steam_id":76561198103662458,"connected_time":2920000000000,"state":"active","ping":71},{"user_id":33,"name":"Many Bees' Chilling","steam_id":76561198079641282,"connected_time":2242000000000,"state":"active","ping":56},{"user_id":10,"name":"laszlo","steam_id":76561198141198352,"connected_time":3052000000000,"state":"active","ping":94},{"user_id":63,"name":"so-and-so","steam_id":76561198325306660,"connected_time":432000000000,"state":"active","ping":57},{"user_id":40,"name":"trinqette","steam_id":76561198119543621,"connected_time":1986000000000,"state":"active","ping":90},{"user_id":44,"name":"The Pepsi¬Æ Superbowl¬Æ!","steam_id":76561198080828981,"connected_time":1788000000000,"state":"active","ping":78},{"user_id":61,"name":"Papa molk","steam_id":76561198101089862,"connected_time":595000000000,"state":"active","ping":69},{"user_id":50,"name":"Freeza","steam_id":76561198050341005,"connected_time":1543000000000,"state":"active","ping":55},{"user_id":65,"name":"Sloppy John (Extra Sauce)","steam_id":76561198359703432,"connected_time":284000000000,"state":"active","ping":74},{"user_id":34,"name":"Little Linguine","steam_id":76561198816986370,"connected_time":2140000000000,"state":"active","ping":60},{"user_id":52,"name":"mumbles","steam_id":76561197994528974,"connected_time":1450000000000,"state":"active","ping":88},{"user_id":36,"name":"MSIBoys","steam_id":76561198213692935,"connected_time":2042000000000,"state":"active","ping":88},{"user_id":38,"name":"Gammaplex","steam_id":76561198981228176,"connected_time":2037000000000,"state":"active","ping":102},{"user_id":56,"name":"Wackydavo","steam_id":76561197990094209,"connected_time":1271000000000,"state":"active","ping":115},{"user_id":29,"name":"Batso","steam_id":76561198106589452,"connected_time":2406000000000,"state":"active","ping":81},{"user_id":58,"name":"Œª","steam_id":76561198120426683,"connected_time":1146000000000,"state":"active","ping":57},{"user_id":39,"name":"xX„Éï„Ç°„Ç§„Ç¢„Éâ„É©„Ç¥„É≥xX","steam_id":76561198259852704,"connected_time":2029000000000,"state":"active","ping":86},{"user_id":57,"name":"Daxuran","steam_id":76561198136197524,"connected_time":1216000000000,"state":"active","ping":83},{"user_id":64,"name":"Dr. Hashbrown","steam_id":76561198410780370,"connected_time":341000000000,"state":"active","ping":68},{"user_id":43,"name":"eBay","steam_id":76561198061214569,"connected_time":1885000000000,"state":"active","ping":99},{"user_id":46,"name":"HE‚ÄôS IN THE GODDAMN WALLS","steam_id":76561198363267009,"connected_time":1689000000000,"state":"active","ping":96},{"user_id":47,"name":"Eminem","steam_id":76561198256677589,"connected_time":1616000000000,"state":"active","ping":89}]},{"server_id":406,"name":"Uncletopia | Seattle | 3 | Stopwatch Beta","name_short":"sea-3","host":"sea-1.us.uncletopia.com","port":27035,"enabled":true,"region":"us-west","cc":"us","latitude":47.608013,"longitude":-122.33517,"reserved":0,"last_update":"0001-01-01T00:00:00Z","name_a2s":"Uncletopia | Seattle | 3 | Stopwatch Beta","protocol":17,"map":"pl_barnblitz","folder":"tf","game":"Team Fortress","app_id":440,"player_count":0,"max_players":24,"Bots":0,"server_type":"Dedicated","server_os":"Linux","password":true,"vac":true,"version":"7757534","steam_id":85568392924515217,"keywords":["nocrits","nodmgspread","payload","uncletopia"],"game_id":440,"stv_port":27036,"stv_name":"Uncletopia | Seattle | 3 | Stopwatch Beta | STV","players":null},{"server_id":17,"name":"Uncletopia | San Francisco | 1 | All Maps","name_short":"sfo-1","host":"sfo-1.us.uncletopia.com","port":27015,"enabled":true,"region":"us-west","cc":"us","latitude":37.77397,"longitude":-122.4313,"reserved":0,"last_update":"0001-01-01T00:00:00Z","name_a2s":"Uncletopia | San Francisco | 1 | All Maps","protocol":17,"map":"cp_process_final","folder":"tf","game":"Team Fortress","app_id":440,"player_count":0,"max_players":24,"Bots":0,"server_type":"Dedicated","server_os":"Linux","password":true,"vac":true,"version":"7757534","steam_id":85568392924469999,"keywords":["cp","nocrits","nodmgspread","uncletopia"],"game_id":440,"stv_port":27016,"stv_name":"Uncletopia | San Francisco | 1 | All Maps | STV","players":null},{"server_id":18,"name":"Uncletopia | San Francisco | 2 | All Maps","name_short":"sfo-2","host":"sfo-1.us.uncletopia.com","port":27025,"enabled":true,"region":"us-west","cc":"us","latitude":37.77397,"longitude":-122.4313,"reserved":0,"last_update":"0001-01-01T00:00:00Z","name_a2s":"Uncletopia | San Francisco | 2 | All Maps","protocol":17,"map":"cp_sunshine","folder":"tf","game":"Team Fortress","app_id":440,"player_count":0,"max_players":24,"Bots":0,"server_type":"Dedicated","server_os":"Linux","password":true,"vac":true,"version":"7757534","steam_id":85568392924470000,"keywords":["cp","nocrits","nodmgspread","uncletopia"],"game_id":440,"stv_port":27026,"stv_name":"Uncletopia | San Francisco | 2 | All Maps | STV","players":null},{"server_id":19,"name":"Uncletopia | San Francisco | 3 | Stopwatch Beta","name_short":"sfo-3","host":"sfo-1.us.uncletopia.com","port":27035,"enabled":true,"region":"us-west","cc":"us","latitude":37.77397,"longitude":-122.4313,"reserved":0,"last_update":"0001-01-01T00:00:00Z","name_a2s":"Uncletopia | San Francisco | 3 | Stopwatch Beta","protocol":17,"map":"pl_borneo","folder":"tf","game":"Team Fortress","app_id":440,"player_count":0,"max_players":24,"Bots":0,"server_type":"Dedicated","server_os":"Linux","password":true,"vac":true,"version":"7757534","steam_id":85568392924742824,"keywords":["nocrits","nodmgspread","payload","uncletopia"],"game_id":440,"stv_port":27036,"stv_name":"Uncletopia | San Francisco | 3 | Stopwatch Beta | STV","players":null},{"server_id":20,"name":"Uncletopia | San Francisco | 4 | Community","name_short":"sfo-4","host":"sfo-1.us.uncletopia.com","port":27045,"enabled":true,"region":"us-west","cc":"us","latitude":37.77397,"longitude":-122.4313,"reserved":0,"last_update":"0001-01-01T00:00:00Z","name_a2s":"Uncletopia | San Francisco | 4 | Community","protocol":17,"map":"koth_highpass","folder":"tf","game":"Team Fortress","app_id":440,"player_count":0,"max_players":24,"Bots":0,"server_type":"Dedicated","server_os":"Linux","password":true,"vac":true,"version":"7757534","steam_id":85568392924742826,"keywords":["cp","nocrits","nodmgspread","uncletopia"],"game_id":440,"stv_port":27046,"stv_name":"Uncletopia | San Francisco | 4 | Community | STV","players":null},{"server_id":141,"name":"Uncletopia | Sydney | 1 | All Maps","name_short":"syd-1","host":"syd-1.au.uncletopia.com","port":27015,"enabled":true,"region":"au","cc":"au","latitude":-33.865143,"longitude":151.2099,"reserved":0,"last_update":"0001-01-01T00:00:00Z","name_a2s":"Uncletopia | Sydney | 1 | All Maps","protocol":17,"map":"koth_highpass","folder":"tf","game":"Team Fortress","app_id":440,"player_count":0,"max_players":24,"Bots":0,"server_type":"Dedicated","server_os":"Linux","password":true,"vac":true,"version":"7757534","steam_id":85568392924470001,"keywords":["cp","nocrits","nodmgspread","uncletopia"],"game_id":440,"stv_port":27016,"stv_name":"Uncletopia | Sydney | 1 | All Maps | STV","players":null},{"server_id":123,"name":"Uncletopia | Sydney | 2 | All Maps","name_short":"syd-2","host":"syd-1.au.uncletopia.com","port":27025,"enabled":true,"region":"au","cc":"au","latitude":-33.865143,"longitude":151.2099,"reserved":0,"last_update":"0001-01-01T00:00:00Z","name_a2s":"Uncletopia | Sydney | 2 | All Maps","protocol":17,"map":"koth_lakeside_final","folder":"tf","game":"Team Fortress","app_id":440,"player_count":0,"max_players":24,"Bots":0,"server_type":"Dedicated","server_os":"Linux","password":true,"vac":true,"version":"7757534","steam_id":85568392924470002,"keywords":["cp","nocrits","nodmgspread","uncletopia"],"game_id":440,"stv_port":27026,"stv_name":"Uncletopia | Sydney | 2 | All Maps | STV","players":null},{"server_id":395,"name":"Uncletopia | Sydney | 3 | All Maps","name_short":"syd-3","host":"syd-1.au.uncletopia.com","port":27035,"enabled":true,"region":"au","cc":"au","latitude":-33.865143,"longitude":151.2099,"reserved":0,"last_update":"0001-01-01T00:00:00Z","name_a2s":"Uncletopia | Sydney | 3 | All Maps","protocol":17,"map":"pl_badwater","folder":"tf","game":"Team Fortress","app_id":440,"player_count":0,"max_players":24,"Bots":0,"server_type":"Dedicated","server_os":"Linux","password":true,"vac":true,"version":"7757534","steam_id":85568392925194467,"keywords":["nocrits","nodmgspread","payload","uncletopia"],"game_id":440,"stv_port":27036,"stv_name":"Uncletopia | Sydney | 3 | All Maps | STV","players":null},{"server_id":396,"name":"Uncletopia | Sydney | 4 | All Maps","name_short":"syd-4","host":"syd-1.au.uncletopia.com","port":27045,"enabled":true,"region":"au","cc":"au","latitude":-33.865143,"longitude":151.2099,"reserved":0,"last_update":"0001-01-01T00:00:00Z","name_a2s":"Uncletopia | Sydney | 4 | All Maps","protocol":17,"map":"koth_lakeside_final","folder":"tf","game":"Team Fortress","app_id":440,"player_count":0,"max_players":24,"Bots":0,"server_type":"Dedicated","server_os":"Linux","password":true,"vac":true,"version":"7757534","steam_id":85568392925397958,"keywords":["cp","nocrits","nodmgspread","uncletopia"],"game_id":440,"stv_port":27046,"stv_name":"Uncletopia | Sydney | 4 | All Maps | STV","players":null},{"server_id":58,"name":"Uncletopia | Sydney | 5 | Stopwatch Beta","name_short":"syd-5","host":"syd-1.au.uncletopia.com","port":27055,"enabled":true,"region":"au","cc":"au","latitude":-33.865143,"longitude":151.2099,"reserved":0,"last_update":"0001-01-01T00:00:00Z","name_a2s":"Uncletopia | Sydney | 5 | Stopwatch Beta","protocol":17,"map":"koth_lakeside_final","folder":"tf","game":"Team Fortress","app_id":440,"player_count":0,"max_players":24,"Bots":0,"server_type":"Dedicated","server_os":"Linux","password":true,"vac":true,"version":"7757534","steam_id":85568392925397959,"keywords":["cp","nocrits","nodmgspread","uncletopia"],"game_id":440,"stv_port":27056,"stv_name":"Uncletopia | Sydney | 5 | Stopwatch Beta | STV","players":null},{"server_id":59,"name":"Uncletopia | Sydney | 6 | Community","name_short":"syd-6","host":"syd-1.au.uncletopia.com","port":27065,"enabled":true,"region":"au","cc":"au","latitude":-33.865143,"longitude":151.2099,"reserved":0,"last_update":"0001-01-01T00:00:00Z","name_a2s":"Uncletopia | Sydney | 6 | Community","protocol":17,"map":"workshop/pl_badwater_pro_v12.ugc2142942074","folder":"tf","game":"Team Fortress","app_id":440,"player_count":0,"max_players":24,"Bots":0,"server_type":"Dedicated","server_os":"Linux","password":true,"vac":true,"version":"7757534","steam_id":85568392925397960,"keywords":["nocrits","nodmgspread","payload","uncletopia"],"game_id":440,"stv_port":27066,"stv_name":"Uncletopia | Sydney | 6 | Community | STV","players":null},{"server_id":49,"name":"Uncletopia | Warsaw | 1 | All Maps","name_short":"waw-1","host":"waw-1.pl.uncletopia.com","port":27015,"enabled":true,"region":"eu","cc":"pl","latitude":52.2297,"longitude":21.017532,"reserved":0,"last_update":"0001-01-01T00:00:00Z","name_a2s":"","protocol":0,"map":"","folder":"","game":"","app_id":0,"player_count":0,"max_players":0,"Bots":0,"server_type":"","server_os":"","password":false,"vac":false,"version":"","steam_id":0,"keywords":null,"game_id":0,"stv_port":0,"stv_name":"","players":null},{"server_id":50,"name":"Uncletopia | Warsaw | 2 | All Maps","name_short":"waw-2","host":"waw-1.pl.uncletopia.com","port":27025,"enabled":true,"region":"eu","cc":"pl","latitude":52.2297,"longitude":21.017532,"reserved":0,"last_update":"0001-01-01T00:00:00Z","name_a2s":"Uncletopia | Warsaw | 2 | All Maps","protocol":17,"map":"koth_highpass","folder":"tf","game":"Team Fortress","app_id":440,"player_count":0,"max_players":24,"Bots":0,"server_type":"Dedicated","server_os":"Linux","password":true,"vac":true,"version":"7757534","steam_id":85568392925397851,"keywords":["cp","nocrits","nodmgspread","uncletopia"],"game_id":440,"stv_port":27026,"stv_name":"Uncletopia | Warsaw | 2 | All Maps | STV","players":null},{"server_id":51,"name":"Uncletopia | Warsaw | 3 | All Maps","name_short":"waw-3","host":"waw-1.pl.uncletopia.com","port":27035,"enabled":true,"region":"eu","cc":"pl","latitude":52.2297,"longitude":21.017532,"reserved":0,"last_update":"0001-01-01T00:00:00Z","name_a2s":"Uncletopia | Warsaw | 3 | All Maps","protocol":17,"map":"cp_dustbowl","folder":"tf","game":"Team Fortress","app_id":440,"player_count":0,"max_players":24,"Bots":0,"server_type":"Dedicated","server_os":"Linux","password":true,"vac":true,"version":"7757534","steam_id":85568392925397852,"keywords":["cp","nocrits","nodmgspread","uncletopia"],"game_id":440,"stv_port":27036,"stv_name":"Uncletopia | Warsaw | 3 | All Maps | STV","players":null},{"server_id":52,"name":"Uncletopia | Warsaw | 4 | All Maps","name_short":"waw-4","host":"waw-1.pl.uncletopia.com","port":27045,"enabled":true,"region":"eu","cc":"pl","latitude":52.2297,"longitude":21.017532,"reserved":0,"last_update":"0001-01-01T00:00:00Z","name_a2s":"Uncletopia | Warsaw | 4 | All Maps","protocol":17,"map":"pl_snowycoast","folder":"tf","game":"Team Fortress","app_id":440,"player_count":0,"max_players":24,"Bots":0,"server_type":"Dedicated","server_os":"Linux","password":true,"vac":true,"version":"7757534","steam_id":85568392925397853,"keywords":["nocrits","nodmgspread","payload","uncletopia"],"game_id":440,"stv_port":27046,"stv_name":"Uncletopia | Warsaw | 4 | All Maps | STV","players":null},{"server_id":53,"name":"Uncletopia | Warsaw | 5 | Stopwatch Beta","name_short":"waw-5","host":"waw-1.pl.uncletopia.com","port":27055,"enabled":true,"region":"eu","cc":"pl","latitude":52.2297,"longitude":21.017532,"reserved":0,"last_update":"0001-01-01T00:00:00Z","name_a2s":"Uncletopia | Warsaw | 5 | Stopwatch Beta","protocol":17,"map":"pl_barnblitz","folder":"tf","game":"Team Fortress","app_id":440,"player_count":0,"max_players":24,"Bots":0,"server_type":"Dedicated","server_os":"Linux","password":true,"vac":true,"version":"7757534","steam_id":85568392925397854,"keywords":["nocrits","nodmgspread","payload","uncletopia"],"game_id":440,"stv_port":27056,"stv_name":"Uncletopia | Warsaw | 5 | Stopwatch Beta | STV","players":null},{"server_id":54,"name":"Uncletopia | Warsaw | 6 | Community","name_short":"waw-6","host":"waw-1.pl.uncletopia.com","port":27065,"enabled":true,"region":"eu","cc":"pl","latitude":52.2297,"longitude":21.017532,"reserved":0,"last_update":"0001-01-01T00:00:00Z","name_a2s":"Uncletopia | Warsaw | 6 | Community","protocol":17,"map":"pl_swiftwater_final1","folder":"tf","game":"Team Fortress","app_id":440,"player_count":0,"max_players":24,"Bots":0,"server_type":"Dedicated","server_os":"Linux","password":true,"vac":true,"version":"7757534","steam_id":85568392925397856,"keywords":["nocrits","nodmgspread","payload","uncletopia"],"game_id":440,"stv_port":27066,"stv_name":"Uncletopia | Warsaw | 6 | Community | STV","players":null}]}