{"status":true,"message":"","result":[{"server_id":9,"name":"Uncletopia | Atlanta | 1 | All Maps","name_short":"atl-1","host":"atl-1.us.uncletopia.com","port":27015,"enabled":true,"region":"us-east","cc":"us","latitude":33.753746,"longitude":-84.38633,"reserved":0,"last_update":"0001-01-01T00:00:00Z","name_a2s":"Uncletopia | Atlanta | 1 | All Maps","protocol":17,"map":"pl_badwater","folder":"tf","game":"Team Fortress","app_id":440,"player_count":0,"max_players":24,"Bots":0,"server_type":"Dedicated","server_os":"Linux","password":true,"vac":true,"version":"7932396","steam_id":85568392924469982,"keywords":["nocrits","nodmgspread","payload","uncletopia"],"game_id":440,"stv_port":27016,"stv_name":"Uncletopia | Atlanta | 1 | All Maps | STV","players":null},{"server_id":104,"name":"Uncletopia | Atlanta | 2 | All Maps","name_short":"atl-2","host":"atl-1.us.uncletopia.com","port":27025,"enabled":true,"region":"us-east","cc":"us","latitude":33.753746,"longitude":-84.38633,"reserved":0,"last_update":"0001-01-01T00:00:00Z","name_a2s":"Uncletopia | Atlanta | 2 | All Maps","protocol":17,"map":"koth_viaduct","folder":"tf","game":"Team Fortress","app_id":440,"player_count":0,"max_players":24,"Bots":0,"server_type":"Dedicated","server_os":"Linux","password":true,"vac":true,"version":"7932396","steam_id":85568392924469983,"keywords":["cp","nocrits","nodmgspread","uncletopia"],"game_id":440,"stv_port":27026,"stv_name":"Uncletopia | Atlanta | 2 | All Maps | STV","players":null},{"server_id":400,"name":"Uncletopia | Atlanta | 3 | Community","name_short":"atl-3","host":"atl-1.us.uncletopia.com","port":27035,"enabled":true,"region":"us-east","cc":"us","latitude":33.753746,"longitude":-84.38633,"reserved":0,"last_update":"0001-01-01T00:00:00Z","name_a2s":"Uncletopia | Atlanta | 3 | Community","protocol":17,"map":"workshop/cp_hazyfort_rc6.ugc1365963729","folder":"tf","game":"Team Fortress","app_id":440,"player_count":0,"max_players":24,"Bots":0,"server_type":"Dedicated","server_os":"Linux","password":true,"vac":true,"version":"7932396","steam_id":85568392924515187,"keywords":["cp","nocrits","nodmgspread","uncletopia"],"game_id":440,"stv_port":27036,"stv_name":"Uncletopia | Atlanta | 3 | Community | STV","players":null},{"server_id":401,"name":"Uncletopia | Atlanta | 4 | No Payload","name_short":"atl-4","host":"atl-1.us.uncletopia.com","port":27045,"enabled":true,"region":"us-east","cc":"us","latitude":33.753746,"longitude":-84.38633,"reserved":0,"last_update":"0001-01-01T00:00:00Z","name_a2s":"","protocol":0,"map":"","folder":"","game":"","app_id":0,"player_count":0,"max_players":0,"Bots":0,"server_type":"","server_os":"","password":false,"vac":false,"version":"","steam_id":0,"keywords":null,"game_id":0,"stv_port":0,"stv_name":"","players":null},{"server_id":2,"name":"Uncletopia | Chicago | 1 | All Maps","name_short":"chi-1","host":"chi-1.us.uncletopia.com","port":27015,"enabled":true,"region":"us-central","cc":"us","latitude":41.881832,"longitude":-87.62318,"reserved":0,"last_update":"0001-01-01T00:00:00Z","name_a2s":"Uncletopia | Chicago | 1 | All Maps","protocol":17,"map":"pl_upward","folder":"tf","game":"Team Fortress","app_id":440,"player_count":24,"max_players":24,"Bots":0,"server_type":"Dedicated","server_os":"Linux","password":true,"vac":true,"version":"7932396","steam_id":85568392924469984,"keywords":["nocrits","nodmgspread","payload","uncletopia"],"game_id":440,"stv_port":27016,"stv_name":"Uncletopia | Chicago | 1 | All Maps | STV","players":[{"user_id":79,"name":"Trippy","steam_id":76561199090730294,"connected_time":3417000000000,"state":"active","ping":58},{"user_id":106,"name":"kite","steam_id":76561198346516392,"connected_time":1556000000000,"state":"active","ping":65},{"user_id":109,"name":"ky jelly packing","steam_id":76561198240906222,"connected_time":1520000000000,"state":"active","ping":77},{"user_id":102,"name":"Piogre","steam_id":76561198006182258,"connected_time":1766000000000,"state":"active","ping":49},{"user_id":59,"name":"Sire Salty","steam_id":76561198079639072,"connected_time":4583000000000,"state":"active","ping":65},{"user_id":73,"name":"iUseDvorak","steam_id":76561198064439037,"connected_time":3656000000000,"state":"active","ping":62},{"user_id":120,"name":"dirty tuna","steam_id":76561198021535785,"connected_time":1073000000000,"state":"active","ping":74},{"user_id":76,"name":"Im High","steam_id":76561198049954886,"connected_time":3472000000000,"state":"active","ping":73},{"user_id":122,"name":"Doctor Emerald(real)","steam_id":76561199123003872,"connected_time":828000000000,"state":"active","ping":91},{"user_id":60,"name":"preger u graduate","steam_id":76561198068190834,"connected_time":4563000000000,"state":"active","ping":113},{"user_id":110,"name":"kacey musgraves #1 fan","steam_id":76561198066812433,"connected_time":1518000000000,"state":"active","ping":52},{"user_id":92,"name":"Lynx181","steam_id":76561198090949585,"connected_time":2524000000000,"state":"active","ping":45},{"user_id":115,"name":"Pixler544","steam_id":76561198240575132,"connected_time":1449000000000,"state":"active","ping":74},{"user_id":123,"name":"PorSurface","steam_id":76561198999584253,"connected_time":828000000000,"state":"active","ping":44},{"user_id":116,"name":"Gustavo","steam_id":76561198190288063,"connected_time":1416000000000,"state":"active","ping":81},{"user_id":90,"name":"Motreir","steam_id":76561198151717946,"connected_time":2808000000000,"state":"active","ping":79},{"user_id":101,"name":"Obelisk","steam_id":76561198049416866,"connected_time":2134000000000,"state":"active","ping":75},{"user_id":54,"name":"Cyclops_672","steam_id":76561198080169497,"connected_time":4879000000000,"state":"active","ping":51},{"user_id":121,"name":"Sprinklingmydoughnut","steam_id":76561198168009092,"connected_time":851000000000,"state":"active","ping":96},{"user_id":124,"name":"TeeTree","steam_id":76561198862307874,"connected_time":816000000000,"state":"active","ping":60},{"user_id":67,"name":"Thy Stupid Rat","steam_id":76561198272075712,"connected_time":3956000000000,"state":"active","ping":74},{"user_id":87,"name":"Broadsword","steam_id":76561198011160411,"connected_time":3194000000000,"state":"active","ping":90},{"user_id":99,"name":"Jirachi","steam_id":76561198341537452,"connected_time":2215000000000,"state":"active","ping":80},{"user_id":63,"name":"Peppino","steam_id":76561198189176634,"connected_time":4484000000000,"state":"active","ping":76}]},{"server_id":106,"name":"Uncletopia | Chicago | 2 | All Maps","name_short":"chi-2","host":"chi-1.us.uncletopia.com","port":27025,"enabled":true,"region":"us-central","cc":"us","latitude":41.881832,"longitude":-87.62318,"reserved":0,"last_update":"0001-01-01T00:00:00Z","name_a2s":"Uncletopia | Chicago | 2 | All Maps","protocol":17,"map":"cp_granary","folder":"tf","game":"Team Fortress","app_id":440,"player_count":24,"max_players":24,"Bots":0,"server_type":"Dedicated","server_os":"Linux","password":true,"vac":true,"version":"7932396","steam_id":85568392924469985,"keywords":["cp","nocrits","nodmgspread","uncletopia"],"game_id":440,"stv_port":27026,"stv_name":"Uncletopia | Chicago | 2 | All Maps | STV","players":[{"user_id":299,"name":"Satchamo","steam_id":76561198012968239,"connected_time":538000000000,"state":"active","ping":75},{"user_id":277,"name":"Mad Typhoon","steam_id":76561198067520769,"connected_time":1318000000000,"state":"active","ping":126},{"user_id":271,"name":"we're so back","steam_id":76561198058485742,"connected_time":1484000000000,"state":"active","ping":61},{"user_id":301,"name":"Unwavering Flavor","steam_id":76561198053306065,"connected_time":403000000000,"state":"active","ping":81},{"user_id":302,"name":"Testimony","steam_id":76561198151363063,"connected_time":394000000000,"state":"active","ping":72},{"user_id":182,"name":"Life, Death, and Taxes","steam_id":76561198126734886,"connected_time":4678000000000,"state":"active","ping":70},{"user_id":303,"name":"Ghost Lord","steam_id":76561198088956723,"connected_time":393000000000,"state":"active","ping":102},{"user_id":304,"name":"darkerogamer","steam_id":76561198341101156,"connected_time":265000000000,"state":"active","ping":129},{"user_id":289,"name":"psycho   joe","steam_id":76561198135656828,"connected_time":1037000000000,"state":"active","ping":50},{"user_id":278,"name":"GreySweaterCat","steam_id":76561198351860293,"connected_time":1307000000000,"state":"active","ping":93},{"user_id":287,"name":"Nite","steam_id":76561199014777092,"connected_time":1094000000000,"state":"active","ping":57},{"user_id":229,"name":"Garfield Expert","steam_id":76561198092452824,"connected_time":2472000000000,"state":"active","ping":70},{"user_id":307,"name":"Jelkek","steam_id":76561197999529416,"connected_time":8000000000,"state":"spawning","ping":59},{"user_id":279,"name":"Mail Delivery","steam_id":76561198290046318,"connected_time":1303000000000,"state":"active","ping":60},{"user_id":161,"name":"jon.cinnamon","steam_id":76561198127316418,"connected_time":6437000000000,"state":"active","ping":62},{"user_id":280,"name":"Live","steam_id":76561198003194656,"connected_time":1263000000000,"state":"active","ping":68},{"user_id":267,"name":"BiggFoot","steam_id":76561197998605599,"connected_time":1559000000000,"state":"active","ping":85},{"user_id":306,"name":"phantom","steam_id":76561197963860777,"connected_time":69000000000,"state":"active","ping":96},{"user_id":288,"name":"ya ya breathe","steam_id":76561198075858067,"connected_time":1063000000000,"state":"active","ping":60},{"user_id":305,"name":"Aeonspassed","steam_id":76561198014016451,"connected_time":169000000000,"state":"active","ping":57},{"user_id":282,"name":"owen","steam_id":76561199229403678,"connected_time":1215000000000,"state":"active","ping":88},{"user_id":292,"name":"Ziath","steam_id":76561198094009164,"connected_time":880000000000,"state":"active","ping":65},{"user_id":293,"name":"asbestos","steam_id":76561198079178866,"connected_time":860000000000,"state":"active","ping":68},{"user_id":297,"name":"wfaawj8f09h308fa","steam_id":76561198165212575,"connected_time":804000000000,"state":"active","ping":87}]},{"server_id":402,"name":"Uncletopia | Chicago | 3 | All Maps","name_short":"chi-3","host":"chi-1.us.uncletopia.com","port":27035,"enabled":true,"region":"us-central","cc":"us","latitude":41.881832,"longitude":-87.62318,"reserved":0,"last_update":"0001-01-01T00:00:00Z","name_a2s":"Uncletopia | Chicago | 3 | All Maps","protocol":17,"map":"pl_badwater","folder":"tf","game":"Team Fortress","app_id":440,"player_count":24,"max_players":24,"Bots":0,"server_type":"Dedicated","server_os":"Linux","password":true,"vac":true,"version":"7932396","steam_id":85568392924515191,"keywords":["nocrits","nodmgspread","payload","uncletopia"],"game_id":440,"stv_port":27036,"stv_name":"Uncletopia | Chicago | 3 | All Maps | STV","players":[{"user_id":133,"name":"Nefy","steam_id":76561198030017316,"connected_time":573000000000,"state":"active","ping":86},{"user_id":123,"name":"Luci (50B)","steam_id":76561199096964288,"connected_time":990000000000,"state":"active","ping":38},{"user_id":124,"name":"DragonKnight343","steam_id":76561199235854406,"connected_time":948000000000,"state":"active","ping":112},{"user_id":134,"name":"Grand_Fantasia","steam_id":76561198369996299,"connected_time":548000000000,"state":"active","ping":108},{"user_id":109,"name":"Engideer","steam_id":76561198145733164,"connected_time":2406000000000,"state":"active","ping":73},{"user_id":95,"name":"khil","steam_id":76561198042455487,"connected_time":3854000000000,"state":"active","ping":44},{"user_id":115,"name":"Zanartan","steam_id":76561198050528902,"connected_time":2155000000000,"state":"active","ping":183},{"user_id":125,"name":"Chezaus","steam_id":76561198317397837,"connected_time":936000000000,"state":"active","ping":75},{"user_id":110,"name":"Tired","steam_id":76561198072620682,"connected_time":2405000000000,"state":"active","ping":81},{"user_id":113,"name":"Tubbsi","steam_id":76561198068980282,"connected_time":2368000000000,"state":"active","ping":71},{"user_id":128,"name":"shake","steam_id":76561199064204750,"connected_time":726000000000,"state":"active","ping":79},{"user_id":118,"name":"Morgbot","steam_id":76561197998418404,"connected_time":2085000000000,"state":"active","ping":68},{"user_id":107,"name":"Cretin32","steam_id":76561198986265728,"connected_time":3375000000000,"state":"active","ping":97},{"user_id":135,"name":"co)))))ne","steam_id":76561198053967778,"connected_time":291000000000,"state":"active","ping":69},{"user_id":127,"name":"meo ‚ô•","steam_id":76561197992719272,"connected_time":827000000000,"state":"active","ping":53},{"user_id":129,"name":"18th century farmer","steam_id":76561199196014252,"connected_time":711000000000,"state":"active","ping":119},{"user_id":130,"name":"A Very Confused Gentleman","steam_id":76561198051686391,"connected_time":694000000000,"state":"active","ping":56},{"user_id":120,"name":"Sneakinsed","steam_id":76561199102075970,"connected_time":1286000000000,"state":"active","ping":99},{"user_id":100,"name":"Rin \"Hindwing\" Redtail","steam_id":76561199074865638,"connected_time":3595000000000,"state":"active","ping":74},{"user_id":101,"name":"MilkMuncher","steam_id":76561198103055485,"connected_time":3566000000000,"state":"active","ping":50},{"user_id":98,"name":"MILKY","steam_id":76561198073114061,"connected_time":3730000000000,"state":"active","ping":68},{"user_id":131,"name":"Dead_Stranger","steam_id":76561198120804563,"connected_time":646000000000,"state":"active","ping":94},{"user_id":136,"name":"DJ Chalice","steam_id":76561197974872458,"connected_time":123000000000,"state":"active","ping":68},{"user_id":106,"name":"aunty barbara","steam_id":76561198009192558,"connected_time":3394000000000,"state":"active","ping":73}]},{"server_id":403,"name":"Uncletopia | Chicago | 4 | All Maps","name_short":"chi-4","host":"chi-1.us.uncletopia.com","port":27045,"enabled":true,"region":"us-central","cc":"us","latitude":41.881832,"longitude":-87.62318,"reserved":0,"last_update":"0001-01-01T00:00:00Z","name_a2s":"Uncletopia | Chicago | 4 | All Maps","protocol":17,"map":"cp_process_final","folder":"tf","game":"Team Fortress","app_id":440,"player_count":23,"max_players":24,"Bots":0,"server_type":"Dedicated","server_os":"Linux","password":true,"vac":true,"version":"7932396","steam_id":85568392924515193,"keywords":["cp","nocrits","nodmgspread","uncletopia"],"game_id":440,"stv_port":27046,"stv_name":"Uncletopia | Chicago | 4 | All Maps | STV","players":[{"user_id":273,"name":"V!CT!M","steam_id":76561198962721502,"connected_time":1123000000000,"state":"active","ping":68},{"user_id":290,"name":"i have no idea what im doing","steam_id":76561198204995668,"connected_time":259000000000,"state":"active","ping":81},{"user_id":261,"name":"k3ramb1t","steam_id":76561198097880352,"connected_time":1964000000000,"state":"active","ping":69},{"user_id":266,"name":"[IRP] Dover","steam_id":76561198417653786,"connected_time":1554000000000,"state":"active","ping":120},{"user_id":249,"name":"‚í∑‚ì™‚ì™‚ì£‚ì®‚ìí‚ìê‚ìö‚ìî‚ì¢","steam_id":76561198088776421,"connected_time":2907000000000,"state":"active","ping":85},{"user_id":279,"name":"Edgy McEdgeison","steam_id":76561198047845399,"connected_time":649000000000,"state":"active","ping":72},{"user_id":280,"name":"Amogmat","steam_id":76561199417499373,"connected_time":628000000000,"state":"active","ping":86},{"user_id":278,"name":"Kaiju","steam_id":76561198035703156,"connected_time":792000000000,"state":"active","ping":51},{"user_id":277,"name":"Speedy","steam_id":76561198080761661,"connected_time":932000000000,"state":"active","ping":81},{"user_id":291,"name":"Fraglin","steam_id":76561198124964000,"connected_time":237000000000,"state":"active","ping":71},{"user_id":292,"name":"Snazzy_","steam_id":76561198014803098,"connected_time":227000000000,"state":"active","ping":74},{"user_id":238,"name":"daemon","steam_id":76561198001541433,"connected_time":3469000000000,"state":"active","ping":60},{"user_id":272,"name":"Lspan","steam_id":76561199002806208,"connected_time":1495000000000,"state":"active","ping":139},{"user_id":281,"name":"Chompy115","steam_id":76561199094920380,"connected_time":524000000000,"state":"active","ping":175},{"user_id":283,"name":"day 1 no tren","steam_id":76561199246237446,"connected_time":493000000000,"state":"active","ping":67},{"user_id":263,"name":"coolplums","steam_id":76561198072154720,"connected_time":1588000000000,"state":"active","ping":51},{"user_id":267,"name":"WarbleBorble","steam_id":76561198132094572,"connected_time":1539000000000,"state":"active","ping":63},{"user_id":284,"name":"Barlon","steam_id":76561198023717515,"connected_time":471000000000,"state":"active","ping":74},{"user_id":285,"name":"exotic fishes","steam_id":76561199046490785,"connected_time":456000000000,"state":"active","ping":65},{"user_id":288,"name":"Yossef‚≠ê","steam_id":76561198009985558,"connected_time":393000000000,"state":"active","ping":196},{"user_id":289,"name":"Spy (I Love spy)","steam_id":76561199138738952,"connected_time":381000000000,"state":"active","ping":79},{"user_id":293,"name":"Cloud","steam_id":76561198954987128,"connected_time":112000000000,"state":"active","ping":75},{"user_id":209,"name":"GhettoSmash@freenudecelebs.com","steam_id":76561198168864083,"connected_time":5038000000000,"state":"active","ping":110}]},{"server_id":36,"name":"Uncletopia | Chicago | 5 | All Maps","name_short":"chi-5","host":"chi-2.us.uncletopia.com","port":27015,"enabled":true,"region":"us-central","cc":"us","latitude":41.881832,"longitude":-87.62318,"reserved":0,"last_update":"0001-01-01T00:00:00Z","name_a2s":"Uncletopia | Chicago | 5 | All Maps","protocol":17,"map":"cp_mountainlab","folder":"tf","game":"Team Fortress","app_id":440,"player_count":0,"max_players":24,"Bots":0,"server_type":"Dedicated","server_os":"Linux","password":true,"vac":true,"version":"7932396","steam_id":85568392924866362,"keywords":["cp","nocrits","nodmgspread","uncletopia"],"game_id":440,"stv_port":27016,"stv_name":"Uncletopia | Chicago | 5 | All Maps | STV","players":null},{"server_id":37,"name":"Uncletopia | Chicago | 6 | All Maps","name_short":"chi-6","host":"chi-2.us.uncletopia.com","port":27025,"enabled":true,"region":"us-central","cc":"us","latitude":41.881832,"longitude":-87.62318,"reserved":0,"last_update":"0001-01-01T00:00:00Z","name_a2s":"Uncletopia | Chicago | 6 | All Maps","protocol":17,"map":"pl_borneo","folder":"tf","game":"Team Fortress","app_id":440,"player_count":1,"max_players":24,"Bots":0,"server_type":"Dedicated","server_os":"Linux","password":true,"vac":true,"version":"7932396","steam_id":85568392924866363,"keywords":["nocrits","nodmgspread","payload","uncletopia"],"game_id":440,"stv_port":27026,"stv_name":"Uncletopia | Chicago | 6 | All Maps | STV","players":[{"user_id":14,"name":"i have amazing aim","steam_id":76561199222920753,"connected_time":1161000000000,"state":"active","ping":45}]},{"server_id":38,"name":"Uncletopia | Chicago | 7 | Stopwatch Beta","name_short":"chi-7","host":"chi-2.us.uncletopia.com","port":27035,"enabled":true,"region":"us-central","cc":"us","latitude":41.881832,"longitude":-87.62318,"reserved":0,"last_update":"0001-01-01T00:00:00Z","name_a2s":"Uncletopia | Chicago | 7 | Stopwatch Beta","protocol":17,"map":"pl_borneo","folder":"tf","game":"Team Fortress","app_id":440,"player_count":0,"max_players":24,"Bots":0,"server_type":"Dedicated","server_os":"Linux","password":true,"vac":true,"version":"7932396","steam_id":85568392924866364,"keywords":["nocrits","nodmgspread","payload","uncletopia"],"game_id":440,"stv_port":27036,"stv_name":"Uncletopia | Chicago | 7 | Stopwatch Beta | STV","players":null},{"server_id":39,"name":"Uncletopia | Chicago | 8 | Community","name_short":"chi-8","host":"chi-2.us.uncletopia.com","port":27045,"enabled":true,"region":"us-central","cc":"us","latitude":41.881832,"longitude":-87.62318,"reserved":0,"last_update":"0001-01-01T00:00:00Z","name_a2s":"Uncletopia | Chicago | 8 | Community","protocol":17,"map":"koth_viaduct","folder":"tf","game":"Team Fortress","app_id":440,"player_count":0,"max_players":24,"Bots":0,"server_type":"Dedicated","server_os":"Linux","password":true,"vac":true,"version":"7932396","steam_id":85568392924866365,"keywords":["cp","nocrits","nodmgspread","uncletopia"],"game_id":440,"stv_port":27046,"stv_name":"Uncletopia | Chicago | 8 | Community | STV","players":null},{"server_id":8,"name":"Uncletopia | Dallas | 1 | All Maps","name_short":"dal-1","host":"dal-1.us.uncletopia.com","port":27015,"enabled":true,"region":"us-central","cc":"us","latitude":32.779167,"longitude":-96.80889,"reserved":0,"last_update":"0001-01-01T00:00:00Z","name_a2s":"Uncletopia | Dallas | 1 | All Maps","protocol":17,"map":"pl_borneo","folder":"tf","game":"Team Fortress","app_id":440,"player_count":24,"max_players":24,"Bots":0,"server_type":"Dedicated","server_os":"Linux","password":true,"vac":true,"version":"7932396","steam_id":85568392924469986,"keywords":["nocrits","nodmgspread","payload","uncletopia"],"game_id":440,"stv_port":27016,"stv_name":"Uncletopia | Dallas | 1 | All Maps | STV","players":[{"user_id":107,"name":"d0nut","steam_id":76561198072646165,"connected_time":4117000000000,"state":"active","ping":82},{"user_id":126,"name":"Poo","steam_id":76561198265144507,"connected_time":1269000000000,"state":"active","ping":95},{"user_id":111,"name":"Darling","steam_id":76561198127525888,"connected_time":3522000000000,"state":"active","ping":45},{"user_id":10,"name":"penis scout","steam_id":76561199105479508,"connected_time":11499000000000,"state":"active","ping":81},{"user_id":127,"name":"onions","steam_id":76561198201259645,"connected_time":1046000000000,"state":"active","ping":86},{"user_id":69,"name":"SRP","steam_id":76561197995626651,"connected_time":6373000000000,"state":"active","ping":48},{"user_id":133,"name":"Derply","steam_id":76561198871211642,"connected_time":390000000000,"state":"active","ping":73},{"user_id":122,"name":"Big Russ","steam_id":76561198122943559,"connected_time":1446000000000,"state":"active","ping":79},{"user_id":16,"name":"Jerk Tryhard (roleplay)","steam_id":76561199470538309,"connected_time":11213000000000,"state":"active","ping":73},{"user_id":119,"name":"Dagoth Ur","steam_id":76561199007079402,"connected_time":1487000000000,"state":"active","ping":77},{"user_id":120,"name":"maksym.purski","steam_id":76561199381038035,"connected_time":1457000000000,"state":"active","ping":189},{"user_id":130,"name":"lion (real)","steam_id":76561198041770884,"connected_time":787000000000,"state":"active","ping":75},{"user_id":104,"name":"Average","steam_id":76561199133007007,"connected_time":4173000000000,"state":"active","ping":71},{"user_id":125,"name":"Omegalite","steam_id":76561198796787101,"connected_time":1358000000000,"state":"active","ping":56},{"user_id":129,"name":"tlm","steam_id":76561198178457461,"connected_time":923000000000,"state":"active","ping":45},{"user_id":78,"name":"HOODOO_LOVER_2007","steam_id":76561199087691214,"connected_time":6101000000000,"state":"active","ping":90},{"user_id":113,"name":"Bogey","steam_id":76561198096227944,"connected_time":3451000000000,"state":"active","ping":44},{"user_id":123,"name":"ROGUE-PLANET","steam_id":76561198116023052,"connected_time":1409000000000,"state":"active","ping":70},{"user_id":81,"name":"Terminal Brain Rot","steam_id":76561198112594672,"connected_time":5999000000000,"state":"active","ping":91},{"user_id":124,"name":"neeko gaming","steam_id":76561198180174734,"connected_time":1391000000000,"state":"active","ping":64},{"user_id":134,"name":"Hayd3nQ","steam_id":76561198124849736,"connected_time":89000000000,"state":"active","ping":111},{"user_id":131,"name":"good soup guy","steam_id":76561199210237835,"connected_time":715000000000,"state":"active","ping":89},{"user_id":132,"name":"Pok√©","steam_id":76561198100167641,"connected_time":710000000000,"state":"active","ping":69},{"user_id":108,"name":"NeptuneÀñ‚Å∫ÔΩ°Àö‚ãÜÀô‚ô•","steam_id":76561199054203198,"connected_time":4066000000000,"state":"active","ping":70}]},{"server_id":108,"name":"Uncletopia | Dallas | 2 | All Maps","name_short":"dal-2","host":"dal-1.us.uncletopia.com","port":27025,"enabled":true,"region":"us-central","cc":"us","latitude":32.779167,"longitude":-96.80889,"reserved":0,"last_update":"0001-01-01T00:00:00Z","name_a2s":"Uncletopia | Dallas | 2 | All Maps","protocol":17,"map":"cp_dustbowl","folder":"tf","game":"Team Fortress","app_id":440,"player_count":24,"max_players":24,"Bots":0,"server_type":"Dedicated","server_os":"Linux","password":true,"vac":true,"version":"7932396","steam_id":85568392924469988,"keywords":["cp","nocrits","nodmgspread","uncletopia"],"game_id":440,"stv_port":27026,"stv_name":"Uncletopia | Dallas | 2 | All Maps | STV","players":[{"user_id":145,"name":"aVO","steam_id":76561198161429389,"connected_time":337000000000,"state":"active","ping":59},{"user_id":85,"name":"Mario","steam_id":76561198995177194,"connected_time":4291000000000,"state":"active","ping":67},{"user_id":130,"name":"AMBVURT","steam_id":76561198910561700,"connected_time":1849000000000,"state":"active","ping":66},{"user_id":152,"name":"PurpOwl","steam_id":76561198979416718,"connected_time":127000000000,"state":"active","ping":99},{"user_id":96,"name":"Scrux","steam_id":76561198129763115,"connected_time":3891000000000,"state":"active","ping":83},{"user_id":35,"name":"Ice cream sandwich","steam_id":76561198172748357,"connected_time":7320000000000,"state":"active","ping":86},{"user_id":134,"name":"Jesus used Dead Ringer","steam_id":76561198268991349,"connected_time":1784000000000,"state":"active","ping":67},{"user_id":111,"name":"Fake21","steam_id":76561198282065071,"connected_time":2838000000000,"state":"active","ping":51},{"user_id":88,"name":"Tyler\u0026Fingers","steam_id":76561198085154485,"connected_time":4228000000000,"state":"active","ping":92},{"user_id":127,"name":"monk mode protocol","steam_id":76561199100342013,"connected_time":2068000000000,"state":"active","ping":76},{"user_id":100,"name":"cypherzero","steam_id":76561199182960322,"connected_time":3728000000000,"state":"active","ping":56},{"user_id":39,"name":"Landogg","steam_id":76561198049000586,"connected_time":7000000000000,"state":"active","ping":60},{"user_id":116,"name":"Round crocodile","steam_id":76561199378446581,"connected_time":2638000000000,"state":"active","ping":70},{"user_id":142,"name":"Bucket Of Chicken","steam_id":76561199043091036,"connected_time":1499000000000,"state":"active","ping":174},{"user_id":154,"name":"Wert","steam_id":76561198368345693,"connected_time":103000000000,"state":"active","ping":82},{"user_id":128,"name":"Dakyser1","steam_id":76561199371191338,"connected_time":2033000000000,"state":"active","ping":61},{"user_id":146,"name":"elephantofdoom","steam_id":76561198062436835,"connected_time":292000000000,"state":"active","ping":80},{"user_id":147,"name":"?pengin","steam_id":76561198254236408,"connected_time":286000000000,"state":"active","ping":94},{"user_id":155,"name":"Oni","steam_id":76561198112066584,"connected_time":36000000000,"state":"spawning","ping":102},{"user_id":144,"name":"Big Smelly","steam_id":76561198093256744,"connected_time":405000000000,"state":"active","ping":75},{"user_id":148,"name":"Lv4 Gnoll Magus","steam_id":76561198042068995,"connected_time":272000000000,"state":"active","ping":73},{"user_id":141,"name":"Elias","steam_id":76561198106431732,"connected_time":1533000000000,"state":"active","ping":73},{"user_id":149,"name":"-Shenanigans Inbound-","steam_id":76561197983340057,"connected_time":263000000000,"state":"active","ping":120},{"user_id":105,"name":"ultra‚Åß‚Åßtoon","steam_id":76561199099375889,"connected_time":3359000000000,"state":"active","ping":97}]},{"server_id":5,"name":"Uncletopia | Frankfurt | 1 | All Maps","name_short":"frk-1","host":"frk-1.de.uncletopia.com","port":27015,"enabled":true,"region":"eu","cc":"de","latitude":50.110924,"longitude":8.682127,"reserved":0,"last_update":"0001-01-01T00:00:00Z","name_a2s":"Uncletopia | Frankfurt | 1 | All Maps","protocol":17,"map":"cp_egypt_final","folder":"tf","game":"Team Fortress","app_id":440,"player_count":24,"max_players":24,"Bots":0,"server_type":"Dedicated","server_os":"Linux","password":true,"vac":true,"version":"7932396","steam_id":85568392924469989,"keywords":["cp","nocrits","nodmgspread","uncletopia"],"game_id":440,"stv_port":27016,"stv_name":"Uncletopia | Frankfurt | 1 | All Maps | STV","players":[{"user_id":190,"name":"Cyrell","steam_id":76561198158308194,"connected_time":2769000000000,"state":"active","ping":45},{"user_id":210,"name":"kaufland enthsiast","steam_id":76561198893062319,"connected_time":1835000000000,"state":"active","ping":63},{"user_id":228,"name":"Government Hooker","steam_id":76561198005361358,"connected_time":736000000000,"state":"active","ping":60},{"user_id":223,"name":"SunZi","steam_id":76561198139243535,"connected_time":1087000000000,"state":"active","ping":85},{"user_id":222,"name":"Feramansa","steam_id":76561198321286847,"connected_time":1138000000000,"state":"active","ping":114},{"user_id":167,"name":"Nibbenji2077","steam_id":76561199219663655,"connected_time":4551000000000,"state":"active","ping":124},{"user_id":226,"name":"ozwk","steam_id":76561198062257357,"connected_time":819000000000,"state":"active","ping":63},{"user_id":231,"name":"Jughead","steam_id":76561198000355410,"connected_time":657000000000,"state":"active","ping":68},{"user_id":171,"name":"Paintbrush","steam_id":76561198119987705,"connected_time":4208000000000,"state":"active","ping":57},{"user_id":124,"name":"roblan11","steam_id":76561198066839258,"connected_time":6953000000000,"state":"active","ping":45},{"user_id":208,"name":"‚òÆ","steam_id":76561198202990635,"connected_time":1945000000000,"state":"active","ping":61},{"user_id":209,"name":"mp1mp2mp3","steam_id":76561198088967665,"connected_time":1924000000000,"state":"active","ping":91},{"user_id":143,"name":"AleXandriX","steam_id":76561198035203950,"connected_time":5605000000000,"state":"active","ping":60},{"user_id":217,"name":"hedonic treadmill","steam_id":76561199114742711,"connected_time":1528000000000,"state":"active","ping":92},{"user_id":234,"name":"Pawoss","steam_id":76561198050416391,"connected_time":440000000000,"state":"active","ping":92},{"user_id":233,"name":"Criminal","steam_id":76561198353399383,"connected_time":582000000000,"state":"active","ping":73},{"user_id":201,"name":"Zylon","steam_id":76561198073269221,"connected_time":2326000000000,"state":"active","ping":45},{"user_id":229,"name":"Rook","steam_id":76561197995204779,"connected_time":719000000000,"state":"active","ping":59},{"user_id":207,"name":"hardy","steam_id":76561198029228735,"connected_time":1952000000000,"state":"active","ping":65},{"user_id":230,"name":"BRICK TOP","steam_id":76561198014366715,"connected_time":712000000000,"state":"active","ping":61},{"user_id":151,"name":"Conagher","steam_id":76561198217607996,"connected_time":5273000000000,"state":"active","ping":80},{"user_id":195,"name":"Random Weeb [YUE]","steam_id":76561198839212897,"connected_time":2733000000000,"state":"active","ping":109},{"user_id":220,"name":"KAZAM | Tervez","steam_id":76561198045459068,"connected_time":1345000000000,"state":"active","ping":80},{"user_id":235,"name":"Prison Mike","steam_id":76561198014221596,"connected_time":126000000000,"state":"active","ping":64}]},{"server_id":110,"name":"Uncletopia | Frankfurt | 2 | All Maps","name_short":"frk-2","host":"frk-1.de.uncletopia.com","port":27025,"enabled":true,"region":"eu","cc":"de","latitude":50.110924,"longitude":8.682127,"reserved":0,"last_update":"0001-01-01T00:00:00Z","name_a2s":"Uncletopia | Frankfurt | 2 | All Maps","protocol":17,"map":"pl_snowycoast","folder":"tf","game":"Team Fortress","app_id":440,"player_count":24,"max_players":24,"Bots":0,"server_type":"Dedicated","server_os":"Linux","password":true,"vac":true,"version":"7932396","steam_id":85568392924469990,"keywords":["nocrits","nodmgspread","payload","uncletopia"],"game_id":440,"stv_port":27026,"stv_name":"Uncletopia | Frankfurt | 2 | All Maps | STV","players":[{"user_id":471,"name":"Weeb exterminator","steam_id":76561198078964973,"connected_time":1684000000000,"state":"active","ping":83},{"user_id":499,"name":"Lyncurion","steam_id":76561199260022725,"connected_time":188000000000,"state":"active","ping":78},{"user_id":492,"name":"panakid","steam_id":76561198364121077,"connected_time":380000000000,"state":"active","ping":82},{"user_id":421,"name":"domek brexit geezerüá¨üáß","steam_id":76561198048447632,"connected_time":6440000000000,"state":"active","ping":60},{"user_id":442,"name":"ANGELFISH","steam_id":76561198027536466,"connected_time":4970000000000,"state":"active","ping":90},{"user_id":490,"name":"Berdly","steam_id":76561199029872533,"connected_time":426000000000,"state":"active","ping":62},{"user_id":488,"name":"Arx","steam_id":76561198107397454,"connected_time":477000000000,"state":"active","ping":62},{"user_id":357,"name":"Sham!","steam_id":76561198050434275,"connected_time":8380000000000,"state":"active","ping":45},{"user_id":457,"name":"Greenmaker","steam_id":76561198060466591,"connected_time":3314000000000,"state":"active","ping":78},{"user_id":473,"name":"Soerlssoelss√∂en","steam_id":76561197993060585,"connected_time":1608000000000,"state":"active","ping":75},{"user_id":450,"name":"TrollSechsMann1941","steam_id":76561198150569669,"connected_time":4339000000000,"state":"active","ping":101},{"user_id":498,"name":"Virtual Turtle","steam_id":76561198056255236,"connected_time":210000000000,"state":"active","ping":51},{"user_id":494,"name":"Adopted?","steam_id":76561198118667043,"connected_time":370000000000,"state":"active","ping":59},{"user_id":478,"name":"Jruhh","steam_id":76561198842477772,"connected_time":1282000000000,"state":"active","ping":68},{"user_id":477,"name":"ÎãπÏã†Ïùò ÏóÑÎßàÎ•ºÌñàÎã§","steam_id":76561198017114970,"connected_time":1316000000000,"state":"active","ping":55},{"user_id":479,"name":"Milk","steam_id":76561198125876588,"connected_time":1281000000000,"state":"active","ping":57},{"user_id":486,"name":"Vikep'S","steam_id":76561199002274689,"connected_time":678000000000,"state":"active","ping":86},{"user_id":495,"name":"Ruby","steam_id":76561198120994559,"connected_time":343000000000,"state":"active","ping":56},{"user_id":334,"name":"Tegnerud","steam_id":76561198214185612,"connected_time":8533000000000,"state":"active","ping":73},{"user_id":487,"name":"Dark Wizart","steam_id":76561198377689439,"connected_time":529000000000,"state":"active","ping":72},{"user_id":464,"name":"Uselss Joe","steam_id":76561198275853629,"connected_time":2191000000000,"state":"active","ping":45},{"user_id":466,"name":"nyanezt","steam_id":76561198253734265,"connected_time":2127000000000,"state":"active","ping":115},{"user_id":497,"name":"pepsimus_maximus (pepsi/max)","steam_id":76561198062425104,"connected_time":284000000000,"state":"active","ping":83},{"user_id":340,"name":"El_Kommadante","steam_id":76561198079551685,"connected_time":8493000000000,"state":"active","ping":76}]},{"server_id":308,"name":"Uncletopia | Frankfurt | 3 | All Maps","name_short":"frk-3","host":"frk-1.de.uncletopia.com","port":27035,"enabled":true,"region":"eu","cc":"de","latitude":50.110924,"longitude":8.682127,"reserved":0,"last_update":"0001-01-01T00:00:00Z","name_a2s":"Uncletopia | Frankfurt | 3 | All Maps","protocol":17,"map":"pl_upward","folder":"tf","game":"Team Fortress","app_id":440,"player_count":22,"max_players":24,"Bots":0,"server_type":"Dedicated","server_os":"Linux","password":true,"vac":true,"version":"7932396","steam_id":85568392924504274,"keywords":["nocrits","nodmgspread","payload","uncletopia"],"game_id":440,"stv_port":27036,"stv_name":"Uncletopia | Frankfurt | 3 | All Maps | STV","players":[{"user_id":336,"name":"ZazyLou_","steam_id":76561198411134617,"connected_time":764000000000,"state":"active","ping":62},{"user_id":312,"name":"birthday boy","steam_id":76561198349648942,"connected_time":2519000000000,"state":"active","ping":92},{"user_id":331,"name":"thekoolest88","steam_id":76561199022415672,"connected_time":980000000000,"state":"active","ping":137},{"user_id":330,"name":"ABbott_","steam_id":76561198030528873,"connected_time":1000000000000,"state":"active","ping":69},{"user_id":337,"name":"m909","steam_id":76561198279621400,"connected_time":643000000000,"state":"active","ping":88},{"user_id":333,"name":"_420_StopItDudeCmon","steam_id":76561197997146481,"connected_time":923000000000,"state":"active","ping":57},{"user_id":334,"name":"‚ô§ ùòøùôÖ ùôÜ@ùôÉùô†ùôã\ufffd","steam_id":76561198308490265,"connected_time":919000000000,"state":"active","ping":50},{"user_id":338,"name":"kluri","steam_id":76561198084518962,"connected_time":631000000000,"state":"active","ping":68},{"user_id":308,"name":"SpacePig","steam_id":76561198044662873,"connected_time":3049000000000,"state":"active","ping":86},{"user_id":292,"name":"elitism","steam_id":76561198133085347,"connected_time":3955000000000,"state":"active","ping":60},{"user_id":290,"name":"MoonDroid","steam_id":76561198023027016,"connected_time":4089000000000,"state":"active","ping":33},{"user_id":297,"name":"h√ñh","steam_id":76561198418503654,"connected_time":3126000000000,"state":"active","ping":96},{"user_id":339,"name":"euphoricfilth","steam_id":76561198100160865,"connected_time":622000000000,"state":"active","ping":126},{"user_id":346,"name":"Porridge Moisturizer","steam_id":76561198336523288,"connected_time":41000000000,"state":"spawning","ping":114},{"user_id":345,"name":"Iva","steam_id":76561198254963150,"connected_time":49000000000,"state":"active","ping":58},{"user_id":344,"name":"TheEventGuy","steam_id":76561197972797744,"connected_time":365000000000,"state":"active","ping":54},{"user_id":321,"name":"The Wolf Leader","steam_id":76561198038007462,"connected_time":2021000000000,"state":"active","ping":87},{"user_id":341,"name":"Josh","steam_id":76561198274546904,"connected_time":521000000000,"state":"active","ping":150},{"user_id":342,"name":"Yuzu","steam_id":76561198121694613,"connected_time":501000000000,"state":"active","ping":52},{"user_id":269,"name":"CAR DOOR","steam_id":76561198055283295,"connected_time":6286000000000,"state":"active","ping":45},{"user_id":343,"name":"Well, off to hang myself","steam_id":76561198053374944,"connected_time":492000000000,"state":"active","ping":71},{"user_id":324,"name":"vurtun","steam_id":76561198857395274,"connected_time":1988000000000,"state":"active","ping":50}]},{"server_id":309,"name":"Uncletopia | Frankfurt | 4 | All Maps","name_short":"frk-4","host":"frk-1.de.uncletopia.com","port":27045,"enabled":true,"region":"eu","cc":"de","latitude":50.110924,"longitude":8.682127,"reserved":0,"last_update":"0001-01-01T00:00:00Z","name_a2s":"Uncletopia | Frankfurt | 4 | All Maps","protocol":17,"map":"koth_highpass","folder":"tf","game":"Team Fortress","app_id":440,"player_count":0,"max_players":24,"Bots":0,"server_type":"Dedicated","server_os":"Linux","password":true,"vac":true,"version":"7932396","steam_id":85568392924504275,"keywords":["cp","nocrits","nodmgspread","uncletopia"],"game_id":440,"stv_port":27046,"stv_name":"Uncletopia | Frankfurt | 4 | All Maps | STV","players":null},{"server_id":310,"name":"Uncletopia | Frankfurt | 5 | All Maps","name_short":"frk-5","host":"frk-1.de.uncletopia.com","port":27055,"enabled":true,"region":"eu","cc":"de","latitude":50.110924,"longitude":8.682127,"reserved":0,"last_update":"0001-01-01T00:00:00Z","name_a2s":"Uncletopia | Frankfurt | 5 | All Maps","protocol":17,"map":"cp_dustbowl","folder":"tf","game":"Team Fortress","app_id":440,"player_count":19,"max_players":24,"Bots":0,"server_type":"Dedicated","server_os":"Linux","password":true,"vac":true,"version":"7932396","steam_id":85568392924504277,"keywords":["cp","nocrits","nodmgspread","uncletopia"],"game_id":440,"stv_port":27056,"stv_name":"Uncletopia | Frankfurt | 5 | All Maps | STV","players":[{"user_id":449,"name":"Usame bin Muhammed","steam_id":76561199198844185,"connected_time":309000000000,"state":"active","ping":78},{"user_id":450,"name":"Genesis","steam_id":76561198999652040,"connected_time":231000000000,"state":"active","ping":44},{"user_id":385,"name":"Juliderkek","steam_id":76561198962270674,"connected_time":3541000000000,"state":"active","ping":86},{"user_id":451,"name":"Szeregowy LowiRyb","steam_id":76561198855967762,"connected_time":170000000000,"state":"active","ping":102},{"user_id":393,"name":"Cursed","steam_id":76561198381491880,"connected_time":3004000000000,"state":"active","ping":93},{"user_id":452,"name":"Flint","steam_id":76561197995920776,"connected_time":124000000000,"state":"active","ping":42},{"user_id":425,"name":"Caliban","steam_id":76561197999696839,"connected_time":1971000000000,"state":"active","ping":103},{"user_id":438,"name":"okar","steam_id":76561198916847884,"connected_time":1476000000000,"state":"active","ping":136},{"user_id":392,"name":"Penser","steam_id":76561198798194358,"connected_time":3126000000000,"state":"active","ping":175},{"user_id":443,"name":"Suvis","steam_id":76561198153048602,"connected_time":1001000000000,"state":"active","ping":81},{"user_id":444,"name":"Chillrend | #SaveTF2","steam_id":76561198452963141,"connected_time":679000000000,"state":"active","ping":74},{"user_id":453,"name":"Roland Deschain","steam_id":76561198023296355,"connected_time":121000000000,"state":"active","ping":102},{"user_id":454,"name":"Pain in a Box","steam_id":76561197990777173,"connected_time":114000000000,"state":"active","ping":103},{"user_id":455,"name":"LoLo","steam_id":76561199403387863,"connected_time":39000000000,"state":"active","ping":55},{"user_id":442,"name":"Andy","steam_id":76561198136364381,"connected_time":1180000000000,"state":"active","ping":61},{"user_id":456,"name":"swueuws","steam_id":76561198020716743,"connected_time":0,"state":"spawning","ping":25},{"user_id":403,"name":"el gnomo","steam_id":76561198117470985,"connected_time":2764000000000,"state":"active","ping":57},{"user_id":447,"name":"hallu","steam_id":76561198198581079,"connected_time":594000000000,"state":"active","ping":96},{"user_id":435,"name":"Master Of Noob","steam_id":76561198217926783,"connected_time":1683000000000,"state":"active","ping":73}]},{"server_id":311,"name":"Uncletopia | Frankfurt | 6 | All Maps","name_short":"frk-6","host":"frk-1.de.uncletopia.com","port":27065,"enabled":true,"region":"eu","cc":"de","latitude":50.110924,"longitude":8.682127,"reserved":0,"last_update":"0001-01-01T00:00:00Z","name_a2s":"Uncletopia | Frankfurt | 6 | All Maps","protocol":17,"map":"pl_snowycoast","folder":"tf","game":"Team Fortress","app_id":440,"player_count":0,"max_players":24,"Bots":0,"server_type":"Dedicated","server_os":"Linux","password":true,"vac":true,"version":"7932396","steam_id":85568392924504278,"keywords":["nocrits","nodmgspread","payload","uncletopia"],"game_id":440,"stv_port":27066,"stv_name":"Uncletopia | Frankfurt | 6 | All Maps | STV","players":null},{"server_id":23,"name":"Uncletopia | Frankfurt | 7 | Stopwatch Beta","name_short":"frk-7","host":"frk-1.de.uncletopia.com","port":27075,"enabled":true,"region":"eu","cc":"de","latitude":50.110924,"longitude":8.682127,"reserved":0,"last_update":"0001-01-01T00:00:00Z","name_a2s":"Uncletopia | Frankfurt | 7 | Stopwatch Beta","protocol":17,"map":"pl_snowycoast","folder":"tf","game":"Team Fortress","app_id":440,"player_count":0,"max_players":24,"Bots":0,"server_type":"Dedicated","server_os":"Linux","password":true,"vac":true,"version":"7932396","steam_id":85568392924742827,"keywords":["nocrits","nodmgspread","payload","uncletopia"],"game_id":440,"stv_port":27076,"stv_name":"Uncletopia | Frankfurt | 7 | Stopwatch Beta | STV","players":null},{"server_id":24,"name":"Uncletopia | Frankfurt | 8 | Community","name_short":"frk-8","host":"frk-1.de.uncletopia.com","port":27085,"enabled":true,"region":"eu","cc":"de","latitude":50.110924,"longitude":8.682127,"reserved":0,"last_update":"0001-01-01T00:00:00Z","name_a2s":"Uncletopia | Frankfurt | 8 | Community","protocol":17,"map":"workshop/cp_fulgur_rc2a.ugc2068252300","folder":"tf","game":"Team Fortress","app_id":440,"player_count":0,"max_players":24,"Bots":0,"server_type":"Dedicated","server_os":"Linux","password":true,"vac":true,"version":"7932396","steam_id":85568392924742828,"keywords":["cp","nocrits","nodmgspread","uncletopia"],"game_id":440,"stv_port":27086,"stv_name":"Uncletopia | Frankfurt | 8 | Community | STV","players":null},{"server_id":202,"name":"Uncletopia | Hong Kong | 1 | All Maps","name_short":"hgk-1","host":"hgk-1.hk.uncletopia.com","port":27015,"enabled":true,"region":"asia","cc":"hk","latitude":22.302711,"longitude":114.177216,"reserved":0,"last_update":"0001-01-01T00:00:00Z","name_a2s":"Uncletopia | Hong Kong | 1 | All Maps","protocol":17,"map":"koth_lakeside_final","folder":"tf","game":"Team Fortress","app_id":440,"player_count":9,"max_players":24,"Bots":0,"server_type":"Dedicated","server_os":"Linux","password":true,"vac":true,"version":"7932396","steam_id":85568392924494504,"keywords":["cp","nocrits","nodmgspread","uncletopia"],"game_id":440,"stv_port":27016,"stv_name":"Uncletopia | Hong Kong | 1 | All Maps | STV","players":[{"user_id":856,"name":"TPC","steam_id":76561198127380768,"connected_time":11000000000,"state":"spawning","ping":310},{"user_id":852,"name":"Inutsuki","steam_id":76561198171342291,"connected_time":196000000000,"state":"active","ping":124},{"user_id":730,"name":"Kurtie","steam_id":76561198144737876,"connected_time":11481000000000,"state":"active","ping":66},{"user_id":850,"name":"dankz","steam_id":76561198418790381,"connected_time":510000000000,"state":"active","ping":206},{"user_id":846,"name":"Grimo_1","steam_id":76561199100139135,"connected_time":1135000000000,"state":"active","ping":96},{"user_id":848,"name":"vui-f2p #savetf2","steam_id":76561199039461432,"connected_time":987000000000,"state":"active","ping":85},{"user_id":825,"name":"DoesColder","steam_id":76561198959978678,"connected_time":2378000000000,"state":"active","ping":88},{"user_id":849,"name":"RinRin the pansexual witch","steam_id":76561199024333803,"connected_time":921000000000,"state":"active","ping":90},{"user_id":808,"name":"disgruntled vet","steam_id":76561199048275012,"connected_time":5095000000000,"state":"active","ping":83}]},{"server_id":1,"name":"Uncletopia | Los Angeles | 1 | All Maps","name_short":"lax-1","host":"lax-1.us.uncletopia.com","port":27015,"enabled":true,"region":"us-west","cc":"us","latitude":33.94279,"longitude":-118.41004,"reserved":0,"last_update":"0001-01-01T00:00:00Z","name_a2s":"Uncletopia | Los Angeles | 1 | All Maps","protocol":17,"map":"pl_pier","folder":"tf","game":"Team Fortress","app_id":440,"player_count":24,"max_players":24,"Bots":0,"server_type":"Dedicated","server_os":"Linux","password":true,"vac":true,"version":"7932396","steam_id":85568392924469991,"keywords":["nocrits","nodmgspread","payload","uncletopia"],"game_id":440,"stv_port":27016,"stv_name":"Uncletopia | Los Angeles | 1 | All Maps | STV","players":[{"user_id":50,"name":"Nibotshooter","steam_id":76561199284825579,"connected_time":3453000000000,"state":"active","ping":57},{"user_id":51,"name":"Noxus","steam_id":76561199009820852,"connected_time":3292000000000,"state":"active","ping":70},{"user_id":52,"name":"Manx","steam_id":76561197977134062,"connected_time":3065000000000,"state":"active","ping":66},{"user_id":53,"name":"Skyrim killable children mod","steam_id":76561198862836173,"connected_time":3031000000000,"state":"active","ping":77},{"user_id":80,"name":"RetroFerret","steam_id":76561199269714905,"connected_time":1440000000000,"state":"active","ping":118},{"user_id":76,"name":"JuliaDragon","steam_id":76561198175727790,"connected_time":1678000000000,"state":"active","ping":44},{"user_id":107,"name":"lowfye","steam_id":76561198109741212,"connected_time":371000000000,"state":"active","ping":56},{"user_id":58,"name":"The Sydney Sleeper Itself","steam_id":76561198180251763,"connected_time":2453000000000,"state":"active","ping":85},{"user_id":105,"name":"Zykron","steam_id":76561199056400800,"connected_time":516000000000,"state":"active","ping":54},{"user_id":100,"name":"Ockulus","steam_id":76561199069638460,"connected_time":746000000000,"state":"active","ping":48},{"user_id":101,"name":"Hot Milk + Big Slappies","steam_id":76561197988989149,"connected_time":700000000000,"state":"active","ping":102},{"user_id":97,"name":"A Flying Kidney","steam_id":76561198046208175,"connected_time":836000000000,"state":"active","ping":62},{"user_id":81,"name":"drevott74","steam_id":76561199262592779,"connected_time":1378000000000,"state":"active","ping":88},{"user_id":106,"name":"Herbal Infusion","steam_id":76561198146881319,"connected_time":459000000000,"state":"active","ping":50},{"user_id":66,"name":"mass Tech‚Ñ¢¬© EXTREME 2000","steam_id":76561198399115655,"connected_time":2017000000000,"state":"active","ping":125},{"user_id":96,"name":"Nolan","steam_id":76561198169648081,"connected_time":942000000000,"state":"active","ping":101},{"user_id":89,"name":"donke","steam_id":76561198828006787,"connected_time":1239000000000,"state":"active","ping":96},{"user_id":90,"name":"Ja","steam_id":76561198396340174,"connected_time":1209000000000,"state":"active","ping":125},{"user_id":108,"name":"Soviet Potato","steam_id":76561198068546113,"connected_time":66000000000,"state":"active","ping":49},{"user_id":102,"name":"Hound_","steam_id":76561199389781834,"connected_time":675000000000,"state":"active","ping":63},{"user_id":103,"name":"Vito","steam_id":76561198060846419,"connected_time":664000000000,"state":"active","ping":87},{"user_id":92,"name":"Kewlbeyblader","steam_id":76561199102005597,"connected_time":1185000000000,"state":"active","ping":82},{"user_id":93,"name":"forntight gaming cool","steam_id":76561198823845027,"connected_time":1169000000000,"state":"active","ping":86},{"user_id":98,"name":"oske","steam_id":76561198131526809,"connected_time":825000000000,"state":"active","ping":113}]},{"server_id":112,"name":"Uncletopia | Los Angeles | 2 | All Maps","name_short":"lax-2","host":"lax-1.us.uncletopia.com","port":27025,"enabled":true,"region":"us-west","cc":"us","latitude":33.94279,"longitude":-118.41004,"reserved":0,"last_update":"0001-01-01T00:00:00Z","name_a2s":"Uncletopia | Los Angeles | 2 | All Maps","protocol":17,"map":"koth_lakeside_final","folder":"tf","game":"Team Fortress","app_id":440,"player_count":0,"max_players":24,"Bots":0,"server_type":"Dedicated","server_os":"Linux","password":true,"vac":true,"version":"7932396","steam_id":85568392924469992,"keywords":["cp","nocrits","nodmgspread","uncletopia"],"game_id":440,"stv_port":27026,"stv_name":"Uncletopia | Los Angeles | 2 | All Maps | STV","players":null},{"server_id":324,"name":"Uncletopia | Los Angeles | 3 | All Maps","name_short":"lax-3","host":"lax-1.us.uncletopia.com","port":27035,"enabled":true,"region":"us-west","cc":"us","latitude":33.94279,"longitude":-118.41004,"reserved":0,"last_update":"0001-01-01T00:00:00Z","name_a2s":"Uncletopia | Los Angeles | 3 | All Maps","protocol":17,"map":"pl_badwater","folder":"tf","game":"Team Fortress","app_id":440,"player_count":0,"max_players":24,"Bots":0,"server_type":"Dedicated","server_os":"Linux","password":true,"vac":true,"version":"7932396","steam_id":85568392924510198,"keywords":["nocrits","nodmgspread","payload","uncletopia"],"game_id":440,"stv_port":27036,"stv_name":"Uncletopia | Los Angeles | 3 | All Maps | STV","players":null},{"server_id":25,"name":"Uncletopia | Los Angeles | 4 | Stopwatch Beta","name_short":"lax-4","host":"lax-1.us.uncletopia.com","port":27045,"enabled":true,"region":"us-west","cc":"us","latitude":33.94279,"longitude":-118.41004,"reserved":0,"last_update":"0001-01-01T00:00:00Z","name_a2s":"Uncletopia | Los Angeles | 4 | Stopwatch Beta","protocol":17,"map":"workshop/cp_reckoner_rc6.ugc674719999","folder":"tf","game":"Team Fortress","app_id":440,"player_count":0,"max_players":24,"Bots":0,"server_type":"Dedicated","server_os":"Linux","password":true,"vac":true,"version":"7932396","steam_id":85568392924510199,"keywords":["cp","nocrits","nodmgspread","uncletopia"],"game_id":440,"stv_port":27046,"stv_name":"Uncletopia | Los Angeles | 4 | Stopwatch Beta | STV","players":null},{"server_id":11,"name":"Uncletopia | London | 1 | All Maps","name_short":"lon-1","host":"lon-1.uk.uncletopia.com","port":27015,"enabled":true,"region":"eu","cc":"gb","latitude":51.509865,"longitude":-0.118092,"reserved":0,"last_update":"0001-01-01T00:00:00Z","name_a2s":"Uncletopia | London | 1 | All Maps","protocol":17,"map":"pl_swiftwater_final1","folder":"tf","game":"Team Fortress","app_id":440,"player_count":23,"max_players":24,"Bots":0,"server_type":"Dedicated","server_os":"Linux","password":true,"vac":true,"version":"7932396","steam_id":85568392924367362,"keywords":["nocrits","nodmgspread","payload","uncletopia"],"game_id":440,"stv_port":27016,"stv_name":"Uncletopia | London | 1 | All Maps | STV","players":[{"user_id":463,"name":"[P-roc] Lovely","steam_id":76561198074361075,"connected_time":4193000000000,"state":"active","ping":41},{"user_id":533,"name":"Drunk russian with pyromania","steam_id":76561198195527328,"connected_time":472000000000,"state":"active","ping":44},{"user_id":543,"name":"francis","steam_id":76561198993696559,"connected_time":150000000000,"state":"active","ping":72},{"user_id":524,"name":"Panda","steam_id":76561198176342325,"connected_time":931000000000,"state":"active","ping":97},{"user_id":507,"name":"Jam","steam_id":76561198090409013,"connected_time":1911000000000,"state":"active","ping":84},{"user_id":534,"name":"szarolsq","steam_id":76561198026553503,"connected_time":378000000000,"state":"active","ping":101},{"user_id":535,"name":"NoPfizer","steam_id":76561198307914381,"connected_time":371000000000,"state":"active","ping":56},{"user_id":466,"name":"Sipsu","steam_id":76561198059424107,"connected_time":3899000000000,"state":"active","ping":100},{"user_id":482,"name":"Dex","steam_id":76561197981134247,"connected_time":3109000000000,"state":"active","ping":55},{"user_id":462,"name":"[P-roc] Cmm Bert","steam_id":76561198016658674,"connected_time":4408000000000,"state":"active","ping":60},{"user_id":528,"name":"Nap","steam_id":76561198189679321,"connected_time":721000000000,"state":"active","ping":64},{"user_id":529,"name":"Ash crow","steam_id":76561198368339225,"connected_time":711000000000,"state":"active","ping":116},{"user_id":519,"name":"Remi","steam_id":76561198860304357,"connected_time":1269000000000,"state":"active","ping":109},{"user_id":414,"name":"LordTrap.exe","steam_id":76561198318089716,"connected_time":6505000000000,"state":"active","ping":55},{"user_id":492,"name":"FirePenguin","steam_id":76561198151468340,"connected_time":2861000000000,"state":"active","ping":44},{"user_id":435,"name":"TheButterPickle","steam_id":76561198354317787,"connected_time":5408000000000,"state":"active","ping":58},{"user_id":495,"name":"TazerMonkey55","steam_id":76561198151547551,"connected_time":2614000000000,"state":"active","ping":53},{"user_id":537,"name":"FishNachoz","steam_id":76561198026519426,"connected_time":287000000000,"state":"active","ping":55},{"user_id":540,"name":"TheGrayGamer","steam_id":76561198862727465,"connected_time":192000000000,"state":"active","ping":59},{"user_id":541,"name":"Stavros","steam_id":76561198147881331,"connected_time":187000000000,"state":"active","ping":59},{"user_id":510,"name":"noel","steam_id":76561198128280883,"connected_time":1613000000000,"state":"active","ping":130},{"user_id":542,"name":"Lorenzo Lovers","steam_id":76561198073973581,"connected_time":171000000000,"state":"active","ping":86},{"user_id":455,"name":"–¢—Ä—É–ø –í–æ–ª–æ–¥—è","steam_id":76561198035718457,"connected_time":4557000000000,"state":"active","ping":106}]},{"server_id":114,"name":"Uncletopia | London | 2 | All Maps","name_short":"lon-2","host":"lon-1.uk.uncletopia.com","port":27025,"enabled":true,"region":"eu","cc":"gb","latitude":51.509865,"longitude":-0.118092,"reserved":0,"last_update":"0001-01-01T00:00:00Z","name_a2s":"Uncletopia | London | 2 | All Maps","protocol":17,"map":"cp_process_final","folder":"tf","game":"Team Fortress","app_id":440,"player_count":23,"max_players":24,"Bots":0,"server_type":"Dedicated","server_os":"Linux","password":true,"vac":true,"version":"7932396","steam_id":85568392924470941,"keywords":["cp","nocrits","nodmgspread","uncletopia"],"game_id":440,"stv_port":27026,"stv_name":"Uncletopia | London | 2 | All Maps | STV","players":[{"user_id":376,"name":"I.AM.THE.BOOP.WHICH.IS.APROACHI","steam_id":76561198049342507,"connected_time":111000000000,"state":"active","ping":91},{"user_id":375,"name":"SJM","steam_id":76561198799066983,"connected_time":138000000000,"state":"active","ping":74},{"user_id":340,"name":"oxidius","steam_id":76561198261730746,"connected_time":2624000000000,"state":"active","ping":55},{"user_id":377,"name":"P3rsErkki","steam_id":76561198063093495,"connected_time":61000000000,"state":"active","ping":60},{"user_id":359,"name":"zvekan","steam_id":76561198381101196,"connected_time":1317000000000,"state":"active","ping":68},{"user_id":370,"name":"The Empire Ant","steam_id":76561198082466790,"connected_time":801000000000,"state":"active","ping":64},{"user_id":353,"name":"flr","steam_id":76561198249327786,"connected_time":1992000000000,"state":"active","ping":60},{"user_id":378,"name":"dAg","steam_id":76561198047819527,"connected_time":37000000000,"state":"active","ping":110},{"user_id":371,"name":"minecraft michael","steam_id":76561198244255956,"connected_time":627000000000,"state":"active","ping":56},{"user_id":361,"name":"ghostie","steam_id":76561199097303487,"connected_time":1305000000000,"state":"active","ping":56},{"user_id":342,"name":"aww yeah","steam_id":76561197992978878,"connected_time":2607000000000,"state":"active","ping":76},{"user_id":323,"name":"KLAMA  ‚ù§","steam_id":76561198351549661,"connected_time":4830000000000,"state":"active","ping":75},{"user_id":322,"name":"vadim_kotler","steam_id":76561199016634369,"connected_time":4845000000000,"state":"active","ping":101},{"user_id":379,"name":"Zhe void is a spy","steam_id":76561199095428422,"connected_time":23000000000,"state":"active","ping":64},{"user_id":358,"name":"MR.CRAB","steam_id":76561198329833659,"connected_time":1323000000000,"state":"active","ping":77},{"user_id":366,"name":"Cosmetic brain","steam_id":76561198055936410,"connected_time":1118000000000,"state":"active","ping":85},{"user_id":216,"name":"Mono","steam_id":76561198114569493,"connected_time":11427000000000,"state":"active","ping":45},{"user_id":360,"name":"john fortress","steam_id":76561198013237629,"connected_time":1311000000000,"state":"active","ping":93},{"user_id":380,"name":"gerwazyjaworski735","steam_id":76561199489358269,"connected_time":8000000000,"state":"spawning","ping":62},{"user_id":325,"name":"average f2p","steam_id":76561199109449730,"connected_time":4819000000000,"state":"active","ping":157},{"user_id":255,"name":"JUST","steam_id":76561198069064885,"connected_time":9175000000000,"state":"active","ping":58},{"user_id":349,"name":"Fish 'n' Chips","steam_id":76561198033476886,"connected_time":2253000000000,"state":"active","ping":51},{"user_id":369,"name":"big heavy is heavy heavy","steam_id":76561198300059652,"connected_time":995000000000,"state":"active","ping":60}]},{"server_id":320,"name":"Uncletopia | London | 3 | All Maps","name_short":"lon-3","host":"lon-1.uk.uncletopia.com","port":27035,"enabled":true,"region":"eu","cc":"gb","latitude":51.509865,"longitude":-0.118092,"reserved":0,"last_update":"0001-01-01T00:00:00Z","name_a2s":"Uncletopia | London | 3 | All Maps","protocol":17,"map":"pl_pier","folder":"tf","game":"Team Fortress","app_id":440,"player_count":24,"max_players":24,"Bots":0,"server_type":"Dedicated","server_os":"Linux","password":true,"vac":true,"version":"7932396","steam_id":85568392924510192,"keywords":["nocrits","nodmgspread","payload","uncletopia"],"game_id":440,"stv_port":27036,"stv_name":"Uncletopia | London | 3 | All Maps | STV","players":[{"user_id":245,"name":"Dr. Funkenstein","steam_id":76561197977816210,"connected_time":2942000000000,"state":"active","ping":62},{"user_id":274,"name":"flappi","steam_id":76561198072892783,"connected_time":657000000000,"state":"active","ping":69},{"user_id":276,"name":"Son Goku","steam_id":76561199383437138,"connected_time":483000000000,"state":"active","ping":130},{"user_id":269,"name":"Prexagalagor","steam_id":76561198101467207,"connected_time":894000000000,"state":"active","ping":52},{"user_id":181,"name":"lagzer","steam_id":76561198029295449,"connected_time":8051000000000,"state":"active","ping":79},{"user_id":270,"name":"Deki","steam_id":76561198031914490,"connected_time":858000000000,"state":"active","ping":67},{"user_id":264,"name":"silicon based life form","steam_id":76561199127121346,"connected_time":1235000000000,"state":"active","ping":60},{"user_id":259,"name":"CalzoneCarl456","steam_id":76561198846982793,"connected_time":1402000000000,"state":"active","ping":45},{"user_id":235,"name":"hmscole09","steam_id":76561198811362788,"connected_time":4633000000000,"state":"active","ping":55},{"user_id":281,"name":"Sarahtonin","steam_id":76561197992144115,"connected_time":217000000000,"state":"active","ping":75},{"user_id":244,"name":"mesŒª","steam_id":76561198324582918,"connected_time":3318000000000,"state":"active","ping":92},{"user_id":280,"name":"Noob_with_source","steam_id":76561198870362103,"connected_time":282000000000,"state":"active","ping":59},{"user_id":225,"name":"IndigoJones","steam_id":76561198050284262,"connected_time":4811000000000,"state":"active","ping":50},{"user_id":197,"name":"gr3821","steam_id":76561198091531010,"connected_time":6966000000000,"state":"active","ping":44},{"user_id":260,"name":"I am on the TF2 Scoreboard...","steam_id":76561198043850884,"connected_time":1363000000000,"state":"active","ping":53},{"user_id":232,"name":"Grillem Dafoe","steam_id":76561198306874574,"connected_time":4718000000000,"state":"active","ping":65},{"user_id":240,"name":"Snake-chan","steam_id":76561199044755854,"connected_time":3995000000000,"state":"active","ping":77},{"user_id":277,"name":"Skuld","steam_id":76561198064734905,"connected_time":476000000000,"state":"active","ping":104},{"user_id":184,"name":"Kabachok Aeronavt","steam_id":76561198123659806,"connected_time":8039000000000,"state":"active","ping":100},{"user_id":263,"name":"Heed","steam_id":76561198033605800,"connected_time":1270000000000,"state":"active","ping":89},{"user_id":254,"name":"sareena","steam_id":76561198810194062,"connected_time":2473000000000,"state":"active","ping":70},{"user_id":278,"name":"TrinTy[Eric]","steam_id":76561198233457496,"connected_time":454000000000,"state":"active","ping":59},{"user_id":205,"name":"Yodesman","steam_id":76561198035765995,"connected_time":6087000000000,"state":"active","ping":126},{"user_id":279,"name":"Plep","steam_id":76561198840259819,"connected_time":451000000000,"state":"active","ping":61}]},{"server_id":321,"name":"Uncletopia | London | 4 | All Maps","name_short":"lon-4","host":"lon-1.uk.uncletopia.com","port":27045,"enabled":true,"region":"eu","cc":"gb","latitude":51.509865,"longitude":-0.118092,"reserved":0,"last_update":"0001-01-01T00:00:00Z","name_a2s":"Uncletopia | London | 4 | All Maps","protocol":17,"map":"pl_frontier_final","folder":"tf","game":"Team Fortress","app_id":440,"player_count":10,"max_players":24,"Bots":0,"server_type":"Dedicated","server_os":"Linux","password":true,"vac":true,"version":"7932396","steam_id":85568392924510193,"keywords":["nocrits","nodmgspread","payload","uncletopia"],"game_id":440,"stv_port":27046,"stv_name":"Uncletopia | London | 4 | All Maps | STV","players":[{"user_id":8,"name":"Methril Gremloch","steam_id":76561198071454092,"connected_time":1755000000000,"state":"active","ping":59},{"user_id":9,"name":"Archangel","steam_id":76561198073273999,"connected_time":1729000000000,"state":"active","ping":46},{"user_id":10,"name":"Cofnie","steam_id":76561198043281570,"connected_time":1720000000000,"state":"active","ping":64},{"user_id":16,"name":"Penis Gaming","steam_id":76561199198623988,"connected_time":385000000000,"state":"active","ping":58},{"user_id":12,"name":"weeb","steam_id":76561198066855876,"connected_time":952000000000,"state":"active","ping":119},{"user_id":20,"name":"xeon","steam_id":76561198023335037,"connected_time":94000000000,"state":"active","ping":130},{"user_id":14,"name":"meat man","steam_id":76561199135835032,"connected_time":735000000000,"state":"active","ping":92},{"user_id":21,"name":"t√©t.","steam_id":76561198146309367,"connected_time":60000000000,"state":"active","ping":94},{"user_id":22,"name":"Meg Thomas","steam_id":76561198308266951,"connected_time":49000000000,"state":"active","ping":73},{"user_id":23,"name":"PANAANI","steam_id":76561198322322739,"connected_time":28000000000,"state":"active","ping":78}]},{"server_id":21,"name":"Uncletopia | London | 5 | All Maps","name_short":"lon-5","host":"lon-1.uk.uncletopia.com","port":27055,"enabled":true,"region":"eu","cc":"gb","latitude":51.509865,"longitude":-0.118092,"reserved":0,"last_update":"0001-01-01T00:00:00Z","name_a2s":"Uncletopia | London | 5 | All Maps","protocol":17,"map":"pl_borneo","folder":"tf","game":"Team Fortress","app_id":440,"player_count":22,"max_players":24,"Bots":0,"server_type":"Dedicated","server_os":"Linux","password":true,"vac":true,"version":"7932396","steam_id":85568392924742829,"keywords":["nocrits","nodmgspread","payload","uncletopia"],"game_id":440,"stv_port":27056,"stv_name":"Uncletopia | London | 5 | All Maps | STV","players":[{"user_id":318,"name":"Grim the lemon","steam_id":76561199083433988,"connected_time":2481000000000,"state":"active","ping":51},{"user_id":328,"name":"Remembrance","steam_id":76561199229247163,"connected_time":1869000000000,"state":"active","ping":39},{"user_id":353,"name":"fregaropa","steam_id":76561198150806166,"connected_time":262000000000,"state":"active","ping":80},{"user_id":323,"name":"profreshional cactus","steam_id":76561198837919828,"connected_time":2058000000000,"state":"active","ping":112},{"user_id":356,"name":"Registered Sex Defender","steam_id":76561198039836567,"connected_time":9000000000,"state":"spawning","ping":44},{"user_id":338,"name":"Bonduelle#Savetf2","steam_id":76561199041992422,"connected_time":1446000000000,"state":"active","ping":151},{"user_id":263,"name":"generic alias","steam_id":76561198271607226,"connected_time":6437000000000,"state":"active","ping":83},{"user_id":346,"name":"murderwow","steam_id":76561198024566944,"connected_time":446000000000,"state":"active","ping":109},{"user_id":355,"name":"Thors","steam_id":76561197968739075,"connected_time":103000000000,"state":"active","ping":39},{"user_id":327,"name":"ahcenetupe","steam_id":76561198916501470,"connected_time":1924000000000,"state":"active","ping":54},{"user_id":348,"name":"magnos62564","steam_id":76561198356968225,"connected_time":420000000000,"state":"active","ping":73},{"user_id":237,"name":"SlowMode","steam_id":76561198039631442,"connected_time":9112000000000,"state":"active","ping":89},{"user_id":354,"name":"Bird On Your Window","steam_id":76561198081933130,"connected_time":254000000000,"state":"active","ping":59},{"user_id":330,"name":"tired","steam_id":76561198046838168,"connected_time":1845000000000,"state":"active","ping":57},{"user_id":332,"name":"Gubbly Bubbins","steam_id":76561198101451654,"connected_time":1574000000000,"state":"active","ping":46},{"user_id":265,"name":"LivEssense","steam_id":76561198052476979,"connected_time":6433000000000,"state":"active","ping":90},{"user_id":344,"name":"Burpman","steam_id":76561198022897937,"connected_time":641000000000,"state":"active","ping":47},{"user_id":352,"name":"gneeda","steam_id":76561198147249160,"connected_time":288000000000,"state":"active","ping":115},{"user_id":341,"name":"Hexagon","steam_id":76561198151205758,"connected_time":1142000000000,"state":"active","ping":59},{"user_id":297,"name":"You Don't Nomi.","steam_id":76561197969137836,"connected_time":4583000000000,"state":"active","ping":122},{"user_id":309,"name":"fifrok","steam_id":76561198799267621,"connected_time":3529000000000,"state":"active","ping":84},{"user_id":351,"name":"Archer","steam_id":76561198132860299,"connected_time":348000000000,"state":"active","ping":62}]},{"server_id":22,"name":"Uncletopia | London | 6 | All Maps","name_short":"lon-6","host":"lon-1.uk.uncletopia.com","port":27065,"enabled":true,"region":"eu","cc":"gb","latitude":51.509865,"longitude":-0.118092,"reserved":0,"last_update":"0001-01-01T00:00:00Z","name_a2s":"Uncletopia | London | 6 | All Maps","protocol":17,"map":"pl_badwater","folder":"tf","game":"Team Fortress","app_id":440,"player_count":24,"max_players":24,"Bots":0,"server_type":"Dedicated","server_os":"Linux","password":true,"vac":true,"version":"7932396","steam_id":85568392924742830,"keywords":["nocrits","nodmgspread","payload","uncletopia"],"game_id":440,"stv_port":27066,"stv_name":"Uncletopia | London | 6 | All Maps | STV","players":[{"user_id":159,"name":"dr. coom","steam_id":76561198172193711,"connected_time":1034000000000,"state":"active","ping":41},{"user_id":160,"name":"Professional facestab","steam_id":76561198258721056,"connected_time":995000000000,"state":"active","ping":46},{"user_id":64,"name":"real open player","steam_id":76561198148115584,"connected_time":7716000000000,"state":"active","ping":77},{"user_id":136,"name":"Anri Okita's Massive Milkers","steam_id":76561199186352720,"connected_time":1956000000000,"state":"active","ping":48},{"user_id":155,"name":"philippoliverCat","steam_id":76561198877008415,"connected_time":1253000000000,"state":"active","ping":82},{"user_id":169,"name":"name me pls","steam_id":76561199273576072,"connected_time":613000000000,"state":"active","ping":55},{"user_id":170,"name":"foursixsixseven","steam_id":76561199123727043,"connected_time":613000000000,"state":"active","ping":57},{"user_id":62,"name":"1914","steam_id":76561198257383813,"connected_time":7927000000000,"state":"active","ping":60},{"user_id":130,"name":"Amoru","steam_id":76561198798161817,"connected_time":2670000000000,"state":"active","ping":84},{"user_id":135,"name":"kornetov.vitalya","steam_id":76561199286034833,"connected_time":1970000000000,"state":"active","ping":113},{"user_id":167,"name":"Oki (Bon)","steam_id":76561199047748534,"connected_time":890000000000,"state":"active","ping":53},{"user_id":161,"name":"Chucky.","steam_id":76561197969361063,"connected_time":991000000000,"state":"active","ping":75},{"user_id":153,"name":"Dr. Feelgood","steam_id":76561199173885103,"connected_time":1402000000000,"state":"active","ping":142},{"user_id":162,"name":"reddit","steam_id":76561198059699043,"connected_time":980000000000,"state":"active","ping":75},{"user_id":146,"name":"MurdumVlad","steam_id":76561198280832120,"connected_time":1801000000000,"state":"active","ping":95},{"user_id":121,"name":"PelikaanEi","steam_id":76561198129780959,"connected_time":3725000000000,"state":"active","ping":58},{"user_id":147,"name":"fatfuck","steam_id":76561198229995788,"connected_time":1795000000000,"state":"active","ping":102},{"user_id":163,"name":"Punk","steam_id":76561198268369013,"connected_time":980000000000,"state":"active","ping":103},{"user_id":164,"name":"Maranhadas","steam_id":76561198152856761,"connected_time":970000000000,"state":"active","ping":140},{"user_id":151,"name":"ev1lboyo","steam_id":76561199199499453,"connected_time":1457000000000,"state":"active","ping":66},{"user_id":165,"name":"Frylock","steam_id":76561198050292560,"connected_time":905000000000,"state":"active","ping":45},{"user_id":168,"name":"Clitorina","steam_id":76561198077570815,"connected_time":686000000000,"state":"active","ping":42},{"user_id":166,"name":"dogs_drink_water","steam_id":76561198296630670,"connected_time":900000000000,"state":"active","ping":67},{"user_id":129,"name":"mauro","steam_id":76561198150098510,"connected_time":2709000000000,"state":"active","ping":57}]},{"server_id":40,"name":"Uncletopia | London | 7 | No Payload","name_short":"lon-7","host":"lon-1.uk.uncletopia.com","port":27075,"enabled":true,"region":"eu","cc":"gb","latitude":51.509865,"longitude":-0.118092,"reserved":0,"last_update":"0001-01-01T00:00:00Z","name_a2s":"Uncletopia | London | 7 | No Payload","protocol":17,"map":"ctf_2fort","folder":"tf","game":"Team Fortress","app_id":440,"player_count":11,"max_players":24,"Bots":0,"server_type":"Dedicated","server_os":"Linux","password":true,"vac":true,"version":"7932396","steam_id":85568392924964314,"keywords":["ctf","nocrits","nodmgspread","uncletopia"],"game_id":440,"stv_port":27076,"stv_name":"Uncletopia | London | 7 | No Payload | STV","players":[{"user_id":61,"name":"The Bread Bringer","steam_id":76561198264079743,"connected_time":3775000000000,"state":"active","ping":46},{"user_id":91,"name":"ya boi","steam_id":76561198320746074,"connected_time":1275000000000,"state":"active","ping":52},{"user_id":96,"name":"presidentialAIDS","steam_id":76561199257284077,"connected_time":967000000000,"state":"active","ping":145},{"user_id":102,"name":"Michael","steam_id":76561198003146906,"connected_time":279000000000,"state":"active","ping":40},{"user_id":103,"name":"Mr Gnash","steam_id":76561198007410990,"connected_time":202000000000,"state":"spawning","ping":54},{"user_id":99,"name":"ToonFood","steam_id":76561198038594124,"connected_time":863000000000,"state":"active","ping":52},{"user_id":17,"name":"Kekeke","steam_id":76561198063672270,"connected_time":6583000000000,"state":"active","ping":99},{"user_id":50,"name":"Weebot00","steam_id":76561199479204459,"connected_time":5750000000000,"state":"active","ping":58},{"user_id":77,"name":"I I","steam_id":76561199101935057,"connected_time":2435000000000,"state":"active","ping":100},{"user_id":81,"name":"Nobaddy","steam_id":76561198037871007,"connected_time":1917000000000,"state":"active","ping":84},{"user_id":90,"name":"Ostara","steam_id":76561198200054489,"connected_time":1364000000000,"state":"active","ping":54}]},{"server_id":41,"name":"Uncletopia | London | 8 | Community","name_short":"lon-8","host":"lon-1.uk.uncletopia.com","port":27085,"enabled":true,"region":"eu","cc":"gb","latitude":51.509865,"longitude":-0.118092,"reserved":0,"last_update":"0001-01-01T00:00:00Z","name_a2s":"Uncletopia | London | 8 | Community","protocol":17,"map":"workshop/koth_slaughter_rc1.ugc1712845210","folder":"tf","game":"Team Fortress","app_id":440,"player_count":0,"max_players":24,"Bots":0,"server_type":"Dedicated","server_os":"Linux","password":true,"vac":true,"version":"7932396","steam_id":85568392924964315,"keywords":["cp","nocrits","nodmgspread","uncletopia"],"game_id":440,"stv_port":27086,"stv_name":"Uncletopia | London | 8 | Community | STV","players":null},{"server_id":300,"name":"Uncletopia | Montr√©al | 1 | All Maps","name_short":"mtl-1","host":"mtl-1.ca.uncletopia.com","port":27015,"enabled":true,"region":"us-east","cc":"ca","latitude":45.50889,"longitude":-73.56167,"reserved":0,"last_update":"0001-01-01T00:00:00Z","name_a2s":"Uncletopia | Montr√©al | 1 | All Maps","protocol":17,"map":"koth_cascade","folder":"tf","game":"Team Fortress","app_id":440,"player_count":0,"max_players":24,"Bots":0,"server_type":"Dedicated","server_os":"Linux","password":true,"vac":true,"version":"7932396","steam_id":85568392924500087,"keywords":["cp","nocrits","nodmgspread","uncletopia"],"game_id":440,"stv_port":27016,"stv_name":"Uncletopia | Montr√©al | 1 | All Maps | STV","players":null},{"server_id":301,"name":"Uncletopia | Montr√©al | 2 | All Maps","name_short":"mtl-2","host":"mtl-1.ca.uncletopia.com","port":27025,"enabled":true,"region":"us-east","cc":"ca","latitude":45.50889,"longitude":-73.56167,"reserved":0,"last_update":"0001-01-01T00:00:00Z","name_a2s":"Uncletopia | Montr√©al | 2 | All Maps","protocol":17,"map":"koth_lakeside_final","folder":"tf","game":"Team Fortress","app_id":440,"player_count":0,"max_players":24,"Bots":0,"server_type":"Dedicated","server_os":"Linux","password":true,"vac":true,"version":"7932396","steam_id":85568392924500088,"keywords":["cp","nocrits","nodmgspread","uncletopia"],"game_id":440,"stv_port":27026,"stv_name":"Uncletopia | Montr√©al | 2 | All Maps | STV","players":null},{"server_id":302,"name":"Uncletopia | Montr√©al | 3 | All Maps","name_short":"mtl-3","host":"mtl-1.ca.uncletopia.com","port":27035,"enabled":true,"region":"us-east","cc":"ca","latitude":45.50889,"longitude":-73.56167,"reserved":0,"last_update":"0001-01-01T00:00:00Z","name_a2s":"Uncletopia | Montr√©al | 3 | All Maps","protocol":17,"map":"cp_process_final","folder":"tf","game":"Team Fortress","app_id":440,"player_count":0,"max_players":24,"Bots":0,"server_type":"Dedicated","server_os":"Linux","password":true,"vac":true,"version":"7932396","steam_id":85568392924500089,"keywords":["cp","nocrits","nodmgspread","uncletopia"],"game_id":440,"stv_port":27036,"stv_name":"Uncletopia | Montr√©al | 3 | All Maps | STV","players":null},{"server_id":303,"name":"Uncletopia | Montr√©al | 4 | No Payload","name_short":"mtl-4","host":"mtl-1.ca.uncletopia.com","port":27045,"enabled":true,"region":"us-east","cc":"ca","latitude":45.50889,"longitude":-73.56167,"reserved":0,"last_update":"0001-01-01T00:00:00Z","name_a2s":"Uncletopia | Montr√©al | 4 | No Payload","protocol":17,"map":"cp_snakewater_final1","folder":"tf","game":"Team Fortress","app_id":440,"player_count":0,"max_players":24,"Bots":0,"server_type":"Dedicated","server_os":"Linux","password":true,"vac":true,"version":"7932396","steam_id":85568392924500090,"keywords":["cp","nocrits","nodmgspread","uncletopia"],"game_id":440,"stv_port":27046,"stv_name":"Uncletopia | Montr√©al | 4 | No Payload | STV","players":null},{"server_id":13,"name":"Uncletopia | New York City | 1 | All Maps","name_short":"nyc-1","host":"nyc-1.us.uncletopia.com","port":27015,"enabled":true,"region":"us-east","cc":"us","latitude":40.73061,"longitude":-73.93524,"reserved":0,"last_update":"0001-01-01T00:00:00Z","name_a2s":"Uncletopia | New York City | 1 | All Maps","protocol":17,"map":"pl_upward","folder":"tf","game":"Team Fortress","app_id":440,"player_count":24,"max_players":24,"Bots":0,"server_type":"Dedicated","server_os":"Linux","password":true,"vac":true,"version":"7932396","steam_id":85568392924469993,"keywords":["nocrits","nodmgspread","payload","uncletopia"],"game_id":440,"stv_port":27016,"stv_name":"Uncletopia | New York City | 1 | All Maps | STV","players":[{"user_id":10,"name":"B‚àûp | ‚ù§Fasto‚ù§","steam_id":76561198118298527,"connected_time":1550000000000,"state":"active","ping":142},{"user_id":11,"name":"Tankedup_","steam_id":76561198168659251,"connected_time":1543000000000,"state":"active","ping":133},{"user_id":12,"name":"JHLO","steam_id":76561198074359967,"connected_time":1539000000000,"state":"active","ping":60},{"user_id":13,"name":"B‚àûp | ‚ù§Hina‚ù§","steam_id":76561198058465921,"connected_time":1539000000000,"state":"active","ping":120},{"user_id":14,"name":"get scrongled, idiot","steam_id":76561198115874625,"connected_time":1470000000000,"state":"active","ping":50},{"user_id":15,"name":"toastman","steam_id":76561198207073088,"connected_time":1469000000000,"state":"active","ping":77},{"user_id":18,"name":"Shadowgear7","steam_id":76561198129463509,"connected_time":1279000000000,"state":"active","ping":67},{"user_id":17,"name":"Ethan","steam_id":76561199127788122,"connected_time":1373000000000,"state":"active","ping":80},{"user_id":19,"name":"Norman","steam_id":76561198154715990,"connected_time":1268000000000,"state":"active","ping":108},{"user_id":20,"name":"Chosen","steam_id":76561198443525987,"connected_time":1192000000000,"state":"active","ping":86},{"user_id":21,"name":"typhoon","steam_id":76561198165123178,"connected_time":984000000000,"state":"active","ping":71},{"user_id":22,"name":"bachphong760","steam_id":76561199433780443,"connected_time":955000000000,"state":"active","ping":83},{"user_id":23,"name":"Cooldog","steam_id":76561198080548713,"connected_time":944000000000,"state":"active","ping":54},{"user_id":26,"name":"Swifgz","steam_id":76561198162875756,"connected_time":811000000000,"state":"active","ping":47},{"user_id":25,"name":"KyonHB","steam_id":76561198050311904,"connected_time":856000000000,"state":"active","ping":64},{"user_id":27,"name":"WhoThoughtWeWould","steam_id":76561199207409559,"connected_time":798000000000,"state":"active","ping":82},{"user_id":28,"name":"mdharsy","steam_id":76561198065831053,"connected_time":787000000000,"state":"active","ping":93},{"user_id":29,"name":"Wire  Bash","steam_id":76561198033268371,"connected_time":781000000000,"state":"active","ping":134},{"user_id":30,"name":"the green crayon","steam_id":76561198050034169,"connected_time":778000000000,"state":"active","ping":55},{"user_id":31,"name":"Zhenaj","steam_id":76561199209016136,"connected_time":744000000000,"state":"active","ping":74},{"user_id":32,"name":"woople","steam_id":76561198076625889,"connected_time":737000000000,"state":"active","ping":139},{"user_id":33,"name":"kiv","steam_id":76561198838223023,"connected_time":725000000000,"state":"active","ping":60},{"user_id":34,"name":"Aristotle Voulton","steam_id":76561198100174923,"connected_time":689000000000,"state":"active","ping":74},{"user_id":35,"name":"ChefMike","steam_id":76561198414034069,"connected_time":678000000000,"state":"active","ping":83}]},{"server_id":14,"name":"Uncletopia | New York City | 2 | All Maps","name_short":"nyc-2","host":"nyc-1.us.uncletopia.com","port":27025,"enabled":true,"region":"us-east","cc":"us","latitude":40.73061,"longitude":-73.93524,"reserved":0,"last_update":"0001-01-01T00:00:00Z","name_a2s":"Uncletopia | New York City | 2 | All Maps","protocol":17,"map":"cp_gravelpit","folder":"tf","game":"Team Fortress","app_id":440,"player_count":7,"max_players":24,"Bots":0,"server_type":"Dedicated","server_os":"Linux","password":true,"vac":true,"version":"7932396","steam_id":85568392924469994,"keywords":["cp","nocrits","nodmgspread","uncletopia"],"game_id":440,"stv_port":27026,"stv_name":"Uncletopia | New York City | 2 | All Maps | STV","players":[{"user_id":187,"name":"Snake Handler","steam_id":76561198027198306,"connected_time":120000000000,"state":"active","ping":60},{"user_id":122,"name":"Glue Sniffer","steam_id":76561198799199425,"connected_time":4534000000000,"state":"active","ping":163},{"user_id":183,"name":"Turtle Merchandiser","steam_id":76561198109160634,"connected_time":268000000000,"state":"active","ping":97},{"user_id":181,"name":"artichoke","steam_id":76561198980994364,"connected_time":674000000000,"state":"active","ping":87},{"user_id":182,"name":"littleshoey22","steam_id":76561198445815268,"connected_time":464000000000,"state":"active","ping":124},{"user_id":185,"name":"The base jumper doesnt suck","steam_id":76561198317677617,"connected_time":198000000000,"state":"active","ping":74},{"user_id":166,"name":"total nougat decadence","steam_id":76561199311921686,"connected_time":2473000000000,"state":"active","ping":59}]},{"server_id":15,"name":"Uncletopia | New York City | 3 | Stopwatch Beta","name_short":"nyc-3","host":"nyc-1.us.uncletopia.com","port":27035,"enabled":true,"region":"us-east","cc":"us","latitude":40.73061,"longitude":-73.93524,"reserved":0,"last_update":"0001-01-01T00:00:00Z","name_a2s":"Uncletopia | New York City | 3 | Stopwatch Beta","protocol":17,"map":"cp_sunshine","folder":"tf","game":"Team Fortress","app_id":440,"player_count":0,"max_players":24,"Bots":0,"server_type":"Dedicated","server_os":"Linux","password":true,"vac":true,"version":"7932396","steam_id":85568392924742820,"keywords":["cp","nocrits","nodmgspread","uncletopia"],"game_id":440,"stv_port":27036,"stv_name":"Uncletopia | New York City | 3 | Stopwatch Beta | STV","players":null},{"server_id":16,"name":"Uncletopia | New York City | 4 | Community","name_short":"nyc-4","host":"nyc-1.us.uncletopia.com","port":27045,"enabled":true,"region":"us-east","cc":"us","latitude":40.73061,"longitude":-73.93524,"reserved":0,"last_update":"0001-01-01T00:00:00Z","name_a2s":"Uncletopia | New York City | 4 | Community","protocol":17,"map":"workshop/cp_glacier_rc6.ugc2905735376","folder":"tf","game":"Team Fortress","app_id":440,"player_count":0,"max_players":24,"Bots":0,"server_type":"Dedicated","server_os":"Linux","password":true,"vac":true,"version":"7932396","steam_id":85568392924742821,"keywords":["cp","nocrits","nodmgspread","uncletopia"],"game_id":440,"stv_port":27046,"stv_name":"Uncletopia | New York City | 4 | Community | STV","players":null},{"server_id":142,"name":"Uncletopia | S√£o Paulo | 1 | All Maps","name_short":"sao-1","host":"sao-1.br.uncletopia.com","port":27015,"enabled":true,"region":"sa","cc":"br","latitude":-23.533773,"longitude":-46.62529,"reserved":0,"last_update":"0001-01-01T00:00:00Z","name_a2s":"Uncletopia | S√£o Paulo | 1 | All Maps","protocol":17,"map":"koth_viaduct","folder":"tf","game":"Team Fortress","app_id":440,"player_count":0,"max_players":24,"Bots":0,"server_type":"Dedicated","server_os":"Linux","password":true,"vac":true,"version":"7932396","steam_id":85568392924469996,"keywords":["cp","nocrits","nodmgspread","uncletopia"],"game_id":440,"stv_port":27016,"stv_name":"Uncletopia | S√£o Paulo | 1 | All Maps | STV","players":null},{"server_id":143,"name":"Uncletopia | S√£o Paulo | 2 | All Maps","name_short":"sao-2","host":"sao-2.br.uncletopia.com","port":27015,"enabled":true,"region":"sa","cc":"br","latitude":-23.533773,"longitude":-46.62529,"reserved":0,"last_update":"0001-01-01T00:00:00Z","name_a2s":"Uncletopia | S√£o Paulo | 2 | All Maps","protocol":17,"map":"pl_pier","folder":"tf","game":"Team Fortress","app_id":440,"player_count":2,"max_players":24,"Bots":0,"server_type":"Dedicated","server_os":"Linux","password":true,"vac":true,"version":"7932396","steam_id":85568392924485349,"keywords":["nocrits","nodmgspread","payload","uncletopia"],"game_id":440,"stv_port":27016,"stv_name":"Uncletopia | S√£o Paulo | 2 | All Maps | STV","players":[{"user_id":20,"name":"pro gamer","steam_id":76561199122534070,"connected_time":58000000000,"state":"active","ping":228},{"user_id":21,"name":"The ham man","steam_id":76561199271544694,"connected_time":47000000000,"state":"spawning","ping":231}]},{"server_id":7,"name":"Uncletopia | Seattle | 1 | All Maps","name_short":"sea-1","host":"sea-1.us.uncletopia.com","port":27015,"enabled":true,"region":"us-west","cc":"us","latitude":47.608013,"longitude":-122.33517,"reserved":0,"last_update":"0001-01-01T00:00:00Z","name_a2s":"Uncletopia | Seattle | 1 | All Maps","protocol":17,"map":"pl_upward","folder":"tf","game":"Team Fortress","app_id":440,"player_count":24,"max_players":24,"Bots":0,"server_type":"Dedicated","server_os":"Linux","password":true,"vac":true,"version":"7932396","steam_id":85568392924469997,"keywords":["nocrits","nodmgspread","payload","uncletopia"],"game_id":440,"stv_port":27016,"stv_name":"Uncletopia | Seattle | 1 | All Maps | STV","players":[{"user_id":91,"name":"Santer51","steam_id":76561198125834260,"connected_time":4761000000000,"state":"active","ping":68},{"user_id":95,"name":"Goldensliv","steam_id":76561198161673891,"connected_time":4163000000000,"state":"active","ping":60},{"user_id":125,"name":"Peppy","steam_id":76561198866629645,"connected_time":493000000000,"state":"active","ping":56},{"user_id":111,"name":"Patio","steam_id":76561197986082608,"connected_time":2677000000000,"state":"active","ping":56},{"user_id":114,"name":"Goth Spy Boyfriend","steam_id":76561198104086771,"connected_time":2303000000000,"state":"active","ping":72},{"user_id":8,"name":"CoffeeZombee","steam_id":76561198172708053,"connected_time":10108000000000,"state":"active","ping":136},{"user_id":9,"name":"Flippityflop","steam_id":76561198086692908,"connected_time":10096000000000,"state":"active","ping":129},{"user_id":88,"name":"Peaches","steam_id":76561198157117348,"connected_time":5002000000000,"state":"active","ping":125},{"user_id":124,"name":"jayeskae","steam_id":76561198144220801,"connected_time":1097000000000,"state":"active","ping":45},{"user_id":73,"name":"Saggle","steam_id":76561198056075147,"connected_time":5727000000000,"state":"active","ping":191},{"user_id":84,"name":"Little Linguine","steam_id":76561198816986370,"connected_time":5387000000000,"state":"active","ping":64},{"user_id":77,"name":"Apathetica","steam_id":76561197978237633,"connected_time":5585000000000,"state":"active","ping":56},{"user_id":126,"name":"Themasterman75","steam_id":76561199385573293,"connected_time":491000000000,"state":"active","ping":70},{"user_id":75,"name":"User","steam_id":76561198123471222,"connected_time":5634000000000,"state":"active","ping":84},{"user_id":70,"name":"Sprit ‚ô•","steam_id":76561198268780781,"connected_time":5825000000000,"state":"active","ping":100},{"user_id":118,"name":"fwoov","steam_id":76561198129166260,"connected_time":1841000000000,"state":"active","ping":75},{"user_id":129,"name":"Thewaffleman141","steam_id":76561198083068694,"connected_time":50000000000,"state":"active","ping":101},{"user_id":123,"name":"SuperHippoCow","steam_id":76561197998531412,"connected_time":1158000000000,"state":"active","ping":116},{"user_id":120,"name":"Bige Rone","steam_id":76561198066718191,"connected_time":1718000000000,"state":"active","ping":46},{"user_id":127,"name":"Mario","steam_id":76561198321794277,"connected_time":451000000000,"state":"active","ping":76},{"user_id":85,"name":"comet sooicidy","steam_id":76561198025173479,"connected_time":5329000000000,"state":"active","ping":146},{"user_id":128,"name":"radical larry","steam_id":76561198172246829,"connected_time":346000000000,"state":"active","ping":93},{"user_id":122,"name":"mr. nine","steam_id":76561198097599414,"connected_time":1543000000000,"state":"active","ping":87},{"user_id":106,"name":"DiscoTraveler","steam_id":76561199240168088,"connected_time":3586000000000,"state":"active","ping":110}]},{"server_id":119,"name":"Uncletopia | Seattle | 2 | All Maps","name_short":"sea-2","host":"sea-1.us.uncletopia.com","port":27025,"enabled":true,"region":"us-west","cc":"us","latitude":47.608013,"longitude":-122.33517,"reserved":0,"last_update":"0001-01-01T00:00:00Z","name_a2s":"Uncletopia | Seattle | 2 | All Maps","protocol":17,"map":"pl_pier","folder":"tf","game":"Team Fortress","app_id":440,"player_count":24,"max_players":24,"Bots":0,"server_type":"Dedicated","server_os":"Linux","password":true,"vac":true,"version":"7932396","steam_id":85568392924469998,"keywords":["nocrits","nodmgspread","payload","uncletopia"],"game_id":440,"stv_port":27026,"stv_name":"Uncletopia | Seattle | 2 | All Maps | STV","players":[{"user_id":59,"name":"DJ Pierce","steam_id":76561198394241466,"connected_time":1290000000000,"state":"active","ping":122},{"user_id":81,"name":"Ostin","steam_id":76561197993726444,"connected_time":23000000000,"state":"active","ping":125},{"user_id":58,"name":"Dreamzapp","steam_id":76561199084936632,"connected_time":1369000000000,"state":"active","ping":89},{"user_id":63,"name":"TeriyakiDynamite","steam_id":76561198050049346,"connected_time":937000000000,"state":"active","ping":89},{"user_id":22,"name":"FlameShake","steam_id":76561198084021005,"connected_time":3298000000000,"state":"active","ping":118},{"user_id":80,"name":"choi","steam_id":76561198053669887,"connected_time":138000000000,"state":"active","ping":79},{"user_id":64,"name":"‚ô• Milo Stefferson ‚ô• (Soupca","steam_id":76561198056269538,"connected_time":927000000000,"state":"active","ping":57},{"user_id":68,"name":"Space360","steam_id":76561198106743284,"connected_time":682000000000,"state":"active","ping":55},{"user_id":69,"name":"Aeris","steam_id":76561198287271028,"connected_time":664000000000,"state":"active","ping":99},{"user_id":33,"name":"lil homie gay ass","steam_id":76561198044804626,"connected_time":2465000000000,"state":"active","ping":106},{"user_id":75,"name":"reject drugs and embrace God","steam_id":76561198452519031,"connected_time":440000000000,"state":"active","ping":54},{"user_id":70,"name":"Evenaris","steam_id":76561198087544319,"connected_time":658000000000,"state":"active","ping":76},{"user_id":71,"name":"eepy ahh gobin","steam_id":76561198072879485,"connected_time":616000000000,"state":"active","ping":88},{"user_id":51,"name":"Sky","steam_id":76561198097549374,"connected_time":1791000000000,"state":"active","ping":58},{"user_id":39,"name":"gore vid","steam_id":76561199001918194,"connected_time":2189000000000,"state":"active","ping":94},{"user_id":76,"name":"Tyulmi","steam_id":76561198041432710,"connected_time":363000000000,"state":"active","ping":152},{"user_id":52,"name":"yahweh","steam_id":76561198347225801,"connected_time":1771000000000,"state":"active","ping":52},{"user_id":77,"name":"Keamy","steam_id":76561199471434875,"connected_time":356000000000,"state":"active","ping":32},{"user_id":78,"name":"FliturbiousRex","steam_id":76561199217583334,"connected_time":274000000000,"state":"active","ping":111},{"user_id":44,"name":"donkeyballs2007","steam_id":76561199466298683,"connected_time":2077000000000,"state":"active","ping":74},{"user_id":73,"name":"green bean","steam_id":76561198113099204,"connected_time":549000000000,"state":"active","ping":59},{"user_id":46,"name":"honku honku","steam_id":76561198325760629,"connected_time":1948000000000,"state":"active","ping":121},{"user_id":79,"name":"color gibus enjoyer","steam_id":76561198253531160,"connected_time":247000000000,"state":"active","ping":56},{"user_id":53,"name":"Cerabond","steam_id":76561199230915333,"connected_time":1766000000000,"state":"active","ping":131}]},{"server_id":406,"name":"Uncletopia | Seattle | 3 | Stopwatch Beta","name_short":"sea-3","host":"sea-1.us.uncletopia.com","port":27035,"enabled":true,"region":"us-west","cc":"us","latitude":47.608013,"longitude":-122.33517,"reserved":0,"last_update":"0001-01-01T00:00:00Z","name_a2s":"Uncletopia | Seattle | 3 | Stopwatch Beta","protocol":17,"map":"cp_mountainlab","folder":"tf","game":"Team Fortress","app_id":440,"player_count":0,"max_players":24,"Bots":0,"server_type":"Dedicated","server_os":"Linux","password":true,"vac":true,"version":"7932396","steam_id":85568392924515217,"keywords":["cp","nocrits","nodmgspread","uncletopia"],"game_id":440,"stv_port":27036,"stv_name":"Uncletopia | Seattle | 3 | Stopwatch Beta | STV","players":null},{"server_id":17,"name":"Uncletopia | San Francisco | 1 | All Maps","name_short":"sfo-1","host":"sfo-1.us.uncletopia.com","port":27015,"enabled":true,"region":"us-west","cc":"us","latitude":37.77397,"longitude":-122.4313,"reserved":0,"last_update":"0001-01-01T00:00:00Z","name_a2s":"Uncletopia | San Francisco | 1 | All Maps","protocol":17,"map":"cp_snakewater_final1","folder":"tf","game":"Team Fortress","app_id":440,"player_count":3,"max_players":24,"Bots":0,"server_type":"Dedicated","server_os":"Linux","password":true,"vac":true,"version":"7932396","steam_id":85568392924469999,"keywords":["cp","nocrits","nodmgspread","uncletopia"],"game_id":440,"stv_port":27016,"stv_name":"Uncletopia | San Francisco | 1 | All Maps | STV","players":[{"user_id":6,"name":"a cat plushie","steam_id":76561198080046542,"connected_time":499000000000,"state":"active","ping":53},{"user_id":7,"name":"Goose of Wisdom","steam_id":76561198233465044,"connected_time":190000000000,"state":"active","ping":129},{"user_id":8,"name":"Quniy, Son Of Quniy","steam_id":76561198872259430,"connected_time":42000000000,"state":"active","ping":101}]},{"server_id":18,"name":"Uncletopia | San Francisco | 2 | All Maps","name_short":"sfo-2","host":"sfo-1.us.uncletopia.com","port":27025,"enabled":true,"region":"us-west","cc":"us","latitude":37.77397,"longitude":-122.4313,"reserved":0,"last_update":"0001-01-01T00:00:00Z","name_a2s":"Uncletopia | San Francisco | 2 | All Maps","protocol":17,"map":"cp_dustbowl","folder":"tf","game":"Team Fortress","app_id":440,"player_count":0,"max_players":24,"Bots":0,"server_type":"Dedicated","server_os":"Linux","password":true,"vac":true,"version":"7932396","steam_id":85568392924470000,"keywords":["cp","nocrits","nodmgspread","uncletopia"],"game_id":440,"stv_port":27026,"stv_name":"Uncletopia | San Francisco | 2 | All Maps | STV","players":null},{"server_id":19,"name":"Uncletopia | San Francisco | 3 | Stopwatch Beta","name_short":"sfo-3","host":"sfo-1.us.uncletopia.com","port":27035,"enabled":true,"region":"us-west","cc":"us","latitude":37.77397,"longitude":-122.4313,"reserved":0,"last_update":"0001-01-01T00:00:00Z","name_a2s":"Uncletopia | San Francisco | 3 | Stopwatch Beta","protocol":17,"map":"cp_process_final","folder":"tf","game":"Team Fortress","app_id":440,"player_count":0,"max_players":24,"Bots":0,"server_type":"Dedicated","server_os":"Linux","password":true,"vac":true,"version":"7932396","steam_id":85568392924742824,"keywords":["cp","nocrits","nodmgspread","uncletopia"],"game_id":440,"stv_port":27036,"stv_name":"Uncletopia | San Francisco | 3 | Stopwatch Beta | STV","players":null},{"server_id":20,"name":"Uncletopia | San Francisco | 4 | Community","name_short":"sfo-4","host":"sfo-1.us.uncletopia.com","port":27045,"enabled":true,"region":"us-west","cc":"us","latitude":37.77397,"longitude":-122.4313,"reserved":0,"last_update":"0001-01-01T00:00:00Z","name_a2s":"Uncletopia | San Francisco | 4 | Community","protocol":17,"map":"pl_borneo","folder":"tf","game":"Team Fortress","app_id":440,"player_count":0,"max_players":24,"Bots":0,"server_type":"Dedicated","server_os":"Linux","password":true,"vac":true,"version":"7932396","steam_id":85568392924742826,"keywords":["nocrits","nodmgspread","payload","uncletopia"],"game_id":440,"stv_port":27046,"stv_name":"Uncletopia | San Francisco | 4 | Community | STV","players":null},{"server_id":141,"name":"Uncletopia | Sydney | 1 | All Maps","name_short":"syd-1","host":"syd-1.au.uncletopia.com","port":27015,"enabled":true,"region":"au","cc":"au","latitude":-33.865143,"longitude":151.2099,"reserved":0,"last_update":"0001-01-01T00:00:00Z","name_a2s":"Uncletopia | Sydney | 1 | All Maps","protocol":17,"map":"cp_process_final","folder":"tf","game":"Team Fortress","app_id":440,"player_count":0,"max_players":24,"Bots":0,"server_type":"Dedicated","server_os":"Linux","password":true,"vac":true,"version":"7932396","steam_id":85568392924470001,"keywords":["cp","nocrits","nodmgspread","uncletopia"],"game_id":440,"stv_port":27016,"stv_name":"Uncletopia | Sydney | 1 | All Maps | STV","players":null},{"server_id":123,"name":"Uncletopia | Sydney | 2 | All Maps","name_short":"syd-2","host":"syd-1.au.uncletopia.com","port":27025,"enabled":true,"region":"au","cc":"au","latitude":-33.865143,"longitude":151.2099,"reserved":0,"last_update":"0001-01-01T00:00:00Z","name_a2s":"Uncletopia | Sydney | 2 | All Maps","protocol":17,"map":"ctf_2fort","folder":"tf","game":"Team Fortress","app_id":440,"player_count":0,"max_players":24,"Bots":0,"server_type":"Dedicated","server_os":"Linux","password":true,"vac":true,"version":"7932396","steam_id":85568392924470002,"keywords":["ctf","nocrits","nodmgspread","uncletopia"],"game_id":440,"stv_port":27026,"stv_name":"Uncletopia | Sydney | 2 | All Maps | STV","players":null},{"server_id":395,"name":"Uncletopia | Sydney | 3 | All Maps","name_short":"syd-3","host":"syd-1.au.uncletopia.com","port":27035,"enabled":true,"region":"au","cc":"au","latitude":-33.865143,"longitude":151.2099,"reserved":0,"last_update":"0001-01-01T00:00:00Z","name_a2s":"Uncletopia | Sydney | 3 | All Maps","protocol":17,"map":"koth_cascade","folder":"tf","game":"Team Fortress","app_id":440,"player_count":0,"max_players":24,"Bots":0,"server_type":"Dedicated","server_os":"Linux","password":true,"vac":true,"version":"7932396","steam_id":85568392925194467,"keywords":["cp","nocrits","nodmgspread","uncletopia"],"game_id":440,"stv_port":27036,"stv_name":"Uncletopia | Sydney | 3 | All Maps | STV","players":null},{"server_id":396,"name":"Uncletopia | Sydney | 4 | All Maps","name_short":"syd-4","host":"syd-1.au.uncletopia.com","port":27045,"enabled":true,"region":"au","cc":"au","latitude":-33.865143,"longitude":151.2099,"reserved":0,"last_update":"0001-01-01T00:00:00Z","name_a2s":"Uncletopia | Sydney | 4 | All Maps","protocol":17,"map":"koth_lakeside_final","folder":"tf","game":"Team Fortress","app_id":440,"player_count":0,"max_players":24,"Bots":0,"server_type":"Dedicated","server_os":"Linux","password":true,"vac":true,"version":"7932396","steam_id":85568392925397958,"keywords":["cp","nocrits","nodmgspread","uncletopia"],"game_id":440,"stv_port":27046,"stv_name":"Uncletopia | Sydney | 4 | All Maps | STV","players":null},{"server_id":58,"name":"Uncletopia | Sydney | 5 | Stopwatch Beta","name_short":"syd-5","host":"syd-1.au.uncletopia.com","port":27055,"enabled":true,"region":"au","cc":"au","latitude":-33.865143,"longitude":151.2099,"reserved":0,"last_update":"0001-01-01T00:00:00Z","name_a2s":"Uncletopia | Sydney | 5 | Stopwatch Beta","protocol":17,"map":"pl_borneo","folder":"tf","game":"Team Fortress","app_id":440,"player_count":0,"max_players":24,"Bots":0,"server_type":"Dedicated","server_os":"Linux","password":true,"vac":true,"version":"7932396","steam_id":85568392925397959,"keywords":["nocrits","nodmgspread","payload","uncletopia"],"game_id":440,"stv_port":27056,"stv_name":"Uncletopia | Sydney | 5 | Stopwatch Beta | STV","players":null},{"server_id":59,"name":"Uncletopia | Sydney | 6 | Community","name_short":"syd-6","host":"syd-1.au.uncletopia.com","port":27065,"enabled":true,"region":"au","cc":"au","latitude":-33.865143,"longitude":151.2099,"reserved":0,"last_update":"0001-01-01T00:00:00Z","name_a2s":"Uncletopia | Sydney | 6 | Community","protocol":17,"map":"workshop/koth_product_final.ugc454272353","folder":"tf","game":"Team Fortress","app_id":440,"player_count":0,"max_players":24,"Bots":0,"server_type":"Dedicated","server_os":"Linux","password":true,"vac":true,"version":"7932396","steam_id":85568392925397960,"keywords":["cp","nocrits","nodmgspread","uncletopia"],"game_id":440,"stv_port":27066,"stv_name":"Uncletopia | Sydney | 6 | Community | STV","players":null},{"server_id":49,"name":"Uncletopia | Warsaw | 1 | All Maps","name_short":"waw-1","host":"waw-1.pl.uncletopia.com","port":27015,"enabled":true,"region":"eu","cc":"pl","latitude":52.2297,"longitude":21.017532,"reserved":0,"last_update":"0001-01-01T00:00:00Z","name_a2s":"","protocol":0,"map":"","folder":"","game":"","app_id":0,"player_count":0,"max_players":0,"Bots":0,"server_type":"","server_os":"","password":false,"vac":false,"version":"","steam_id":0,"keywords":null,"game_id":0,"stv_port":0,"stv_name":"","players":null},{"server_id":50,"name":"Uncletopia | Warsaw | 2 | All Maps","name_short":"waw-2","host":"waw-1.pl.uncletopia.com","port":27025,"enabled":true,"region":"eu","cc":"pl","latitude":52.2297,"longitude":21.017532,"reserved":0,"last_update":"0001-01-01T00:00:00Z","name_a2s":"Uncletopia | Warsaw | 2 | All Maps","protocol":17,"map":"pl_barnblitz","folder":"tf","game":"Team Fortress","app_id":440,"player_count":0,"max_players":24,"Bots":0,"server_type":"Dedicated","server_os":"Linux","password":true,"vac":true,"version":"7932396","steam_id":85568392925397851,"keywords":["nocrits","nodmgspread","payload","uncletopia"],"game_id":440,"stv_port":27026,"stv_name":"Uncletopia | Warsaw | 2 | All Maps | STV","players":null},{"server_id":51,"name":"Uncletopia | Warsaw | 3 | All Maps","name_short":"waw-3","host":"waw-1.pl.uncletopia.com","port":27035,"enabled":true,"region":"eu","cc":"pl","latitude":52.2297,"longitude":21.017532,"reserved":0,"last_update":"0001-01-01T00:00:00Z","name_a2s":"Uncletopia | Warsaw | 3 | All Maps","protocol":17,"map":"koth_lakeside_final","folder":"tf","game":"Team Fortress","app_id":440,"player_count":0,"max_players":24,"Bots":0,"server_type":"Dedicated","server_os":"Linux","password":true,"vac":true,"version":"7932396","steam_id":85568392925397852,"keywords":["cp","nocrits","nodmgspread","uncletopia"],"game_id":440,"stv_port":27036,"stv_name":"Uncletopia | Warsaw | 3 | All Maps | STV","players":null},{"server_id":52,"name":"Uncletopia | Warsaw | 4 | All Maps","name_short":"waw-4","host":"waw-1.pl.uncletopia.com","port":27045,"enabled":true,"region":"eu","cc":"pl","latitude":52.2297,"longitude":21.017532,"reserved":0,"last_update":"0001-01-01T00:00:00Z","name_a2s":"Uncletopia | Warsaw | 4 | All Maps","protocol":17,"map":"pl_swiftwater_final1","folder":"tf","game":"Team Fortress","app_id":440,"player_count":0,"max_players":24,"Bots":0,"server_type":"Dedicated","server_os":"Linux","password":true,"vac":true,"version":"7932396","steam_id":85568392925397853,"keywords":["nocrits","nodmgspread","payload","uncletopia"],"game_id":440,"stv_port":27046,"stv_name":"Uncletopia | Warsaw | 4 | All Maps | STV","players":null},{"server_id":53,"name":"Uncletopia | Warsaw | 5 | Stopwatch Beta","name_short":"waw-5","host":"waw-1.pl.uncletopia.com","port":27055,"enabled":true,"region":"eu","cc":"pl","latitude":52.2297,"longitude":21.017532,"reserved":0,"last_update":"0001-01-01T00:00:00Z","name_a2s":"Uncletopia | Warsaw | 5 | Stopwatch Beta","protocol":17,"map":"koth_lakeside_final","folder":"tf","game":"Team Fortress","app_id":440,"player_count":0,"max_players":24,"Bots":0,"server_type":"Dedicated","server_os":"Linux","password":true,"vac":true,"version":"7932396","steam_id":85568392925397854,"keywords":["cp","nocrits","nodmgspread","uncletopia"],"game_id":440,"stv_port":27056,"stv_name":"Uncletopia | Warsaw | 5 | Stopwatch Beta | STV","players":null},{"server_id":54,"name":"Uncletopia | Warsaw | 6 | Community","name_short":"waw-6","host":"waw-1.pl.uncletopia.com","port":27065,"enabled":true,"region":"eu","cc":"pl","latitude":52.2297,"longitude":21.017532,"reserved":0,"last_update":"0001-01-01T00:00:00Z","name_a2s":"Uncletopia | Warsaw | 6 | Community","protocol":17,"map":"workshop/koth_ramjam_rc1.ugc459778887","folder":"tf","game":"Team Fortress","app_id":440,"player_count":0,"max_players":24,"Bots":0,"server_type":"Dedicated","server_os":"Linux","password":true,"vac":true,"version":"7932396","steam_id":85568392925397856,"keywords":["cp","nocrits","nodmgspread","uncletopia"],"game_id":440,"stv_port":27066,"stv_name":"Uncletopia | Warsaw | 6 | Community | STV","players":null}]}