{"status":true,"message":"","result":[{"server_id":9,"name":"Uncletopia | Atlanta | 1 | All Maps","name_short":"atl-1","host":"atl-1.us.uncletopia.com","port":27015,"enabled":true,"region":"us-east","cc":"us","latitude":33.753746,"longitude":-84.38633,"reserved":0,"last_update":"0001-01-01T00:00:00Z","name_a2s":"Uncletopia | Atlanta | 1 | All Maps","protocol":17,"map":"pl_upward","folder":"tf","game":"Team Fortress","app_id":440,"player_count":0,"max_players":24,"Bots":0,"server_type":"Dedicated","server_os":"Linux","password":true,"vac":true,"version":"7961495","steam_id":85568392924469982,"keywords":["nocrits","nodmgspread","payload","uncletopia"],"game_id":440,"stv_port":27016,"stv_name":"Uncletopia | Atlanta | 1 | All Maps | STV","players":null},{"server_id":104,"name":"Uncletopia | Atlanta | 2 | All Maps","name_short":"atl-2","host":"atl-1.us.uncletopia.com","port":27025,"enabled":true,"region":"us-east","cc":"us","latitude":33.753746,"longitude":-84.38633,"reserved":0,"last_update":"0001-01-01T00:00:00Z","name_a2s":"Uncletopia | Atlanta | 2 | All Maps","protocol":17,"map":"koth_cascade","folder":"tf","game":"Team Fortress","app_id":440,"player_count":0,"max_players":24,"Bots":0,"server_type":"Dedicated","server_os":"Linux","password":true,"vac":true,"version":"7961495","steam_id":85568392924469983,"keywords":["cp","nocrits","nodmgspread","uncletopia"],"game_id":440,"stv_port":27026,"stv_name":"Uncletopia | Atlanta | 2 | All Maps | STV","players":null},{"server_id":400,"name":"Uncletopia | Atlanta | 3 | Stopwatch","name_short":"atl-3","host":"atl-1.us.uncletopia.com","port":27035,"enabled":true,"region":"us-east","cc":"us","latitude":33.753746,"longitude":-84.38633,"reserved":0,"last_update":"0001-01-01T00:00:00Z","name_a2s":"Uncletopia | Atlanta | 3 | Stopwatch","protocol":17,"map":"pl_upward","folder":"tf","game":"Team Fortress","app_id":440,"player_count":0,"max_players":24,"Bots":0,"server_type":"Dedicated","server_os":"Linux","password":true,"vac":true,"version":"7961495","steam_id":85568392924515187,"keywords":["nocrits","nodmgspread","payload","uncletopia"],"game_id":440,"stv_port":27036,"stv_name":"Uncletopia | Atlanta | 3 | Stopwatch | STV","players":null},{"server_id":401,"name":"Uncletopia | Atlanta | 4 | Community","name_short":"atl-4","host":"atl-1.us.uncletopia.com","port":27045,"enabled":true,"region":"us-east","cc":"us","latitude":33.753746,"longitude":-84.38633,"reserved":0,"last_update":"0001-01-01T00:00:00Z","name_a2s":"Uncletopia | Atlanta | 4 | Community","protocol":17,"map":"koth_ashville_final","folder":"tf","game":"Team Fortress","app_id":440,"player_count":0,"max_players":24,"Bots":0,"server_type":"Dedicated","server_os":"Linux","password":true,"vac":true,"version":"7961495","steam_id":85568392924515188,"keywords":["cp","nocrits","nodmgspread","uncletopia"],"game_id":440,"stv_port":27046,"stv_name":"Uncletopia | Atlanta | 4 | Community | STV","players":null},{"server_id":2,"name":"Uncletopia | Chicago | 1 | All Maps","name_short":"chi-1","host":"chi-1.us.uncletopia.com","port":27015,"enabled":true,"region":"us-central","cc":"us","latitude":41.881832,"longitude":-87.62318,"reserved":0,"last_update":"0001-01-01T00:00:00Z","name_a2s":"Uncletopia | Chicago | 1 | All Maps","protocol":17,"map":"pl_barnblitz","folder":"tf","game":"Team Fortress","app_id":440,"player_count":24,"max_players":24,"Bots":0,"server_type":"Dedicated","server_os":"Linux","password":true,"vac":true,"version":"7961495","steam_id":85568392924469984,"keywords":["nocrits","nodmgspread","payload","uncletopia"],"game_id":440,"stv_port":27016,"stv_name":"Uncletopia | Chicago | 1 | All Maps | STV","players":[{"user_id":279,"name":"women in suits #transrights","steam_id":76561198103901723,"connected_time":3163000000000,"state":"active","ping":74},{"user_id":322,"name":"Onion","steam_id":76561199071839835,"connected_time":517000000000,"state":"active","ping":65},{"user_id":323,"name":"Window Licker #pride","steam_id":76561198386717007,"connected_time":495000000000,"state":"active","ping":59},{"user_id":307,"name":"alv√∂ru","steam_id":76561198273488925,"connected_time":1451000000000,"state":"active","ping":78},{"user_id":320,"name":"Blithen","steam_id":76561197989955619,"connected_time":544000000000,"state":"active","ping":118},{"user_id":288,"name":"dunk","steam_id":76561198132476501,"connected_time":2354000000000,"state":"active","ping":48},{"user_id":290,"name":"cotton candy ghooost","steam_id":76561198058998371,"connected_time":2296000000000,"state":"active","ping":68},{"user_id":328,"name":"Slip","steam_id":76561199057232579,"connected_time":35000000000,"state":"spawning","ping":55},{"user_id":308,"name":"qory","steam_id":76561198152064890,"connected_time":1440000000000,"state":"active","ping":60},{"user_id":297,"name":"Mellow Yellow","steam_id":76561198406276981,"connected_time":2155000000000,"state":"active","ping":51},{"user_id":309,"name":"Salmon","steam_id":76561199019743468,"connected_time":1434000000000,"state":"active","ping":77},{"user_id":324,"name":"Jebecky","steam_id":76561198093727162,"connected_time":495000000000,"state":"active","ping":92},{"user_id":325,"name":"veryscaryreaper","steam_id":76561198380018244,"connected_time":491000000000,"state":"active","ping":75},{"user_id":326,"name":"Beast_727","steam_id":76561198390289197,"connected_time":409000000000,"state":"active","ping":49},{"user_id":327,"name":"Bajortski","steam_id":76561198998548723,"connected_time":252000000000,"state":"active","ping":66},{"user_id":313,"name":"4Lukaska","steam_id":76561198083515060,"connected_time":1040000000000,"state":"active","ping":61},{"user_id":294,"name":"fish ‚óè","steam_id":76561198999217575,"connected_time":2170000000000,"state":"active","ping":67},{"user_id":317,"name":"iceflake","steam_id":76561198302401116,"connected_time":664000000000,"state":"active","ping":59},{"user_id":304,"name":"ìÜèCayenne Pepper ìÜè","steam_id":76561198124881810,"connected_time":1955000000000,"state":"active","ping":114},{"user_id":311,"name":"Im High","steam_id":76561198049954886,"connected_time":1384000000000,"state":"active","ping":71},{"user_id":280,"name":"riven","steam_id":76561198057158050,"connected_time":3111000000000,"state":"active","ping":44},{"user_id":303,"name":"gIBBY","steam_id":76561198080099598,"connected_time":1987000000000,"state":"active","ping":56},{"user_id":251,"name":"finger","steam_id":76561198068558572,"connected_time":4591000000000,"state":"active","ping":80},{"user_id":318,"name":"fortnitenoclothesmod","steam_id":76561198208369443,"connected_time":663000000000,"state":"active","ping":58}]},{"server_id":106,"name":"Uncletopia | Chicago | 2 | All Maps","name_short":"chi-2","host":"chi-1.us.uncletopia.com","port":27025,"enabled":true,"region":"us-central","cc":"us","latitude":41.881832,"longitude":-87.62318,"reserved":0,"last_update":"0001-01-01T00:00:00Z","name_a2s":"Uncletopia | Chicago | 2 | All Maps","protocol":17,"map":"cp_snakewater_final1","folder":"tf","game":"Team Fortress","app_id":440,"player_count":24,"max_players":24,"Bots":0,"server_type":"Dedicated","server_os":"Linux","password":true,"vac":true,"version":"7961495","steam_id":85568392924469985,"keywords":["cp","nocrits","nodmgspread","uncletopia"],"game_id":440,"stv_port":27026,"stv_name":"Uncletopia | Chicago | 2 | All Maps | STV","players":[{"user_id":93,"name":"taigaxx","steam_id":76561198202669250,"connected_time":5174000000000,"state":"active","ping":65},{"user_id":165,"name":"that shit for the birds","steam_id":76561198142756572,"connected_time":59000000000,"state":"active","ping":62},{"user_id":127,"name":"Kung fu Mungus","steam_id":76561198069281556,"connected_time":3462000000000,"state":"active","ping":72},{"user_id":134,"name":"Waesel","steam_id":76561198069188177,"connected_time":2353000000000,"state":"active","ping":69},{"user_id":142,"name":"FingaBanga","steam_id":76561198018660856,"connected_time":1612000000000,"state":"active","ping":71},{"user_id":153,"name":"Crossing Jupiter","steam_id":76561198030126031,"connected_time":668000000000,"state":"active","ping":74},{"user_id":159,"name":"FIJI","steam_id":76561198126087725,"connected_time":629000000000,"state":"active","ping":73},{"user_id":162,"name":"Disco Fever","steam_id":76561198069532215,"connected_time":266000000000,"state":"active","ping":70},{"user_id":145,"name":"roma","steam_id":76561198028811916,"connected_time":1426000000000,"state":"active","ping":62},{"user_id":115,"name":"HUMBY","steam_id":76561198065045867,"connected_time":3849000000000,"state":"active","ping":100},{"user_id":152,"name":"MensRightsActivist","steam_id":76561199482149729,"connected_time":672000000000,"state":"active","ping":62},{"user_id":166,"name":"GreySweaterCat","steam_id":76561198351860293,"connected_time":5000000000,"state":"spawning","ping":85},{"user_id":128,"name":"BurgerPizza","steam_id":76561198151256410,"connected_time":3397000000000,"state":"active","ping":140},{"user_id":144,"name":"gliZZY_G0bliN","steam_id":76561198088764516,"connected_time":1556000000000,"state":"active","ping":79},{"user_id":163,"name":"·πΩ‚ßâ cookie","steam_id":76561197998884823,"connected_time":262000000000,"state":"active","ping":69},{"user_id":149,"name":"sigma crack addict","steam_id":76561198159339442,"connected_time":678000000000,"state":"active","ping":61},{"user_id":136,"name":"Saber 0X1","steam_id":76561198090226093,"connected_time":2349000000000,"state":"active","ping":76},{"user_id":146,"name":"THE KID SQUID","steam_id":76561198019335167,"connected_time":962000000000,"state":"active","ping":70},{"user_id":155,"name":"yalu","steam_id":76561198224811504,"connected_time":656000000000,"state":"active","ping":65},{"user_id":158,"name":"darkelaine227","steam_id":76561198097330521,"connected_time":637000000000,"state":"active","ping":163},{"user_id":160,"name":"Bee","steam_id":76561198074681324,"connected_time":594000000000,"state":"active","ping":63},{"user_id":148,"name":"King","steam_id":76561198039763676,"connected_time":679000000000,"state":"active","ping":67},{"user_id":147,"name":"meh","steam_id":76561198066114874,"connected_time":925000000000,"state":"active","ping":102},{"user_id":164,"name":"wu","steam_id":76561198074700528,"connected_time":158000000000,"state":"active","ping":43}]},{"server_id":402,"name":"Uncletopia | Chicago | 3 | All Maps","name_short":"chi-3","host":"chi-1.us.uncletopia.com","port":27035,"enabled":true,"region":"us-central","cc":"us","latitude":41.881832,"longitude":-87.62318,"reserved":0,"last_update":"0001-01-01T00:00:00Z","name_a2s":"Uncletopia | Chicago | 3 | All Maps","protocol":17,"map":"pl_upward","folder":"tf","game":"Team Fortress","app_id":440,"player_count":24,"max_players":24,"Bots":0,"server_type":"Dedicated","server_os":"Linux","password":true,"vac":true,"version":"7961495","steam_id":85568392924515191,"keywords":["nocrits","nodmgspread","payload","uncletopia"],"game_id":440,"stv_port":27036,"stv_name":"Uncletopia | Chicago | 3 | All Maps | STV","players":[{"user_id":46,"name":"wario","steam_id":76561199069748074,"connected_time":2107000000000,"state":"active","ping":49},{"user_id":73,"name":"Tag","steam_id":76561199138738952,"connected_time":607000000000,"state":"active","ping":75},{"user_id":71,"name":"D.E.O","steam_id":76561198096992957,"connected_time":1030000000000,"state":"active","ping":120},{"user_id":53,"name":"breathing meat donut","steam_id":76561198123566649,"connected_time":1354000000000,"state":"active","ping":77},{"user_id":77,"name":"Little Skull Boi","steam_id":76561198093595888,"connected_time":535000000000,"state":"active","ping":97},{"user_id":57,"name":"sez","steam_id":76561199465922101,"connected_time":1293000000000,"state":"active","ping":116},{"user_id":58,"name":"Duke Skywalker","steam_id":76561199231296521,"connected_time":1286000000000,"state":"active","ping":72},{"user_id":59,"name":"The Lord Of The Gooses","steam_id":76561198195702923,"connected_time":1285000000000,"state":"active","ping":74},{"user_id":60,"name":"Firedust19","steam_id":76561198153238631,"connected_time":1266000000000,"state":"active","ping":98},{"user_id":18,"name":"J The Jounin","steam_id":76561198034583622,"connected_time":3629000000000,"state":"active","ping":72},{"user_id":61,"name":"alset333","steam_id":76561198405345260,"connected_time":1264000000000,"state":"active","ping":60},{"user_id":62,"name":"badasscoolboy57","steam_id":76561198795412055,"connected_time":1261000000000,"state":"active","ping":80},{"user_id":50,"name":"SIGSTACKFAULT","steam_id":76561198055203857,"connected_time":2007000000000,"state":"active","ping":78},{"user_id":22,"name":"Red_Hatkins","steam_id":76561198214004105,"connected_time":3542000000000,"state":"active","ping":88},{"user_id":52,"name":"Nefy","steam_id":76561198030017316,"connected_time":1520000000000,"state":"active","ping":77},{"user_id":38,"name":"sonic1394","steam_id":76561198054636788,"connected_time":2946000000000,"state":"active","ping":76},{"user_id":74,"name":"Temujin","steam_id":76561198030936583,"connected_time":591000000000,"state":"active","ping":46},{"user_id":72,"name":"Primal","steam_id":76561197983118203,"connected_time":627000000000,"state":"active","ping":75},{"user_id":65,"name":"Jango","steam_id":76561198084589742,"connected_time":1235000000000,"state":"active","ping":76},{"user_id":75,"name":"Casual Costanza","steam_id":76561198024409325,"connected_time":576000000000,"state":"active","ping":65},{"user_id":76,"name":"Cash MoneyBlue","steam_id":76561198934825927,"connected_time":576000000000,"state":"active","ping":62},{"user_id":39,"name":"PK","steam_id":76561198368722500,"connected_time":2716000000000,"state":"active","ping":72},{"user_id":70,"name":"Lawn Mower","steam_id":76561199029189825,"connected_time":1161000000000,"state":"active","ping":70},{"user_id":69,"name":"Mythic","steam_id":76561198028616665,"connected_time":1212000000000,"state":"active","ping":64}]},{"server_id":403,"name":"Uncletopia | Chicago | 4 | All Maps","name_short":"chi-4","host":"chi-1.us.uncletopia.com","port":27045,"enabled":true,"region":"us-central","cc":"us","latitude":41.881832,"longitude":-87.62318,"reserved":0,"last_update":"0001-01-01T00:00:00Z","name_a2s":"Uncletopia | Chicago | 4 | All Maps","protocol":17,"map":"koth_cascade","folder":"tf","game":"Team Fortress","app_id":440,"player_count":0,"max_players":24,"Bots":0,"server_type":"Dedicated","server_os":"Linux","password":true,"vac":true,"version":"7961495","steam_id":85568392924515193,"keywords":["cp","nocrits","nodmgspread","uncletopia"],"game_id":440,"stv_port":27046,"stv_name":"Uncletopia | Chicago | 4 | All Maps | STV","players":null},{"server_id":36,"name":"Uncletopia | Chicago | 5 | All Maps","name_short":"chi-5","host":"chi-2.us.uncletopia.com","port":27015,"enabled":true,"region":"us-central","cc":"us","latitude":41.881832,"longitude":-87.62318,"reserved":0,"last_update":"0001-01-01T00:00:00Z","name_a2s":"Uncletopia | Chicago | 5 | All Maps","protocol":17,"map":"koth_viaduct","folder":"tf","game":"Team Fortress","app_id":440,"player_count":0,"max_players":24,"Bots":0,"server_type":"Dedicated","server_os":"Linux","password":true,"vac":true,"version":"7961495","steam_id":85568392924866362,"keywords":["cp","nocrits","nodmgspread","uncletopia"],"game_id":440,"stv_port":27016,"stv_name":"Uncletopia | Chicago | 5 | All Maps | STV","players":null},{"server_id":37,"name":"Uncletopia | Chicago | 6 | All Maps","name_short":"chi-6","host":"chi-2.us.uncletopia.com","port":27025,"enabled":true,"region":"us-central","cc":"us","latitude":41.881832,"longitude":-87.62318,"reserved":0,"last_update":"0001-01-01T00:00:00Z","name_a2s":"Uncletopia | Chicago | 6 | All Maps","protocol":17,"map":"pl_badwater","folder":"tf","game":"Team Fortress","app_id":440,"player_count":24,"max_players":24,"Bots":0,"server_type":"Dedicated","server_os":"Linux","password":true,"vac":true,"version":"7961495","steam_id":85568392924866363,"keywords":["nocrits","nodmgspread","payload","uncletopia"],"game_id":440,"stv_port":27026,"stv_name":"Uncletopia | Chicago | 6 | All Maps | STV","players":[{"user_id":198,"name":"MR SKELTAL","steam_id":76561198031089598,"connected_time":2345000000000,"state":"active","ping":65},{"user_id":221,"name":"catgirl queef :3","steam_id":76561199015827567,"connected_time":1650000000000,"state":"active","ping":77},{"user_id":240,"name":"rock raiders enjoyer","steam_id":76561198139718219,"connected_time":731000000000,"state":"active","ping":74},{"user_id":195,"name":"I am a mooshroom","steam_id":76561198104198295,"connected_time":2605000000000,"state":"active","ping":83},{"user_id":237,"name":"hoos","steam_id":76561198045985910,"connected_time":1178000000000,"state":"active","ping":80},{"user_id":241,"name":"SneakySeeker","steam_id":76561198162914162,"connected_time":269000000000,"state":"active","ping":152},{"user_id":236,"name":"roman","steam_id":76561198170066797,"connected_time":1262000000000,"state":"active","ping":68},{"user_id":223,"name":"CreateADebate","steam_id":76561198115760035,"connected_time":1628000000000,"state":"active","ping":64},{"user_id":197,"name":"rudy","steam_id":76561198088712799,"connected_time":2369000000000,"state":"active","ping":79},{"user_id":242,"name":"Domswish","steam_id":76561198331444240,"connected_time":174000000000,"state":"active","ping":69},{"user_id":235,"name":"Urbanzpinapple","steam_id":76561198115426938,"connected_time":1413000000000,"state":"active","ping":60},{"user_id":206,"name":"freyja","steam_id":76561198249206656,"connected_time":1960000000000,"state":"active","ping":66},{"user_id":238,"name":"a crystal lizard","steam_id":76561197997661928,"connected_time":797000000000,"state":"active","ping":72},{"user_id":231,"name":"Hazeyboi","steam_id":76561198130687838,"connected_time":1520000000000,"state":"active","ping":45},{"user_id":234,"name":"Female Gamer","steam_id":76561199366482682,"connected_time":1480000000000,"state":"active","ping":111},{"user_id":243,"name":"lambdanikki","steam_id":76561199485086969,"connected_time":143000000000,"state":"active","ping":102},{"user_id":186,"name":"Yam Jazzy Jim","steam_id":76561198000788950,"connected_time":2936000000000,"state":"active","ping":72},{"user_id":201,"name":"Narh","steam_id":76561198025216294,"connected_time":2282000000000,"state":"active","ping":84},{"user_id":180,"name":"aiden","steam_id":76561198449527009,"connected_time":3394000000000,"state":"active","ping":101},{"user_id":239,"name":"Ziath","steam_id":76561198094009164,"connected_time":797000000000,"state":"active","ping":67},{"user_id":191,"name":"mOoOoOoO","steam_id":76561198145615363,"connected_time":2769000000000,"state":"active","ping":76},{"user_id":203,"name":"creeeeeee","steam_id":76561198392539722,"connected_time":2076000000000,"state":"active","ping":82},{"user_id":171,"name":"Anxiety.mov","steam_id":76561198028145216,"connected_time":4471000000000,"state":"active","ping":54},{"user_id":143,"name":"Albino Jellyfish","steam_id":76561198208561097,"connected_time":5592000000000,"state":"active","ping":71}]},{"server_id":38,"name":"Uncletopia | Chicago | 7 | Stopwatch","name_short":"chi-7","host":"chi-2.us.uncletopia.com","port":27035,"enabled":true,"region":"us-central","cc":"us","latitude":41.881832,"longitude":-87.62318,"reserved":0,"last_update":"0001-01-01T00:00:00Z","name_a2s":"Uncletopia | Chicago | 7 | Stopwatch","protocol":17,"map":"pl_badwater","folder":"tf","game":"Team Fortress","app_id":440,"player_count":0,"max_players":24,"Bots":0,"server_type":"Dedicated","server_os":"Linux","password":true,"vac":true,"version":"7961495","steam_id":85568392924866364,"keywords":["nocrits","nodmgspread","payload","uncletopia"],"game_id":440,"stv_port":27036,"stv_name":"Uncletopia | Chicago | 7 | Stopwatch | STV","players":null},{"server_id":39,"name":"Uncletopia | Chicago | 8 | Community","name_short":"chi-8","host":"chi-2.us.uncletopia.com","port":27045,"enabled":true,"region":"us-central","cc":"us","latitude":41.881832,"longitude":-87.62318,"reserved":0,"last_update":"0001-01-01T00:00:00Z","name_a2s":"Uncletopia | Chicago | 8 | Community","protocol":17,"map":"pl_pier","folder":"tf","game":"Team Fortress","app_id":440,"player_count":0,"max_players":24,"Bots":0,"server_type":"Dedicated","server_os":"Linux","password":true,"vac":true,"version":"7961495","steam_id":85568392924866365,"keywords":["nocrits","nodmgspread","payload","uncletopia"],"game_id":440,"stv_port":27046,"stv_name":"Uncletopia | Chicago | 8 | Community | STV","players":null},{"server_id":8,"name":"Uncletopia | Dallas | 1 | All Maps","name_short":"dal-1","host":"dal-1.us.uncletopia.com","port":27015,"enabled":true,"region":"us-central","cc":"us","latitude":32.779167,"longitude":-96.80889,"reserved":0,"last_update":"0001-01-01T00:00:00Z","name_a2s":"Uncletopia | Dallas | 1 | All Maps","protocol":17,"map":"cp_mercenarypark","folder":"tf","game":"Team Fortress","app_id":440,"player_count":24,"max_players":24,"Bots":0,"server_type":"Dedicated","server_os":"Linux","password":true,"vac":true,"version":"7961495","steam_id":85568392924469986,"keywords":["cp","nocrits","nodmgspread","uncletopia"],"game_id":440,"stv_port":27016,"stv_name":"Uncletopia | Dallas | 1 | All Maps | STV","players":[{"user_id":94,"name":"blue duck the 2nd","steam_id":76561198263142765,"connected_time":384000000000,"state":"active","ping":132},{"user_id":84,"name":"StudioMania (#SAVETF2)","steam_id":76561198211315795,"connected_time":2412000000000,"state":"active","ping":72},{"user_id":64,"name":"neet","steam_id":76561197968115168,"connected_time":3152000000000,"state":"active","ping":73},{"user_id":95,"name":"Thequirka","steam_id":76561198968058652,"connected_time":360000000000,"state":"active","ping":98},{"user_id":11,"name":"Lord Theodore XIII","steam_id":76561198085842797,"connected_time":6192000000000,"state":"active","ping":54},{"user_id":53,"name":"Luffliet.","steam_id":76561198186593707,"connected_time":3894000000000,"state":"active","ping":55},{"user_id":100,"name":"MickyMerc","steam_id":76561198041387228,"connected_time":108000000000,"state":"active","ping":60},{"user_id":70,"name":"free food that isn't poisoned","steam_id":76561198046111695,"connected_time":2773000000000,"state":"active","ping":53},{"user_id":96,"name":"yolginmo","steam_id":76561198157985901,"connected_time":353000000000,"state":"active","ping":115},{"user_id":97,"name":"Basement Creep","steam_id":76561198127730236,"connected_time":324000000000,"state":"active","ping":91},{"user_id":62,"name":"plink","steam_id":76561198057829889,"connected_time":3165000000000,"state":"active","ping":59},{"user_id":98,"name":"ATL1 | Zillers","steam_id":76561198095248744,"connected_time":178000000000,"state":"active","ping":100},{"user_id":89,"name":"H0wlr","steam_id":76561198012332824,"connected_time":1299000000000,"state":"active","ping":81},{"user_id":25,"name":"BarrowBaron","steam_id":76561198013633236,"connected_time":5467000000000,"state":"active","ping":79},{"user_id":75,"name":"Zeek","steam_id":76561197987204351,"connected_time":2694000000000,"state":"active","ping":75},{"user_id":88,"name":"cass","steam_id":76561198074502046,"connected_time":1979000000000,"state":"active","ping":112},{"user_id":99,"name":"Sergi338","steam_id":76561198201866231,"connected_time":154000000000,"state":"active","ping":105},{"user_id":86,"name":"Larry Ca√±onga","steam_id":76561198081053203,"connected_time":2342000000000,"state":"active","ping":114},{"user_id":73,"name":"MancalaMadMan","steam_id":76561198347324053,"connected_time":2732000000000,"state":"active","ping":112},{"user_id":42,"name":"HOODOO_LOVER_2007","steam_id":76561199087691214,"connected_time":4760000000000,"state":"active","ping":99},{"user_id":83,"name":"QuartzGeek","steam_id":76561199011674698,"connected_time":2479000000000,"state":"active","ping":64},{"user_id":101,"name":"pig","steam_id":76561198246492934,"connected_time":77000000000,"state":"active","ping":83},{"user_id":45,"name":"SmileOneTwoThree","steam_id":76561198045624336,"connected_time":4711000000000,"state":"active","ping":73},{"user_id":90,"name":"Drained","steam_id":76561198081974528,"connected_time":1275000000000,"state":"active","ping":69}]},{"server_id":108,"name":"Uncletopia | Dallas | 2 | All Maps","name_short":"dal-2","host":"dal-1.us.uncletopia.com","port":27025,"enabled":true,"region":"us-central","cc":"us","latitude":32.779167,"longitude":-96.80889,"reserved":0,"last_update":"0001-01-01T00:00:00Z","name_a2s":"Uncletopia | Dallas | 2 | All Maps","protocol":17,"map":"koth_cascade","folder":"tf","game":"Team Fortress","app_id":440,"player_count":16,"max_players":24,"Bots":0,"server_type":"Dedicated","server_os":"Linux","password":true,"vac":true,"version":"7961495","steam_id":85568392924469988,"keywords":["cp","nocrits","nodmgspread","uncletopia"],"game_id":440,"stv_port":27026,"stv_name":"Uncletopia | Dallas | 2 | All Maps | STV","players":[{"user_id":24,"name":"Boot Mcstink","steam_id":76561199226873917,"connected_time":938000000000,"state":"active","ping":112},{"user_id":46,"name":"Bandi","steam_id":76561198432036026,"connected_time":5000000000,"state":"spawning","ping":70},{"user_id":13,"name":"Bankito","steam_id":76561198972260865,"connected_time":2018000000000,"state":"active","ping":97},{"user_id":30,"name":"Pasta","steam_id":76561199498088524,"connected_time":759000000000,"state":"active","ping":73},{"user_id":27,"name":"SCRAPTRAP1001","steam_id":76561199417627762,"connected_time":868000000000,"state":"active","ping":61},{"user_id":44,"name":"the keebler","steam_id":76561199486326945,"connected_time":311000000000,"state":"active","ping":73},{"user_id":28,"name":"Jarryl97","steam_id":76561198055451373,"connected_time":838000000000,"state":"active","ping":60},{"user_id":45,"name":"hittign dabong","steam_id":76561198097588802,"connected_time":241000000000,"state":"active","ping":60},{"user_id":20,"name":"NormanVillage","steam_id":76561198330337371,"connected_time":1108000000000,"state":"active","ping":90},{"user_id":21,"name":"Anon","steam_id":76561198109740776,"connected_time":1102000000000,"state":"active","ping":94},{"user_id":34,"name":"All 579 Hawaiians in Wyoming","steam_id":76561199361622525,"connected_time":603000000000,"state":"active","ping":80},{"user_id":35,"name":"CJAIME01345","steam_id":76561199091599141,"connected_time":563000000000,"state":"active","ping":147},{"user_id":37,"name":"Winter the Witchie","steam_id":76561198151971178,"connected_time":532000000000,"state":"active","ping":83},{"user_id":38,"name":"Kamin","steam_id":76561198255299559,"connected_time":477000000000,"state":"active","ping":66},{"user_id":39,"name":"Nate is Late","steam_id":76561198164231780,"connected_time":457000000000,"state":"active","ping":79},{"user_id":43,"name":"B.Luga‚Ñ¢","steam_id":76561198046473460,"connected_time":376000000000,"state":"active","ping":55}]},{"server_id":404,"name":"Uncletopia | Dallas | 3 | All Maps","name_short":"dal-3","host":"dal-1.us.uncletopia.com","port":27035,"enabled":true,"region":"us-central","cc":"us","latitude":32.779167,"longitude":-96.80889,"reserved":0,"last_update":"0001-01-01T00:00:00Z","name_a2s":"Uncletopia | Dallas | 3 | All Maps","protocol":17,"map":"pl_borneo","folder":"tf","game":"Team Fortress","app_id":440,"player_count":0,"max_players":24,"Bots":0,"server_type":"Dedicated","server_os":"Linux","password":true,"vac":true,"version":"7961495","steam_id":85568392924515219,"keywords":["nocrits","nodmgspread","payload","uncletopia"],"game_id":440,"stv_port":27036,"stv_name":"Uncletopia | Dallas | 3 | All Maps | STV","players":null},{"server_id":405,"name":"Uncletopia | Dallas | 4 | Community","name_short":"dal-4","host":"dal-1.us.uncletopia.com","port":27045,"enabled":true,"region":"us-central","cc":"us","latitude":32.779167,"longitude":-96.80889,"reserved":0,"last_update":"0001-01-01T00:00:00Z","name_a2s":"Uncletopia | Dallas | 4 | Community","protocol":17,"map":"workshop/cp_villa_b19.ugc2113052569","folder":"tf","game":"Team Fortress","app_id":440,"player_count":0,"max_players":24,"Bots":0,"server_type":"Dedicated","server_os":"Linux","password":true,"vac":true,"version":"7961495","steam_id":85568392924515220,"keywords":["cp","nocrits","nodmgspread","uncletopia"],"game_id":440,"stv_port":27046,"stv_name":"Uncletopia | Dallas | 4 | Community | STV","players":null},{"server_id":5,"name":"Uncletopia | Frankfurt | 1 | All Maps","name_short":"frk-1","host":"frk-1.de.uncletopia.com","port":27015,"enabled":true,"region":"eu","cc":"de","latitude":50.110924,"longitude":8.682127,"reserved":0,"last_update":"0001-01-01T00:00:00Z","name_a2s":"Uncletopia | Frankfurt | 1 | All Maps","protocol":17,"map":"cp_sunshine","folder":"tf","game":"Team Fortress","app_id":440,"player_count":14,"max_players":24,"Bots":0,"server_type":"Dedicated","server_os":"Linux","password":true,"vac":true,"version":"7961495","steam_id":85568392924469989,"keywords":["cp","nocrits","nodmgspread","uncletopia"],"game_id":440,"stv_port":27016,"stv_name":"Uncletopia | Frankfurt | 1 | All Maps | STV","players":[{"user_id":379,"name":"* /","steam_id":76561198086304421,"connected_time":2131000000000,"state":"spawning","ping":190},{"user_id":417,"name":"Mr.Socky","steam_id":76561198116629437,"connected_time":18000000000,"state":"connecting","ping":38},{"user_id":411,"name":"Towercat","steam_id":76561198013141793,"connected_time":724000000000,"state":"spawning","ping":57},{"user_id":401,"name":"Neeeiks","steam_id":76561198009156801,"connected_time":934000000000,"state":"spawning","ping":89},{"user_id":393,"name":"Cursehat","steam_id":76561198071867237,"connected_time":1820000000000,"state":"active","ping":186},{"user_id":385,"name":"DottorPuce","steam_id":76561198070413248,"connected_time":2028000000000,"state":"spawning","ping":64},{"user_id":396,"name":"imrealylazy","steam_id":76561198878574518,"connected_time":1359000000000,"state":"spawning","ping":206},{"user_id":360,"name":"BabyYodaIsMySoda","steam_id":76561198321846861,"connected_time":4229000000000,"state":"spawning","ping":55},{"user_id":373,"name":"_Alonso","steam_id":76561198041893314,"connected_time":3005000000000,"state":"spawning","ping":51},{"user_id":386,"name":"finbar","steam_id":76561198056812396,"connected_time":2025000000000,"state":"spawning","ping":83},{"user_id":402,"name":"Saltybro","steam_id":76561198209801140,"connected_time":925000000000,"state":"spawning","ping":87},{"user_id":405,"name":"FWDTRKR","steam_id":76561198060369427,"connected_time":822000000000,"state":"spawning","ping":147},{"user_id":388,"name":"o_o","steam_id":76561198113045011,"connected_time":2003000000000,"state":"spawning","ping":96},{"user_id":416,"name":"Gamlader","steam_id":76561198306177608,"connected_time":153000000000,"state":"spawning","ping":76}]},{"server_id":110,"name":"Uncletopia | Frankfurt | 2 | All Maps","name_short":"frk-2","host":"frk-1.de.uncletopia.com","port":27025,"enabled":true,"region":"eu","cc":"de","latitude":50.110924,"longitude":8.682127,"reserved":0,"last_update":"0001-01-01T00:00:00Z","name_a2s":"Uncletopia | Frankfurt | 2 | All Maps","protocol":17,"map":"pl_swiftwater_final1","folder":"tf","game":"Team Fortress","app_id":440,"player_count":24,"max_players":24,"Bots":0,"server_type":"Dedicated","server_os":"Linux","password":true,"vac":true,"version":"7961495","steam_id":85568392924469990,"keywords":["nocrits","nodmgspread","payload","uncletopia"],"game_id":440,"stv_port":27026,"stv_name":"Uncletopia | Frankfurt | 2 | All Maps | STV","players":[{"user_id":193,"name":"lulu","steam_id":76561199147764133,"connected_time":2771000000000,"state":"active","ping":71},{"user_id":201,"name":"Hexakosioihexekontahexaphobia","steam_id":76561198070805240,"connected_time":1565000000000,"state":"active","ping":98},{"user_id":194,"name":"Macci - Obismal","steam_id":76561198050485404,"connected_time":2718000000000,"state":"active","ping":70},{"user_id":202,"name":"DHD - Obismal","steam_id":76561198000356530,"connected_time":1556000000000,"state":"active","ping":74},{"user_id":199,"name":"Level","steam_id":76561198330505781,"connected_time":2077000000000,"state":"active","ping":57},{"user_id":218,"name":"lili's boy","steam_id":76561198162873354,"connected_time":592000000000,"state":"active","ping":109},{"user_id":167,"name":"Jahlil D'armequanius Finglenut","steam_id":76561198855897385,"connected_time":4419000000000,"state":"active","ping":69},{"user_id":226,"name":"Sunni Jihad Warrior","steam_id":76561198269159596,"connected_time":229000000000,"state":"active","ping":75},{"user_id":161,"name":"cat","steam_id":76561198837071509,"connected_time":4885000000000,"state":"active","ping":76},{"user_id":225,"name":"Knoxx","steam_id":76561198260692541,"connected_time":231000000000,"state":"active","ping":60},{"user_id":190,"name":"Aster","steam_id":76561198448334921,"connected_time":2965000000000,"state":"active","ping":60},{"user_id":223,"name":"Lord Philip","steam_id":76561198277097779,"connected_time":284000000000,"state":"active","ping":72},{"user_id":227,"name":"—Å–∞–ª–µ –¥–æ–±—Ä–∏—á","steam_id":76561198268906496,"connected_time":224000000000,"state":"active","ping":75},{"user_id":179,"name":"R8N - Obismal","steam_id":76561198007482714,"connected_time":3743000000000,"state":"active","ping":73},{"user_id":219,"name":"'Tis but a scratch","steam_id":76561198118517671,"connected_time":580000000000,"state":"active","ping":124},{"user_id":176,"name":"Largo","steam_id":76561198844368927,"connected_time":3908000000000,"state":"active","ping":75},{"user_id":204,"name":"burritoeater","steam_id":76561199124197813,"connected_time":1477000000000,"state":"active","ping":80},{"user_id":221,"name":"Rammtrait","steam_id":76561198016436610,"connected_time":491000000000,"state":"active","ping":71},{"user_id":229,"name":"shmax","steam_id":76561198889012709,"connected_time":184000000000,"state":"active","ping":92},{"user_id":220,"name":"MEDiUM","steam_id":76561198112328561,"connected_time":564000000000,"state":"active","ping":73},{"user_id":163,"name":"Ixsus\u003c3","steam_id":76561198094756869,"connected_time":4853000000000,"state":"active","ping":56},{"user_id":232,"name":"HuHD3—è_B_Ad1dAsE","steam_id":76561198110470565,"connected_time":95000000000,"state":"active","ping":99},{"user_id":192,"name":"BOT","steam_id":76561197993423450,"connected_time":2836000000000,"state":"active","ping":49},{"user_id":177,"name":"Caruzon - Obismal","steam_id":76561198036211170,"connected_time":3908000000000,"state":"active","ping":75}]},{"server_id":308,"name":"Uncletopia | Frankfurt | 3 | All Maps","name_short":"frk-3","host":"frk-1.de.uncletopia.com","port":27035,"enabled":true,"region":"eu","cc":"de","latitude":50.110924,"longitude":8.682127,"reserved":0,"last_update":"0001-01-01T00:00:00Z","name_a2s":"Uncletopia | Frankfurt | 3 | All Maps","protocol":17,"map":"pl_badwater","folder":"tf","game":"Team Fortress","app_id":440,"player_count":24,"max_players":24,"Bots":0,"server_type":"Dedicated","server_os":"Linux","password":true,"vac":true,"version":"7961495","steam_id":85568392924504274,"keywords":["nocrits","nodmgspread","payload","uncletopia"],"game_id":440,"stv_port":27036,"stv_name":"Uncletopia | Frankfurt | 3 | All Maps | STV","players":[{"user_id":68,"name":"Dangerous Andrew","steam_id":76561198067218981,"connected_time":909000000000,"state":"active","ping":68},{"user_id":33,"name":"Willow-w-","steam_id":76561199400481314,"connected_time":2897000000000,"state":"active","ping":77},{"user_id":72,"name":"Daruun","steam_id":76561198019068781,"connected_time":690000000000,"state":"active","ping":71},{"user_id":73,"name":"Fissure","steam_id":76561198272595481,"connected_time":683000000000,"state":"active","ping":76},{"user_id":31,"name":"randem_","steam_id":76561198338793755,"connected_time":3028000000000,"state":"active","ping":52},{"user_id":60,"name":"Tyrone From The Hood","steam_id":76561198084447725,"connected_time":1494000000000,"state":"active","ping":45},{"user_id":53,"name":"Blackgdkcb","steam_id":76561199027950389,"connected_time":2127000000000,"state":"active","ping":51},{"user_id":55,"name":"Ceasar","steam_id":76561198056590853,"connected_time":1841000000000,"state":"active","ping":56},{"user_id":61,"name":"bumdrink","steam_id":76561198064130889,"connected_time":1492000000000,"state":"active","ping":109},{"user_id":66,"name":"GameEndAllBrits","steam_id":76561198170733921,"connected_time":1053000000000,"state":"active","ping":74},{"user_id":37,"name":"Zerwee","steam_id":76561198181368101,"connected_time":2752000000000,"state":"active","ping":50},{"user_id":38,"name":"Arsonist","steam_id":76561199087953833,"connected_time":2699000000000,"state":"active","ping":118},{"user_id":54,"name":"Heavy TF2 in irl?!","steam_id":76561198082502910,"connected_time":1969000000000,"state":"active","ping":50},{"user_id":69,"name":"Armand","steam_id":76561198236126774,"connected_time":892000000000,"state":"active","ping":66},{"user_id":41,"name":"WrytXander","steam_id":76561198067856323,"connected_time":2641000000000,"state":"active","ping":73},{"user_id":42,"name":"HawkBear","steam_id":76561198046062963,"connected_time":2628000000000,"state":"active","ping":149},{"user_id":43,"name":"mossfan1","steam_id":76561198087525446,"connected_time":2626000000000,"state":"active","ping":88},{"user_id":77,"name":"Kali","steam_id":76561198796327257,"connected_time":351000000000,"state":"active","ping":55},{"user_id":46,"name":"Catt #saveTF2","steam_id":76561199088078419,"connected_time":2506000000000,"state":"active","ping":82},{"user_id":58,"name":"Jyghc","steam_id":76561198405980575,"connected_time":1782000000000,"state":"active","ping":63},{"user_id":59,"name":"Not Sussy Tanuki","steam_id":76561198137289375,"connected_time":1752000000000,"state":"active","ping":94},{"user_id":49,"name":"‚òÖLily","steam_id":76561198014774371,"connected_time":2440000000000,"state":"active","ping":60},{"user_id":75,"name":"HelwiiHill","steam_id":76561198066730552,"connected_time":676000000000,"state":"active","ping":85},{"user_id":51,"name":"hey STUPID! I'm over here...","steam_id":76561198056388702,"connected_time":2422000000000,"state":"active","ping":86}]},{"server_id":309,"name":"Uncletopia | Frankfurt | 4 | All Maps","name_short":"frk-4","host":"frk-1.de.uncletopia.com","port":27045,"enabled":true,"region":"eu","cc":"de","latitude":50.110924,"longitude":8.682127,"reserved":0,"last_update":"0001-01-01T00:00:00Z","name_a2s":"Uncletopia | Frankfurt | 4 | All Maps","protocol":17,"map":"koth_cascade","folder":"tf","game":"Team Fortress","app_id":440,"player_count":0,"max_players":24,"Bots":0,"server_type":"Dedicated","server_os":"Linux","password":true,"vac":true,"version":"7961495","steam_id":85568392924504275,"keywords":["cp","nocrits","nodmgspread","uncletopia"],"game_id":440,"stv_port":27046,"stv_name":"Uncletopia | Frankfurt | 4 | All Maps | STV","players":null},{"server_id":310,"name":"Uncletopia | Frankfurt | 5 | All Maps","name_short":"frk-5","host":"frk-1.de.uncletopia.com","port":27055,"enabled":true,"region":"eu","cc":"de","latitude":50.110924,"longitude":8.682127,"reserved":0,"last_update":"0001-01-01T00:00:00Z","name_a2s":"Uncletopia | Frankfurt | 5 | All Maps","protocol":17,"map":"cp_sunshine","folder":"tf","game":"Team Fortress","app_id":440,"player_count":24,"max_players":24,"Bots":0,"server_type":"Dedicated","server_os":"Linux","password":true,"vac":true,"version":"7961495","steam_id":85568392924504277,"keywords":["cp","nocrits","nodmgspread","uncletopia"],"game_id":440,"stv_port":27056,"stv_name":"Uncletopia | Frankfurt | 5 | All Maps | STV","players":[{"user_id":199,"name":"Fran","steam_id":76561199070516960,"connected_time":3639000000000,"state":"active","ping":59},{"user_id":226,"name":"Bill_nye_epic","steam_id":76561199216249214,"connected_time":1220000000000,"state":"active","ping":130},{"user_id":215,"name":"Vischan but worse","steam_id":76561199371650805,"connected_time":2320000000000,"state":"active","ping":94},{"user_id":237,"name":"hisham","steam_id":76561198414437290,"connected_time":390000000000,"state":"active","ping":108},{"user_id":227,"name":"Saame","steam_id":76561198215525976,"connected_time":1024000000000,"state":"active","ping":80},{"user_id":223,"name":"Ôº≠ÔΩÅÔΩÉÔΩâÔΩéÔΩîÔΩèÔΩìÔΩà","steam_id":76561198074294565,"connected_time":1909000000000,"state":"active","ping":75},{"user_id":230,"name":"TheMightyOppressor","steam_id":76561198047461974,"connected_time":966000000000,"state":"active","ping":54},{"user_id":238,"name":"Stefanga","steam_id":76561198827244907,"connected_time":372000000000,"state":"active","ping":55},{"user_id":170,"name":"Scandinavian sleeping and livin","steam_id":76561198241982958,"connected_time":5290000000000,"state":"active","ping":97},{"user_id":229,"name":"Locke","steam_id":76561198339408300,"connected_time":1004000000000,"state":"active","ping":78},{"user_id":225,"name":"Fat Pigeon","steam_id":76561198817940142,"connected_time":1796000000000,"state":"active","ping":51},{"user_id":234,"name":"Ben Dover","steam_id":76561199213629970,"connected_time":862000000000,"state":"active","ping":87},{"user_id":197,"name":"Nittugai","steam_id":76561198067366462,"connected_time":3734000000000,"state":"active","ping":57},{"user_id":228,"name":"Sandvich","steam_id":76561199079493666,"connected_time":1011000000000,"state":"active","ping":123},{"user_id":219,"name":"team of thrones","steam_id":76561198141077221,"connected_time":2208000000000,"state":"active","ping":66},{"user_id":200,"name":"Kol Engigfikod","steam_id":76561199115261187,"connected_time":3279000000000,"state":"active","ping":90},{"user_id":144,"name":"TheMerchant","steam_id":76561198133664392,"connected_time":6113000000000,"state":"active","ping":58},{"user_id":217,"name":"Greyhunter","steam_id":76561197960884202,"connected_time":2254000000000,"state":"active","ping":46},{"user_id":208,"name":"Spyker-M","steam_id":76561198040955540,"connected_time":2817000000000,"state":"active","ping":75},{"user_id":231,"name":"Kirby","steam_id":76561198334582956,"connected_time":955000000000,"state":"active","ping":61},{"user_id":236,"name":"Der Herr Doktor","steam_id":76561198119476089,"connected_time":582000000000,"state":"active","ping":53},{"user_id":203,"name":"Exee","steam_id":76561198139574633,"connected_time":3000000000000,"state":"active","ping":74},{"user_id":213,"name":"Dark Souls Reference","steam_id":76561198094102747,"connected_time":2598000000000,"state":"active","ping":68},{"user_id":233,"name":"JohnTraveltime","steam_id":76561199244281754,"connected_time":903000000000,"state":"active","ping":57}]},{"server_id":311,"name":"Uncletopia | Frankfurt | 6 | All Maps","name_short":"frk-6","host":"frk-1.de.uncletopia.com","port":27065,"enabled":true,"region":"eu","cc":"de","latitude":50.110924,"longitude":8.682127,"reserved":0,"last_update":"0001-01-01T00:00:00Z","name_a2s":"Uncletopia | Frankfurt | 6 | All Maps","protocol":17,"map":"pl_badwater","folder":"tf","game":"Team Fortress","app_id":440,"player_count":24,"max_players":24,"Bots":0,"server_type":"Dedicated","server_os":"Linux","password":true,"vac":true,"version":"7961495","steam_id":85568392924504278,"keywords":["nocrits","nodmgspread","payload","uncletopia"],"game_id":440,"stv_port":27066,"stv_name":"Uncletopia | Frankfurt | 6 | All Maps | STV","players":[{"user_id":136,"name":"outlaw","steam_id":76561198323805289,"connected_time":272000000000,"state":"active","ping":45},{"user_id":128,"name":"Allstar","steam_id":76561198059134078,"connected_time":532000000000,"state":"active","ping":64},{"user_id":124,"name":"Qdarks","steam_id":76561198013391340,"connected_time":631000000000,"state":"active","ping":145},{"user_id":137,"name":"Uncle Moomin","steam_id":76561198011628656,"connected_time":194000000000,"state":"active","ping":75},{"user_id":129,"name":"Stoic","steam_id":76561199088506542,"connected_time":523000000000,"state":"active","ping":45},{"user_id":126,"name":"Nenny","steam_id":76561198072638167,"connected_time":599000000000,"state":"active","ping":60},{"user_id":106,"name":"Vexu","steam_id":76561198113145846,"connected_time":1828000000000,"state":"active","ping":91},{"user_id":107,"name":"wtabs","steam_id":76561198831766743,"connected_time":1771000000000,"state":"active","ping":72},{"user_id":74,"name":"Tre3","steam_id":76561198054795379,"connected_time":3373000000000,"state":"active","ping":50},{"user_id":134,"name":"Dictatorial Karelian","steam_id":76561198196736457,"connected_time":343000000000,"state":"active","ping":75},{"user_id":127,"name":"Nox Equites","steam_id":76561198115438449,"connected_time":597000000000,"state":"active","ping":94},{"user_id":108,"name":"Hexagon","steam_id":76561198151205758,"connected_time":1762000000000,"state":"active","ping":54},{"user_id":130,"name":"Accident","steam_id":76561198115160396,"connected_time":517000000000,"state":"active","ping":71},{"user_id":61,"name":"Marabosha","steam_id":76561198137599173,"connected_time":4006000000000,"state":"active","ping":105},{"user_id":121,"name":"Cosmetic brain","steam_id":76561198055936410,"connected_time":746000000000,"state":"active","ping":94},{"user_id":117,"name":"Gator","steam_id":76561198065624683,"connected_time":978000000000,"state":"active","ping":92},{"user_id":110,"name":"Mr. Mundy","steam_id":76561198132008918,"connected_time":1709000000000,"state":"active","ping":68},{"user_id":131,"name":"finjar","steam_id":76561198350473059,"connected_time":510000000000,"state":"active","ping":82},{"user_id":88,"name":"Doriian","steam_id":76561198071438810,"connected_time":2921000000000,"state":"active","ping":74},{"user_id":112,"name":"Finnish Farmer","steam_id":76561198205366043,"connected_time":1684000000000,"state":"active","ping":84},{"user_id":122,"name":"Jasperatus","steam_id":76561198196733750,"connected_time":713000000000,"state":"active","ping":64},{"user_id":135,"name":"SKRRSKRR","steam_id":76561198214848887,"connected_time":329000000000,"state":"active","ping":66},{"user_id":133,"name":"Nag","steam_id":76561197970488206,"connected_time":477000000000,"state":"active","ping":84},{"user_id":98,"name":"‚Ñ¶","steam_id":76561199088570961,"connected_time":2241000000000,"state":"active","ping":105}]},{"server_id":23,"name":"Uncletopia | Frankfurt | 7 | Stopwatch","name_short":"frk-7","host":"frk-1.de.uncletopia.com","port":27075,"enabled":true,"region":"eu","cc":"de","latitude":50.110924,"longitude":8.682127,"reserved":0,"last_update":"0001-01-01T00:00:00Z","name_a2s":"Uncletopia | Frankfurt | 7 | Stopwatch","protocol":17,"map":"workshop/koth_bagel_rc6.ugc2514036946","folder":"tf","game":"Team Fortress","app_id":440,"player_count":0,"max_players":24,"Bots":0,"server_type":"Dedicated","server_os":"Linux","password":true,"vac":true,"version":"7961495","steam_id":85568392924742827,"keywords":["cp","nocrits","nodmgspread","uncletopia"],"game_id":440,"stv_port":27076,"stv_name":"Uncletopia | Frankfurt | 7 | Stopwatch | STV","players":null},{"server_id":24,"name":"Uncletopia | Frankfurt | 8 | Community","name_short":"frk-8","host":"frk-1.de.uncletopia.com","port":27085,"enabled":true,"region":"eu","cc":"de","latitude":50.110924,"longitude":8.682127,"reserved":0,"last_update":"0001-01-01T00:00:00Z","name_a2s":"Uncletopia | Frankfurt | 8 | Community","protocol":17,"map":"workshop/koth_kemptown_rc1.ugc767410655","folder":"tf","game":"Team Fortress","app_id":440,"player_count":0,"max_players":24,"Bots":0,"server_type":"Dedicated","server_os":"Linux","password":true,"vac":true,"version":"7961495","steam_id":85568392924742828,"keywords":["cp","nocrits","nodmgspread","uncletopia"],"game_id":440,"stv_port":27086,"stv_name":"Uncletopia | Frankfurt | 8 | Community | STV","players":null},{"server_id":202,"name":"Uncletopia | Hong Kong | 1 | All Maps","name_short":"hgk-1","host":"hgk-1.hk.uncletopia.com","port":27015,"enabled":true,"region":"asia","cc":"hk","latitude":22.302711,"longitude":114.177216,"reserved":0,"last_update":"0001-01-01T00:00:00Z","name_a2s":"Uncletopia | Hong Kong | 1 | All Maps","protocol":17,"map":"koth_viaduct","folder":"tf","game":"Team Fortress","app_id":440,"player_count":0,"max_players":24,"Bots":0,"server_type":"Dedicated","server_os":"Linux","password":true,"vac":true,"version":"7961495","steam_id":85568392924494504,"keywords":["cp","nocrits","nodmgspread","uncletopia"],"game_id":440,"stv_port":27016,"stv_name":"Uncletopia | Hong Kong | 1 | All Maps | STV","players":null},{"server_id":1,"name":"Uncletopia | Los Angeles | 1 | All Maps","name_short":"lax-1","host":"lax-1.us.uncletopia.com","port":27015,"enabled":true,"region":"us-west","cc":"us","latitude":33.94279,"longitude":-118.41004,"reserved":0,"last_update":"0001-01-01T00:00:00Z","name_a2s":"Uncletopia | Los Angeles | 1 | All Maps","protocol":17,"map":"pl_snowycoast","folder":"tf","game":"Team Fortress","app_id":440,"player_count":0,"max_players":24,"Bots":0,"server_type":"Dedicated","server_os":"Linux","password":true,"vac":true,"version":"7961495","steam_id":85568392924469991,"keywords":["nocrits","nodmgspread","payload","uncletopia"],"game_id":440,"stv_port":27016,"stv_name":"Uncletopia | Los Angeles | 1 | All Maps | STV","players":null},{"server_id":112,"name":"Uncletopia | Los Angeles | 2 | All Maps","name_short":"lax-2","host":"lax-1.us.uncletopia.com","port":27025,"enabled":true,"region":"us-west","cc":"us","latitude":33.94279,"longitude":-118.41004,"reserved":0,"last_update":"0001-01-01T00:00:00Z","name_a2s":"Uncletopia | Los Angeles | 2 | All Maps","protocol":17,"map":"koth_lakeside_final","folder":"tf","game":"Team Fortress","app_id":440,"player_count":0,"max_players":24,"Bots":0,"server_type":"Dedicated","server_os":"Linux","password":true,"vac":true,"version":"7961495","steam_id":85568392924469992,"keywords":["cp","nocrits","nodmgspread","uncletopia"],"game_id":440,"stv_port":27026,"stv_name":"Uncletopia | Los Angeles | 2 | All Maps | STV","players":null},{"server_id":324,"name":"Uncletopia | Los Angeles | 3 | All Maps","name_short":"lax-3","host":"lax-1.us.uncletopia.com","port":27035,"enabled":true,"region":"us-west","cc":"us","latitude":33.94279,"longitude":-118.41004,"reserved":0,"last_update":"0001-01-01T00:00:00Z","name_a2s":"Uncletopia | Los Angeles | 3 | All Maps","protocol":17,"map":"pl_frontier_final","folder":"tf","game":"Team Fortress","app_id":440,"player_count":0,"max_players":24,"Bots":0,"server_type":"Dedicated","server_os":"Linux","password":true,"vac":true,"version":"7961495","steam_id":85568392924510198,"keywords":["nocrits","nodmgspread","payload","uncletopia"],"game_id":440,"stv_port":27036,"stv_name":"Uncletopia | Los Angeles | 3 | All Maps | STV","players":null},{"server_id":25,"name":"Uncletopia | Los Angeles | 4 | Stopwatch","name_short":"lax-4","host":"lax-1.us.uncletopia.com","port":27045,"enabled":true,"region":"us-west","cc":"us","latitude":33.94279,"longitude":-118.41004,"reserved":0,"last_update":"0001-01-01T00:00:00Z","name_a2s":"Uncletopia | Los Angeles | 4 | Stopwatch","protocol":17,"map":"cp_snakewater_final1","folder":"tf","game":"Team Fortress","app_id":440,"player_count":0,"max_players":24,"Bots":0,"server_type":"Dedicated","server_os":"Linux","password":true,"vac":true,"version":"7961495","steam_id":85568392924510199,"keywords":["cp","nocrits","nodmgspread","uncletopia"],"game_id":440,"stv_port":27046,"stv_name":"Uncletopia | Los Angeles | 4 | Stopwatch | STV","players":null},{"server_id":11,"name":"Uncletopia | London | 1 | All Maps","name_short":"lon-1","host":"lon-1.uk.uncletopia.com","port":27015,"enabled":true,"region":"eu","cc":"gb","latitude":51.509865,"longitude":-0.118092,"reserved":0,"last_update":"0001-01-01T00:00:00Z","name_a2s":"Uncletopia | London | 1 | All Maps","protocol":17,"map":"pl_thundermountain","folder":"tf","game":"Team Fortress","app_id":440,"player_count":24,"max_players":24,"Bots":0,"server_type":"Dedicated","server_os":"Linux","password":true,"vac":true,"version":"7961495","steam_id":85568392924367362,"keywords":["nocrits","nodmgspread","payload","uncletopia"],"game_id":440,"stv_port":27016,"stv_name":"Uncletopia | London | 1 | All Maps | STV","players":[{"user_id":504,"name":"Plep","steam_id":76561198840259819,"connected_time":176000000000,"state":"active","ping":58},{"user_id":485,"name":"BEDA","steam_id":76561198277943630,"connected_time":1221000000000,"state":"active","ping":79},{"user_id":505,"name":"Jack","steam_id":76561198209102833,"connected_time":42000000000,"state":"active","ping":41},{"user_id":473,"name":"King Goomba","steam_id":76561198146467813,"connected_time":1858000000000,"state":"active","ping":68},{"user_id":439,"name":"bark (analogy)","steam_id":76561198010662796,"connected_time":4320000000000,"state":"active","ping":44},{"user_id":475,"name":"Pyro with a KNIFE","steam_id":76561198062255803,"connected_time":1768000000000,"state":"active","ping":71},{"user_id":394,"name":"cock buzzler","steam_id":76561198015876799,"connected_time":7162000000000,"state":"active","ping":65},{"user_id":499,"name":"Garoseth","steam_id":76561197961387454,"connected_time":346000000000,"state":"active","ping":60},{"user_id":487,"name":"‚ÜØ","steam_id":76561198055389492,"connected_time":1098000000000,"state":"active","ping":43},{"user_id":445,"name":"Gingoguy","steam_id":76561198088931297,"connected_time":3960000000000,"state":"active","ping":139},{"user_id":498,"name":"map","steam_id":76561198370196400,"connected_time":443000000000,"state":"active","ping":88},{"user_id":500,"name":"hasky","steam_id":76561197986052798,"connected_time":325000000000,"state":"active","ping":87},{"user_id":390,"name":"shooer!","steam_id":76561198110531281,"connected_time":7670000000000,"state":"active","ping":72},{"user_id":493,"name":"MaTTy","steam_id":76561198154318571,"connected_time":959000000000,"state":"active","ping":78},{"user_id":479,"name":"Rambi","steam_id":76561199058078505,"connected_time":1644000000000,"state":"active","ping":152},{"user_id":495,"name":"Sherlock Bond","steam_id":76561198042045955,"connected_time":758000000000,"state":"active","ping":58},{"user_id":481,"name":"maciejkrzysteczko","steam_id":76561199140822962,"connected_time":1618000000000,"state":"active","ping":79},{"user_id":458,"name":"Finem Belli","steam_id":76561198227177976,"connected_time":3356000000000,"state":"active","ping":46},{"user_id":459,"name":"Janneke Maan","steam_id":76561198069290924,"connected_time":3345000000000,"state":"active","ping":61},{"user_id":402,"name":"Penis Contortionist","steam_id":76561198073663784,"connected_time":6978000000000,"state":"active","ping":45},{"user_id":469,"name":"woof (anagram)","steam_id":76561198046873337,"connected_time":2421000000000,"state":"active","ping":59},{"user_id":482,"name":"Haschgott 2.0","steam_id":76561198049820307,"connected_time":1606000000000,"state":"active","ping":66},{"user_id":503,"name":"crosssmiling","steam_id":76561199205453100,"connected_time":206000000000,"state":"active","ping":75},{"user_id":464,"name":"El Wiwi","steam_id":76561198134378108,"connected_time":3191000000000,"state":"active","ping":81}]},{"server_id":114,"name":"Uncletopia | London | 2 | All Maps","name_short":"lon-2","host":"lon-1.uk.uncletopia.com","port":27025,"enabled":true,"region":"eu","cc":"gb","latitude":51.509865,"longitude":-0.118092,"reserved":0,"last_update":"0001-01-01T00:00:00Z","name_a2s":"Uncletopia | London | 2 | All Maps","protocol":17,"map":"pl_frontier_final","folder":"tf","game":"Team Fortress","app_id":440,"player_count":24,"max_players":24,"Bots":0,"server_type":"Dedicated","server_os":"Linux","password":true,"vac":true,"version":"7961495","steam_id":85568392924470941,"keywords":["nocrits","nodmgspread","payload","uncletopia"],"game_id":440,"stv_port":27026,"stv_name":"Uncletopia | London | 2 | All Maps | STV","players":[{"user_id":644,"name":"Q U E E N A L E X","steam_id":76561198186341157,"connected_time":760000000000,"state":"active","ping":47},{"user_id":393,"name":"SuntanPikachu","steam_id":76561198121242476,"connected_time":19028000000000,"state":"active","ping":84},{"user_id":616,"name":"I Love Filtered Water","steam_id":76561198016042113,"connected_time":2907000000000,"state":"active","ping":90},{"user_id":643,"name":"Klaus","steam_id":76561198150394201,"connected_time":776000000000,"state":"active","ping":87},{"user_id":603,"name":"SteveFrench","steam_id":76561198151553383,"connected_time":3545000000000,"state":"active","ping":78},{"user_id":636,"name":"After8","steam_id":76561198090750865,"connected_time":1137000000000,"state":"active","ping":69},{"user_id":615,"name":"Mini","steam_id":76561197968634073,"connected_time":3052000000000,"state":"active","ping":88},{"user_id":642,"name":"lofimonkeyjazz","steam_id":76561198117059662,"connected_time":950000000000,"state":"active","ping":88},{"user_id":641,"name":"Flight of the Blonde Giraffes","steam_id":76561198451585571,"connected_time":1059000000000,"state":"active","ping":77},{"user_id":622,"name":"[Sheep] Tomco","steam_id":76561198388549261,"connected_time":2391000000000,"state":"active","ping":58},{"user_id":591,"name":"worgeral","steam_id":76561198050781898,"connected_time":4946000000000,"state":"active","ping":62},{"user_id":626,"name":"s a i","steam_id":76561197970379754,"connected_time":1940000000000,"state":"active","ping":63},{"user_id":637,"name":"IHaveConsumed30KmofMeth","steam_id":76561199221172552,"connected_time":1133000000000,"state":"active","ping":84},{"user_id":638,"name":"Weegee","steam_id":76561198150308523,"connected_time":1120000000000,"state":"active","ping":49},{"user_id":607,"name":"Mario la Maxim","steam_id":76561199137799215,"connected_time":3510000000000,"state":"active","ping":81},{"user_id":624,"name":"Homewrecker Mafia‚Ñ¢ Gnocchi","steam_id":76561199191475728,"connected_time":2087000000000,"state":"active","ping":127},{"user_id":639,"name":"melon man","steam_id":76561198834046987,"connected_time":1102000000000,"state":"active","ping":106},{"user_id":571,"name":"sokige","steam_id":76561198167112371,"connected_time":6505000000000,"state":"active","ping":97},{"user_id":527,"name":"r0la","steam_id":76561198128315340,"connected_time":9803000000000,"state":"active","ping":86},{"user_id":588,"name":"Man O' Steel","steam_id":76561198108612758,"connected_time":5294000000000,"state":"active","ping":61},{"user_id":635,"name":"NutSmasherKazimir87","steam_id":76561199116240875,"connected_time":1236000000000,"state":"active","ping":87},{"user_id":640,"name":"Jahusi!*","steam_id":76561197992445165,"connected_time":1100000000000,"state":"active","ping":60},{"user_id":625,"name":"risk","steam_id":76561199161079834,"connected_time":2027000000000,"state":"active","ping":91},{"user_id":618,"name":"Compact","steam_id":76561198995253046,"connected_time":2887000000000,"state":"active","ping":91}]},{"server_id":320,"name":"Uncletopia | London | 3 | All Maps","name_short":"lon-3","host":"lon-1.uk.uncletopia.com","port":27035,"enabled":true,"region":"eu","cc":"gb","latitude":51.509865,"longitude":-0.118092,"reserved":0,"last_update":"0001-01-01T00:00:00Z","name_a2s":"Uncletopia | London | 3 | All Maps","protocol":17,"map":"cp_powerhouse","folder":"tf","game":"Team Fortress","app_id":440,"player_count":19,"max_players":24,"Bots":0,"server_type":"Dedicated","server_os":"Linux","password":true,"vac":true,"version":"7961495","steam_id":85568392924510192,"keywords":["cp","nocrits","nodmgspread","uncletopia"],"game_id":440,"stv_port":27036,"stv_name":"Uncletopia | London | 3 | All Maps | STV","players":[{"user_id":416,"name":"Butcher My Jokes","steam_id":76561198112720511,"connected_time":521000000000,"state":"active","ping":55},{"user_id":419,"name":"piper","steam_id":76561198112687349,"connected_time":414000000000,"state":"active","ping":53},{"user_id":418,"name":"CNTRL","steam_id":76561199125803827,"connected_time":456000000000,"state":"active","ping":54},{"user_id":420,"name":"Sommelier_","steam_id":76561198354180808,"connected_time":348000000000,"state":"active","ping":78},{"user_id":405,"name":"Volvo 740 Turbo Wagon","steam_id":76561199027564726,"connected_time":1023000000000,"state":"active","ping":28},{"user_id":332,"name":"yuno appreciator","steam_id":76561198083286511,"connected_time":5367000000000,"state":"active","ping":40},{"user_id":382,"name":"INFINITE WISDOM","steam_id":76561198329621152,"connected_time":2303000000000,"state":"active","ping":59},{"user_id":385,"name":"galaxy","steam_id":76561199188431949,"connected_time":1713000000000,"state":"active","ping":64},{"user_id":414,"name":"m909","steam_id":76561198279621400,"connected_time":569000000000,"state":"active","ping":100},{"user_id":388,"name":"guru{Hari}","steam_id":76561197997001681,"connected_time":1535000000000,"state":"active","ping":71},{"user_id":425,"name":"Scottishwolf12","steam_id":76561199263476623,"connected_time":20000000000,"state":"active","ping":100},{"user_id":395,"name":"Glorious Potato Leader","steam_id":76561199121958011,"connected_time":1296000000000,"state":"active","ping":87},{"user_id":415,"name":"Ozzak","steam_id":76561198353664262,"connected_time":567000000000,"state":"active","ping":74},{"user_id":404,"name":"Carpet Appetite","steam_id":76561198428501755,"connected_time":1055000000000,"state":"active","ping":69},{"user_id":409,"name":"Luggy","steam_id":76561198063539966,"connected_time":887000000000,"state":"active","ping":36},{"user_id":423,"name":"\"TF2 Reference\"","steam_id":76561198867546842,"connected_time":265000000000,"state":"active","ping":70},{"user_id":411,"name":"Noob_with_source","steam_id":76561198870362103,"connected_time":880000000000,"state":"active","ping":58},{"user_id":381,"name":"Collin","steam_id":76561198067030681,"connected_time":2321000000000,"state":"active","ping":45},{"user_id":400,"name":"hud_saytext_time 0","steam_id":76561198010327228,"connected_time":1220000000000,"state":"active","ping":63}]},{"server_id":321,"name":"Uncletopia | London | 4 | All Maps","name_short":"lon-4","host":"lon-1.uk.uncletopia.com","port":27045,"enabled":true,"region":"eu","cc":"gb","latitude":51.509865,"longitude":-0.118092,"reserved":0,"last_update":"0001-01-01T00:00:00Z","name_a2s":"Uncletopia | London | 4 | All Maps","protocol":17,"map":"koth_cascade","folder":"tf","game":"Team Fortress","app_id":440,"player_count":18,"max_players":24,"Bots":0,"server_type":"Dedicated","server_os":"Linux","password":true,"vac":true,"version":"7961495","steam_id":85568392924510193,"keywords":["cp","nocrits","nodmgspread","uncletopia"],"game_id":440,"stv_port":27046,"stv_name":"Uncletopia | London | 4 | All Maps | STV","players":[{"user_id":371,"name":"Worm","steam_id":76561198296497176,"connected_time":251000000000,"state":"active","ping":45},{"user_id":372,"name":"ShyRasan123","steam_id":76561198851798968,"connected_time":180000000000,"state":"active","ping":124},{"user_id":373,"name":"vuk","steam_id":76561199015090007,"connected_time":134000000000,"state":"active","ping":81},{"user_id":365,"name":"FilterSmoker","steam_id":76561198013766955,"connected_time":721000000000,"state":"active","ping":57},{"user_id":379,"name":"Solima","steam_id":76561198045349099,"connected_time":3000000000,"state":"spawning","ping":51},{"user_id":261,"name":"Rockpig","steam_id":76561198066421407,"connected_time":6919000000000,"state":"active","ping":42},{"user_id":358,"name":"f l —è n","steam_id":76561198079595755,"connected_time":814000000000,"state":"active","ping":52},{"user_id":299,"name":"Meat Dragon","steam_id":76561198120319256,"connected_time":4581000000000,"state":"active","ping":135},{"user_id":293,"name":"Pan Piotr","steam_id":76561198140016126,"connected_time":5272000000000,"state":"active","ping":82},{"user_id":370,"name":"silicon based life form","steam_id":76561199127121346,"connected_time":413000000000,"state":"active","ping":58},{"user_id":374,"name":"Kornel","steam_id":76561199000320652,"connected_time":122000000000,"state":"active","ping":150},{"user_id":375,"name":"RicardoChL","steam_id":76561198452299994,"connected_time":118000000000,"state":"active","ping":78},{"user_id":264,"name":"Scooterboy","steam_id":76561198071705499,"connected_time":6857000000000,"state":"active","ping":48},{"user_id":376,"name":"Sirzen","steam_id":76561198170155434,"connected_time":112000000000,"state":"active","ping":46},{"user_id":377,"name":"D_for_Dumbass","steam_id":76561198908993740,"connected_time":109000000000,"state":"active","ping":80},{"user_id":378,"name":"Mamizou Futatsuiwa","steam_id":76561198799303596,"connected_time":93000000000,"state":"active","ping":167},{"user_id":307,"name":"hyvakii705","steam_id":76561198086630552,"connected_time":3769000000000,"state":"active","ping":90},{"user_id":325,"name":"PÃ∂lÃ∏aÃ¥yÃ∂tÃ∑hÃ∑iÃ∂nÃ∏gÃ¥","steam_id":76561198994236187,"connected_time":1948000000000,"state":"active","ping":102}]},{"server_id":21,"name":"Uncletopia | London | 5 | All Maps","name_short":"lon-5","host":"lon-1.uk.uncletopia.com","port":27055,"enabled":true,"region":"eu","cc":"gb","latitude":51.509865,"longitude":-0.118092,"reserved":0,"last_update":"0001-01-01T00:00:00Z","name_a2s":"Uncletopia | London | 5 | All Maps","protocol":17,"map":"koth_lakeside_final","folder":"tf","game":"Team Fortress","app_id":440,"player_count":24,"max_players":24,"Bots":0,"server_type":"Dedicated","server_os":"Linux","password":true,"vac":true,"version":"7961495","steam_id":85568392924742829,"keywords":["cp","nocrits","nodmgspread","uncletopia"],"game_id":440,"stv_port":27056,"stv_name":"Uncletopia | London | 5 | All Maps | STV","players":[{"user_id":243,"name":"morbius (a lenda da marvel)","steam_id":76561198156198125,"connected_time":1724000000000,"state":"active","ping":87},{"user_id":259,"name":"Filip","steam_id":76561198852826447,"connected_time":1124000000000,"state":"active","ping":73},{"user_id":270,"name":"Cosmic Gamer","steam_id":76561198027357981,"connected_time":545000000000,"state":"active","ping":104},{"user_id":284,"name":"Michael","steam_id":76561198003146906,"connected_time":37000000000,"state":"active","ping":45},{"user_id":278,"name":"miro","steam_id":76561198063233185,"connected_time":457000000000,"state":"active","ping":57},{"user_id":262,"name":"JamesPepega","steam_id":76561198019156154,"connected_time":1042000000000,"state":"active","ping":71},{"user_id":261,"name":"the_dirtyduck","steam_id":76561197996941396,"connected_time":1071000000000,"state":"active","ping":42},{"user_id":160,"name":"0xDEADBEEF","steam_id":76561199075416111,"connected_time":6629000000000,"state":"active","ping":86},{"user_id":251,"name":"tiia","steam_id":76561198046196005,"connected_time":1282000000000,"state":"active","ping":53},{"user_id":282,"name":"U ALREADY KNOW","steam_id":76561198204858259,"connected_time":387000000000,"state":"active","ping":90},{"user_id":210,"name":"yenai","steam_id":76561199497830604,"connected_time":3618000000000,"state":"active","ping":75},{"user_id":266,"name":"dbuBBle","steam_id":76561198057961506,"connected_time":850000000000,"state":"active","ping":75},{"user_id":225,"name":"patrick","steam_id":76561198086684892,"connected_time":2638000000000,"state":"active","ping":111},{"user_id":283,"name":"Û†Å≥","steam_id":76561199169154431,"connected_time":250000000000,"state":"active","ping":60},{"user_id":252,"name":"neJ","steam_id":76561198003397488,"connected_time":1251000000000,"state":"active","ping":79},{"user_id":253,"name":"Milk","steam_id":76561198125876588,"connected_time":1206000000000,"state":"active","ping":43},{"user_id":268,"name":"nieco","steam_id":76561198046217866,"connected_time":828000000000,"state":"active","ping":45},{"user_id":272,"name":"Woad Raider","steam_id":76561198215485788,"connected_time":527000000000,"state":"active","ping":77},{"user_id":164,"name":":)","steam_id":76561198039964082,"connected_time":6602000000000,"state":"active","ping":60},{"user_id":281,"name":"fanthom ü•Ω","steam_id":76561198106409123,"connected_time":429000000000,"state":"active","ping":67},{"user_id":255,"name":"SirToast","steam_id":76561199229729107,"connected_time":1178000000000,"state":"active","ping":72},{"user_id":256,"name":"Rockfrenzy","steam_id":76561198005428050,"connected_time":1161000000000,"state":"active","ping":73},{"user_id":265,"name":"fairyboy","steam_id":76561198042359587,"connected_time":899000000000,"state":"active","ping":45},{"user_id":258,"name":"Meff","steam_id":76561197970610839,"connected_time":1148000000000,"state":"active","ping":49}]},{"server_id":22,"name":"Uncletopia | London | 6 | All Maps","name_short":"lon-6","host":"lon-1.uk.uncletopia.com","port":27065,"enabled":true,"region":"eu","cc":"gb","latitude":51.509865,"longitude":-0.118092,"reserved":0,"last_update":"0001-01-01T00:00:00Z","name_a2s":"Uncletopia | London | 6 | All Maps","protocol":17,"map":"cp_sunshine","folder":"tf","game":"Team Fortress","app_id":440,"player_count":23,"max_players":24,"Bots":0,"server_type":"Dedicated","server_os":"Linux","password":true,"vac":true,"version":"7961495","steam_id":85568392924742830,"keywords":["cp","nocrits","nodmgspread","uncletopia"],"game_id":440,"stv_port":27066,"stv_name":"Uncletopia | London | 6 | All Maps | STV","players":[{"user_id":146,"name":"hamilton","steam_id":76561198034096096,"connected_time":1642000000000,"state":"active","ping":130},{"user_id":85,"name":"lion king 5 the reckoning","steam_id":76561198041040598,"connected_time":5958000000000,"state":"active","ping":89},{"user_id":153,"name":"Mikesch2001","steam_id":76561198162945160,"connected_time":671000000000,"state":"active","ping":62},{"user_id":138,"name":"Gamingjojo2004","steam_id":76561198200488882,"connected_time":2017000000000,"state":"active","ping":76},{"user_id":154,"name":"InsectKing","steam_id":76561199013519071,"connected_time":663000000000,"state":"active","ping":38},{"user_id":155,"name":"ThellanM","steam_id":76561199014222387,"connected_time":654000000000,"state":"active","ping":74},{"user_id":119,"name":"Swiss-Stone","steam_id":76561198090399998,"connected_time":3240000000000,"state":"active","ping":68},{"user_id":139,"name":"Zen","steam_id":76561198917189586,"connected_time":1998000000000,"state":"active","ping":73},{"user_id":97,"name":"Matis","steam_id":76561198150822063,"connected_time":5219000000000,"state":"active","ping":75},{"user_id":156,"name":"Mousetail","steam_id":76561198269524918,"connected_time":615000000000,"state":"active","ping":61},{"user_id":128,"name":"rob","steam_id":76561198122211848,"connected_time":2724000000000,"state":"active","ping":95},{"user_id":140,"name":"Dagoth Ur","steam_id":76561198220232352,"connected_time":1972000000000,"state":"active","ping":46},{"user_id":136,"name":"mishumashu","steam_id":76561197988311311,"connected_time":2132000000000,"state":"active","ping":95},{"user_id":157,"name":"Nithle","steam_id":76561198025372740,"connected_time":583000000000,"state":"active","ping":37},{"user_id":158,"name":"norm_pokord","steam_id":76561198305771994,"connected_time":547000000000,"state":"active","ping":84},{"user_id":159,"name":"szwagrowicz07","steam_id":76561199047297795,"connected_time":475000000000,"state":"active","ping":31},{"user_id":163,"name":"MilkAndBiscuits","steam_id":76561198022924626,"connected_time":299000000000,"state":"active","ping":84},{"user_id":161,"name":"Borbano","steam_id":76561198057194876,"connected_time":312000000000,"state":"active","ping":61},{"user_id":144,"name":"ThatJoJoGuy","steam_id":76561199208152141,"connected_time":1849000000000,"state":"active","ping":55},{"user_id":129,"name":"wicked","steam_id":76561198164376035,"connected_time":2719000000000,"state":"active","ping":77},{"user_id":103,"name":"Plushy Freeman","steam_id":76561198004935560,"connected_time":4642000000000,"state":"active","ping":69},{"user_id":145,"name":"xe_op","steam_id":76561199465718377,"connected_time":1797000000000,"state":"active","ping":56},{"user_id":149,"name":"Duktigafred","steam_id":76561199211222396,"connected_time":1394000000000,"state":"active","ping":70}]},{"server_id":40,"name":"Uncletopia | London | 7 | Stopwatch","name_short":"lon-7","host":"lon-1.uk.uncletopia.com","port":27075,"enabled":true,"region":"eu","cc":"gb","latitude":51.509865,"longitude":-0.118092,"reserved":0,"last_update":"0001-01-01T00:00:00Z","name_a2s":"Uncletopia | London | 7 | Stopwatch","protocol":17,"map":"pl_upward","folder":"tf","game":"Team Fortress","app_id":440,"player_count":0,"max_players":24,"Bots":0,"server_type":"Dedicated","server_os":"Linux","password":true,"vac":true,"version":"7961495","steam_id":85568392924964314,"keywords":["nocrits","nodmgspread","payload","uncletopia"],"game_id":440,"stv_port":27076,"stv_name":"Uncletopia | London | 7 | Stopwatch | STV","players":null},{"server_id":41,"name":"Uncletopia | London | 8 | Community","name_short":"lon-8","host":"lon-1.uk.uncletopia.com","port":27085,"enabled":true,"region":"eu","cc":"gb","latitude":51.509865,"longitude":-0.118092,"reserved":0,"last_update":"0001-01-01T00:00:00Z","name_a2s":"Uncletopia | London | 8 | Community","protocol":17,"map":"workshop/koth_trenchfoot_b1a.ugc731436616","folder":"tf","game":"Team Fortress","app_id":440,"player_count":0,"max_players":24,"Bots":0,"server_type":"Dedicated","server_os":"Linux","password":true,"vac":true,"version":"7961495","steam_id":85568392924964315,"keywords":["cp","nocrits","nodmgspread","uncletopia"],"game_id":440,"stv_port":27086,"stv_name":"Uncletopia | London | 8 | Community | STV","players":null},{"server_id":300,"name":"Uncletopia | Montr√©al | 1 | One Thousand Uncles","name_short":"mtl-1","host":"mtl-1.ca.uncletopia.com","port":27015,"enabled":true,"region":"us-east","cc":"ca","latitude":45.50889,"longitude":-73.56167,"reserved":0,"last_update":"0001-01-01T00:00:00Z","name_a2s":"","protocol":0,"map":"","folder":"","game":"","app_id":0,"player_count":0,"max_players":0,"Bots":0,"server_type":"","server_os":"","password":false,"vac":false,"version":"","steam_id":0,"keywords":null,"game_id":0,"stv_port":0,"stv_name":"","players":null},{"server_id":301,"name":"Uncletopia | Montr√©al | 2 | One Thousand Uncles","name_short":"mtl-2","host":"mtl-1.ca.uncletopia.com","port":27025,"enabled":true,"region":"us-east","cc":"ca","latitude":45.50889,"longitude":-73.56167,"reserved":0,"last_update":"0001-01-01T00:00:00Z","name_a2s":"","protocol":0,"map":"","folder":"","game":"","app_id":0,"player_count":0,"max_players":0,"Bots":0,"server_type":"","server_os":"","password":false,"vac":false,"version":"","steam_id":0,"keywords":null,"game_id":0,"stv_port":0,"stv_name":"","players":null},{"server_id":302,"name":"Uncletopia | Montr√©al | 3 | One Thousand Uncles","name_short":"mtl-3","host":"mtl-1.ca.uncletopia.com","port":27035,"enabled":true,"region":"us-east","cc":"ca","latitude":45.50889,"longitude":-73.56167,"reserved":0,"last_update":"0001-01-01T00:00:00Z","name_a2s":"","protocol":0,"map":"","folder":"","game":"","app_id":0,"player_count":0,"max_players":0,"Bots":0,"server_type":"","server_os":"","password":false,"vac":false,"version":"","steam_id":0,"keywords":null,"game_id":0,"stv_port":0,"stv_name":"","players":null},{"server_id":13,"name":"Uncletopia | New York City | 1 | All Maps","name_short":"nyc-1","host":"nyc-1.us.uncletopia.com","port":27015,"enabled":true,"region":"us-east","cc":"us","latitude":40.73061,"longitude":-73.93524,"reserved":0,"last_update":"0001-01-01T00:00:00Z","name_a2s":"Uncletopia | New York City | 1 | All Maps","protocol":17,"map":"koth_viaduct","folder":"tf","game":"Team Fortress","app_id":440,"player_count":0,"max_players":24,"Bots":0,"server_type":"Dedicated","server_os":"Linux","password":true,"vac":true,"version":"7961495","steam_id":85568392924469993,"keywords":["cp","nocrits","nodmgspread","uncletopia"],"game_id":440,"stv_port":27016,"stv_name":"Uncletopia | New York City | 1 | All Maps | STV","players":null},{"server_id":14,"name":"Uncletopia | New York City | 2 | All Maps","name_short":"nyc-2","host":"nyc-1.us.uncletopia.com","port":27025,"enabled":true,"region":"us-east","cc":"us","latitude":40.73061,"longitude":-73.93524,"reserved":0,"last_update":"0001-01-01T00:00:00Z","name_a2s":"Uncletopia | New York City | 2 | All Maps","protocol":17,"map":"koth_lakeside_final","folder":"tf","game":"Team Fortress","app_id":440,"player_count":0,"max_players":24,"Bots":0,"server_type":"Dedicated","server_os":"Linux","password":true,"vac":true,"version":"7961495","steam_id":85568392924469994,"keywords":["cp","nocrits","nodmgspread","uncletopia"],"game_id":440,"stv_port":27026,"stv_name":"Uncletopia | New York City | 2 | All Maps | STV","players":null},{"server_id":15,"name":"Uncletopia | New York City | 3 | Stopwatch","name_short":"nyc-3","host":"nyc-1.us.uncletopia.com","port":27035,"enabled":true,"region":"us-east","cc":"us","latitude":40.73061,"longitude":-73.93524,"reserved":0,"last_update":"0001-01-01T00:00:00Z","name_a2s":"Uncletopia | New York City | 3 | Stopwatch","protocol":17,"map":"pl_snowycoast","folder":"tf","game":"Team Fortress","app_id":440,"player_count":0,"max_players":24,"Bots":0,"server_type":"Dedicated","server_os":"Linux","password":true,"vac":true,"version":"7961495","steam_id":85568392924742820,"keywords":["nocrits","nodmgspread","payload","uncletopia"],"game_id":440,"stv_port":27036,"stv_name":"Uncletopia | New York City | 3 | Stopwatch | STV","players":null},{"server_id":16,"name":"Uncletopia | New York City | 4 | Community","name_short":"nyc-4","host":"nyc-1.us.uncletopia.com","port":27045,"enabled":true,"region":"us-east","cc":"us","latitude":40.73061,"longitude":-73.93524,"reserved":0,"last_update":"0001-01-01T00:00:00Z","name_a2s":"Uncletopia | New York City | 4 | Community","protocol":17,"map":"cp_altitude","folder":"tf","game":"Team Fortress","app_id":440,"player_count":0,"max_players":24,"Bots":0,"server_type":"Dedicated","server_os":"Linux","password":true,"vac":true,"version":"7961495","steam_id":85568392924742821,"keywords":["cp","nocrits","nodmgspread","uncletopia"],"game_id":440,"stv_port":27046,"stv_name":"Uncletopia | New York City | 4 | Community | STV","players":null},{"server_id":142,"name":"Uncletopia | S√£o Paulo | 1 | All Maps","name_short":"sao-1","host":"sao-1.br.uncletopia.com","port":27015,"enabled":true,"region":"sa","cc":"br","latitude":-23.533773,"longitude":-46.62529,"reserved":0,"last_update":"0001-01-01T00:00:00Z","name_a2s":"Uncletopia | S√£o Paulo | 1 | All Maps","protocol":17,"map":"cp_mountainlab","folder":"tf","game":"Team Fortress","app_id":440,"player_count":0,"max_players":24,"Bots":0,"server_type":"Dedicated","server_os":"Linux","password":true,"vac":true,"version":"7961495","steam_id":85568392924469996,"keywords":["cp","nocrits","nodmgspread","uncletopia"],"game_id":440,"stv_port":27016,"stv_name":"Uncletopia | S√£o Paulo | 1 | All Maps | STV","players":null},{"server_id":143,"name":"Uncletopia | S√£o Paulo | 2 | Community","name_short":"sao-2","host":"sao-2.br.uncletopia.com","port":27015,"enabled":true,"region":"sa","cc":"br","latitude":-23.533773,"longitude":-46.62529,"reserved":0,"last_update":"0001-01-01T00:00:00Z","name_a2s":"Uncletopia | S√£o Paulo | 2 | Community","protocol":17,"map":"pl_badwater","folder":"tf","game":"Team Fortress","app_id":440,"player_count":0,"max_players":24,"Bots":0,"server_type":"Dedicated","server_os":"Linux","password":true,"vac":true,"version":"7961495","steam_id":85568392924485349,"keywords":["nocrits","nodmgspread","payload","uncletopia"],"game_id":440,"stv_port":27016,"stv_name":"Uncletopia | S√£o Paulo | 2 | Community | STV","players":null},{"server_id":7,"name":"Uncletopia | Seattle | 1 | All Maps","name_short":"sea-1","host":"sea-1.us.uncletopia.com","port":27015,"enabled":true,"region":"us-west","cc":"us","latitude":47.608013,"longitude":-122.33517,"reserved":0,"last_update":"0001-01-01T00:00:00Z","name_a2s":"Uncletopia | Seattle | 1 | All Maps","protocol":17,"map":"koth_highpass","folder":"tf","game":"Team Fortress","app_id":440,"player_count":25,"max_players":24,"Bots":0,"server_type":"Dedicated","server_os":"Linux","password":true,"vac":true,"version":"7961495","steam_id":85568392924469997,"keywords":["cp","nocrits","nodmgspread","uncletopia"],"game_id":440,"stv_port":27016,"stv_name":"Uncletopia | Seattle | 1 | All Maps | STV","players":[{"user_id":159,"name":"jdm","steam_id":76561199497603020,"connected_time":324000000000,"state":"active","ping":72},{"user_id":140,"name":"Gene Takovic","steam_id":76561198120442624,"connected_time":1691000000000,"state":"active","ping":129},{"user_id":155,"name":"Skabbety","steam_id":76561198168044257,"connected_time":897000000000,"state":"active","ping":41},{"user_id":121,"name":"pyrotechnic","steam_id":76561198043558709,"connected_time":2476000000000,"state":"active","ping":47},{"user_id":150,"name":"Satori Komeiji","steam_id":76561198158211423,"connected_time":1370000000000,"state":"active","ping":62},{"user_id":162,"name":"starwarslover911","steam_id":76561198144673121,"connected_time":65000000000,"state":"active","ping":123},{"user_id":80,"name":"Buswolley","steam_id":76561197995205571,"connected_time":6652000000000,"state":"active","ping":57},{"user_id":126,"name":"hatsune miku","steam_id":76561199445009981,"connected_time":2393000000000,"state":"active","ping":34},{"user_id":161,"name":"lavender","steam_id":76561199069518286,"connected_time":100000000000,"state":"connecting","ping":0},{"user_id":160,"name":"airport alan","steam_id":76561198027337461,"connected_time":186000000000,"state":"active","ping":45},{"user_id":131,"name":"Ahzain","steam_id":76561198035894333,"connected_time":2180000000000,"state":"active","ping":72},{"user_id":143,"name":"ismellgood","steam_id":76561199005142939,"connected_time":1642000000000,"state":"active","ping":59},{"user_id":112,"name":"River Rat","steam_id":76561198116383976,"connected_time":3881000000000,"state":"active","ping":56},{"user_id":156,"name":"jerbus","steam_id":76561198147006723,"connected_time":822000000000,"state":"active","ping":75},{"user_id":135,"name":"gulch","steam_id":76561199227946025,"connected_time":2024000000000,"state":"active","ping":108},{"user_id":141,"name":"‡∂û","steam_id":76561199365672047,"connected_time":1681000000000,"state":"active","ping":132},{"user_id":85,"name":"Doctor Bear  ï ‚Ä¢·¥•‚Ä¢ î","steam_id":76561197968103161,"connected_time":6102000000000,"state":"active","ping":117},{"user_id":154,"name":"Jimmy Fallon","steam_id":76561198069131730,"connected_time":1022000000000,"state":"active","ping":66},{"user_id":157,"name":"Starkiller","steam_id":76561198101643120,"connected_time":818000000000,"state":"active","ping":46},{"user_id":123,"name":"Captain Caber","steam_id":76561198092141884,"connected_time":2472000000000,"state":"active","ping":70},{"user_id":77,"name":"Iron Fox (Update-sized)","steam_id":76561198326520372,"connected_time":6777000000000,"state":"active","ping":158},{"user_id":78,"name":"TheMagicMrWaffle","steam_id":76561198104357256,"connected_time":6745000000000,"state":"active","ping":75},{"user_id":145,"name":"BRUCE U","steam_id":76561198420252121,"connected_time":1564000000000,"state":"active","ping":118},{"user_id":158,"name":"shampoo","steam_id":76561198353456379,"connected_time":796000000000,"state":"active","ping":73},{"user_id":163,"name":"fart shitson","steam_id":76561198986534519,"connected_time":64000000000,"state":"active","ping":48}]},{"server_id":119,"name":"Uncletopia | Seattle | 2 | All Maps","name_short":"sea-2","host":"sea-1.us.uncletopia.com","port":27025,"enabled":true,"region":"us-west","cc":"us","latitude":47.608013,"longitude":-122.33517,"reserved":0,"last_update":"0001-01-01T00:00:00Z","name_a2s":"Uncletopia | Seattle | 2 | All Maps","protocol":17,"map":"koth_cascade","folder":"tf","game":"Team Fortress","app_id":440,"player_count":0,"max_players":24,"Bots":0,"server_type":"Dedicated","server_os":"Linux","password":true,"vac":true,"version":"7961495","steam_id":85568392924469998,"keywords":["cp","nocrits","nodmgspread","uncletopia"],"game_id":440,"stv_port":27026,"stv_name":"Uncletopia | Seattle | 2 | All Maps | STV","players":null},{"server_id":406,"name":"Uncletopia | Seattle | 3 | Stopwatch","name_short":"sea-3","host":"sea-1.us.uncletopia.com","port":27035,"enabled":true,"region":"us-west","cc":"us","latitude":47.608013,"longitude":-122.33517,"reserved":0,"last_update":"0001-01-01T00:00:00Z","name_a2s":"Uncletopia | Seattle | 3 | Stopwatch","protocol":17,"map":"pl_swiftwater_final1","folder":"tf","game":"Team Fortress","app_id":440,"player_count":3,"max_players":24,"Bots":0,"server_type":"Dedicated","server_os":"Linux","password":true,"vac":true,"version":"7961495","steam_id":85568392924515217,"keywords":["nocrits","nodmgspread","payload","uncletopia"],"game_id":440,"stv_port":27036,"stv_name":"Uncletopia | Seattle | 3 | Stopwatch | STV","players":[{"user_id":3,"name":"Lazy Broadcasts","steam_id":76561198132871394,"connected_time":914000000000,"state":"active","ping":46},{"user_id":4,"name":"nfseskimo","steam_id":76561198078745666,"connected_time":749000000000,"state":"active","ping":42},{"user_id":6,"name":"xxpromlggamerproxx","steam_id":76561199168196664,"connected_time":122000000000,"state":"active","ping":199}]},{"server_id":17,"name":"Uncletopia | San Francisco | 1 | All Maps","name_short":"sfo-1","host":"sfo-1.us.uncletopia.com","port":27015,"enabled":true,"region":"us-west","cc":"us","latitude":37.77397,"longitude":-122.4313,"reserved":0,"last_update":"0001-01-01T00:00:00Z","name_a2s":"Uncletopia | San Francisco | 1 | All Maps","protocol":17,"map":"koth_cascade","folder":"tf","game":"Team Fortress","app_id":440,"player_count":0,"max_players":24,"Bots":0,"server_type":"Dedicated","server_os":"Linux","password":true,"vac":true,"version":"7961495","steam_id":85568392924469999,"keywords":["cp","nocrits","nodmgspread","uncletopia"],"game_id":440,"stv_port":27016,"stv_name":"Uncletopia | San Francisco | 1 | All Maps | STV","players":null},{"server_id":18,"name":"Uncletopia | San Francisco | 2 | All Maps","name_short":"sfo-2","host":"sfo-1.us.uncletopia.com","port":27025,"enabled":true,"region":"us-west","cc":"us","latitude":37.77397,"longitude":-122.4313,"reserved":0,"last_update":"0001-01-01T00:00:00Z","name_a2s":"Uncletopia | San Francisco | 2 | All Maps","protocol":17,"map":"pl_frontier_final","folder":"tf","game":"Team Fortress","app_id":440,"player_count":0,"max_players":24,"Bots":0,"server_type":"Dedicated","server_os":"Linux","password":true,"vac":true,"version":"7961495","steam_id":85568392924470000,"keywords":["nocrits","nodmgspread","payload","uncletopia"],"game_id":440,"stv_port":27026,"stv_name":"Uncletopia | San Francisco | 2 | All Maps | STV","players":null},{"server_id":19,"name":"Uncletopia | San Francisco | 3 | Stopwatch","name_short":"sfo-3","host":"sfo-1.us.uncletopia.com","port":27035,"enabled":true,"region":"us-west","cc":"us","latitude":37.77397,"longitude":-122.4313,"reserved":0,"last_update":"0001-01-01T00:00:00Z","name_a2s":"Uncletopia | San Francisco | 3 | Stopwatch","protocol":17,"map":"pl_pier","folder":"tf","game":"Team Fortress","app_id":440,"player_count":0,"max_players":24,"Bots":0,"server_type":"Dedicated","server_os":"Linux","password":true,"vac":true,"version":"7961495","steam_id":85568392924742824,"keywords":["nocrits","nodmgspread","payload","uncletopia"],"game_id":440,"stv_port":27036,"stv_name":"Uncletopia | San Francisco | 3 | Stopwatch | STV","players":null},{"server_id":20,"name":"Uncletopia | San Francisco | 4 | Community","name_short":"sfo-4","host":"sfo-1.us.uncletopia.com","port":27045,"enabled":true,"region":"us-west","cc":"us","latitude":37.77397,"longitude":-122.4313,"reserved":0,"last_update":"0001-01-01T00:00:00Z","name_a2s":"Uncletopia | San Francisco | 4 | Community","protocol":17,"map":"pl_pier","folder":"tf","game":"Team Fortress","app_id":440,"player_count":0,"max_players":24,"Bots":0,"server_type":"Dedicated","server_os":"Linux","password":true,"vac":true,"version":"7961495","steam_id":85568392924742826,"keywords":["nocrits","nodmgspread","payload","uncletopia"],"game_id":440,"stv_port":27046,"stv_name":"Uncletopia | San Francisco | 4 | Community | STV","players":null},{"server_id":141,"name":"Uncletopia | Sydney | 1 | All Maps","name_short":"syd-1","host":"syd-1.au.uncletopia.com","port":27015,"enabled":true,"region":"au","cc":"au","latitude":-33.865143,"longitude":151.2099,"reserved":0,"last_update":"0001-01-01T00:00:00Z","name_a2s":"Uncletopia | Sydney | 1 | All Maps","protocol":17,"map":"koth_highpass","folder":"tf","game":"Team Fortress","app_id":440,"player_count":0,"max_players":24,"Bots":0,"server_type":"Dedicated","server_os":"Linux","password":true,"vac":true,"version":"7961495","steam_id":85568392924470001,"keywords":["cp","nocrits","nodmgspread","uncletopia"],"game_id":440,"stv_port":27016,"stv_name":"Uncletopia | Sydney | 1 | All Maps | STV","players":null},{"server_id":123,"name":"Uncletopia | Sydney | 2 | All Maps","name_short":"syd-2","host":"syd-1.au.uncletopia.com","port":27025,"enabled":true,"region":"au","cc":"au","latitude":-33.865143,"longitude":151.2099,"reserved":0,"last_update":"0001-01-01T00:00:00Z","name_a2s":"Uncletopia | Sydney | 2 | All Maps","protocol":17,"map":"koth_cascade","folder":"tf","game":"Team Fortress","app_id":440,"player_count":0,"max_players":24,"Bots":0,"server_type":"Dedicated","server_os":"Linux","password":true,"vac":true,"version":"7961495","steam_id":85568392924470002,"keywords":["cp","nocrits","nodmgspread","uncletopia"],"game_id":440,"stv_port":27026,"stv_name":"Uncletopia | Sydney | 2 | All Maps | STV","players":null},{"server_id":395,"name":"Uncletopia | Sydney | 3 | All Maps","name_short":"syd-3","host":"syd-1.au.uncletopia.com","port":27035,"enabled":true,"region":"au","cc":"au","latitude":-33.865143,"longitude":151.2099,"reserved":0,"last_update":"0001-01-01T00:00:00Z","name_a2s":"Uncletopia | Sydney | 3 | All Maps","protocol":17,"map":"koth_lakeside_final","folder":"tf","game":"Team Fortress","app_id":440,"player_count":0,"max_players":24,"Bots":0,"server_type":"Dedicated","server_os":"Linux","password":true,"vac":true,"version":"7961495","steam_id":85568392925194467,"keywords":["cp","nocrits","nodmgspread","uncletopia"],"game_id":440,"stv_port":27036,"stv_name":"Uncletopia | Sydney | 3 | All Maps | STV","players":null},{"server_id":396,"name":"Uncletopia | Sydney | 4 | All Maps","name_short":"syd-4","host":"syd-1.au.uncletopia.com","port":27045,"enabled":true,"region":"au","cc":"au","latitude":-33.865143,"longitude":151.2099,"reserved":0,"last_update":"0001-01-01T00:00:00Z","name_a2s":"Uncletopia | Sydney | 4 | All Maps","protocol":17,"map":"pl_badwater","folder":"tf","game":"Team Fortress","app_id":440,"player_count":0,"max_players":24,"Bots":0,"server_type":"Dedicated","server_os":"Linux","password":true,"vac":true,"version":"7961495","steam_id":85568392925397958,"keywords":["nocrits","nodmgspread","payload","uncletopia"],"game_id":440,"stv_port":27046,"stv_name":"Uncletopia | Sydney | 4 | All Maps | STV","players":null},{"server_id":58,"name":"Uncletopia | Sydney | 5 | Stopwatch","name_short":"syd-5","host":"syd-1.au.uncletopia.com","port":27055,"enabled":true,"region":"au","cc":"au","latitude":-33.865143,"longitude":151.2099,"reserved":0,"last_update":"0001-01-01T00:00:00Z","name_a2s":"Uncletopia | Sydney | 5 | Stopwatch","protocol":17,"map":"koth_highpass","folder":"tf","game":"Team Fortress","app_id":440,"player_count":0,"max_players":24,"Bots":0,"server_type":"Dedicated","server_os":"Linux","password":true,"vac":true,"version":"7961495","steam_id":85568392925397959,"keywords":["cp","nocrits","nodmgspread","uncletopia"],"game_id":440,"stv_port":27056,"stv_name":"Uncletopia | Sydney | 5 | Stopwatch | STV","players":null},{"server_id":59,"name":"Uncletopia | Sydney | 6 | Community","name_short":"syd-6","host":"syd-1.au.uncletopia.com","port":27065,"enabled":true,"region":"au","cc":"au","latitude":-33.865143,"longitude":151.2099,"reserved":0,"last_update":"0001-01-01T00:00:00Z","name_a2s":"Uncletopia | Sydney | 6 | Community","protocol":17,"map":"workshop/cp_propaganda_b18.ugc1603743849","folder":"tf","game":"Team Fortress","app_id":440,"player_count":0,"max_players":24,"Bots":0,"server_type":"Dedicated","server_os":"Linux","password":true,"vac":true,"version":"7961495","steam_id":85568392925397960,"keywords":["cp","nocrits","nodmgspread","uncletopia"],"game_id":440,"stv_port":27066,"stv_name":"Uncletopia | Sydney | 6 | Community | STV","players":null},{"server_id":49,"name":"Uncletopia | Warsaw | 1 | One Thousand Uncles","name_short":"waw-1","host":"waw-1.pl.uncletopia.com","port":27015,"enabled":true,"region":"eu","cc":"pl","latitude":52.2297,"longitude":21.017532,"reserved":0,"last_update":"0001-01-01T00:00:00Z","name_a2s":"Uncletopia | Warsaw | 1 | One Thousand Uncles","protocol":17,"map":"cp_mercenarypark","folder":"tf","game":"Team Fortress","app_id":440,"player_count":29,"max_players":32,"Bots":16,"server_type":"Dedicated","server_os":"Linux","password":true,"vac":true,"version":"7961495","steam_id":85568392925397850,"keywords":["alltalk","bots","cp","danepve","increased_maxplayers","nocrits","norespawntime","uncletopia"],"game_id":440,"stv_port":0,"stv_name":"","players":[{"user_id":205,"name":"lagzer","steam_id":76561198029295449,"connected_time":1761000000000,"state":"active","ping":53},{"user_id":216,"name":"totolotek","steam_id":76561199428465262,"connected_time":477000000000,"state":"active","ping":33},{"user_id":203,"name":"middle","steam_id":76561198259762777,"connected_time":2200000000000,"state":"active","ping":55},{"user_id":220,"name":"Hoff","steam_id":76561198138540938,"connected_time":52000000000,"state":"spawning","ping":95},{"user_id":218,"name":"plusneter","steam_id":76561199087457560,"connected_time":304000000000,"state":"active","ping":31},{"user_id":186,"name":"badi1220","steam_id":76561198060438270,"connected_time":5746000000000,"state":"active","ping":80},{"user_id":215,"name":"RoYaleTweeTy","steam_id":76561199017828196,"connected_time":546000000000,"state":"active","ping":110},{"user_id":219,"name":"_$DIPER$_","steam_id":76561199402649216,"connected_time":252000000000,"state":"active","ping":42},{"user_id":206,"name":"Marsza≈Çek Grim","steam_id":76561199209956176,"connected_time":1724000000000,"state":"active","ping":71},{"user_id":212,"name":"Amon Gus","steam_id":76561199094540960,"connected_time":1027000000000,"state":"active","ping":71},{"user_id":211,"name":"Max Andrew","steam_id":76561198158955194,"connected_time":1118000000000,"state":"active","ping":76},{"user_id":199,"name":"The one True Mads","steam_id":76561197999204692,"connected_time":2918000000000,"state":"active","ping":71},{"user_id":221,"name":"B52 stealth bomber","steam_id":76561198878274997,"connected_time":11000000000,"state":"spawning","ping":106}]},{"server_id":50,"name":"Uncletopia | Warsaw | 2 | One Thousand Uncles","name_short":"waw-2","host":"waw-1.pl.uncletopia.com","port":27025,"enabled":true,"region":"eu","cc":"pl","latitude":52.2297,"longitude":21.017532,"reserved":0,"last_update":"0001-01-01T00:00:00Z","name_a2s":"Uncletopia | Warsaw | 2 | One Thousand Uncles","protocol":17,"map":"pl_chilly","folder":"tf","game":"Team Fortress","app_id":440,"player_count":21,"max_players":32,"Bots":16,"server_type":"Dedicated","server_os":"Linux","password":true,"vac":true,"version":"7961495","steam_id":85568392925397851,"keywords":["alltalk","bots","danepve","increased_maxplayers","nocrits","norespawntime","payload","uncletopia"],"game_id":440,"stv_port":0,"stv_name":"","players":[{"user_id":211,"name":"Truegr","steam_id":76561198811912339,"connected_time":2237000000000,"state":"active","ping":65},{"user_id":219,"name":"Berserker","steam_id":76561198411142951,"connected_time":782000000000,"state":"active","ping":90},{"user_id":221,"name":"BUCKET:\\soldier\\Desktop\\","steam_id":76561199047240319,"connected_time":390000000000,"state":"active","ping":95},{"user_id":218,"name":"Diamhair","steam_id":76561198109020178,"connected_time":831000000000,"state":"active","ping":80},{"user_id":222,"name":"joachym","steam_id":76561198428579761,"connected_time":286000000000,"state":"active","ping":67}]},{"server_id":51,"name":"Uncletopia | Warsaw | 3 | All Maps","name_short":"waw-3","host":"waw-1.pl.uncletopia.com","port":27035,"enabled":true,"region":"eu","cc":"pl","latitude":52.2297,"longitude":21.017532,"reserved":0,"last_update":"0001-01-01T00:00:00Z","name_a2s":"Uncletopia | Warsaw | 3 | All Maps","protocol":17,"map":"pl_upward","folder":"tf","game":"Team Fortress","app_id":440,"player_count":17,"max_players":24,"Bots":0,"server_type":"Dedicated","server_os":"Linux","password":true,"vac":true,"version":"7961495","steam_id":85568392925397852,"keywords":["nocrits","nodmgspread","payload","uncletopia"],"game_id":440,"stv_port":27036,"stv_name":"Uncletopia | Warsaw | 3 | All Maps | STV","players":[{"user_id":15,"name":"‚òÜGroundkeep","steam_id":76561198033000336,"connected_time":2142000000000,"state":"active","ping":79},{"user_id":16,"name":"‚çüSt4r","steam_id":76561198179093238,"connected_time":2030000000000,"state":"active","ping":56},{"user_id":38,"name":"Wir suchen dich!","steam_id":76561198307613521,"connected_time":147000000000,"state":"active","ping":45},{"user_id":18,"name":"sslin","steam_id":76561198273404829,"connected_time":2018000000000,"state":"active","ping":106},{"user_id":36,"name":"pajasafr","steam_id":76561198114268509,"connected_time":166000000000,"state":"active","ping":47},{"user_id":20,"name":"sir Hans man","steam_id":76561198176692062,"connected_time":1925000000000,"state":"active","ping":111},{"user_id":21,"name":"KnostaH","steam_id":76561198892777713,"connected_time":1856000000000,"state":"active","ping":105},{"user_id":22,"name":"mars420tame","steam_id":76561199168499482,"connected_time":1754000000000,"state":"active","ping":107},{"user_id":26,"name":"Anbu.Karma","steam_id":76561198311923354,"connected_time":919000000000,"state":"active","ping":60},{"user_id":28,"name":"malaeb501","steam_id":76561199151813107,"connected_time":707000000000,"state":"active","ping":119},{"user_id":41,"name":"Bobo","steam_id":76561198052308399,"connected_time":70000000000,"state":"active","ping":60},{"user_id":30,"name":"Chairforce","steam_id":76561198020208899,"connected_time":507000000000,"state":"active","ping":79},{"user_id":32,"name":"Giga–°had Pyro","steam_id":76561198140742485,"connected_time":333000000000,"state":"active","ping":72},{"user_id":33,"name":"Versunix","steam_id":76561197978073496,"connected_time":268000000000,"state":"active","ping":60},{"user_id":42,"name":"DNA","steam_id":76561198889418752,"connected_time":64000000000,"state":"active","ping":215},{"user_id":35,"name":"Sulten","steam_id":76561198161379229,"connected_time":191000000000,"state":"active","ping":78},{"user_id":40,"name":"Average Trader","steam_id":76561199179702903,"connected_time":74000000000,"state":"spawning","ping":184}]},{"server_id":52,"name":"Uncletopia | Warsaw | 4 | All Maps","name_short":"waw-4","host":"waw-1.pl.uncletopia.com","port":27045,"enabled":true,"region":"eu","cc":"pl","latitude":52.2297,"longitude":21.017532,"reserved":0,"last_update":"0001-01-01T00:00:00Z","name_a2s":"Uncletopia | Warsaw | 4 | All Maps","protocol":17,"map":"pl_upward","folder":"tf","game":"Team Fortress","app_id":440,"player_count":0,"max_players":24,"Bots":0,"server_type":"Dedicated","server_os":"Linux","password":true,"vac":true,"version":"7961495","steam_id":85568392925397853,"keywords":["nocrits","nodmgspread","payload","uncletopia"],"game_id":440,"stv_port":27046,"stv_name":"Uncletopia | Warsaw | 4 | All Maps | STV","players":null},{"server_id":53,"name":"Uncletopia | Warsaw | 5 | Stopwatch","name_short":"waw-5","host":"waw-1.pl.uncletopia.com","port":27055,"enabled":true,"region":"eu","cc":"pl","latitude":52.2297,"longitude":21.017532,"reserved":0,"last_update":"0001-01-01T00:00:00Z","name_a2s":"Uncletopia | Warsaw | 5 | Stopwatch","protocol":17,"map":"workshop/pl_vigil_rc10.ugc1266210012","folder":"tf","game":"Team Fortress","app_id":440,"player_count":0,"max_players":24,"Bots":0,"server_type":"Dedicated","server_os":"Linux","password":true,"vac":true,"version":"7961495","steam_id":85568392925397854,"keywords":["nocrits","nodmgspread","payload","uncletopia"],"game_id":440,"stv_port":27056,"stv_name":"Uncletopia | Warsaw | 5 | Stopwatch | STV","players":null},{"server_id":54,"name":"Uncletopia | Warsaw | 6 | Community","name_short":"waw-6","host":"waw-1.pl.uncletopia.com","port":27065,"enabled":true,"region":"eu","cc":"pl","latitude":52.2297,"longitude":21.017532,"reserved":0,"last_update":"0001-01-01T00:00:00Z","name_a2s":"Uncletopia | Warsaw | 6 | Community","protocol":17,"map":"workshop/koth_slaughter_rc1.ugc1712845210","folder":"tf","game":"Team Fortress","app_id":440,"player_count":0,"max_players":24,"Bots":0,"server_type":"Dedicated","server_os":"Linux","password":true,"vac":true,"version":"7961495","steam_id":85568392925397856,"keywords":["cp","nocrits","nodmgspread","uncletopia"],"game_id":440,"stv_port":27066,"stv_name":"Uncletopia | Warsaw | 6 | Community | STV","players":null}]}