{"status":true,"message":"","result":[{"server_id":9,"name":"Uncletopia | Atlanta | 1 | All Maps","name_short":"atl-1","host":"atl-1.us.uncletopia.com","port":27015,"enabled":true,"region":"us-east","cc":"us","latitude":33.753746,"longitude":-84.38633,"reserved":0,"last_update":"0001-01-01T00:00:00Z","name_a2s":"Uncletopia | Atlanta | 1 | All Maps","protocol":17,"map":"cp_metalworks","folder":"tf","game":"Team Fortress","app_id":440,"player_count":2,"max_players":24,"Bots":0,"server_type":"Dedicated","server_os":"Linux","password":true,"vac":true,"version":"7757534","steam_id":85568392924469982,"keywords":["cp","nocrits","nodmgspread","uncletopia"],"game_id":440,"stv_port":27016,"stv_name":"Uncletopia | Atlanta | 1 | All Maps | STV","players":[{"user_id":201,"name":"chrischrischris3018@yahoo.com","steam_id":76561198137316053,"connected_time":3869000000000,"state":"active","ping":45},{"user_id":177,"name":"MIDi","steam_id":76561198010708247,"connected_time":5971000000000,"state":"active","ping":60}]},{"server_id":400,"name":"Uncletopia | Atlanta | 3 | Community","name_short":"atl-3","host":"atl-1.us.uncletopia.com","port":27035,"enabled":true,"region":"us-east","cc":"us","latitude":33.753746,"longitude":-84.38633,"reserved":0,"last_update":"0001-01-01T00:00:00Z","name_a2s":"Uncletopia | Atlanta | 3 | Community","protocol":17,"map":"workshop/pl_vigil_rc9.ugc1266210012","folder":"tf","game":"Team Fortress","app_id":440,"player_count":0,"max_players":24,"Bots":0,"server_type":"Dedicated","server_os":"Linux","password":true,"vac":true,"version":"7757534","steam_id":85568392924515187,"keywords":["nocrits","nodmgspread","payload","uncletopia"],"game_id":440,"stv_port":27036,"stv_name":"Uncletopia | Atlanta | 3 | Community | STV","players":null},{"server_id":401,"name":"Uncletopia | Atlanta | 4 | No Payload","name_short":"atl-4","host":"atl-1.us.uncletopia.com","port":27045,"enabled":true,"region":"us-east","cc":"us","latitude":33.753746,"longitude":-84.38633,"reserved":0,"last_update":"0001-01-01T00:00:00Z","name_a2s":"","protocol":0,"map":"","folder":"","game":"","app_id":0,"player_count":0,"max_players":0,"Bots":0,"server_type":"","server_os":"","password":false,"vac":false,"version":"","steam_id":0,"keywords":null,"game_id":0,"stv_port":0,"stv_name":"","players":null},{"server_id":2,"name":"Uncletopia | Chicago | 1 | All Maps","name_short":"chi-1","host":"chi-1.us.uncletopia.com","port":27015,"enabled":true,"region":"us-central","cc":"us","latitude":41.881832,"longitude":-87.62318,"reserved":0,"last_update":"0001-01-01T00:00:00Z","name_a2s":"Uncletopia | Chicago | 1 | All Maps","protocol":17,"map":"plr_hightower","folder":"tf","game":"Team Fortress","app_id":440,"player_count":5,"max_players":24,"Bots":0,"server_type":"Dedicated","server_os":"Linux","password":true,"vac":true,"version":"7757534","steam_id":85568392924469984,"keywords":["nocrits","nodmgspread","payload","uncletopia"],"game_id":440,"stv_port":27016,"stv_name":"Uncletopia | Chicago | 1 | All Maps | STV","players":[{"user_id":173,"name":"Ediot","steam_id":76561199349494096,"connected_time":4120000000000,"state":"active","ping":86},{"user_id":177,"name":"ChuChu","steam_id":76561199443647976,"connected_time":2103000000000,"state":"active","ping":133},{"user_id":178,"name":"Sabaman55","steam_id":76561198212267979,"connected_time":2056000000000,"state":"active","ping":45},{"user_id":179,"name":"TheDieeg","steam_id":76561199443116996,"connected_time":345000000000,"state":"active","ping":94},{"user_id":180,"name":"Beetster","steam_id":76561199403344978,"connected_time":34000000000,"state":"active","ping":121}]},{"server_id":106,"name":"Uncletopia | Chicago | 2 | All Maps","name_short":"chi-2","host":"chi-1.us.uncletopia.com","port":27025,"enabled":true,"region":"us-central","cc":"us","latitude":41.881832,"longitude":-87.62318,"reserved":0,"last_update":"0001-01-01T00:00:00Z","name_a2s":"Uncletopia | Chicago | 2 | All Maps","protocol":17,"map":"pl_swiftwater_final1","folder":"tf","game":"Team Fortress","app_id":440,"player_count":23,"max_players":24,"Bots":0,"server_type":"Dedicated","server_os":"Linux","password":true,"vac":true,"version":"7757534","steam_id":85568392924469985,"keywords":["nocrits","nodmgspread","payload","uncletopia"],"game_id":440,"stv_port":27026,"stv_name":"Uncletopia | Chicago | 2 | All Maps | STV","players":[{"user_id":328,"name":"Adawnby","steam_id":76561198103057295,"connected_time":1368000000000,"state":"active","ping":76},{"user_id":341,"name":"THE GREAT SEAN!!!","steam_id":76561198267958167,"connected_time":24000000000,"state":"active","ping":137},{"user_id":322,"name":"OddSlaush","steam_id":76561198043898488,"connected_time":1602000000000,"state":"active","ping":93},{"user_id":319,"name":"!smooth","steam_id":76561198909291667,"connected_time":1709000000000,"state":"spawning","ping":75},{"user_id":339,"name":"Chicken Joe","steam_id":76561198278185182,"connected_time":105000000000,"state":"active","ping":74},{"user_id":337,"name":"rice white","steam_id":76561198320732910,"connected_time":450000000000,"state":"active","ping":70},{"user_id":338,"name":"Yukko Aioi TF2","steam_id":76561198889857835,"connected_time":134000000000,"state":"active","ping":130},{"user_id":324,"name":"Chris Babaganoosh","steam_id":76561197968961838,"connected_time":1551000000000,"state":"active","ping":105},{"user_id":255,"name":"blue gatorade","steam_id":76561198413125750,"connected_time":2614000000000,"state":"active","ping":65},{"user_id":256,"name":"roo the observer","steam_id":76561198120684348,"connected_time":2605000000000,"state":"active","ping":52},{"user_id":334,"name":"‚ô• Femboy‚ô•Ventily ‚ô•","steam_id":76561198157260335,"connected_time":822000000000,"state":"active","ping":46},{"user_id":333,"name":"Dumpkin","steam_id":76561198133887117,"connected_time":926000000000,"state":"active","ping":76},{"user_id":308,"name":"Ragoo","steam_id":76561198079448055,"connected_time":1840000000000,"state":"active","ping":45},{"user_id":262,"name":"Anonymous_Cletus_TTV","steam_id":76561198243740340,"connected_time":2358000000000,"state":"active","ping":69},{"user_id":342,"name":"Grandpa Baozhai","steam_id":76561198086667725,"connected_time":19000000000,"state":"active","ping":108},{"user_id":236,"name":"Moizturized","steam_id":76561198873850038,"connected_time":4069000000000,"state":"active","ping":76},{"user_id":245,"name":"ProbiusSC","steam_id":76561198379167322,"connected_time":3257000000000,"state":"active","ping":85},{"user_id":329,"name":"knack 1","steam_id":76561198975527343,"connected_time":1258000000000,"state":"active","ping":42},{"user_id":331,"name":"[ŸäŸáŸàÿØŸä] Bill Clinton [◊ê◊ú","steam_id":76561198163291190,"connected_time":1220000000000,"state":"active","ping":87},{"user_id":332,"name":"knack 2","steam_id":76561198065090433,"connected_time":1217000000000,"state":"active","ping":109},{"user_id":239,"name":"howtobepker","steam_id":76561198115053865,"connected_time":4005000000000,"state":"active","ping":85},{"user_id":336,"name":"SCARY MONSTERS","steam_id":76561198042034176,"connected_time":470000000000,"state":"active","ping":60},{"user_id":335,"name":"kilroy_39","steam_id":76561198205173325,"connected_time":806000000000,"state":"active","ping":96}]},{"server_id":402,"name":"Uncletopia | Chicago | 3 | All Maps","name_short":"chi-3","host":"chi-1.us.uncletopia.com","port":27035,"enabled":true,"region":"us-central","cc":"us","latitude":41.881832,"longitude":-87.62318,"reserved":0,"last_update":"0001-01-01T00:00:00Z","name_a2s":"Uncletopia | Chicago | 3 | All Maps","protocol":17,"map":"koth_viaduct","folder":"tf","game":"Team Fortress","app_id":440,"player_count":1,"max_players":24,"Bots":0,"server_type":"Dedicated","server_os":"Linux","password":true,"vac":true,"version":"7757534","steam_id":85568392924515191,"keywords":["cp","nocrits","nodmgspread","uncletopia"],"game_id":440,"stv_port":27036,"stv_name":"Uncletopia | Chicago | 3 | All Maps | STV","players":[{"user_id":278,"name":"The Golden Python","steam_id":76561199250203505,"connected_time":29000000000,"state":"spawning","ping":116}]},{"server_id":403,"name":"Uncletopia | Chicago | 4 | All Maps","name_short":"chi-4","host":"chi-1.us.uncletopia.com","port":27045,"enabled":true,"region":"us-central","cc":"us","latitude":41.881832,"longitude":-87.62318,"reserved":0,"last_update":"0001-01-01T00:00:00Z","name_a2s":"Uncletopia | Chicago | 4 | All Maps","protocol":17,"map":"pl_snowycoast","folder":"tf","game":"Team Fortress","app_id":440,"player_count":0,"max_players":24,"Bots":0,"server_type":"Dedicated","server_os":"Linux","password":true,"vac":true,"version":"7757534","steam_id":85568392924515193,"keywords":["nocrits","nodmgspread","payload","uncletopia"],"game_id":440,"stv_port":27046,"stv_name":"Uncletopia | Chicago | 4 | All Maps | STV","players":null},{"server_id":36,"name":"Uncletopia | Chicago | 5 | All Maps","name_short":"chi-5","host":"chi-2.us.uncletopia.com","port":27015,"enabled":true,"region":"us-central","cc":"us","latitude":41.881832,"longitude":-87.62318,"reserved":0,"last_update":"0001-01-01T00:00:00Z","name_a2s":"Uncletopia | Chicago | 5 | All Maps","protocol":17,"map":"pl_swiftwater_final1","folder":"tf","game":"Team Fortress","app_id":440,"player_count":17,"max_players":24,"Bots":0,"server_type":"Dedicated","server_os":"Linux","password":true,"vac":true,"version":"7757534","steam_id":85568392924866362,"keywords":["nocrits","nodmgspread","payload","uncletopia"],"game_id":440,"stv_port":27016,"stv_name":"Uncletopia | Chicago | 5 | All Maps | STV","players":[{"user_id":257,"name":"Romaioi","steam_id":76561199003172184,"connected_time":3152000000000,"state":"active","ping":196},{"user_id":277,"name":"StarManMatt","steam_id":76561198125513574,"connected_time":583000000000,"state":"active","ping":93},{"user_id":255,"name":"VidzCMC","steam_id":76561198848142973,"connected_time":3470000000000,"state":"active","ping":58},{"user_id":274,"name":"Blu\u003c3","steam_id":76561198216877208,"connected_time":1041000000000,"state":"active","ping":106},{"user_id":258,"name":"Jinxx","steam_id":76561199089438997,"connected_time":3141000000000,"state":"active","ping":85},{"user_id":275,"name":"dahperson","steam_id":76561198067207467,"connected_time":861000000000,"state":"active","ping":50},{"user_id":260,"name":"Hans Friedrich","steam_id":76561198350605771,"connected_time":3112000000000,"state":"active","ping":88},{"user_id":284,"name":"Scary Jerry","steam_id":76561198942753105,"connected_time":196000000000,"state":"active","ping":73},{"user_id":276,"name":"creepycrawler","steam_id":76561198352016831,"connected_time":739000000000,"state":"active","ping":60},{"user_id":263,"name":"MEATSLUSHIE","steam_id":76561198216723177,"connected_time":2945000000000,"state":"active","ping":115},{"user_id":285,"name":"SwingDickerson","steam_id":76561198045542926,"connected_time":125000000000,"state":"active","ping":43},{"user_id":286,"name":"143","steam_id":76561199473015151,"connected_time":37000000000,"state":"active","ping":74},{"user_id":280,"name":"twin","steam_id":76561198055626638,"connected_time":466000000000,"state":"active","ping":90},{"user_id":235,"name":"Skullypoo","steam_id":76561198067912022,"connected_time":5117000000000,"state":"active","ping":65},{"user_id":270,"name":"Rusted Cake","steam_id":76561198209755931,"connected_time":2055000000000,"state":"active","ping":110},{"user_id":282,"name":"Yuhh","steam_id":76561199112894955,"connected_time":367000000000,"state":"active","ping":74},{"user_id":283,"name":"b10dragon","steam_id":76561198374314985,"connected_time":345000000000,"state":"active","ping":156}]},{"server_id":37,"name":"Uncletopia | Chicago | 6 | All Maps","name_short":"chi-6","host":"chi-2.us.uncletopia.com","port":27025,"enabled":true,"region":"us-central","cc":"us","latitude":41.881832,"longitude":-87.62318,"reserved":0,"last_update":"0001-01-01T00:00:00Z","name_a2s":"Uncletopia | Chicago | 6 | All Maps","protocol":17,"map":"koth_highpass","folder":"tf","game":"Team Fortress","app_id":440,"player_count":0,"max_players":24,"Bots":0,"server_type":"Dedicated","server_os":"Linux","password":true,"vac":true,"version":"7757534","steam_id":85568392924866363,"keywords":["cp","nocrits","nodmgspread","uncletopia"],"game_id":440,"stv_port":27026,"stv_name":"Uncletopia | Chicago | 6 | All Maps | STV","players":null},{"server_id":38,"name":"Uncletopia | Chicago | 7 | Stopwatch Beta","name_short":"chi-7","host":"chi-2.us.uncletopia.com","port":27035,"enabled":true,"region":"us-central","cc":"us","latitude":41.881832,"longitude":-87.62318,"reserved":0,"last_update":"0001-01-01T00:00:00Z","name_a2s":"Uncletopia | Chicago | 7 | Stopwatch Beta","protocol":17,"map":"koth_viaduct","folder":"tf","game":"Team Fortress","app_id":440,"player_count":0,"max_players":24,"Bots":0,"server_type":"Dedicated","server_os":"Linux","password":true,"vac":true,"version":"7757534","steam_id":85568392924866364,"keywords":["cp","nocrits","nodmgspread","uncletopia"],"game_id":440,"stv_port":27036,"stv_name":"Uncletopia | Chicago | 7 | Stopwatch Beta | STV","players":null},{"server_id":39,"name":"Uncletopia | Chicago | 8 | Community","name_short":"chi-8","host":"chi-2.us.uncletopia.com","port":27045,"enabled":true,"region":"us-central","cc":"us","latitude":41.881832,"longitude":-87.62318,"reserved":0,"last_update":"0001-01-01T00:00:00Z","name_a2s":"Uncletopia | Chicago | 8 | Community","protocol":17,"map":"workshop/koth_trenchfoot_b1a.ugc731436616","folder":"tf","game":"Team Fortress","app_id":440,"player_count":0,"max_players":24,"Bots":0,"server_type":"Dedicated","server_os":"Linux","password":true,"vac":true,"version":"7757534","steam_id":85568392924866365,"keywords":["cp","nocrits","nodmgspread","uncletopia"],"game_id":440,"stv_port":27046,"stv_name":"Uncletopia | Chicago | 8 | Community | STV","players":null},{"server_id":8,"name":"Uncletopia | Dallas | 1 | All Maps","name_short":"dal-1","host":"dal-1.us.uncletopia.com","port":27015,"enabled":true,"region":"us-central","cc":"us","latitude":32.779167,"longitude":-96.80889,"reserved":0,"last_update":"0001-01-01T00:00:00Z","name_a2s":"Uncletopia | Dallas | 1 | All Maps","protocol":17,"map":"pl_pier","folder":"tf","game":"Team Fortress","app_id":440,"player_count":24,"max_players":24,"Bots":0,"server_type":"Dedicated","server_os":"Linux","password":true,"vac":true,"version":"7757534","steam_id":85568392924469986,"keywords":["nocrits","nodmgspread","payload","uncletopia"],"game_id":440,"stv_port":27016,"stv_name":"Uncletopia | Dallas | 1 | All Maps | STV","players":[{"user_id":516,"name":"uKBr","steam_id":76561199146446082,"connected_time":3235000000000,"state":"active","ping":61},{"user_id":553,"name":"Hifumi Togo","steam_id":76561198074930636,"connected_time":70000000000,"state":"active","ping":64},{"user_id":5,"name":"Limasio","steam_id":76561198198176191,"connected_time":23253000000000,"state":"active","ping":75},{"user_id":526,"name":"TransWomanGaming","steam_id":76561198809645656,"connected_time":2827000000000,"state":"active","ping":71},{"user_id":509,"name":"Friggy","steam_id":76561198131467867,"connected_time":3432000000000,"state":"active","ping":73},{"user_id":539,"name":"Ravencloat","steam_id":76561198036518511,"connected_time":1074000000000,"state":"active","ping":190},{"user_id":540,"name":"twitch.tv/kegaman_","steam_id":76561198043632775,"connected_time":969000000000,"state":"active","ping":74},{"user_id":534,"name":"Pringlepantz","steam_id":76561198035650316,"connected_time":1845000000000,"state":"active","ping":58},{"user_id":541,"name":"SMHTMFTTF","steam_id":76561199079614516,"connected_time":942000000000,"state":"active","ping":59},{"user_id":552,"name":"G_Bob","steam_id":76561198098133233,"connected_time":145000000000,"state":"active","ping":73},{"user_id":514,"name":"JORDO","steam_id":76561198014832479,"connected_time":3243000000000,"state":"active","ping":75},{"user_id":467,"name":"Kenku","steam_id":76561199086762926,"connected_time":5970000000000,"state":"active","ping":63},{"user_id":549,"name":"hatchetax","steam_id":76561199013337543,"connected_time":417000000000,"state":"active","ping":70},{"user_id":554,"name":"Slippery","steam_id":76561199469441947,"connected_time":67000000000,"state":"active","ping":76},{"user_id":515,"name":"harlowng","steam_id":76561198060542928,"connected_time":3238000000000,"state":"active","ping":121},{"user_id":524,"name":"shybeing","steam_id":76561198063895364,"connected_time":2946000000000,"state":"active","ping":99},{"user_id":543,"name":"chikin.sauce","steam_id":76561198042464635,"connected_time":913000000000,"state":"active","ping":60},{"user_id":498,"name":"iluvtoust","steam_id":76561198869269207,"connected_time":4332000000000,"state":"active","ping":55},{"user_id":545,"name":"L a v e n b a k a","steam_id":76561198171261101,"connected_time":890000000000,"state":"active","ping":133},{"user_id":538,"name":"DNA_Fox","steam_id":76561198101501757,"connected_time":1094000000000,"state":"active","ping":61},{"user_id":548,"name":"Viol3tOni","steam_id":76561198079208738,"connected_time":558000000000,"state":"active","ping":108},{"user_id":500,"name":"k8o","steam_id":76561198042481882,"connected_time":3918000000000,"state":"active","ping":68},{"user_id":550,"name":"Violet","steam_id":76561198055860134,"connected_time":216000000000,"state":"active","ping":76},{"user_id":528,"name":"Omni","steam_id":76561198035774007,"connected_time":2470000000000,"state":"active","ping":57}]},{"server_id":108,"name":"Uncletopia | Dallas | 2 | All Maps","name_short":"dal-2","host":"dal-1.us.uncletopia.com","port":27025,"enabled":true,"region":"us-central","cc":"us","latitude":32.779167,"longitude":-96.80889,"reserved":0,"last_update":"0001-01-01T00:00:00Z","name_a2s":"Uncletopia | Dallas | 2 | All Maps","protocol":17,"map":"koth_highpass","folder":"tf","game":"Team Fortress","app_id":440,"player_count":0,"max_players":24,"Bots":0,"server_type":"Dedicated","server_os":"Linux","password":true,"vac":true,"version":"7757534","steam_id":85568392924469988,"keywords":["cp","nocrits","nodmgspread","uncletopia"],"game_id":440,"stv_port":27026,"stv_name":"Uncletopia | Dallas | 2 | All Maps | STV","players":null},{"server_id":5,"name":"Uncletopia | Frankfurt | 1 | All Maps","name_short":"frk-1","host":"frk-1.de.uncletopia.com","port":27015,"enabled":true,"region":"eu","cc":"de","latitude":50.110924,"longitude":8.682127,"reserved":0,"last_update":"0001-01-01T00:00:00Z","name_a2s":"Uncletopia | Frankfurt | 1 | All Maps","protocol":17,"map":"pl_borneo","folder":"tf","game":"Team Fortress","app_id":440,"player_count":2,"max_players":24,"Bots":0,"server_type":"Dedicated","server_os":"Linux","password":true,"vac":true,"version":"7757534","steam_id":85568392924469989,"keywords":["nocrits","nodmgspread","payload","uncletopia"],"game_id":440,"stv_port":27016,"stv_name":"Uncletopia | Frankfurt | 1 | All Maps | STV","players":[{"user_id":6,"name":"AwZooom","steam_id":76561198154061149,"connected_time":729000000000,"state":"active","ping":44},{"user_id":7,"name":"Mike Rizzowski","steam_id":76561198798657045,"connected_time":658000000000,"state":"active","ping":73}]},{"server_id":110,"name":"Uncletopia | Frankfurt | 2 | All Maps","name_short":"frk-2","host":"frk-1.de.uncletopia.com","port":27025,"enabled":true,"region":"eu","cc":"de","latitude":50.110924,"longitude":8.682127,"reserved":0,"last_update":"0001-01-01T00:00:00Z","name_a2s":"Uncletopia | Frankfurt | 2 | All Maps","protocol":17,"map":"cp_steel","folder":"tf","game":"Team Fortress","app_id":440,"player_count":24,"max_players":24,"Bots":0,"server_type":"Dedicated","server_os":"Linux","password":true,"vac":true,"version":"7757534","steam_id":85568392924469990,"keywords":["cp","nocrits","nodmgspread","uncletopia"],"game_id":440,"stv_port":27026,"stv_name":"Uncletopia | Frankfurt | 2 | All Maps | STV","players":[{"user_id":137,"name":"Marcos","steam_id":76561198798925721,"connected_time":3673000000000,"state":"active","ping":70},{"user_id":174,"name":"deflox","steam_id":76561198087450635,"connected_time":504000000000,"state":"active","ping":44},{"user_id":158,"name":"Rin-Nakaret","steam_id":76561197971051188,"connected_time":1689000000000,"state":"active","ping":88},{"user_id":150,"name":"murderwow","steam_id":76561198024566944,"connected_time":1978000000000,"state":"active","ping":99},{"user_id":162,"name":"T1 (ted1)","steam_id":76561199229022826,"connected_time":1401000000000,"state":"active","ping":107},{"user_id":168,"name":"PizzaPete123","steam_id":76561198089478290,"connected_time":552000000000,"state":"active","ping":53},{"user_id":38,"name":"Corpus Christi","steam_id":76561198417999443,"connected_time":12373000000000,"state":"active","ping":92},{"user_id":169,"name":"Rezolt","steam_id":76561198069074807,"connected_time":541000000000,"state":"active","ping":112},{"user_id":149,"name":"FNF","steam_id":76561199151422826,"connected_time":1994000000000,"state":"active","ping":124},{"user_id":176,"name":"I have aids","steam_id":76561198860347851,"connected_time":341000000000,"state":"active","ping":131},{"user_id":161,"name":"JustMayor","steam_id":76561198050515503,"connected_time":1495000000000,"state":"active","ping":56},{"user_id":177,"name":"I was good before.","steam_id":76561198187045217,"connected_time":329000000000,"state":"active","ping":80},{"user_id":133,"name":"„ÉÜ„Ç§„É´„Çπ","steam_id":76561198022403271,"connected_time":3856000000000,"state":"active","ping":45},{"user_id":140,"name":"Dooting","steam_id":76561199069121777,"connected_time":3599000000000,"state":"active","ping":79},{"user_id":153,"name":"Zatusrex","steam_id":76561198104147805,"connected_time":1815000000000,"state":"active","ping":73},{"user_id":152,"name":"Wario","steam_id":76561198356089255,"connected_time":1818000000000,"state":"active","ping":60},{"user_id":159,"name":"Enigmus","steam_id":76561197994063627,"connected_time":1652000000000,"state":"active","ping":86},{"user_id":164,"name":"Allereinan","steam_id":76561198342239906,"connected_time":1294000000000,"state":"active","ping":111},{"user_id":101,"name":"Striker","steam_id":76561198100173021,"connected_time":5954000000000,"state":"active","ping":60},{"user_id":151,"name":"dob:cob","steam_id":76561198253323044,"connected_time":1846000000000,"state":"active","ping":72},{"user_id":155,"name":"fat cunt","steam_id":76561198845550388,"connected_time":1799000000000,"state":"active","ping":286},{"user_id":160,"name":"glyph","steam_id":76561197980736364,"connected_time":1638000000000,"state":"active","ping":78},{"user_id":126,"name":"oepidus","steam_id":76561198963841479,"connected_time":4520000000000,"state":"active","ping":86},{"user_id":171,"name":"dunduu","steam_id":76561198875240717,"connected_time":539000000000,"state":"active","ping":63}]},{"server_id":308,"name":"Uncletopia | Frankfurt | 3 | All Maps","name_short":"frk-3","host":"frk-1.de.uncletopia.com","port":27035,"enabled":true,"region":"eu","cc":"de","latitude":50.110924,"longitude":8.682127,"reserved":0,"last_update":"0001-01-01T00:00:00Z","name_a2s":"Uncletopia | Frankfurt | 3 | All Maps","protocol":17,"map":"pl_borneo","folder":"tf","game":"Team Fortress","app_id":440,"player_count":0,"max_players":24,"Bots":0,"server_type":"Dedicated","server_os":"Linux","password":true,"vac":true,"version":"7757534","steam_id":85568392924504274,"keywords":["nocrits","nodmgspread","payload","uncletopia"],"game_id":440,"stv_port":27036,"stv_name":"Uncletopia | Frankfurt | 3 | All Maps | STV","players":null},{"server_id":309,"name":"Uncletopia | Frankfurt | 4 | All Maps","name_short":"frk-4","host":"frk-1.de.uncletopia.com","port":27045,"enabled":true,"region":"eu","cc":"de","latitude":50.110924,"longitude":8.682127,"reserved":0,"last_update":"0001-01-01T00:00:00Z","name_a2s":"Uncletopia | Frankfurt | 4 | All Maps","protocol":17,"map":"pl_pier","folder":"tf","game":"Team Fortress","app_id":440,"player_count":0,"max_players":24,"Bots":0,"server_type":"Dedicated","server_os":"Linux","password":true,"vac":true,"version":"7757534","steam_id":85568392924504275,"keywords":["nocrits","nodmgspread","payload","uncletopia"],"game_id":440,"stv_port":27046,"stv_name":"Uncletopia | Frankfurt | 4 | All Maps | STV","players":null},{"server_id":310,"name":"Uncletopia | Frankfurt | 5 | All Maps","name_short":"frk-5","host":"frk-1.de.uncletopia.com","port":27055,"enabled":true,"region":"eu","cc":"de","latitude":50.110924,"longitude":8.682127,"reserved":0,"last_update":"0001-01-01T00:00:00Z","name_a2s":"Uncletopia | Frankfurt | 5 | All Maps","protocol":17,"map":"pl_swiftwater_final1","folder":"tf","game":"Team Fortress","app_id":440,"player_count":0,"max_players":24,"Bots":0,"server_type":"Dedicated","server_os":"Linux","password":true,"vac":true,"version":"7757534","steam_id":85568392924504277,"keywords":["nocrits","nodmgspread","payload","uncletopia"],"game_id":440,"stv_port":27056,"stv_name":"Uncletopia | Frankfurt | 5 | All Maps | STV","players":null},{"server_id":311,"name":"Uncletopia | Frankfurt | 6 | All Maps","name_short":"frk-6","host":"frk-1.de.uncletopia.com","port":27065,"enabled":true,"region":"eu","cc":"de","latitude":50.110924,"longitude":8.682127,"reserved":0,"last_update":"0001-01-01T00:00:00Z","name_a2s":"Uncletopia | Frankfurt | 6 | All Maps","protocol":17,"map":"pl_barnblitz","folder":"tf","game":"Team Fortress","app_id":440,"player_count":0,"max_players":24,"Bots":0,"server_type":"Dedicated","server_os":"Linux","password":true,"vac":true,"version":"7757534","steam_id":85568392924504278,"keywords":["nocrits","nodmgspread","payload","uncletopia"],"game_id":440,"stv_port":27066,"stv_name":"Uncletopia | Frankfurt | 6 | All Maps | STV","players":null},{"server_id":23,"name":"Uncletopia | Frankfurt | 7 | Stopwatch Beta","name_short":"frk-7","host":"frk-1.de.uncletopia.com","port":27075,"enabled":true,"region":"eu","cc":"de","latitude":50.110924,"longitude":8.682127,"reserved":0,"last_update":"0001-01-01T00:00:00Z","name_a2s":"Uncletopia | Frankfurt | 7 | Stopwatch Beta","protocol":17,"map":"pl_borneo","folder":"tf","game":"Team Fortress","app_id":440,"player_count":0,"max_players":24,"Bots":0,"server_type":"Dedicated","server_os":"Linux","password":true,"vac":true,"version":"7757534","steam_id":85568392924742827,"keywords":["nocrits","nodmgspread","payload","uncletopia"],"game_id":440,"stv_port":27076,"stv_name":"Uncletopia | Frankfurt | 7 | Stopwatch Beta | STV","players":null},{"server_id":24,"name":"Uncletopia | Frankfurt | 8 | Community","name_short":"frk-8","host":"frk-1.de.uncletopia.com","port":27085,"enabled":true,"region":"eu","cc":"de","latitude":50.110924,"longitude":8.682127,"reserved":0,"last_update":"0001-01-01T00:00:00Z","name_a2s":"Uncletopia | Frankfurt | 8 | Community","protocol":17,"map":"koth_viaduct","folder":"tf","game":"Team Fortress","app_id":440,"player_count":0,"max_players":24,"Bots":0,"server_type":"Dedicated","server_os":"Linux","password":true,"vac":true,"version":"7757534","steam_id":85568392924742828,"keywords":["cp","nocrits","nodmgspread","uncletopia"],"game_id":440,"stv_port":27086,"stv_name":"Uncletopia | Frankfurt | 8 | Community | STV","players":null},{"server_id":202,"name":"Uncletopia | Hong Kong | 1 | All Maps","name_short":"hgk-1","host":"hgk-1.hk.uncletopia.com","port":27015,"enabled":true,"region":"asia","cc":"hk","latitude":22.302711,"longitude":114.177216,"reserved":0,"last_update":"0001-01-01T00:00:00Z","name_a2s":"Uncletopia | Hong Kong | 1 | All Maps","protocol":17,"map":"cp_dustbowl","folder":"tf","game":"Team Fortress","app_id":440,"player_count":24,"max_players":24,"Bots":0,"server_type":"Dedicated","server_os":"Linux","password":true,"vac":true,"version":"7757534","steam_id":85568392924494504,"keywords":["cp","nocrits","nodmgspread","uncletopia"],"game_id":440,"stv_port":27016,"stv_name":"Uncletopia | Hong Kong | 1 | All Maps | STV","players":[{"user_id":233,"name":"Darknight","steam_id":76561199090139287,"connected_time":3634000000000,"state":"active","ping":136},{"user_id":201,"name":"Rephex","steam_id":76561198308185574,"connected_time":6957000000000,"state":"active","ping":80},{"user_id":227,"name":"Taokaka","steam_id":76561198158666692,"connected_time":4633000000000,"state":"active","ping":39},{"user_id":208,"name":"NOPE","steam_id":76561199244543572,"connected_time":5809000000000,"state":"active","ping":67},{"user_id":150,"name":"Bepo","steam_id":76561198136685157,"connected_time":11376000000000,"state":"active","ping":59},{"user_id":231,"name":"Stupid B l #saveTF2","steam_id":76561198131423270,"connected_time":3750000000000,"state":"active","ping":100},{"user_id":229,"name":"‚úßBaKa BAzooKA‚úß(‚óï‚ñø‚óï )","steam_id":76561198061628689,"connected_time":4284000000000,"state":"active","ping":52},{"user_id":218,"name":"ÁÖôÊµ∑ | Enkai","steam_id":76561198050460825,"connected_time":5021000000000,"state":"active","ping":79},{"user_id":236,"name":"woman moment","steam_id":76561198147851090,"connected_time":3455000000000,"state":"active","ping":92},{"user_id":162,"name":"Noyour","steam_id":76561198323259830,"connected_time":10819000000000,"state":"active","ping":113},{"user_id":186,"name":"Light Rainbow","steam_id":76561198118966673,"connected_time":8222000000000,"state":"active","ping":44},{"user_id":147,"name":"linne","steam_id":76561198230213828,"connected_time":11670000000000,"state":"active","ping":62},{"user_id":230,"name":"momosneakeradventure","steam_id":76561199046440440,"connected_time":3785000000000,"state":"active","ping":45},{"user_id":240,"name":"zetwalla","steam_id":76561198166260360,"connected_time":2362000000000,"state":"active","ping":130},{"user_id":207,"name":"Â∏ï","steam_id":76561198439343999,"connected_time":5825000000000,"state":"active","ping":75},{"user_id":217,"name":":)","steam_id":76561198437941450,"connected_time":5279000000000,"state":"active","ping":92},{"user_id":198,"name":"Floating Blocks of Death","steam_id":76561198179320563,"connected_time":7380000000000,"state":"active","ping":135},{"user_id":237,"name":"Mystery cheese üßÄ","steam_id":76561198304002409,"connected_time":3340000000000,"state":"active","ping":83},{"user_id":220,"name":"ThunderMoutaingame2011","steam_id":76561199187380315,"connected_time":4671000000000,"state":"active","ping":43},{"user_id":243,"name":"Pizza_Jammies1345","steam_id":76561199228950246,"connected_time":1309000000000,"state":"active","ping":174},{"user_id":216,"name":"3wfFbdrjEze5d2G","steam_id":76561198435900451,"connected_time":5558000000000,"state":"active","ping":118},{"user_id":241,"name":"corpse_cadaver","steam_id":76561199225360457,"connected_time":2359000000000,"state":"active","ping":85},{"user_id":223,"name":"Urotsuki","steam_id":76561198074339034,"connected_time":4655000000000,"state":"active","ping":79},{"user_id":143,"name":"how 2 cum","steam_id":76561199146847474,"connected_time":12256000000000,"state":"active","ping":57}]},{"server_id":1,"name":"Uncletopia | Los Angeles | 1 | All Maps","name_short":"lax-1","host":"lax-1.us.uncletopia.com","port":27015,"enabled":true,"region":"us-west","cc":"us","latitude":33.94279,"longitude":-118.41004,"reserved":0,"last_update":"0001-01-01T00:00:00Z","name_a2s":"Uncletopia | Los Angeles | 1 | All Maps","protocol":17,"map":"pl_frontier_final","folder":"tf","game":"Team Fortress","app_id":440,"player_count":24,"max_players":24,"Bots":0,"server_type":"Dedicated","server_os":"Linux","password":true,"vac":true,"version":"7757534","steam_id":85568392924469991,"keywords":["nocrits","nodmgspread","payload","uncletopia"],"game_id":440,"stv_port":27016,"stv_name":"Uncletopia | Los Angeles | 1 | All Maps | STV","players":[{"user_id":277,"name":"usedhalfcart","steam_id":76561198072621852,"connected_time":135000000000,"state":"active","ping":84},{"user_id":260,"name":"Joshzu","steam_id":76561198200521137,"connected_time":1562000000000,"state":"active","ping":77},{"user_id":273,"name":"El Viejo Paulino","steam_id":76561198211944169,"connected_time":237000000000,"state":"active","ping":95},{"user_id":271,"name":"Disc0","steam_id":76561198067337267,"connected_time":316000000000,"state":"active","ping":77},{"user_id":257,"name":"Bodach J","steam_id":76561197970562873,"connected_time":2630000000000,"state":"active","ping":46},{"user_id":269,"name":"hart","steam_id":76561198046073848,"connected_time":326000000000,"state":"active","ping":75},{"user_id":228,"name":"Phil Collins","steam_id":76561198068868644,"connected_time":5765000000000,"state":"active","ping":52},{"user_id":263,"name":"DoomoPelota","steam_id":76561198326462587,"connected_time":1109000000000,"state":"active","ping":104},{"user_id":270,"name":"Wendall555","steam_id":76561198985637603,"connected_time":320000000000,"state":"active","ping":58},{"user_id":234,"name":"Creature","steam_id":76561198194585781,"connected_time":4495000000000,"state":"active","ping":64},{"user_id":278,"name":"‚ú™UU‚ú™UU","steam_id":76561199389781834,"connected_time":87000000000,"state":"active","ping":57},{"user_id":279,"name":"Sleuth","steam_id":76561198418288939,"connected_time":37000000000,"state":"active","ping":69},{"user_id":274,"name":"heimdall","steam_id":76561198069380992,"connected_time":233000000000,"state":"active","ping":91},{"user_id":272,"name":"rmbl","steam_id":76561198150137369,"connected_time":309000000000,"state":"active","ping":50},{"user_id":155,"name":"PootisLife","steam_id":76561198074400568,"connected_time":12087000000000,"state":"active","ping":64},{"user_id":197,"name":"alpharuby","steam_id":76561198051638462,"connected_time":9299000000000,"state":"active","ping":45},{"user_id":209,"name":"nucket","steam_id":76561198028658527,"connected_time":8523000000000,"state":"active","ping":54},{"user_id":275,"name":"P.I.Staker","steam_id":76561198087096559,"connected_time":203000000000,"state":"active","ping":76},{"user_id":187,"name":"waster","steam_id":76561198078395002,"connected_time":9715000000000,"state":"active","ping":119},{"user_id":266,"name":"Five","steam_id":76561198026640473,"connected_time":1019000000000,"state":"active","ping":60},{"user_id":237,"name":"Flembrane","steam_id":76561197995328898,"connected_time":4482000000000,"state":"active","ping":44},{"user_id":239,"name":"Buswolley","steam_id":76561197995205571,"connected_time":4345000000000,"state":"active","ping":54},{"user_id":242,"name":"mtn.dewdrinker1999","steam_id":76561198021308963,"connected_time":4247000000000,"state":"active","ping":76},{"user_id":276,"name":"dash23‚Ñ¢","steam_id":76561198314951185,"connected_time":190000000000,"state":"active","ping":84}]},{"server_id":112,"name":"Uncletopia | Los Angeles | 2 | All Maps","name_short":"lax-2","host":"lax-1.us.uncletopia.com","port":27025,"enabled":true,"region":"us-west","cc":"us","latitude":33.94279,"longitude":-118.41004,"reserved":0,"last_update":"0001-01-01T00:00:00Z","name_a2s":"Uncletopia | Los Angeles | 2 | All Maps","protocol":17,"map":"pl_barnblitz","folder":"tf","game":"Team Fortress","app_id":440,"player_count":0,"max_players":24,"Bots":0,"server_type":"Dedicated","server_os":"Linux","password":true,"vac":true,"version":"7757534","steam_id":85568392924469992,"keywords":["nocrits","nodmgspread","payload","uncletopia"],"game_id":440,"stv_port":27026,"stv_name":"Uncletopia | Los Angeles | 2 | All Maps | STV","players":null},{"server_id":324,"name":"Uncletopia | Los Angeles | 3 | All Maps","name_short":"lax-3","host":"lax-1.us.uncletopia.com","port":27035,"enabled":true,"region":"us-west","cc":"us","latitude":33.94279,"longitude":-118.41004,"reserved":0,"last_update":"0001-01-01T00:00:00Z","name_a2s":"Uncletopia | Los Angeles | 3 | All Maps","protocol":17,"map":"pl_upward","folder":"tf","game":"Team Fortress","app_id":440,"player_count":0,"max_players":24,"Bots":0,"server_type":"Dedicated","server_os":"Linux","password":true,"vac":true,"version":"7757534","steam_id":85568392924510198,"keywords":["nocrits","nodmgspread","payload","uncletopia"],"game_id":440,"stv_port":27036,"stv_name":"Uncletopia | Los Angeles | 3 | All Maps | STV","players":null},{"server_id":25,"name":"Uncletopia | Los Angeles | 4 | Stopwatch Beta","name_short":"lax-4","host":"lax-1.us.uncletopia.com","port":27045,"enabled":true,"region":"us-west","cc":"us","latitude":33.94279,"longitude":-118.41004,"reserved":0,"last_update":"0001-01-01T00:00:00Z","name_a2s":"Uncletopia | Los Angeles | 4 | Stopwatch Beta","protocol":17,"map":"cp_dustbowl","folder":"tf","game":"Team Fortress","app_id":440,"player_count":0,"max_players":24,"Bots":0,"server_type":"Dedicated","server_os":"Linux","password":true,"vac":true,"version":"7757534","steam_id":85568392924510199,"keywords":["cp","nocrits","nodmgspread","uncletopia"],"game_id":440,"stv_port":27046,"stv_name":"Uncletopia | Los Angeles | 4 | Stopwatch Beta | STV","players":null},{"server_id":11,"name":"Uncletopia | London | 1 | All Maps","name_short":"lon-1","host":"lon-1.uk.uncletopia.com","port":27015,"enabled":true,"region":"eu","cc":"gb","latitude":51.509865,"longitude":-0.118092,"reserved":0,"last_update":"0001-01-01T00:00:00Z","name_a2s":"Uncletopia | London | 1 | All Maps","protocol":17,"map":"pl_pier","folder":"tf","game":"Team Fortress","app_id":440,"player_count":0,"max_players":24,"Bots":0,"server_type":"Dedicated","server_os":"Linux","password":true,"vac":true,"version":"7757534","steam_id":85568392924367362,"keywords":["nocrits","nodmgspread","payload","uncletopia"],"game_id":440,"stv_port":27016,"stv_name":"Uncletopia | London | 1 | All Maps | STV","players":null},{"server_id":114,"name":"Uncletopia | London | 2 | All Maps","name_short":"lon-2","host":"lon-1.uk.uncletopia.com","port":27025,"enabled":true,"region":"eu","cc":"gb","latitude":51.509865,"longitude":-0.118092,"reserved":0,"last_update":"0001-01-01T00:00:00Z","name_a2s":"Uncletopia | London | 2 | All Maps","protocol":17,"map":"pl_pier","folder":"tf","game":"Team Fortress","app_id":440,"player_count":0,"max_players":24,"Bots":0,"server_type":"Dedicated","server_os":"Linux","password":true,"vac":true,"version":"7757534","steam_id":85568392924470941,"keywords":["nocrits","nodmgspread","payload","uncletopia"],"game_id":440,"stv_port":27026,"stv_name":"Uncletopia | London | 2 | All Maps | STV","players":null},{"server_id":320,"name":"Uncletopia | London | 3 | All Maps","name_short":"lon-3","host":"lon-1.uk.uncletopia.com","port":27035,"enabled":true,"region":"eu","cc":"gb","latitude":51.509865,"longitude":-0.118092,"reserved":0,"last_update":"0001-01-01T00:00:00Z","name_a2s":"Uncletopia | London | 3 | All Maps","protocol":17,"map":"cp_steel","folder":"tf","game":"Team Fortress","app_id":440,"player_count":4,"max_players":24,"Bots":0,"server_type":"Dedicated","server_os":"Linux","password":true,"vac":true,"version":"7757534","steam_id":85568392924510192,"keywords":["cp","nocrits","nodmgspread","uncletopia"],"game_id":440,"stv_port":27036,"stv_name":"Uncletopia | London | 3 | All Maps | STV","players":[{"user_id":3,"name":"DarkFady","steam_id":76561198179099523,"connected_time":5312000000000,"state":"active","ping":111},{"user_id":4,"name":"Truegr","steam_id":76561198811912339,"connected_time":5290000000000,"state":"active","ping":61},{"user_id":25,"name":"smile","steam_id":76561198365841841,"connected_time":25000000000,"state":"spawning","ping":95},{"user_id":12,"name":"doogdoggo","steam_id":76561199174225724,"connected_time":2021000000000,"state":"active","ping":49}]},{"server_id":321,"name":"Uncletopia | London | 4 | All Maps","name_short":"lon-4","host":"lon-1.uk.uncletopia.com","port":27045,"enabled":true,"region":"eu","cc":"gb","latitude":51.509865,"longitude":-0.118092,"reserved":0,"last_update":"0001-01-01T00:00:00Z","name_a2s":"Uncletopia | London | 4 | All Maps","protocol":17,"map":"pl_barnblitz","folder":"tf","game":"Team Fortress","app_id":440,"player_count":0,"max_players":24,"Bots":0,"server_type":"Dedicated","server_os":"Linux","password":true,"vac":true,"version":"7757534","steam_id":85568392924510193,"keywords":["nocrits","nodmgspread","payload","uncletopia"],"game_id":440,"stv_port":27046,"stv_name":"Uncletopia | London | 4 | All Maps | STV","players":null},{"server_id":21,"name":"Uncletopia | London | 5 | All Maps","name_short":"lon-5","host":"lon-1.uk.uncletopia.com","port":27055,"enabled":true,"region":"eu","cc":"gb","latitude":51.509865,"longitude":-0.118092,"reserved":0,"last_update":"0001-01-01T00:00:00Z","name_a2s":"Uncletopia | London | 5 | All Maps","protocol":17,"map":"pl_pier","folder":"tf","game":"Team Fortress","app_id":440,"player_count":0,"max_players":24,"Bots":0,"server_type":"Dedicated","server_os":"Linux","password":true,"vac":true,"version":"7757534","steam_id":85568392924742829,"keywords":["nocrits","nodmgspread","payload","uncletopia"],"game_id":440,"stv_port":27056,"stv_name":"Uncletopia | London | 5 | All Maps | STV","players":null},{"server_id":22,"name":"Uncletopia | London | 6 | All Maps","name_short":"lon-6","host":"lon-1.uk.uncletopia.com","port":27065,"enabled":true,"region":"eu","cc":"gb","latitude":51.509865,"longitude":-0.118092,"reserved":0,"last_update":"0001-01-01T00:00:00Z","name_a2s":"Uncletopia | London | 6 | All Maps","protocol":17,"map":"koth_highpass","folder":"tf","game":"Team Fortress","app_id":440,"player_count":0,"max_players":24,"Bots":0,"server_type":"Dedicated","server_os":"Linux","password":true,"vac":true,"version":"7757534","steam_id":85568392924742830,"keywords":["cp","nocrits","nodmgspread","uncletopia"],"game_id":440,"stv_port":27066,"stv_name":"Uncletopia | London | 6 | All Maps | STV","players":null},{"server_id":40,"name":"Uncletopia | London | 7 | No Payload","name_short":"lon-7","host":"lon-1.uk.uncletopia.com","port":27075,"enabled":true,"region":"eu","cc":"gb","latitude":51.509865,"longitude":-0.118092,"reserved":0,"last_update":"0001-01-01T00:00:00Z","name_a2s":"Uncletopia | London | 7 | No Payload","protocol":17,"map":"koth_highpass","folder":"tf","game":"Team Fortress","app_id":440,"player_count":0,"max_players":24,"Bots":0,"server_type":"Dedicated","server_os":"Linux","password":true,"vac":true,"version":"7757534","steam_id":85568392924964314,"keywords":["cp","nocrits","nodmgspread","uncletopia"],"game_id":440,"stv_port":27076,"stv_name":"Uncletopia | London | 7 | No Payload | STV","players":null},{"server_id":41,"name":"Uncletopia | London | 8 | Community","name_short":"lon-8","host":"lon-1.uk.uncletopia.com","port":27085,"enabled":true,"region":"eu","cc":"gb","latitude":51.509865,"longitude":-0.118092,"reserved":0,"last_update":"0001-01-01T00:00:00Z","name_a2s":"Uncletopia | London | 8 | Community","protocol":17,"map":"cp_altitude","folder":"tf","game":"Team Fortress","app_id":440,"player_count":0,"max_players":24,"Bots":0,"server_type":"Dedicated","server_os":"Linux","password":true,"vac":true,"version":"7757534","steam_id":85568392924964315,"keywords":["cp","nocrits","nodmgspread","uncletopia"],"game_id":440,"stv_port":27086,"stv_name":"Uncletopia | London | 8 | Community | STV","players":null},{"server_id":300,"name":"Uncletopia | Montr√©al | 1 | All Maps","name_short":"mtl-1","host":"mtl-1.ca.uncletopia.com","port":27015,"enabled":true,"region":"us-east","cc":"ca","latitude":45.50889,"longitude":-73.56167,"reserved":0,"last_update":"0001-01-01T00:00:00Z","name_a2s":"Uncletopia | Montr√©al | 1 | All Maps","protocol":17,"map":"koth_highpass","folder":"tf","game":"Team Fortress","app_id":440,"player_count":0,"max_players":24,"Bots":0,"server_type":"Dedicated","server_os":"Linux","password":true,"vac":true,"version":"7757534","steam_id":85568392924500087,"keywords":["cp","nocrits","nodmgspread","uncletopia"],"game_id":440,"stv_port":27016,"stv_name":"Uncletopia | Montr√©al | 1 | All Maps | STV","players":null},{"server_id":301,"name":"Uncletopia | Montr√©al | 2 | All Maps","name_short":"mtl-2","host":"mtl-1.ca.uncletopia.com","port":27025,"enabled":true,"region":"us-east","cc":"ca","latitude":45.50889,"longitude":-73.56167,"reserved":0,"last_update":"0001-01-01T00:00:00Z","name_a2s":"Uncletopia | Montr√©al | 2 | All Maps","protocol":17,"map":"cp_process_final","folder":"tf","game":"Team Fortress","app_id":440,"player_count":0,"max_players":24,"Bots":0,"server_type":"Dedicated","server_os":"Linux","password":true,"vac":true,"version":"7757534","steam_id":85568392924500088,"keywords":["cp","nocrits","nodmgspread","uncletopia"],"game_id":440,"stv_port":27026,"stv_name":"Uncletopia | Montr√©al | 2 | All Maps | STV","players":null},{"server_id":302,"name":"Uncletopia | Montr√©al | 3 | All Maps","name_short":"mtl-3","host":"mtl-1.ca.uncletopia.com","port":27035,"enabled":true,"region":"us-east","cc":"ca","latitude":45.50889,"longitude":-73.56167,"reserved":0,"last_update":"0001-01-01T00:00:00Z","name_a2s":"Uncletopia | Montr√©al | 3 | All Maps","protocol":17,"map":"pl_frontier_final","folder":"tf","game":"Team Fortress","app_id":440,"player_count":0,"max_players":24,"Bots":0,"server_type":"Dedicated","server_os":"Linux","password":true,"vac":true,"version":"7757534","steam_id":85568392924500089,"keywords":["nocrits","nodmgspread","payload","uncletopia"],"game_id":440,"stv_port":27036,"stv_name":"Uncletopia | Montr√©al | 3 | All Maps | STV","players":null},{"server_id":303,"name":"Uncletopia | Montr√©al | 4 | No Payload","name_short":"mtl-4","host":"mtl-1.ca.uncletopia.com","port":27045,"enabled":true,"region":"us-east","cc":"ca","latitude":45.50889,"longitude":-73.56167,"reserved":0,"last_update":"0001-01-01T00:00:00Z","name_a2s":"Uncletopia | Montr√©al | 4 | No Payload","protocol":17,"map":"cp_steel","folder":"tf","game":"Team Fortress","app_id":440,"player_count":0,"max_players":24,"Bots":0,"server_type":"Dedicated","server_os":"Linux","password":true,"vac":true,"version":"7757534","steam_id":85568392924500090,"keywords":["cp","nocrits","nodmgspread","uncletopia"],"game_id":440,"stv_port":27046,"stv_name":"Uncletopia | Montr√©al | 4 | No Payload | STV","players":null},{"server_id":13,"name":"Uncletopia | New York City | 1 | All Maps","name_short":"nyc-1","host":"nyc-1.us.uncletopia.com","port":27015,"enabled":true,"region":"us-east","cc":"us","latitude":40.73061,"longitude":-73.93524,"reserved":0,"last_update":"0001-01-01T00:00:00Z","name_a2s":"Uncletopia | New York City | 1 | All Maps","protocol":17,"map":"cp_process_final","folder":"tf","game":"Team Fortress","app_id":440,"player_count":0,"max_players":24,"Bots":0,"server_type":"Dedicated","server_os":"Linux","password":true,"vac":true,"version":"7757534","steam_id":85568392924469993,"keywords":["cp","nocrits","nodmgspread","uncletopia"],"game_id":440,"stv_port":27016,"stv_name":"Uncletopia | New York City | 1 | All Maps | STV","players":null},{"server_id":14,"name":"Uncletopia | New York City | 2 | All Maps","name_short":"nyc-2","host":"nyc-1.us.uncletopia.com","port":27025,"enabled":true,"region":"us-east","cc":"us","latitude":40.73061,"longitude":-73.93524,"reserved":0,"last_update":"0001-01-01T00:00:00Z","name_a2s":"Uncletopia | New York City | 2 | All Maps","protocol":17,"map":"cp_altitude","folder":"tf","game":"Team Fortress","app_id":440,"player_count":0,"max_players":24,"Bots":0,"server_type":"Dedicated","server_os":"Linux","password":true,"vac":true,"version":"7757534","steam_id":85568392924469994,"keywords":["cp","nocrits","nodmgspread","uncletopia"],"game_id":440,"stv_port":27026,"stv_name":"Uncletopia | New York City | 2 | All Maps | STV","players":null},{"server_id":15,"name":"Uncletopia | New York City | 3 | Stopwatch Beta","name_short":"nyc-3","host":"nyc-1.us.uncletopia.com","port":27035,"enabled":true,"region":"us-east","cc":"us","latitude":40.73061,"longitude":-73.93524,"reserved":0,"last_update":"0001-01-01T00:00:00Z","name_a2s":"Uncletopia | New York City | 3 | Stopwatch Beta","protocol":17,"map":"cp_gullywash_final1","folder":"tf","game":"Team Fortress","app_id":440,"player_count":0,"max_players":24,"Bots":0,"server_type":"Dedicated","server_os":"Linux","password":true,"vac":true,"version":"7757534","steam_id":85568392924742820,"keywords":["cp","nocrits","nodmgspread","uncletopia"],"game_id":440,"stv_port":27036,"stv_name":"Uncletopia | New York City | 3 | Stopwatch Beta | STV","players":null},{"server_id":16,"name":"Uncletopia | New York City | 4 | Community","name_short":"nyc-4","host":"nyc-1.us.uncletopia.com","port":27045,"enabled":true,"region":"us-east","cc":"us","latitude":40.73061,"longitude":-73.93524,"reserved":0,"last_update":"0001-01-01T00:00:00Z","name_a2s":"Uncletopia | New York City | 4 | Community","protocol":17,"map":"workshop/koth_ashville_final.ugc2130459942","folder":"tf","game":"Team Fortress","app_id":440,"player_count":0,"max_players":24,"Bots":0,"server_type":"Dedicated","server_os":"Linux","password":true,"vac":true,"version":"7757534","steam_id":85568392924742821,"keywords":["cp","nocrits","nodmgspread","uncletopia"],"game_id":440,"stv_port":27046,"stv_name":"Uncletopia | New York City | 4 | Community | STV","players":null},{"server_id":142,"name":"Uncletopia | S√£o Paulo | 1 | All Maps","name_short":"sao-1","host":"sao-1.br.uncletopia.com","port":27015,"enabled":true,"region":"sa","cc":"br","latitude":-23.533773,"longitude":-46.62529,"reserved":0,"last_update":"0001-01-01T00:00:00Z","name_a2s":"Uncletopia | S√£o Paulo | 1 | All Maps","protocol":17,"map":"cp_altitude","folder":"tf","game":"Team Fortress","app_id":440,"player_count":0,"max_players":24,"Bots":0,"server_type":"Dedicated","server_os":"Linux","password":true,"vac":true,"version":"7757534","steam_id":85568392924469996,"keywords":["cp","nocrits","nodmgspread","uncletopia"],"game_id":440,"stv_port":27016,"stv_name":"Uncletopia | S√£o Paulo | 1 | All Maps | STV","players":null},{"server_id":143,"name":"Uncletopia | S√£o Paulo | 2 | All Maps","name_short":"sao-2","host":"sao-2.br.uncletopia.com","port":27015,"enabled":true,"region":"sa","cc":"br","latitude":-23.533773,"longitude":-46.62529,"reserved":0,"last_update":"0001-01-01T00:00:00Z","name_a2s":"Uncletopia | S√£o Paulo | 2 | All Maps","protocol":17,"map":"koth_viaduct","folder":"tf","game":"Team Fortress","app_id":440,"player_count":0,"max_players":24,"Bots":0,"server_type":"Dedicated","server_os":"Linux","password":true,"vac":true,"version":"7757534","steam_id":85568392924485349,"keywords":["cp","nocrits","nodmgspread","uncletopia"],"game_id":440,"stv_port":27016,"stv_name":"Uncletopia | S√£o Paulo | 2 | All Maps | STV","players":null},{"server_id":7,"name":"Uncletopia | Seattle | 1 | All Maps","name_short":"sea-1","host":"sea-1.us.uncletopia.com","port":27015,"enabled":true,"region":"us-west","cc":"us","latitude":47.608013,"longitude":-122.33517,"reserved":0,"last_update":"0001-01-01T00:00:00Z","name_a2s":"Uncletopia | Seattle | 1 | All Maps","protocol":17,"map":"koth_viaduct","folder":"tf","game":"Team Fortress","app_id":440,"player_count":15,"max_players":24,"Bots":0,"server_type":"Dedicated","server_os":"Linux","password":true,"vac":true,"version":"7757534","steam_id":85568392924469997,"keywords":["cp","nocrits","nodmgspread","uncletopia"],"game_id":440,"stv_port":27016,"stv_name":"Uncletopia | Seattle | 1 | All Maps | STV","players":[{"user_id":213,"name":"Doctor‚Ñ¢","steam_id":76561198134309750,"connected_time":4573000000000,"state":"active","ping":90},{"user_id":215,"name":"Ghee Buttersnaps","steam_id":76561199225708271,"connected_time":4542000000000,"state":"active","ping":63},{"user_id":251,"name":"Dilbert Garfunkel","steam_id":76561198088318184,"connected_time":1510000000000,"state":"active","ping":57},{"user_id":264,"name":"FlameWolf","steam_id":76561198234517204,"connected_time":457000000000,"state":"active","ping":64},{"user_id":271,"name":"gobster","steam_id":76561198965316280,"connected_time":213000000000,"state":"active","ping":211},{"user_id":273,"name":"mommy","steam_id":76561198129195009,"connected_time":156000000000,"state":"active","ping":61},{"user_id":274,"name":"Yachter","steam_id":76561198129749194,"connected_time":2000000000,"state":"spawning","ping":76},{"user_id":267,"name":"ScoutBox","steam_id":76561198111539895,"connected_time":344000000000,"state":"active","ping":75},{"user_id":226,"name":"Google","steam_id":76561198857237473,"connected_time":3806000000000,"state":"active","ping":44},{"user_id":263,"name":"Homunculus Humphrey","steam_id":76561198079797048,"connected_time":478000000000,"state":"active","ping":79},{"user_id":269,"name":"Zee‚ù§","steam_id":76561198274550638,"connected_time":320000000000,"state":"active","ping":117},{"user_id":224,"name":"jorts","steam_id":76561199041179985,"connected_time":4173000000000,"state":"active","ping":59},{"user_id":259,"name":"Inflight","steam_id":76561198920049475,"connected_time":594000000000,"state":"active","ping":111},{"user_id":198,"name":"p9 delight","steam_id":76561197980280272,"connected_time":6251000000000,"state":"active","ping":40},{"user_id":249,"name":"rorywashere /·ê† - Àï -„Éû ‚≥ä","steam_id":76561198065825165,"connected_time":1863000000000,"state":"active","ping":113}]},{"server_id":119,"name":"Uncletopia | Seattle | 2 | All Maps","name_short":"sea-2","host":"sea-1.us.uncletopia.com","port":27025,"enabled":true,"region":"us-west","cc":"us","latitude":47.608013,"longitude":-122.33517,"reserved":0,"last_update":"0001-01-01T00:00:00Z","name_a2s":"Uncletopia | Seattle | 2 | All Maps","protocol":17,"map":"koth_viaduct","folder":"tf","game":"Team Fortress","app_id":440,"player_count":2,"max_players":24,"Bots":0,"server_type":"Dedicated","server_os":"Linux","password":true,"vac":true,"version":"7757534","steam_id":85568392924469998,"keywords":["cp","nocrits","nodmgspread","uncletopia"],"game_id":440,"stv_port":27026,"stv_name":"Uncletopia | Seattle | 2 | All Maps | STV","players":[{"user_id":355,"name":"i am weed","steam_id":76561198419896433,"connected_time":1060000000000,"state":"active","ping":38},{"user_id":356,"name":"Pyrolimited","steam_id":76561198195455657,"connected_time":846000000000,"state":"active","ping":43}]},{"server_id":406,"name":"Uncletopia | Seattle | 3 | Stopwatch Beta","name_short":"sea-3","host":"sea-1.us.uncletopia.com","port":27035,"enabled":true,"region":"us-west","cc":"us","latitude":47.608013,"longitude":-122.33517,"reserved":0,"last_update":"0001-01-01T00:00:00Z","name_a2s":"Uncletopia | Seattle | 3 | Stopwatch Beta","protocol":17,"map":"pl_swiftwater_final1","folder":"tf","game":"Team Fortress","app_id":440,"player_count":0,"max_players":24,"Bots":0,"server_type":"Dedicated","server_os":"Linux","password":true,"vac":true,"version":"7757534","steam_id":85568392924515217,"keywords":["nocrits","nodmgspread","payload","uncletopia"],"game_id":440,"stv_port":27036,"stv_name":"Uncletopia | Seattle | 3 | Stopwatch Beta | STV","players":null},{"server_id":17,"name":"Uncletopia | San Francisco | 1 | All Maps","name_short":"sfo-1","host":"sfo-1.us.uncletopia.com","port":27015,"enabled":true,"region":"us-west","cc":"us","latitude":37.77397,"longitude":-122.4313,"reserved":0,"last_update":"0001-01-01T00:00:00Z","name_a2s":"Uncletopia | San Francisco | 1 | All Maps","protocol":17,"map":"pl_pier","folder":"tf","game":"Team Fortress","app_id":440,"player_count":24,"max_players":24,"Bots":0,"server_type":"Dedicated","server_os":"Linux","password":true,"vac":true,"version":"7757534","steam_id":85568392924469999,"keywords":["nocrits","nodmgspread","payload","uncletopia"],"game_id":440,"stv_port":27016,"stv_name":"Uncletopia | San Francisco | 1 | All Maps | STV","players":[{"user_id":396,"name":"kr1tsurf3r","steam_id":76561198076402476,"connected_time":1922000000000,"state":"active","ping":68},{"user_id":393,"name":"Apex","steam_id":76561199058954656,"connected_time":2145000000000,"state":"active","ping":66},{"user_id":433,"name":"im overdosing on copium","steam_id":76561198319442494,"connected_time":51000000000,"state":"active","ping":59},{"user_id":408,"name":"flop","steam_id":76561199230528008,"connected_time":856000000000,"state":"active","ping":70},{"user_id":397,"name":"silver","steam_id":76561199020503397,"connected_time":1896000000000,"state":"active","ping":59},{"user_id":421,"name":"Dylan Pulido","steam_id":76561198272681544,"connected_time":552000000000,"state":"active","ping":45},{"user_id":398,"name":"The Assistant Regional Manager","steam_id":76561199221484936,"connected_time":1840000000000,"state":"active","ping":71},{"user_id":405,"name":"mritea","steam_id":76561198872799796,"connected_time":1111000000000,"state":"active","ping":101},{"user_id":406,"name":"served","steam_id":76561199438267625,"connected_time":1044000000000,"state":"active","ping":60},{"user_id":427,"name":":)","steam_id":76561198377852701,"connected_time":306000000000,"state":"active","ping":114},{"user_id":360,"name":"Saggy","steam_id":76561198166706479,"connected_time":4621000000000,"state":"active","ping":110},{"user_id":424,"name":"sierra","steam_id":76561197969873415,"connected_time":391000000000,"state":"active","ping":158},{"user_id":412,"name":"Dat Engineer","steam_id":76561198275805954,"connected_time":798000000000,"state":"active","ping":85},{"user_id":415,"name":"sera","steam_id":76561198120360801,"connected_time":671000000000,"state":"active","ping":59},{"user_id":367,"name":"NWABA","steam_id":76561198073699764,"connected_time":3882000000000,"state":"active","ping":91},{"user_id":416,"name":"Flarelo","steam_id":76561198086024407,"connected_time":666000000000,"state":"active","ping":117},{"user_id":377,"name":"me","steam_id":76561199468285784,"connected_time":3208000000000,"state":"active","ping":36},{"user_id":417,"name":"jango fett wrist rocket","steam_id":76561198014920568,"connected_time":652000000000,"state":"active","ping":105},{"user_id":418,"name":"ItsDifficultttt","steam_id":76561199402730529,"connected_time":606000000000,"state":"active","ping":105},{"user_id":401,"name":"‚§£RASCAL","steam_id":76561198269038647,"connected_time":1684000000000,"state":"active","ping":45},{"user_id":371,"name":"Stinky Lizard","steam_id":76561198109983320,"connected_time":3829000000000,"state":"active","ping":98},{"user_id":434,"name":"Foobert","steam_id":76561199229577594,"connected_time":43000000000,"state":"active","ping":61},{"user_id":430,"name":"YOU RULE!!!","steam_id":76561198251164340,"connected_time":112000000000,"state":"active","ping":99},{"user_id":375,"name":"roger roger","steam_id":76561198130032444,"connected_time":3737000000000,"state":"active","ping":64}]},{"server_id":18,"name":"Uncletopia | San Francisco | 2 | All Maps","name_short":"sfo-2","host":"sfo-1.us.uncletopia.com","port":27025,"enabled":true,"region":"us-west","cc":"us","latitude":37.77397,"longitude":-122.4313,"reserved":0,"last_update":"0001-01-01T00:00:00Z","name_a2s":"Uncletopia | San Francisco | 2 | All Maps","protocol":17,"map":"pl_swiftwater_final1","folder":"tf","game":"Team Fortress","app_id":440,"player_count":0,"max_players":24,"Bots":0,"server_type":"Dedicated","server_os":"Linux","password":true,"vac":true,"version":"7757534","steam_id":85568392924470000,"keywords":["nocrits","nodmgspread","payload","uncletopia"],"game_id":440,"stv_port":27026,"stv_name":"Uncletopia | San Francisco | 2 | All Maps | STV","players":null},{"server_id":19,"name":"Uncletopia | San Francisco | 3 | Stopwatch Beta","name_short":"sfo-3","host":"sfo-1.us.uncletopia.com","port":27035,"enabled":true,"region":"us-west","cc":"us","latitude":37.77397,"longitude":-122.4313,"reserved":0,"last_update":"0001-01-01T00:00:00Z","name_a2s":"Uncletopia | San Francisco | 3 | Stopwatch Beta","protocol":17,"map":"workshop/koth_ramjam_rc1.ugc459778887","folder":"tf","game":"Team Fortress","app_id":440,"player_count":0,"max_players":24,"Bots":0,"server_type":"Dedicated","server_os":"Linux","password":true,"vac":true,"version":"7757534","steam_id":85568392924742824,"keywords":["cp","nocrits","nodmgspread","uncletopia"],"game_id":440,"stv_port":27036,"stv_name":"Uncletopia | San Francisco | 3 | Stopwatch Beta | STV","players":null},{"server_id":20,"name":"Uncletopia | San Francisco | 4 | Community","name_short":"sfo-4","host":"sfo-1.us.uncletopia.com","port":27045,"enabled":true,"region":"us-west","cc":"us","latitude":37.77397,"longitude":-122.4313,"reserved":0,"last_update":"0001-01-01T00:00:00Z","name_a2s":"Uncletopia | San Francisco | 4 | Community","protocol":17,"map":"workshop/pl_corrode_rc2.ugc546577989","folder":"tf","game":"Team Fortress","app_id":440,"player_count":0,"max_players":24,"Bots":0,"server_type":"Dedicated","server_os":"Linux","password":true,"vac":true,"version":"7757534","steam_id":85568392924742826,"keywords":["nocrits","nodmgspread","payload","uncletopia"],"game_id":440,"stv_port":27046,"stv_name":"Uncletopia | San Francisco | 4 | Community | STV","players":null},{"server_id":141,"name":"Uncletopia | Sydney | 1 | All Maps","name_short":"syd-1","host":"syd-1.au.uncletopia.com","port":27015,"enabled":true,"region":"au","cc":"au","latitude":-33.865143,"longitude":151.2099,"reserved":0,"last_update":"0001-01-01T00:00:00Z","name_a2s":"Uncletopia | Sydney | 1 | All Maps","protocol":17,"map":"pl_upward","folder":"tf","game":"Team Fortress","app_id":440,"player_count":0,"max_players":24,"Bots":0,"server_type":"Dedicated","server_os":"Linux","password":true,"vac":true,"version":"7757534","steam_id":85568392924470001,"keywords":["nocrits","nodmgspread","payload","uncletopia"],"game_id":440,"stv_port":27016,"stv_name":"Uncletopia | Sydney | 1 | All Maps | STV","players":null},{"server_id":123,"name":"Uncletopia | Sydney | 2 | All Maps","name_short":"syd-2","host":"syd-1.au.uncletopia.com","port":27025,"enabled":true,"region":"au","cc":"au","latitude":-33.865143,"longitude":151.2099,"reserved":0,"last_update":"0001-01-01T00:00:00Z","name_a2s":"Uncletopia | Sydney | 2 | All Maps","protocol":17,"map":"pl_frontier_final","folder":"tf","game":"Team Fortress","app_id":440,"player_count":24,"max_players":24,"Bots":0,"server_type":"Dedicated","server_os":"Linux","password":true,"vac":true,"version":"7757534","steam_id":85568392924470002,"keywords":["nocrits","nodmgspread","payload","uncletopia"],"game_id":440,"stv_port":27026,"stv_name":"Uncletopia | Sydney | 2 | All Maps | STV","players":[{"user_id":348,"name":"beet","steam_id":76561198097873940,"connected_time":1875000000000,"state":"active","ping":57},{"user_id":344,"name":"SUCC MY DUCC","steam_id":76561198127068703,"connected_time":2067000000000,"state":"active","ping":66},{"user_id":358,"name":"Matsyh","steam_id":76561198019026726,"connected_time":148000000000,"state":"active","ping":70},{"user_id":361,"name":"soupy","steam_id":76561198073734936,"connected_time":140000000000,"state":"active","ping":88},{"user_id":359,"name":"Pat","steam_id":76561198244663182,"connected_time":145000000000,"state":"active","ping":59},{"user_id":352,"name":"Pile of Sneed","steam_id":76561198143537391,"connected_time":1169000000000,"state":"active","ping":54},{"user_id":320,"name":"Charm","steam_id":76561198028891054,"connected_time":3659000000000,"state":"active","ping":61},{"user_id":306,"name":"[T√êK] KeRpaL","steam_id":76561197974427061,"connected_time":4816000000000,"state":"active","ping":61},{"user_id":342,"name":"Cup","steam_id":76561198038485845,"connected_time":2128000000000,"state":"active","ping":30},{"user_id":274,"name":"Paula","steam_id":76561198010688399,"connected_time":7565000000000,"state":"active","ping":69},{"user_id":321,"name":"CypressFluff (She/Her)","steam_id":76561198174667818,"connected_time":3647000000000,"state":"active","ping":55},{"user_id":341,"name":"Mac","steam_id":76561198063407128,"connected_time":2132000000000,"state":"active","ping":46},{"user_id":357,"name":"Asl:3x","steam_id":76561198972095766,"connected_time":324000000000,"state":"active","ping":39},{"user_id":329,"name":"SkoKiE","steam_id":76561198283542986,"connected_time":2903000000000,"state":"active","ping":60},{"user_id":323,"name":"Mouse Balls","steam_id":76561199037470627,"connected_time":3402000000000,"state":"active","ping":103},{"user_id":360,"name":"4-Star Yelp Review","steam_id":76561197995258180,"connected_time":144000000000,"state":"active","ping":48},{"user_id":351,"name":"Shadow Puppeteer","steam_id":76561198151121997,"connected_time":1675000000000,"state":"active","ping":74},{"user_id":307,"name":"monocrumb","steam_id":76561199126588682,"connected_time":4696000000000,"state":"active","ping":52},{"user_id":355,"name":"Zoey","steam_id":76561198126153554,"connected_time":1117000000000,"state":"active","ping":78},{"user_id":325,"name":"The Fesh Pince Of Blair","steam_id":76561198124442611,"connected_time":3286000000000,"state":"active","ping":81},{"user_id":301,"name":"LightningBlock","steam_id":76561198289997742,"connected_time":5039000000000,"state":"active","ping":34},{"user_id":328,"name":"Atlas","steam_id":76561198069332870,"connected_time":2907000000000,"state":"active","ping":46},{"user_id":343,"name":"Jamie2Cool","steam_id":76561198155695809,"connected_time":2128000000000,"state":"active","ping":88},{"user_id":356,"name":"Genuline","steam_id":76561198126426787,"connected_time":1116000000000,"state":"active","ping":47}]},{"server_id":395,"name":"Uncletopia | Sydney | 3 | All Maps","name_short":"syd-3","host":"syd-1.au.uncletopia.com","port":27035,"enabled":true,"region":"au","cc":"au","latitude":-33.865143,"longitude":151.2099,"reserved":0,"last_update":"0001-01-01T00:00:00Z","name_a2s":"Uncletopia | Sydney | 3 | All Maps","protocol":17,"map":"pl_barnblitz","folder":"tf","game":"Team Fortress","app_id":440,"player_count":0,"max_players":24,"Bots":0,"server_type":"Dedicated","server_os":"Linux","password":true,"vac":true,"version":"7757534","steam_id":85568392925194467,"keywords":["nocrits","nodmgspread","payload","uncletopia"],"game_id":440,"stv_port":27036,"stv_name":"Uncletopia | Sydney | 3 | All Maps | STV","players":null},{"server_id":396,"name":"Uncletopia | Sydney | 4 | All Maps","name_short":"syd-4","host":"syd-1.au.uncletopia.com","port":27045,"enabled":true,"region":"au","cc":"au","latitude":-33.865143,"longitude":151.2099,"reserved":0,"last_update":"0001-01-01T00:00:00Z","name_a2s":"Uncletopia | Sydney | 4 | All Maps","protocol":17,"map":"koth_viaduct","folder":"tf","game":"Team Fortress","app_id":440,"player_count":0,"max_players":24,"Bots":0,"server_type":"Dedicated","server_os":"Linux","password":true,"vac":true,"version":"7757534","steam_id":85568392925397958,"keywords":["cp","nocrits","nodmgspread","uncletopia"],"game_id":440,"stv_port":27046,"stv_name":"Uncletopia | Sydney | 4 | All Maps | STV","players":null},{"server_id":58,"name":"Uncletopia | Sydney | 5 | Stopwatch Beta","name_short":"syd-5","host":"syd-1.au.uncletopia.com","port":27055,"enabled":true,"region":"au","cc":"au","latitude":-33.865143,"longitude":151.2099,"reserved":0,"last_update":"0001-01-01T00:00:00Z","name_a2s":"Uncletopia | Sydney | 5 | Stopwatch Beta","protocol":17,"map":"koth_cascade","folder":"tf","game":"Team Fortress","app_id":440,"player_count":0,"max_players":24,"Bots":0,"server_type":"Dedicated","server_os":"Linux","password":true,"vac":true,"version":"7757534","steam_id":85568392925397959,"keywords":["cp","nocrits","nodmgspread","uncletopia"],"game_id":440,"stv_port":27056,"stv_name":"Uncletopia | Sydney | 5 | Stopwatch Beta | STV","players":null},{"server_id":59,"name":"Uncletopia | Sydney | 6 | Community","name_short":"syd-6","host":"syd-1.au.uncletopia.com","port":27065,"enabled":true,"region":"au","cc":"au","latitude":-33.865143,"longitude":151.2099,"reserved":0,"last_update":"0001-01-01T00:00:00Z","name_a2s":"Uncletopia | Sydney | 6 | Community","protocol":17,"map":"workshop/cp_snowbase_b18.ugc2081770490","folder":"tf","game":"Team Fortress","app_id":440,"player_count":2,"max_players":24,"Bots":0,"server_type":"Dedicated","server_os":"Linux","password":true,"vac":true,"version":"7757534","steam_id":85568392925397960,"keywords":["cp","nocrits","nodmgspread","uncletopia"],"game_id":440,"stv_port":27066,"stv_name":"Uncletopia | Sydney | 6 | Community | STV","players":[{"user_id":9,"name":"Branko","steam_id":76561199262196710,"connected_time":616000000000,"state":"active","ping":46},{"user_id":10,"name":"SUSHIMAN","steam_id":76561199089989428,"connected_time":461000000000,"state":"active","ping":90}]},{"server_id":49,"name":"Uncletopia | Warsaw | 1 | All Maps","name_short":"waw-1","host":"waw-1.pl.uncletopia.com","port":27015,"enabled":true,"region":"eu","cc":"pl","latitude":52.2297,"longitude":21.017532,"reserved":0,"last_update":"0001-01-01T00:00:00Z","name_a2s":"","protocol":0,"map":"","folder":"","game":"","app_id":0,"player_count":0,"max_players":0,"Bots":0,"server_type":"","server_os":"","password":false,"vac":false,"version":"","steam_id":0,"keywords":null,"game_id":0,"stv_port":0,"stv_name":"","players":null},{"server_id":50,"name":"Uncletopia | Warsaw | 2 | All Maps","name_short":"waw-2","host":"waw-1.pl.uncletopia.com","port":27025,"enabled":true,"region":"eu","cc":"pl","latitude":52.2297,"longitude":21.017532,"reserved":0,"last_update":"0001-01-01T00:00:00Z","name_a2s":"Uncletopia | Warsaw | 2 | All Maps","protocol":17,"map":"pl_upward","folder":"tf","game":"Team Fortress","app_id":440,"player_count":0,"max_players":24,"Bots":0,"server_type":"Dedicated","server_os":"Linux","password":true,"vac":true,"version":"7757534","steam_id":85568392925397851,"keywords":["nocrits","nodmgspread","payload","uncletopia"],"game_id":440,"stv_port":27026,"stv_name":"Uncletopia | Warsaw | 2 | All Maps | STV","players":null},{"server_id":51,"name":"Uncletopia | Warsaw | 3 | All Maps","name_short":"waw-3","host":"waw-1.pl.uncletopia.com","port":27035,"enabled":true,"region":"eu","cc":"pl","latitude":52.2297,"longitude":21.017532,"reserved":0,"last_update":"0001-01-01T00:00:00Z","name_a2s":"Uncletopia | Warsaw | 3 | All Maps","protocol":17,"map":"pl_barnblitz","folder":"tf","game":"Team Fortress","app_id":440,"player_count":0,"max_players":24,"Bots":0,"server_type":"Dedicated","server_os":"Linux","password":true,"vac":true,"version":"7757534","steam_id":85568392925397852,"keywords":["nocrits","nodmgspread","payload","uncletopia"],"game_id":440,"stv_port":27036,"stv_name":"Uncletopia | Warsaw | 3 | All Maps | STV","players":null},{"server_id":52,"name":"Uncletopia | Warsaw | 4 | All Maps","name_short":"waw-4","host":"waw-1.pl.uncletopia.com","port":27045,"enabled":true,"region":"eu","cc":"pl","latitude":52.2297,"longitude":21.017532,"reserved":0,"last_update":"0001-01-01T00:00:00Z","name_a2s":"Uncletopia | Warsaw | 4 | All Maps","protocol":17,"map":"cp_altitude","folder":"tf","game":"Team Fortress","app_id":440,"player_count":0,"max_players":24,"Bots":0,"server_type":"Dedicated","server_os":"Linux","password":true,"vac":true,"version":"7757534","steam_id":85568392925397853,"keywords":["cp","nocrits","nodmgspread","uncletopia"],"game_id":440,"stv_port":27046,"stv_name":"Uncletopia | Warsaw | 4 | All Maps | STV","players":null},{"server_id":53,"name":"Uncletopia | Warsaw | 5 | Stopwatch Beta","name_short":"waw-5","host":"waw-1.pl.uncletopia.com","port":27055,"enabled":true,"region":"eu","cc":"pl","latitude":52.2297,"longitude":21.017532,"reserved":0,"last_update":"0001-01-01T00:00:00Z","name_a2s":"Uncletopia | Warsaw | 5 | Stopwatch Beta","protocol":17,"map":"pl_pier","folder":"tf","game":"Team Fortress","app_id":440,"player_count":0,"max_players":24,"Bots":0,"server_type":"Dedicated","server_os":"Linux","password":true,"vac":true,"version":"7757534","steam_id":85568392925397854,"keywords":["nocrits","nodmgspread","payload","uncletopia"],"game_id":440,"stv_port":27056,"stv_name":"Uncletopia | Warsaw | 5 | Stopwatch Beta | STV","players":null},{"server_id":54,"name":"Uncletopia | Warsaw | 6 | Community","name_short":"waw-6","host":"waw-1.pl.uncletopia.com","port":27065,"enabled":true,"region":"eu","cc":"pl","latitude":52.2297,"longitude":21.017532,"reserved":0,"last_update":"0001-01-01T00:00:00Z","name_a2s":"Uncletopia | Warsaw | 6 | Community","protocol":17,"map":"koth_highpass","folder":"tf","game":"Team Fortress","app_id":440,"player_count":0,"max_players":24,"Bots":0,"server_type":"Dedicated","server_os":"Linux","password":true,"vac":true,"version":"7757534","steam_id":85568392925397856,"keywords":["cp","nocrits","nodmgspread","uncletopia"],"game_id":440,"stv_port":27066,"stv_name":"Uncletopia | Warsaw | 6 | Community | STV","players":null}]}