{"status":true,"message":"","result":[{"server_id":9,"name":"Uncletopia | Atlanta | 1 | All Maps","name_short":"atl-1","host":"atl-1.us.uncletopia.com","port":27015,"enabled":true,"region":"us-east","cc":"us","latitude":33.753746,"longitude":-84.38633,"reserved":0,"last_update":"0001-01-01T00:00:00Z","name_a2s":"Uncletopia | Atlanta | 1 | All Maps","protocol":17,"map":"cp_process_final","folder":"tf","game":"Team Fortress","app_id":440,"player_count":24,"max_players":24,"Bots":0,"server_type":"Dedicated","server_os":"Linux","password":true,"vac":true,"version":"7757534","steam_id":85568392924469982,"keywords":["cp","nocrits","nodmgspread","uncletopia"],"game_id":440,"stv_port":27016,"stv_name":"Uncletopia | Atlanta | 1 | All Maps | STV","players":[{"user_id":240,"name":"wire-guided","steam_id":76561198055407168,"connected_time":1495000000000,"state":"active","ping":60},{"user_id":252,"name":"lil hog","steam_id":76561199230929836,"connected_time":919000000000,"state":"active","ping":82},{"user_id":254,"name":"Drilly22","steam_id":76561198068838338,"connected_time":751000000000,"state":"active","ping":84},{"user_id":253,"name":"Xuey","steam_id":76561199120960187,"connected_time":835000000000,"state":"active","ping":78},{"user_id":225,"name":"Kiso 火","steam_id":76561198141026844,"connected_time":2392000000000,"state":"active","ping":120},{"user_id":217,"name":"vordhosbn","steam_id":76561198148132163,"connected_time":3173000000000,"state":"active","ping":81},{"user_id":250,"name":"Goofball","steam_id":76561198074189084,"connected_time":1117000000000,"state":"active","ping":59},{"user_id":144,"name":"im really bad sorry","steam_id":76561198277163301,"connected_time":5190000000000,"state":"active","ping":87},{"user_id":234,"name":"the-willy12","steam_id":76561199145029672,"connected_time":1578000000000,"state":"active","ping":89},{"user_id":242,"name":"Vladikr1","steam_id":76561198401495362,"connected_time":1431000000000,"state":"active","ping":79},{"user_id":251,"name":"we do a bit of trolling","steam_id":76561199239506330,"connected_time":1087000000000,"state":"active","ping":83},{"user_id":179,"name":"Raptortastic","steam_id":76561198105613110,"connected_time":4533000000000,"state":"active","ping":74},{"user_id":215,"name":".jpeg","steam_id":76561198799978339,"connected_time":3327000000000,"state":"active","ping":92},{"user_id":246,"name":"your local forecast","steam_id":76561198042243083,"connected_time":1285000000000,"state":"active","ping":45},{"user_id":232,"name":"Jin Gulilo","steam_id":76561198065151242,"connected_time":2085000000000,"state":"active","ping":77},{"user_id":249,"name":"butterbutt!","steam_id":76561198038160740,"connected_time":1241000000000,"state":"active","ping":48},{"user_id":244,"name":"Red","steam_id":76561198041784302,"connected_time":1367000000000,"state":"active","ping":87},{"user_id":219,"name":"Scelo","steam_id":76561197987805095,"connected_time":3046000000000,"state":"active","ping":103},{"user_id":256,"name":"puppy boy","steam_id":76561198255639473,"connected_time":569000000000,"state":"active","ping":73},{"user_id":235,"name":"V!CT!M","steam_id":76561198962721502,"connected_time":1578000000000,"state":"active","ping":91},{"user_id":255,"name":"Room_237","steam_id":76561199135081315,"connected_time":679000000000,"state":"active","ping":78},{"user_id":258,"name":"jumpoutthehousejumpouttheho","steam_id":76561198143132686,"connected_time":241000000000,"state":"active","ping":104},{"user_id":257,"name":"Higglestaff","steam_id":76561198043960257,"connected_time":478000000000,"state":"active","ping":84},{"user_id":245,"name":"crime commiter","steam_id":76561198066455591,"connected_time":1304000000000,"state":"active","ping":80}]},{"server_id":104,"name":"Uncletopia | Atlanta | 2 | All Maps","name_short":"atl-2","host":"atl-1.us.uncletopia.com","port":27025,"enabled":true,"region":"us-east","cc":"us","latitude":33.753746,"longitude":-84.38633,"reserved":0,"last_update":"0001-01-01T00:00:00Z","name_a2s":"Uncletopia | Atlanta | 2 | All Maps","protocol":17,"map":"koth_viaduct","folder":"tf","game":"Team Fortress","app_id":440,"player_count":24,"max_players":24,"Bots":0,"server_type":"Dedicated","server_os":"Linux","password":true,"vac":true,"version":"7757534","steam_id":85568392924469983,"keywords":["cp","nocrits","nodmgspread","uncletopia"],"game_id":440,"stv_port":27026,"stv_name":"Uncletopia | Atlanta | 2 | All Maps | STV","players":[{"user_id":362,"name":"omyy","steam_id":76561198334751997,"connected_time":1712000000000,"state":"active","ping":76},{"user_id":320,"name":"Yuri Tarded","steam_id":76561198034339940,"connected_time":4832000000000,"state":"active","ping":60},{"user_id":330,"name":"Schweppley","steam_id":76561198125036500,"connected_time":3520000000000,"state":"active","ping":61},{"user_id":364,"name":"Zwahe","steam_id":76561198119750206,"connected_time":1305000000000,"state":"active","ping":62},{"user_id":370,"name":"fuckterry","steam_id":76561198271957738,"connected_time":907000000000,"state":"active","ping":51},{"user_id":331,"name":"Peenie Genie","steam_id":76561198102234833,"connected_time":3510000000000,"state":"active","ping":158},{"user_id":375,"name":"BurnN8or101","steam_id":76561198132668224,"connected_time":423000000000,"state":"active","ping":75},{"user_id":376,"name":"creeeeeee","steam_id":76561198392539722,"connected_time":363000000000,"state":"active","ping":99},{"user_id":334,"name":"Something Generic","steam_id":76561198989826375,"connected_time":3374000000000,"state":"active","ping":92},{"user_id":297,"name":"the real babytron","steam_id":76561197989627918,"connected_time":6910000000000,"state":"active","ping":77},{"user_id":346,"name":"انتحر يا ابن المت","steam_id":76561198326987939,"connected_time":2650000000000,"state":"active","ping":72},{"user_id":377,"name":"batheman63","steam_id":76561198881818552,"connected_time":357000000000,"state":"active","ping":74},{"user_id":372,"name":"bopy","steam_id":76561198845789946,"connected_time":674000000000,"state":"active","ping":71},{"user_id":383,"name":"merickricketts713","steam_id":76561199477361857,"connected_time":26000000000,"state":"spawning","ping":61},{"user_id":361,"name":"Dr. Mathew","steam_id":76561199015513652,"connected_time":1811000000000,"state":"active","ping":93},{"user_id":380,"name":"Endoflobbywaittime","steam_id":76561199457528443,"connected_time":143000000000,"state":"active","ping":79},{"user_id":349,"name":"DragonHunter994","steam_id":76561199076203907,"connected_time":2470000000000,"state":"active","ping":86},{"user_id":374,"name":"craZend","steam_id":76561198848063795,"connected_time":486000000000,"state":"active","ping":88},{"user_id":365,"name":"Admiral Casual","steam_id":76561198150840826,"connected_time":1270000000000,"state":"active","ping":50},{"user_id":369,"name":"trobin120","steam_id":76561199122420273,"connected_time":970000000000,"state":"active","ping":62},{"user_id":381,"name":"Strangelove","steam_id":76561198353773611,"connected_time":87000000000,"state":"active","ping":100},{"user_id":353,"name":"Shame","steam_id":76561198100490994,"connected_time":2279000000000,"state":"active","ping":63},{"user_id":317,"name":"poop tbh","steam_id":76561198056186750,"connected_time":5234000000000,"state":"active","ping":72},{"user_id":318,"name":"Zel | Count Chocula's Toes","steam_id":76561198038249452,"connected_time":5225000000000,"state":"active","ping":73}]},{"server_id":400,"name":"Uncletopia | Atlanta | 3 | Community","name_short":"atl-3","host":"atl-1.us.uncletopia.com","port":27035,"enabled":true,"region":"us-east","cc":"us","latitude":33.753746,"longitude":-84.38633,"reserved":0,"last_update":"0001-01-01T00:00:00Z","name_a2s":"Uncletopia | Atlanta | 3 | Community","protocol":17,"map":"workshop/cp_croissant_final.ugc458840209","folder":"tf","game":"Team Fortress","app_id":440,"player_count":0,"max_players":24,"Bots":0,"server_type":"Dedicated","server_os":"Linux","password":true,"vac":true,"version":"7757534","steam_id":85568392924515187,"keywords":["cp","nocrits","nodmgspread","uncletopia"],"game_id":440,"stv_port":27036,"stv_name":"Uncletopia | Atlanta | 3 | Community | STV","players":null},{"server_id":401,"name":"Uncletopia | Atlanta | 4 | No Payload","name_short":"atl-4","host":"atl-1.us.uncletopia.com","port":27045,"enabled":true,"region":"us-east","cc":"us","latitude":33.753746,"longitude":-84.38633,"reserved":0,"last_update":"0001-01-01T00:00:00Z","name_a2s":"","protocol":0,"map":"","folder":"","game":"","app_id":0,"player_count":0,"max_players":0,"Bots":0,"server_type":"","server_os":"","password":false,"vac":false,"version":"","steam_id":0,"keywords":null,"game_id":0,"stv_port":0,"stv_name":"","players":null},{"server_id":2,"name":"Uncletopia | Chicago | 1 | All Maps","name_short":"chi-1","host":"chi-1.us.uncletopia.com","port":27015,"enabled":true,"region":"us-central","cc":"us","latitude":41.881832,"longitude":-87.62318,"reserved":0,"last_update":"0001-01-01T00:00:00Z","name_a2s":"Uncletopia | Chicago | 1 | All Maps","protocol":17,"map":"pl_snowycoast","folder":"tf","game":"Team Fortress","app_id":440,"player_count":24,"max_players":24,"Bots":0,"server_type":"Dedicated","server_os":"Linux","password":true,"vac":true,"version":"7757534","steam_id":85568392924469984,"keywords":["nocrits","nodmgspread","payload","uncletopia"],"game_id":440,"stv_port":27016,"stv_name":"Uncletopia | Chicago | 1 | All Maps | STV","players":[{"user_id":571,"name":"Big Phony","steam_id":76561199092395311,"connected_time":1302000000000,"state":"active","ping":60},{"user_id":584,"name":"Dade Murphy","steam_id":76561198245103000,"connected_time":240000000000,"state":"active","ping":67},{"user_id":577,"name":"Jnlaw","steam_id":76561198009307069,"connected_time":1154000000000,"state":"active","ping":78},{"user_id":583,"name":"Coinless","steam_id":76561199207586390,"connected_time":312000000000,"state":"active","ping":48},{"user_id":567,"name":"-W3E- grim10465","steam_id":76561198045698581,"connected_time":1411000000000,"state":"active","ping":45},{"user_id":514,"name":"[يهودي] Bill Clinton [אל","steam_id":76561198163291190,"connected_time":4916000000000,"state":"active","ping":84},{"user_id":560,"name":"Importality","steam_id":76561198049943127,"connected_time":1838000000000,"state":"active","ping":81},{"user_id":575,"name":"Heavy thinks everyone is Medic","steam_id":76561199111430580,"connected_time":1208000000000,"state":"active","ping":74},{"user_id":556,"name":"DiscoTraveler","steam_id":76561199240168088,"connected_time":2439000000000,"state":"active","ping":61},{"user_id":570,"name":"Vacc Onetrick","steam_id":76561198207987376,"connected_time":1328000000000,"state":"active","ping":65},{"user_id":521,"name":"UNIT 220","steam_id":76561198042243497,"connected_time":4711000000000,"state":"active","ping":65},{"user_id":538,"name":"Goober","steam_id":76561198988863807,"connected_time":3333000000000,"state":"active","ping":77},{"user_id":572,"name":"Lia_Rein","steam_id":76561198151569597,"connected_time":1258000000000,"state":"active","ping":141},{"user_id":578,"name":"GooniOoni","steam_id":76561198102154561,"connected_time":910000000000,"state":"active","ping":48},{"user_id":522,"name":"Crunchy","steam_id":76561199065412274,"connected_time":4701000000000,"state":"active","ping":73},{"user_id":585,"name":"Mads Mikkelsen","steam_id":76561198083482001,"connected_time":10000000000,"state":"active","ping":169},{"user_id":536,"name":"Jarvis from Avengers","steam_id":76561198164035863,"connected_time":3493000000000,"state":"active","ping":57},{"user_id":582,"name":"Soil","steam_id":76561198943879122,"connected_time":383000000000,"state":"active","ping":60},{"user_id":553,"name":"Mr. Dry Lips","steam_id":76561198028157625,"connected_time":2493000000000,"state":"active","ping":84},{"user_id":535,"name":"[UHS] K24A4 2.4","steam_id":76561199072970627,"connected_time":3690000000000,"state":"active","ping":45},{"user_id":537,"name":"George","steam_id":76561198020046873,"connected_time":3411000000000,"state":"active","ping":63},{"user_id":543,"name":"Mandorin Moranges","steam_id":76561198277645423,"connected_time":3268000000000,"state":"active","ping":53},{"user_id":564,"name":"Hylic","steam_id":76561199051314589,"connected_time":1428000000000,"state":"active","ping":80},{"user_id":565,"name":"noose","steam_id":76561199177327629,"connected_time":1423000000000,"state":"active","ping":168}]},{"server_id":106,"name":"Uncletopia | Chicago | 2 | All Maps","name_short":"chi-2","host":"chi-1.us.uncletopia.com","port":27025,"enabled":true,"region":"us-central","cc":"us","latitude":41.881832,"longitude":-87.62318,"reserved":0,"last_update":"0001-01-01T00:00:00Z","name_a2s":"Uncletopia | Chicago | 2 | All Maps","protocol":17,"map":"pl_frontier_final","folder":"tf","game":"Team Fortress","app_id":440,"player_count":24,"max_players":24,"Bots":0,"server_type":"Dedicated","server_os":"Linux","password":true,"vac":true,"version":"7757534","steam_id":85568392924469985,"keywords":["nocrits","nodmgspread","payload","uncletopia"],"game_id":440,"stv_port":27026,"stv_name":"Uncletopia | Chicago | 2 | All Maps | STV","players":[{"user_id":18,"name":"Habba","steam_id":76561197986096340,"connected_time":1675000000000,"state":"active","ping":69},{"user_id":19,"name":"TrenchcoatCraig","steam_id":76561198295599533,"connected_time":1640000000000,"state":"active","ping":50},{"user_id":20,"name":"▲▼▲ Paul Atreideeznuts","steam_id":76561198015714075,"connected_time":1358000000000,"state":"active","ping":79},{"user_id":21,"name":"Bomby","steam_id":76561198096572920,"connected_time":1316000000000,"state":"active","ping":73},{"user_id":25,"name":"SuperFresh","steam_id":76561198200723198,"connected_time":851000000000,"state":"active","ping":39},{"user_id":23,"name":"Snowberry Kush","steam_id":76561198392280580,"connected_time":1205000000000,"state":"active","ping":72},{"user_id":24,"name":"MILK","steam_id":76561198253574099,"connected_time":1011000000000,"state":"active","ping":55},{"user_id":44,"name":"big ol' buford","steam_id":76561198290675957,"connected_time":161000000000,"state":"active","ping":73},{"user_id":27,"name":"Mr.Mrausky","steam_id":76561199120622265,"connected_time":772000000000,"state":"active","ping":77},{"user_id":28,"name":"Zigadox","steam_id":76561198079813479,"connected_time":719000000000,"state":"active","ping":85},{"user_id":29,"name":"who is sandy loam???","steam_id":76561198033073709,"connected_time":692000000000,"state":"active","ping":65},{"user_id":30,"name":"12 INCH TGIRL SCHLONG","steam_id":76561198122059018,"connected_time":665000000000,"state":"active","ping":68},{"user_id":31,"name":"HighJingo","steam_id":76561198846814390,"connected_time":633000000000,"state":"active","ping":62},{"user_id":32,"name":"CORONA™ and friends","steam_id":76561198342011115,"connected_time":631000000000,"state":"active","ping":61},{"user_id":33,"name":"petrifying ★","steam_id":76561198841016072,"connected_time":623000000000,"state":"active","ping":104},{"user_id":34,"name":"wolfninja","steam_id":76561199218099629,"connected_time":613000000000,"state":"active","ping":68},{"user_id":35,"name":"wahooka","steam_id":76561197981211922,"connected_time":585000000000,"state":"active","ping":72},{"user_id":36,"name":"Couriadore","steam_id":76561198055814008,"connected_time":571000000000,"state":"active","ping":57},{"user_id":43,"name":"Salad gaming (real)","steam_id":76561198298310744,"connected_time":336000000000,"state":"active","ping":77},{"user_id":38,"name":"jackhillard83","steam_id":76561199057098390,"connected_time":524000000000,"state":"active","ping":89},{"user_id":39,"name":"Frodo T Baggins","steam_id":76561198048090297,"connected_time":489000000000,"state":"active","ping":55},{"user_id":40,"name":"fresh dorf","steam_id":76561198044265737,"connected_time":476000000000,"state":"active","ping":43},{"user_id":41,"name":"Florist","steam_id":76561198009121060,"connected_time":385000000000,"state":"active","ping":97},{"user_id":42,"name":"sagekiss","steam_id":76561198038831240,"connected_time":356000000000,"state":"active","ping":100}]},{"server_id":402,"name":"Uncletopia | Chicago | 3 | All Maps","name_short":"chi-3","host":"chi-1.us.uncletopia.com","port":27035,"enabled":true,"region":"us-central","cc":"us","latitude":41.881832,"longitude":-87.62318,"reserved":0,"last_update":"0001-01-01T00:00:00Z","name_a2s":"Uncletopia | Chicago | 3 | All Maps","protocol":17,"map":"pl_barnblitz","folder":"tf","game":"Team Fortress","app_id":440,"player_count":21,"max_players":24,"Bots":0,"server_type":"Dedicated","server_os":"Linux","password":true,"vac":true,"version":"7757534","steam_id":85568392924515191,"keywords":["nocrits","nodmgspread","payload","uncletopia"],"game_id":440,"stv_port":27036,"stv_name":"Uncletopia | Chicago | 3 | All Maps | STV","players":[{"user_id":410,"name":"Poyo Boyo","steam_id":76561198010201227,"connected_time":886000000000,"state":"active","ping":73},{"user_id":405,"name":"what","steam_id":76561198082336619,"connected_time":1481000000000,"state":"active","ping":71},{"user_id":400,"name":"Fobby #Savetf2","steam_id":76561198047681469,"connected_time":1586000000000,"state":"active","ping":74},{"user_id":417,"name":"Vensita","steam_id":76561198372434928,"connected_time":289000000000,"state":"active","ping":58},{"user_id":401,"name":"Oni","steam_id":76561198112066584,"connected_time":1584000000000,"state":"active","ping":63},{"user_id":303,"name":"LerN","steam_id":76561198083463877,"connected_time":8141000000000,"state":"active","ping":46},{"user_id":373,"name":"melon cakes","steam_id":76561198025466913,"connected_time":3505000000000,"state":"active","ping":89},{"user_id":396,"name":"beta central","steam_id":76561198301876831,"connected_time":2189000000000,"state":"active","ping":58},{"user_id":319,"name":"Vial of Throbb","steam_id":76561198348095996,"connected_time":7325000000000,"state":"active","ping":45},{"user_id":368,"name":"Anomet","steam_id":76561198060246255,"connected_time":4030000000000,"state":"active","ping":60},{"user_id":385,"name":"British Zoner","steam_id":76561198977330214,"connected_time":2924000000000,"state":"active","ping":91},{"user_id":407,"name":"Critscare","steam_id":76561198087712508,"connected_time":1377000000000,"state":"active","ping":62},{"user_id":412,"name":"Master Breather","steam_id":76561198077030391,"connected_time":724000000000,"state":"active","ping":96},{"user_id":418,"name":"nay ners","steam_id":76561199238480644,"connected_time":162000000000,"state":"active","ping":71},{"user_id":392,"name":"Snorty","steam_id":76561198114304454,"connected_time":2596000000000,"state":"active","ping":78},{"user_id":415,"name":"the pyro main ever (F2P)","steam_id":76561199088545300,"connected_time":587000000000,"state":"active","ping":59},{"user_id":409,"name":"MjrMovnTARGET","steam_id":76561199125908849,"connected_time":1221000000000,"state":"active","ping":71},{"user_id":351,"name":"BluCoffee","steam_id":76561198214995967,"connected_time":5343000000000,"state":"active","ping":53},{"user_id":352,"name":"Cheesemelt","steam_id":76561198008221847,"connected_time":5281000000000,"state":"active","ping":393},{"user_id":413,"name":"The Dokkan Dance","steam_id":76561198855935442,"connected_time":678000000000,"state":"active","ping":75},{"user_id":398,"name":"Wrauqe","steam_id":76561198303160647,"connected_time":1776000000000,"state":"active","ping":67}]},{"server_id":403,"name":"Uncletopia | Chicago | 4 | All Maps","name_short":"chi-4","host":"chi-1.us.uncletopia.com","port":27045,"enabled":true,"region":"us-central","cc":"us","latitude":41.881832,"longitude":-87.62318,"reserved":0,"last_update":"0001-01-01T00:00:00Z","name_a2s":"Uncletopia | Chicago | 4 | All Maps","protocol":17,"map":"cp_altitude","folder":"tf","game":"Team Fortress","app_id":440,"player_count":0,"max_players":24,"Bots":0,"server_type":"Dedicated","server_os":"Linux","password":true,"vac":true,"version":"7757534","steam_id":85568392924515193,"keywords":["cp","nocrits","nodmgspread","uncletopia"],"game_id":440,"stv_port":27046,"stv_name":"Uncletopia | Chicago | 4 | All Maps | STV","players":null},{"server_id":36,"name":"Uncletopia | Chicago | 5 | All Maps","name_short":"chi-5","host":"chi-2.us.uncletopia.com","port":27015,"enabled":true,"region":"us-central","cc":"us","latitude":41.881832,"longitude":-87.62318,"reserved":0,"last_update":"0001-01-01T00:00:00Z","name_a2s":"Uncletopia | Chicago | 5 | All Maps","protocol":17,"map":"cp_powerhouse","folder":"tf","game":"Team Fortress","app_id":440,"player_count":24,"max_players":24,"Bots":0,"server_type":"Dedicated","server_os":"Linux","password":true,"vac":true,"version":"7757534","steam_id":85568392924866362,"keywords":["cp","nocrits","nodmgspread","uncletopia"],"game_id":440,"stv_port":27016,"stv_name":"Uncletopia | Chicago | 5 | All Maps | STV","players":[{"user_id":238,"name":"Walter White","steam_id":76561198875469297,"connected_time":645000000000,"state":"active","ping":55},{"user_id":224,"name":"Quansen","steam_id":76561198151594550,"connected_time":1418000000000,"state":"active","ping":46},{"user_id":242,"name":"quacked!","steam_id":76561198970819395,"connected_time":44000000000,"state":"active","ping":81},{"user_id":225,"name":"Fake21","steam_id":76561198282065071,"connected_time":1351000000000,"state":"active","ping":70},{"user_id":201,"name":"a mass hallucination","steam_id":76561198259092181,"connected_time":2505000000000,"state":"active","ping":64},{"user_id":233,"name":"an inebriated newt fancier","steam_id":76561197985428155,"connected_time":899000000000,"state":"active","ping":56},{"user_id":198,"name":"PersonWhoJustDiedMaybeIDontKnow","steam_id":76561199109564855,"connected_time":2649000000000,"state":"active","ping":90},{"user_id":218,"name":"engie","steam_id":76561199229629045,"connected_time":1930000000000,"state":"active","ping":112},{"user_id":219,"name":"squiddy odd","steam_id":76561198849240604,"connected_time":1914000000000,"state":"active","ping":73},{"user_id":229,"name":"Gomba","steam_id":76561198186115035,"connected_time":1164000000000,"state":"active","ping":55},{"user_id":216,"name":"prson404","steam_id":76561199094698591,"connected_time":2154000000000,"state":"active","ping":83},{"user_id":200,"name":"craxyt","steam_id":76561198050192689,"connected_time":2536000000000,"state":"active","ping":102},{"user_id":222,"name":"dreadout5","steam_id":76561198090331903,"connected_time":1582000000000,"state":"active","ping":83},{"user_id":228,"name":"creepycrawler","steam_id":76561198352016831,"connected_time":1177000000000,"state":"active","ping":60},{"user_id":244,"name":"OpenDown","steam_id":76561198064132688,"connected_time":7000000000,"state":"spawning","ping":58},{"user_id":208,"name":"Cousin Corn on the Cob","steam_id":76561198049837377,"connected_time":2292000000000,"state":"active","ping":46},{"user_id":230,"name":"Zenabie","steam_id":76561198088372680,"connected_time":937000000000,"state":"active","ping":84},{"user_id":209,"name":"BasicPeaches","steam_id":76561198190890150,"connected_time":2279000000000,"state":"active","ping":84},{"user_id":243,"name":"just benis","steam_id":76561198067019278,"connected_time":21000000000,"state":"active","ping":47},{"user_id":227,"name":"Reno Gato","steam_id":76561198048417246,"connected_time":1308000000000,"state":"active","ping":94},{"user_id":240,"name":"dakota__","steam_id":76561198076596506,"connected_time":178000000000,"state":"active","ping":63},{"user_id":241,"name":"TheTinyNickel","steam_id":76561199125181471,"connected_time":178000000000,"state":"active","ping":81},{"user_id":237,"name":"wet willy? soggy samuel.","steam_id":76561198190323610,"connected_time":690000000000,"state":"active","ping":88},{"user_id":195,"name":"Zaya7709","steam_id":76561199274247868,"connected_time":3023000000000,"state":"active","ping":98}]},{"server_id":37,"name":"Uncletopia | Chicago | 6 | All Maps","name_short":"chi-6","host":"chi-2.us.uncletopia.com","port":27025,"enabled":true,"region":"us-central","cc":"us","latitude":41.881832,"longitude":-87.62318,"reserved":0,"last_update":"0001-01-01T00:00:00Z","name_a2s":"Uncletopia | Chicago | 6 | All Maps","protocol":17,"map":"cp_mountainlab","folder":"tf","game":"Team Fortress","app_id":440,"player_count":24,"max_players":24,"Bots":0,"server_type":"Dedicated","server_os":"Linux","password":true,"vac":true,"version":"7757534","steam_id":85568392924866363,"keywords":["cp","nocrits","nodmgspread","uncletopia"],"game_id":440,"stv_port":27026,"stv_name":"Uncletopia | Chicago | 6 | All Maps | STV","players":[{"user_id":95,"name":"r0zemary","steam_id":76561198128494897,"connected_time":5122000000000,"state":"active","ping":81},{"user_id":169,"name":"Rornir","steam_id":76561198081829615,"connected_time":17000000000,"state":"active","ping":39},{"user_id":160,"name":"Riddle","steam_id":76561198892207399,"connected_time":472000000000,"state":"active","ping":61},{"user_id":146,"name":"TaBunnie","steam_id":76561198197894178,"connected_time":1178000000000,"state":"active","ping":70},{"user_id":164,"name":"jazaniac","steam_id":76561198059955588,"connected_time":284000000000,"state":"active","ping":83},{"user_id":163,"name":"jeremimi","steam_id":76561198818225102,"connected_time":357000000000,"state":"active","ping":125},{"user_id":159,"name":"Doomagedden","steam_id":76561198272589475,"connected_time":482000000000,"state":"active","ping":82},{"user_id":148,"name":"dreamybullxxx","steam_id":76561198415697906,"connected_time":1166000000000,"state":"active","ping":72},{"user_id":149,"name":"the grungler!","steam_id":76561198058485742,"connected_time":1163000000000,"state":"active","ping":67},{"user_id":137,"name":"Bad Rollout","steam_id":76561197971948876,"connected_time":2144000000000,"state":"active","ping":73},{"user_id":161,"name":"SAMA","steam_id":76561198034182953,"connected_time":456000000000,"state":"active","ping":84},{"user_id":155,"name":"Frimpimy","steam_id":76561198142605675,"connected_time":994000000000,"state":"active","ping":60},{"user_id":162,"name":"Prison Sal","steam_id":76561198355553673,"connected_time":448000000000,"state":"active","ping":59},{"user_id":152,"name":"4thCoptic","steam_id":76561198136922231,"connected_time":1103000000000,"state":"active","ping":176},{"user_id":165,"name":"Facetiouss","steam_id":76561198057318934,"connected_time":283000000000,"state":"active","ping":47},{"user_id":166,"name":"superkahles","steam_id":76561198844096180,"connected_time":249000000000,"state":"active","ping":72},{"user_id":167,"name":"ToastyLime_","steam_id":76561198037170179,"connected_time":190000000000,"state":"active","ping":129},{"user_id":65,"name":"thatguy_luigi","steam_id":76561198968055462,"connected_time":7284000000000,"state":"active","ping":75},{"user_id":139,"name":"ZofoJackson","steam_id":76561197998366861,"connected_time":1728000000000,"state":"active","ping":56},{"user_id":136,"name":"Enron Hubbard","steam_id":76561198012951411,"connected_time":2274000000000,"state":"active","ping":56},{"user_id":154,"name":"AirborneShark","steam_id":76561199182456397,"connected_time":1043000000000,"state":"active","ping":93},{"user_id":113,"name":"Q","steam_id":76561198097979648,"connected_time":4071000000000,"state":"active","ping":70},{"user_id":168,"name":"Idiot Prince (They/Them)","steam_id":76561198048205270,"connected_time":182000000000,"state":"active","ping":93},{"user_id":132,"name":"Junko","steam_id":76561198146089003,"connected_time":2532000000000,"state":"active","ping":49}]},{"server_id":38,"name":"Uncletopia | Chicago | 7 | Stopwatch Beta","name_short":"chi-7","host":"chi-2.us.uncletopia.com","port":27035,"enabled":true,"region":"us-central","cc":"us","latitude":41.881832,"longitude":-87.62318,"reserved":0,"last_update":"0001-01-01T00:00:00Z","name_a2s":"Uncletopia | Chicago | 7 | Stopwatch Beta","protocol":17,"map":"pl_barnblitz","folder":"tf","game":"Team Fortress","app_id":440,"player_count":0,"max_players":24,"Bots":0,"server_type":"Dedicated","server_os":"Linux","password":true,"vac":true,"version":"7757534","steam_id":85568392924866364,"keywords":["nocrits","nodmgspread","payload","uncletopia"],"game_id":440,"stv_port":27036,"stv_name":"Uncletopia | Chicago | 7 | Stopwatch Beta | STV","players":null},{"server_id":39,"name":"Uncletopia | Chicago | 8 | Community","name_short":"chi-8","host":"chi-2.us.uncletopia.com","port":27045,"enabled":true,"region":"us-central","cc":"us","latitude":41.881832,"longitude":-87.62318,"reserved":0,"last_update":"0001-01-01T00:00:00Z","name_a2s":"Uncletopia | Chicago | 8 | Community","protocol":17,"map":"workshop/cp_propaganda_b18.ugc1603743849","folder":"tf","game":"Team Fortress","app_id":440,"player_count":0,"max_players":24,"Bots":0,"server_type":"Dedicated","server_os":"Linux","password":true,"vac":true,"version":"7757534","steam_id":85568392924866365,"keywords":["cp","nocrits","nodmgspread","uncletopia"],"game_id":440,"stv_port":27046,"stv_name":"Uncletopia | Chicago | 8 | Community | STV","players":null},{"server_id":8,"name":"Uncletopia | Dallas | 1 | All Maps","name_short":"dal-1","host":"dal-1.us.uncletopia.com","port":27015,"enabled":true,"region":"us-central","cc":"us","latitude":32.779167,"longitude":-96.80889,"reserved":0,"last_update":"0001-01-01T00:00:00Z","name_a2s":"Uncletopia | Dallas | 1 | All Maps","protocol":17,"map":"pl_swiftwater_final1","folder":"tf","game":"Team Fortress","app_id":440,"player_count":20,"max_players":24,"Bots":0,"server_type":"Dedicated","server_os":"Linux","password":true,"vac":true,"version":"7757534","steam_id":85568392924469986,"keywords":["nocrits","nodmgspread","payload","uncletopia"],"game_id":440,"stv_port":27016,"stv_name":"Uncletopia | Dallas | 1 | All Maps | STV","players":[{"user_id":28,"name":"Snoopy","steam_id":76561198273735974,"connected_time":6676000000000,"state":"spawning","ping":78},{"user_id":130,"name":"Ape","steam_id":76561198132535311,"connected_time":305000000000,"state":"active","ping":103},{"user_id":131,"name":"tarbops","steam_id":76561198442050962,"connected_time":100000000000,"state":"active","ping":58},{"user_id":112,"name":"titan","steam_id":76561198197388678,"connected_time":2226000000000,"state":"active","ping":62},{"user_id":103,"name":"sweppy","steam_id":76561198035457667,"connected_time":2964000000000,"state":"active","ping":61},{"user_id":114,"name":"The Worst Player in The World","steam_id":76561198850661159,"connected_time":2130000000000,"state":"active","ping":78},{"user_id":115,"name":"shadow elite","steam_id":76561198165212575,"connected_time":2122000000000,"state":"active","ping":84},{"user_id":134,"name":"Rat_king","steam_id":76561199465689129,"connected_time":44000000000,"state":"active","ping":48},{"user_id":129,"name":"captjosh22","steam_id":76561199092650499,"connected_time":473000000000,"state":"active","ping":74},{"user_id":122,"name":"God's not dead, I am.","steam_id":76561198840484105,"connected_time":1627000000000,"state":"active","ping":66},{"user_id":132,"name":"AlexLovesYou","steam_id":76561199163263543,"connected_time":57000000000,"state":"active","ping":99},{"user_id":116,"name":"RipHunter77","steam_id":76561198272973014,"connected_time":2092000000000,"state":"active","ping":78},{"user_id":124,"name":"StatesideSnake","steam_id":76561198272957048,"connected_time":1494000000000,"state":"active","ping":58},{"user_id":100,"name":"snak","steam_id":76561199131462397,"connected_time":3359000000000,"state":"active","ping":96},{"user_id":73,"name":"Sup m8","steam_id":76561198081659121,"connected_time":4831000000000,"state":"active","ping":32},{"user_id":121,"name":"the lazy gamer","steam_id":76561199070127039,"connected_time":1675000000000,"state":"active","ping":115},{"user_id":39,"name":"HeisenBurger","steam_id":76561198040632080,"connected_time":6260000000000,"state":"active","ping":70},{"user_id":126,"name":"whip bone grew shrooms","steam_id":76561198338482937,"connected_time":1023000000000,"state":"active","ping":77},{"user_id":127,"name":"Ojen","steam_id":76561197998414482,"connected_time":503000000000,"state":"active","ping":83},{"user_id":128,"name":"SlumberBelch","steam_id":76561198272685546,"connected_time":497000000000,"state":"active","ping":92}]},{"server_id":108,"name":"Uncletopia | Dallas | 2 | All Maps","name_short":"dal-2","host":"dal-1.us.uncletopia.com","port":27025,"enabled":true,"region":"us-central","cc":"us","latitude":32.779167,"longitude":-96.80889,"reserved":0,"last_update":"0001-01-01T00:00:00Z","name_a2s":"Uncletopia | Dallas | 2 | All Maps","protocol":17,"map":"cp_mountainlab","folder":"tf","game":"Team Fortress","app_id":440,"player_count":24,"max_players":24,"Bots":0,"server_type":"Dedicated","server_os":"Linux","password":true,"vac":true,"version":"7757534","steam_id":85568392924469988,"keywords":["cp","nocrits","nodmgspread","uncletopia"],"game_id":440,"stv_port":27026,"stv_name":"Uncletopia | Dallas | 2 | All Maps | STV","players":[{"user_id":523,"name":"Commissar","steam_id":76561198137223253,"connected_time":311000000000,"state":"active","ping":50},{"user_id":524,"name":"bottom pride burger","steam_id":76561198322247602,"connected_time":251000000000,"state":"active","ping":88},{"user_id":477,"name":"Joshua Graham","steam_id":76561198117986799,"connected_time":2135000000000,"state":"active","ping":78},{"user_id":473,"name":"Shattered Glass","steam_id":76561198116835391,"connected_time":2271000000000,"state":"active","ping":93},{"user_id":518,"name":"gtn","steam_id":76561198033033884,"connected_time":473000000000,"state":"active","ping":91},{"user_id":519,"name":"Masked","steam_id":76561198093697845,"connected_time":444000000000,"state":"active","ping":59},{"user_id":491,"name":"morrigan","steam_id":76561198071759447,"connected_time":1821000000000,"state":"active","ping":97},{"user_id":515,"name":"Sentient Sandvich","steam_id":76561197995714103,"connected_time":683000000000,"state":"active","ping":134},{"user_id":492,"name":"Gwando","steam_id":76561198294629124,"connected_time":1690000000000,"state":"active","ping":44},{"user_id":520,"name":"Great Value Gaming","steam_id":76561198408448003,"connected_time":438000000000,"state":"active","ping":52},{"user_id":502,"name":"MrChaosOK","steam_id":76561197976353083,"connected_time":1298000000000,"state":"active","ping":103},{"user_id":484,"name":"HRT","steam_id":76561198013781132,"connected_time":1936000000000,"state":"active","ping":93},{"user_id":500,"name":"The Big Iron","steam_id":76561198117276391,"connected_time":1377000000000,"state":"active","ping":55},{"user_id":489,"name":"kmochi","steam_id":76561198023391988,"connected_time":1881000000000,"state":"active","ping":75},{"user_id":498,"name":"Sea raider","steam_id":76561198123982355,"connected_time":1451000000000,"state":"active","ping":83},{"user_id":525,"name":"Hattara","steam_id":76561198268710858,"connected_time":102000000000,"state":"active","ping":64},{"user_id":508,"name":"Dell Conagher (real)","steam_id":76561198220120368,"connected_time":1101000000000,"state":"active","ping":45},{"user_id":510,"name":"jubjub","steam_id":76561197996052825,"connected_time":1081000000000,"state":"active","ping":84},{"user_id":526,"name":"Saikyo","steam_id":76561198212461467,"connected_time":32000000000,"state":"active","ping":49},{"user_id":466,"name":"clenZORZ","steam_id":76561198835570628,"connected_time":2951000000000,"state":"active","ping":53},{"user_id":514,"name":"Sergeant fat ass","steam_id":76561198065744407,"connected_time":748000000000,"state":"active","ping":74},{"user_id":522,"name":"Cofi","steam_id":76561199026721822,"connected_time":408000000000,"state":"active","ping":88},{"user_id":490,"name":"Nug Nug","steam_id":76561198066161547,"connected_time":1838000000000,"state":"active","ping":98}]},{"server_id":5,"name":"Uncletopia | Frankfurt | 1 | All Maps","name_short":"frk-1","host":"frk-1.de.uncletopia.com","port":27015,"enabled":true,"region":"eu","cc":"de","latitude":50.110924,"longitude":8.682127,"reserved":0,"last_update":"0001-01-01T00:00:00Z","name_a2s":"Uncletopia | Frankfurt | 1 | All Maps","protocol":17,"map":"cp_process_final","folder":"tf","game":"Team Fortress","app_id":440,"player_count":0,"max_players":24,"Bots":0,"server_type":"Dedicated","server_os":"Linux","password":true,"vac":true,"version":"7757534","steam_id":85568392924469989,"keywords":["cp","nocrits","nodmgspread","uncletopia"],"game_id":440,"stv_port":27016,"stv_name":"Uncletopia | Frankfurt | 1 | All Maps | STV","players":null},{"server_id":110,"name":"Uncletopia | Frankfurt | 2 | All Maps","name_short":"frk-2","host":"frk-1.de.uncletopia.com","port":27025,"enabled":true,"region":"eu","cc":"de","latitude":50.110924,"longitude":8.682127,"reserved":0,"last_update":"0001-01-01T00:00:00Z","name_a2s":"Uncletopia | Frankfurt | 2 | All Maps","protocol":17,"map":"pl_barnblitz","folder":"tf","game":"Team Fortress","app_id":440,"player_count":0,"max_players":24,"Bots":0,"server_type":"Dedicated","server_os":"Linux","password":true,"vac":true,"version":"7757534","steam_id":85568392924469990,"keywords":["nocrits","nodmgspread","payload","uncletopia"],"game_id":440,"stv_port":27026,"stv_name":"Uncletopia | Frankfurt | 2 | All Maps | STV","players":null},{"server_id":308,"name":"Uncletopia | Frankfurt | 3 | All Maps","name_short":"frk-3","host":"frk-1.de.uncletopia.com","port":27035,"enabled":true,"region":"eu","cc":"de","latitude":50.110924,"longitude":8.682127,"reserved":0,"last_update":"0001-01-01T00:00:00Z","name_a2s":"Uncletopia | Frankfurt | 3 | All Maps","protocol":17,"map":"pl_thundermountain","folder":"tf","game":"Team Fortress","app_id":440,"player_count":24,"max_players":24,"Bots":0,"server_type":"Dedicated","server_os":"Linux","password":true,"vac":true,"version":"7757534","steam_id":85568392924504274,"keywords":["nocrits","nodmgspread","payload","uncletopia"],"game_id":440,"stv_port":27036,"stv_name":"Uncletopia | Frankfurt | 3 | All Maps | STV","players":[{"user_id":736,"name":"XavierSweet","steam_id":76561198091781913,"connected_time":1353000000000,"state":"active","ping":70},{"user_id":725,"name":"pakin157","steam_id":76561198035125667,"connected_time":1813000000000,"state":"active","ping":80},{"user_id":762,"name":"Instituto Nacional de Empleo","steam_id":76561198317014067,"connected_time":366000000000,"state":"active","ping":74},{"user_id":761,"name":"T1mmy","steam_id":76561198133288715,"connected_time":491000000000,"state":"active","ping":75},{"user_id":745,"name":"sloppy transgirl toppy","steam_id":76561198057092208,"connected_time":891000000000,"state":"active","ping":61},{"user_id":753,"name":"Definitely J.P. Morgan","steam_id":76561199122376235,"connected_time":600000000000,"state":"active","ping":178},{"user_id":754,"name":"Wyodu","steam_id":76561198406237593,"connected_time":586000000000,"state":"active","ping":63},{"user_id":755,"name":"Aragami󠁳⁧⁧ 󠁳_delp_","steam_id":76561198017679141,"connected_time":583000000000,"state":"active","ping":46},{"user_id":709,"name":"Luuk","steam_id":76561198088266026,"connected_time":2195000000000,"state":"active","ping":55},{"user_id":756,"name":"ChPerette","steam_id":76561198060004887,"connected_time":582000000000,"state":"active","ping":45},{"user_id":690,"name":"Charles Darwin","steam_id":76561197973496139,"connected_time":4367000000000,"state":"active","ping":56},{"user_id":715,"name":"DocTwoEight","steam_id":76561198153488940,"connected_time":2068000000000,"state":"active","ping":75},{"user_id":757,"name":"Hildreth","steam_id":76561197995254867,"connected_time":553000000000,"state":"active","ping":59},{"user_id":758,"name":"yaldabaoth","steam_id":76561198084606869,"connected_time":550000000000,"state":"active","ping":150},{"user_id":763,"name":"Pepe El grillao","steam_id":76561198177855119,"connected_time":361000000000,"state":"active","ping":87},{"user_id":713,"name":"EagleFire","steam_id":76561198352938403,"connected_time":2092000000000,"state":"active","ping":64},{"user_id":759,"name":"subway vergil","steam_id":76561199110064166,"connected_time":540000000000,"state":"active","ping":80},{"user_id":750,"name":"hud_saytext_time 0","steam_id":76561198010327228,"connected_time":677000000000,"state":"active","ping":60},{"user_id":724,"name":"X45Y","steam_id":76561198112534025,"connected_time":1892000000000,"state":"active","ping":45},{"user_id":723,"name":"DarthMurloc_OW","steam_id":76561198075577711,"connected_time":1942000000000,"state":"active","ping":74},{"user_id":727,"name":"Charrky","steam_id":76561198054398642,"connected_time":1789000000000,"state":"active","ping":59},{"user_id":760,"name":"SomeGamer","steam_id":76561199046743995,"connected_time":497000000000,"state":"active","ping":166},{"user_id":732,"name":"leeloo","steam_id":76561199256962353,"connected_time":1615000000000,"state":"active","ping":64},{"user_id":702,"name":"Phalcon","steam_id":76561197987051394,"connected_time":2514000000000,"state":"active","ping":89}]},{"server_id":309,"name":"Uncletopia | Frankfurt | 4 | All Maps","name_short":"frk-4","host":"frk-1.de.uncletopia.com","port":27045,"enabled":true,"region":"eu","cc":"de","latitude":50.110924,"longitude":8.682127,"reserved":0,"last_update":"0001-01-01T00:00:00Z","name_a2s":"Uncletopia | Frankfurt | 4 | All Maps","protocol":17,"map":"koth_cascade","folder":"tf","game":"Team Fortress","app_id":440,"player_count":0,"max_players":24,"Bots":0,"server_type":"Dedicated","server_os":"Linux","password":true,"vac":true,"version":"7757534","steam_id":85568392924504275,"keywords":["cp","nocrits","nodmgspread","uncletopia"],"game_id":440,"stv_port":27046,"stv_name":"Uncletopia | Frankfurt | 4 | All Maps | STV","players":null},{"server_id":310,"name":"Uncletopia | Frankfurt | 5 | All Maps","name_short":"frk-5","host":"frk-1.de.uncletopia.com","port":27055,"enabled":true,"region":"eu","cc":"de","latitude":50.110924,"longitude":8.682127,"reserved":0,"last_update":"0001-01-01T00:00:00Z","name_a2s":"Uncletopia | Frankfurt | 5 | All Maps","protocol":17,"map":"cp_altitude","folder":"tf","game":"Team Fortress","app_id":440,"player_count":0,"max_players":24,"Bots":0,"server_type":"Dedicated","server_os":"Linux","password":true,"vac":true,"version":"7757534","steam_id":85568392924504277,"keywords":["cp","nocrits","nodmgspread","uncletopia"],"game_id":440,"stv_port":27056,"stv_name":"Uncletopia | Frankfurt | 5 | All Maps | STV","players":null},{"server_id":311,"name":"Uncletopia | Frankfurt | 6 | All Maps","name_short":"frk-6","host":"frk-1.de.uncletopia.com","port":27065,"enabled":true,"region":"eu","cc":"de","latitude":50.110924,"longitude":8.682127,"reserved":0,"last_update":"0001-01-01T00:00:00Z","name_a2s":"Uncletopia | Frankfurt | 6 | All Maps","protocol":17,"map":"pl_upward","folder":"tf","game":"Team Fortress","app_id":440,"player_count":24,"max_players":24,"Bots":0,"server_type":"Dedicated","server_os":"Linux","password":true,"vac":true,"version":"7757534","steam_id":85568392924504278,"keywords":["nocrits","nodmgspread","payload","uncletopia"],"game_id":440,"stv_port":27066,"stv_name":"Uncletopia | Frankfurt | 6 | All Maps | STV","players":[{"user_id":401,"name":"Penis Contortionist","steam_id":76561198073663784,"connected_time":3659000000000,"state":"active","ping":56},{"user_id":456,"name":"KILL","steam_id":76561198436817109,"connected_time":78000000000,"state":"active","ping":60},{"user_id":405,"name":"CrowbarWarrior","steam_id":76561198044077015,"connected_time":3538000000000,"state":"active","ping":84},{"user_id":450,"name":"Bobirulez","steam_id":76561198009125458,"connected_time":635000000000,"state":"active","ping":73},{"user_id":442,"name":"Bleachy","steam_id":76561198101976229,"connected_time":1652000000000,"state":"active","ping":52},{"user_id":452,"name":"Proto-arc","steam_id":76561198012776747,"connected_time":176000000000,"state":"active","ping":57},{"user_id":451,"name":"fénix","steam_id":76561198083199151,"connected_time":190000000000,"state":"active","ping":65},{"user_id":453,"name":"Piellino","steam_id":76561198156873276,"connected_time":140000000000,"state":"active","ping":98},{"user_id":454,"name":"cursedbygod♡","steam_id":76561198318291047,"connected_time":115000000000,"state":"active","ping":114},{"user_id":363,"name":"rz-/Atomic Punch","steam_id":76561199195508541,"connected_time":6761000000000,"state":"active","ping":75},{"user_id":455,"name":"Haha?","steam_id":76561198056882245,"connected_time":114000000000,"state":"active","ping":45},{"user_id":447,"name":"Djingis Khan","steam_id":76561197967864460,"connected_time":1005000000000,"state":"active","ping":46},{"user_id":449,"name":"hide on bush","steam_id":76561198149967445,"connected_time":942000000000,"state":"active","ping":47},{"user_id":457,"name":"dd","steam_id":76561198257836694,"connected_time":59000000000,"state":"active","ping":53},{"user_id":421,"name":"buko","steam_id":76561198349648942,"connected_time":2749000000000,"state":"active","ping":90},{"user_id":364,"name":"Sigma Bale","steam_id":76561198365750503,"connected_time":6748000000000,"state":"active","ping":55},{"user_id":422,"name":"unnecessary","steam_id":76561197994492154,"connected_time":2745000000000,"state":"active","ping":60},{"user_id":439,"name":"General Petrov","steam_id":76561198027204104,"connected_time":2221000000000,"state":"active","ping":89},{"user_id":458,"name":"Misctek","steam_id":76561199037541925,"connected_time":28000000000,"state":"active","ping":75},{"user_id":426,"name":"mike\"3loavesofbread\"jones","steam_id":76561198064342804,"connected_time":2717000000000,"state":"active","ping":78},{"user_id":445,"name":"bullbdoog","steam_id":76561198332951792,"connected_time":1556000000000,"state":"active","ping":74},{"user_id":440,"name":"jones","steam_id":76561198044434971,"connected_time":2201000000000,"state":"active","ping":67},{"user_id":435,"name":"If I top 3 my team sucks","steam_id":76561198147668373,"connected_time":2384000000000,"state":"active","ping":57}]},{"server_id":23,"name":"Uncletopia | Frankfurt | 7 | Stopwatch Beta","name_short":"frk-7","host":"frk-1.de.uncletopia.com","port":27075,"enabled":true,"region":"eu","cc":"de","latitude":50.110924,"longitude":8.682127,"reserved":0,"last_update":"0001-01-01T00:00:00Z","name_a2s":"Uncletopia | Frankfurt | 7 | Stopwatch Beta","protocol":17,"map":"workshop/koth_ramjam_rc1.ugc459778887","folder":"tf","game":"Team Fortress","app_id":440,"player_count":0,"max_players":24,"Bots":0,"server_type":"Dedicated","server_os":"Linux","password":true,"vac":true,"version":"7757534","steam_id":85568392924742827,"keywords":["cp","nocrits","nodmgspread","uncletopia"],"game_id":440,"stv_port":27076,"stv_name":"Uncletopia | Frankfurt | 7 | Stopwatch Beta | STV","players":null},{"server_id":24,"name":"Uncletopia | Frankfurt | 8 | Community","name_short":"frk-8","host":"frk-1.de.uncletopia.com","port":27085,"enabled":true,"region":"eu","cc":"de","latitude":50.110924,"longitude":8.682127,"reserved":0,"last_update":"0001-01-01T00:00:00Z","name_a2s":"Uncletopia | Frankfurt | 8 | Community","protocol":17,"map":"workshop/koth_ashville_final.ugc2130459942","folder":"tf","game":"Team Fortress","app_id":440,"player_count":0,"max_players":24,"Bots":0,"server_type":"Dedicated","server_os":"Linux","password":true,"vac":true,"version":"7757534","steam_id":85568392924742828,"keywords":["cp","nocrits","nodmgspread","uncletopia"],"game_id":440,"stv_port":27086,"stv_name":"Uncletopia | Frankfurt | 8 | Community | STV","players":null},{"server_id":202,"name":"Uncletopia | Hong Kong | 1 | All Maps","name_short":"hgk-1","host":"hgk-1.hk.uncletopia.com","port":27015,"enabled":true,"region":"asia","cc":"hk","latitude":22.302711,"longitude":114.177216,"reserved":0,"last_update":"0001-01-01T00:00:00Z","name_a2s":"Uncletopia | Hong Kong | 1 | All Maps","protocol":17,"map":"pl_borneo","folder":"tf","game":"Team Fortress","app_id":440,"player_count":0,"max_players":24,"Bots":0,"server_type":"Dedicated","server_os":"Linux","password":true,"vac":true,"version":"7757534","steam_id":85568392924494504,"keywords":["nocrits","nodmgspread","payload","uncletopia"],"game_id":440,"stv_port":27016,"stv_name":"Uncletopia | Hong Kong | 1 | All Maps | STV","players":null},{"server_id":1,"name":"Uncletopia | Los Angeles | 1 | All Maps","name_short":"lax-1","host":"lax-1.us.uncletopia.com","port":27015,"enabled":true,"region":"us-west","cc":"us","latitude":33.94279,"longitude":-118.41004,"reserved":0,"last_update":"0001-01-01T00:00:00Z","name_a2s":"Uncletopia | Los Angeles | 1 | All Maps","protocol":17,"map":"pl_pier","folder":"tf","game":"Team Fortress","app_id":440,"player_count":0,"max_players":24,"Bots":0,"server_type":"Dedicated","server_os":"Linux","password":true,"vac":true,"version":"7757534","steam_id":85568392924469991,"keywords":["nocrits","nodmgspread","payload","uncletopia"],"game_id":440,"stv_port":27016,"stv_name":"Uncletopia | Los Angeles | 1 | All Maps | STV","players":null},{"server_id":112,"name":"Uncletopia | Los Angeles | 2 | All Maps","name_short":"lax-2","host":"lax-1.us.uncletopia.com","port":27025,"enabled":true,"region":"us-west","cc":"us","latitude":33.94279,"longitude":-118.41004,"reserved":0,"last_update":"0001-01-01T00:00:00Z","name_a2s":"Uncletopia | Los Angeles | 2 | All Maps","protocol":17,"map":"pl_upward","folder":"tf","game":"Team Fortress","app_id":440,"player_count":24,"max_players":24,"Bots":0,"server_type":"Dedicated","server_os":"Linux","password":true,"vac":true,"version":"7757534","steam_id":85568392924469992,"keywords":["nocrits","nodmgspread","payload","uncletopia"],"game_id":440,"stv_port":27026,"stv_name":"Uncletopia | Los Angeles | 2 | All Maps | STV","players":[{"user_id":32,"name":"Irate Gamer Official","steam_id":76561198162688146,"connected_time":2035000000000,"state":"active","ping":45},{"user_id":42,"name":"Mall","steam_id":76561198436085386,"connected_time":1535000000000,"state":"active","ping":90},{"user_id":50,"name":"Toad :)","steam_id":76561198163008022,"connected_time":1195000000000,"state":"active","ping":75},{"user_id":67,"name":"lynt","steam_id":76561198988333976,"connected_time":448000000000,"state":"active","ping":82},{"user_id":68,"name":"ur getting frog","steam_id":76561198880773196,"connected_time":406000000000,"state":"active","ping":87},{"user_id":60,"name":"the butchers club","steam_id":76561198318126190,"connected_time":792000000000,"state":"active","ping":146},{"user_id":64,"name":"silly jester","steam_id":76561198079609974,"connected_time":500000000000,"state":"active","ping":54},{"user_id":43,"name":"Frog","steam_id":76561198093257083,"connected_time":1530000000000,"state":"active","ping":66},{"user_id":16,"name":"ribbonborn","steam_id":76561198001195423,"connected_time":3205000000000,"state":"active","ping":82},{"user_id":65,"name":"❄ Alice ♥","steam_id":76561198869945051,"connected_time":500000000000,"state":"active","ping":92},{"user_id":19,"name":"Zykron","steam_id":76561199056400800,"connected_time":3071000000000,"state":"active","ping":50},{"user_id":46,"name":"Lock'd","steam_id":76561198170108230,"connected_time":1349000000000,"state":"active","ping":45},{"user_id":69,"name":"JellyParrot","steam_id":76561199190990163,"connected_time":247000000000,"state":"active","ping":99},{"user_id":48,"name":"Honeybunch","steam_id":76561198014850580,"connected_time":1273000000000,"state":"active","ping":72},{"user_id":62,"name":"Goose Pyro","steam_id":76561198994984332,"connected_time":730000000000,"state":"active","ping":160},{"user_id":29,"name":"Misty Blu ♥ #TransFortress","steam_id":76561198011442255,"connected_time":2225000000000,"state":"active","ping":54},{"user_id":30,"name":"wubber","steam_id":76561198286627157,"connected_time":2209000000000,"state":"active","ping":48},{"user_id":66,"name":"Rat Bastard","steam_id":76561198153443658,"connected_time":487000000000,"state":"active","ping":105},{"user_id":39,"name":"SmallestApple","steam_id":76561198353403983,"connected_time":1790000000000,"state":"active","ping":100},{"user_id":40,"name":"Pot Head Pixie","steam_id":76561198083024504,"connected_time":1706000000000,"state":"active","ping":80},{"user_id":58,"name":"LogicalFurret","steam_id":76561198350604657,"connected_time":902000000000,"state":"active","ping":50},{"user_id":47,"name":"Unwavering Flavor","steam_id":76561198053306065,"connected_time":1337000000000,"state":"active","ping":84},{"user_id":53,"name":"Firedust19","steam_id":76561198153238631,"connected_time":1157000000000,"state":"active","ping":103},{"user_id":54,"name":"mommy","steam_id":76561198067176829,"connected_time":1145000000000,"state":"active","ping":54}]},{"server_id":324,"name":"Uncletopia | Los Angeles | 3 | All Maps","name_short":"lax-3","host":"lax-1.us.uncletopia.com","port":27035,"enabled":true,"region":"us-west","cc":"us","latitude":33.94279,"longitude":-118.41004,"reserved":0,"last_update":"0001-01-01T00:00:00Z","name_a2s":"Uncletopia | Los Angeles | 3 | All Maps","protocol":17,"map":"cp_dustbowl","folder":"tf","game":"Team Fortress","app_id":440,"player_count":0,"max_players":24,"Bots":0,"server_type":"Dedicated","server_os":"Linux","password":true,"vac":true,"version":"7757534","steam_id":85568392924510198,"keywords":["cp","nocrits","nodmgspread","uncletopia"],"game_id":440,"stv_port":27036,"stv_name":"Uncletopia | Los Angeles | 3 | All Maps | STV","players":null},{"server_id":25,"name":"Uncletopia | Los Angeles | 4 | Stopwatch Beta","name_short":"lax-4","host":"lax-1.us.uncletopia.com","port":27045,"enabled":true,"region":"us-west","cc":"us","latitude":33.94279,"longitude":-118.41004,"reserved":0,"last_update":"0001-01-01T00:00:00Z","name_a2s":"Uncletopia | Los Angeles | 4 | Stopwatch Beta","protocol":17,"map":"pl_swiftwater_final1","folder":"tf","game":"Team Fortress","app_id":440,"player_count":0,"max_players":24,"Bots":0,"server_type":"Dedicated","server_os":"Linux","password":true,"vac":true,"version":"7757534","steam_id":85568392924510199,"keywords":["nocrits","nodmgspread","payload","uncletopia"],"game_id":440,"stv_port":27046,"stv_name":"Uncletopia | Los Angeles | 4 | Stopwatch Beta | STV","players":null},{"server_id":11,"name":"Uncletopia | London | 1 | All Maps","name_short":"lon-1","host":"lon-1.uk.uncletopia.com","port":27015,"enabled":true,"region":"eu","cc":"gb","latitude":51.509865,"longitude":-0.118092,"reserved":0,"last_update":"0001-01-01T00:00:00Z","name_a2s":"Uncletopia | London | 1 | All Maps","protocol":17,"map":"pl_barnblitz","folder":"tf","game":"Team Fortress","app_id":440,"player_count":18,"max_players":24,"Bots":0,"server_type":"Dedicated","server_os":"Linux","password":true,"vac":true,"version":"7757534","steam_id":85568392924367362,"keywords":["nocrits","nodmgspread","payload","uncletopia"],"game_id":440,"stv_port":27016,"stv_name":"Uncletopia | London | 1 | All Maps | STV","players":[{"user_id":746,"name":"Ducky[WADZ]🐤","steam_id":76561198060341245,"connected_time":641000000000,"state":"active","ping":68},{"user_id":728,"name":"Outlaw","steam_id":76561198389862837,"connected_time":1441000000000,"state":"active","ping":90},{"user_id":736,"name":"Oki (Bon)","steam_id":76561199047748534,"connected_time":1131000000000,"state":"active","ping":55},{"user_id":747,"name":"DeadW0rm","steam_id":76561198993557314,"connected_time":476000000000,"state":"active","ping":76},{"user_id":660,"name":"teddy","steam_id":76561198007436837,"connected_time":6386000000000,"state":"active","ping":39},{"user_id":712,"name":"mmm delicious bullets","steam_id":76561198254664484,"connected_time":3262000000000,"state":"active","ping":57},{"user_id":752,"name":"ciliorkun18","steam_id":76561198228942500,"connected_time":61000000000,"state":"active","ping":91},{"user_id":724,"name":"MichaelTheSlav","steam_id":76561198151626040,"connected_time":2267000000000,"state":"active","ping":78},{"user_id":731,"name":"2Fort Goblin","steam_id":76561198878206817,"connected_time":1417000000000,"state":"active","ping":65},{"user_id":739,"name":"Evil weed wizard","steam_id":76561198076137526,"connected_time":953000000000,"state":"active","ping":46},{"user_id":751,"name":"homi das carça erguida","steam_id":76561198825255691,"connected_time":178000000000,"state":"active","ping":218},{"user_id":740,"name":"❤ToxicAngel❤","steam_id":76561198062208751,"connected_time":877000000000,"state":"active","ping":44},{"user_id":749,"name":"Air","steam_id":76561198271025518,"connected_time":380000000000,"state":"active","ping":109},{"user_id":743,"name":"engie?","steam_id":76561198331852832,"connected_time":808000000000,"state":"active","ping":45},{"user_id":723,"name":"Fronk the Rat","steam_id":76561198056595268,"connected_time":2340000000000,"state":"active","ping":39},{"user_id":742,"name":"Sagger","steam_id":76561198065915748,"connected_time":853000000000,"state":"active","ping":49},{"user_id":713,"name":"kojitori","steam_id":76561198838072150,"connected_time":3091000000000,"state":"active","ping":42},{"user_id":744,"name":"Raivo","steam_id":76561198388750592,"connected_time":801000000000,"state":"spawning","ping":102}]},{"server_id":114,"name":"Uncletopia | London | 2 | All Maps","name_short":"lon-2","host":"lon-1.uk.uncletopia.com","port":27025,"enabled":true,"region":"eu","cc":"gb","latitude":51.509865,"longitude":-0.118092,"reserved":0,"last_update":"0001-01-01T00:00:00Z","name_a2s":"Uncletopia | London | 2 | All Maps","protocol":17,"map":"pl_borneo","folder":"tf","game":"Team Fortress","app_id":440,"player_count":20,"max_players":24,"Bots":0,"server_type":"Dedicated","server_os":"Linux","password":true,"vac":true,"version":"7757534","steam_id":85568392924470941,"keywords":["nocrits","nodmgspread","payload","uncletopia"],"game_id":440,"stv_port":27026,"stv_name":"Uncletopia | London | 2 | All Maps | STV","players":[{"user_id":474,"name":"molly","steam_id":76561198029399151,"connected_time":2217000000000,"state":"active","ping":59},{"user_id":463,"name":"MAKENTAKEN","steam_id":76561199127359587,"connected_time":2938000000000,"state":"active","ping":96},{"user_id":504,"name":"_hoschi","steam_id":76561197960386570,"connected_time":28000000000,"state":"active","ping":59},{"user_id":503,"name":"Depruu","steam_id":76561198246103428,"connected_time":88000000000,"state":"active","ping":61},{"user_id":499,"name":"rummy","steam_id":76561197997573379,"connected_time":366000000000,"state":"active","ping":56},{"user_id":344,"name":"Yuzu","steam_id":76561198121694613,"connected_time":13131000000000,"state":"active","ping":46},{"user_id":488,"name":"gibb (official)","steam_id":76561198074097655,"connected_time":873000000000,"state":"active","ping":30},{"user_id":505,"name":"Crumon","steam_id":76561198070208867,"connected_time":5000000000,"state":"spawning","ping":100},{"user_id":445,"name":"Homosapien","steam_id":76561197972035953,"connected_time":4527000000000,"state":"active","ping":60},{"user_id":469,"name":"Sabour","steam_id":76561197963965445,"connected_time":2695000000000,"state":"active","ping":71},{"user_id":490,"name":".erik (real)","steam_id":76561197962112424,"connected_time":689000000000,"state":"active","ping":70},{"user_id":479,"name":"Vectillion","steam_id":76561198074292454,"connected_time":1760000000000,"state":"active","ping":69},{"user_id":466,"name":"Saken","steam_id":76561198049075295,"connected_time":2803000000000,"state":"active","ping":65},{"user_id":501,"name":"Engineer","steam_id":76561199439061363,"connected_time":126000000000,"state":"active","ping":198},{"user_id":486,"name":"$nØw","steam_id":76561198238781028,"connected_time":1331000000000,"state":"active","ping":105},{"user_id":473,"name":"Topme","steam_id":76561198091734693,"connected_time":2605000000000,"state":"active","ping":54},{"user_id":482,"name":"joe","steam_id":76561198026484403,"connected_time":1689000000000,"state":"active","ping":48},{"user_id":502,"name":"Benzo Fury","steam_id":76561198025259336,"connected_time":108000000000,"state":"active","ping":35},{"user_id":489,"name":"Purps","steam_id":76561198053886680,"connected_time":752000000000,"state":"active","ping":42},{"user_id":461,"name":"CumbustiblePunda","steam_id":76561197974274677,"connected_time":3102000000000,"state":"active","ping":59}]},{"server_id":320,"name":"Uncletopia | London | 3 | All Maps","name_short":"lon-3","host":"lon-1.uk.uncletopia.com","port":27035,"enabled":true,"region":"eu","cc":"gb","latitude":51.509865,"longitude":-0.118092,"reserved":0,"last_update":"0001-01-01T00:00:00Z","name_a2s":"Uncletopia | London | 3 | All Maps","protocol":17,"map":"plr_bananabay","folder":"tf","game":"Team Fortress","app_id":440,"player_count":23,"max_players":24,"Bots":0,"server_type":"Dedicated","server_os":"Linux","password":true,"vac":true,"version":"7757534","steam_id":85568392924510192,"keywords":["nocrits","nodmgspread","payload","uncletopia"],"game_id":440,"stv_port":27036,"stv_name":"Uncletopia | London | 3 | All Maps | STV","players":[{"user_id":669,"name":"Noodle","steam_id":76561198306486695,"connected_time":392000000000,"state":"active","ping":68},{"user_id":629,"name":"Kumquat","steam_id":76561198200490386,"connected_time":3043000000000,"state":"active","ping":69},{"user_id":662,"name":"STARRPADIE","steam_id":76561198058683354,"connected_time":1052000000000,"state":"active","ping":53},{"user_id":634,"name":"that fat croc from donkey kong","steam_id":76561198159172495,"connected_time":2584000000000,"state":"active","ping":73},{"user_id":602,"name":"。。。","steam_id":76561198101624996,"connected_time":4532000000000,"state":"active","ping":99},{"user_id":658,"name":"CollDragon","steam_id":76561198067534450,"connected_time":1696000000000,"state":"active","ping":124},{"user_id":563,"name":"Yelowchy","steam_id":76561198199416121,"connected_time":6898000000000,"state":"active","ping":75},{"user_id":646,"name":"fish","steam_id":76561198205475839,"connected_time":2325000000000,"state":"active","ping":97},{"user_id":633,"name":"feed and seed","steam_id":76561199088046420,"connected_time":2662000000000,"state":"active","ping":56},{"user_id":668,"name":"John McAfee","steam_id":76561198086164345,"connected_time":475000000000,"state":"active","ping":152},{"user_id":539,"name":"Unfortunate","steam_id":76561198125500777,"connected_time":8173000000000,"state":"active","ping":97},{"user_id":654,"name":"lullers","steam_id":76561198119470669,"connected_time":1967000000000,"state":"active","ping":61},{"user_id":556,"name":"nutlube","steam_id":76561198128831131,"connected_time":7561000000000,"state":"active","ping":59},{"user_id":598,"name":"bachusa1657","steam_id":76561198202175911,"connected_time":4698000000000,"state":"active","ping":77},{"user_id":621,"name":"alphawarrior999","steam_id":76561199001580062,"connected_time":3689000000000,"state":"active","ping":152},{"user_id":665,"name":"Janti ❤  #NEWTF2Hunt","steam_id":76561199387238623,"connected_time":847000000000,"state":"active","ping":118},{"user_id":660,"name":"Sneikijs","steam_id":76561198052549308,"connected_time":1170000000000,"state":"active","ping":55},{"user_id":670,"name":"A glass of water","steam_id":76561198432530600,"connected_time":341000000000,"state":"active","ping":175},{"user_id":604,"name":"It's a me Malario","steam_id":76561198176546013,"connected_time":4485000000000,"state":"active","ping":50},{"user_id":663,"name":"Skinny101","steam_id":76561197985599360,"connected_time":1033000000000,"state":"active","ping":53},{"user_id":656,"name":"R0mulone","steam_id":76561198352513792,"connected_time":1957000000000,"state":"active","ping":63},{"user_id":651,"name":"Kami Wami","steam_id":76561198158209651,"connected_time":2160000000000,"state":"active","ping":55},{"user_id":667,"name":"Kaptin Badrukk","steam_id":76561198048011649,"connected_time":506000000000,"state":"active","ping":59}]},{"server_id":321,"name":"Uncletopia | London | 4 | All Maps","name_short":"lon-4","host":"lon-1.uk.uncletopia.com","port":27045,"enabled":true,"region":"eu","cc":"gb","latitude":51.509865,"longitude":-0.118092,"reserved":0,"last_update":"0001-01-01T00:00:00Z","name_a2s":"Uncletopia | London | 4 | All Maps","protocol":17,"map":"koth_viaduct","folder":"tf","game":"Team Fortress","app_id":440,"player_count":0,"max_players":24,"Bots":0,"server_type":"Dedicated","server_os":"Linux","password":true,"vac":true,"version":"7757534","steam_id":85568392924510193,"keywords":["cp","nocrits","nodmgspread","uncletopia"],"game_id":440,"stv_port":27046,"stv_name":"Uncletopia | London | 4 | All Maps | STV","players":null},{"server_id":21,"name":"Uncletopia | London | 5 | All Maps","name_short":"lon-5","host":"lon-1.uk.uncletopia.com","port":27055,"enabled":true,"region":"eu","cc":"gb","latitude":51.509865,"longitude":-0.118092,"reserved":0,"last_update":"0001-01-01T00:00:00Z","name_a2s":"Uncletopia | London | 5 | All Maps","protocol":17,"map":"koth_viaduct","folder":"tf","game":"Team Fortress","app_id":440,"player_count":2,"max_players":24,"Bots":0,"server_type":"Dedicated","server_os":"Linux","password":true,"vac":true,"version":"7757534","steam_id":85568392924742829,"keywords":["cp","nocrits","nodmgspread","uncletopia"],"game_id":440,"stv_port":27056,"stv_name":"Uncletopia | London | 5 | All Maps | STV","players":[{"user_id":220,"name":"Mr.Rattlebones","steam_id":76561198083023472,"connected_time":110000000000,"state":"active","ping":50},{"user_id":212,"name":"Kirvis","steam_id":76561198027831643,"connected_time":1650000000000,"state":"active","ping":106}]},{"server_id":22,"name":"Uncletopia | London | 6 | All Maps","name_short":"lon-6","host":"lon-1.uk.uncletopia.com","port":27065,"enabled":true,"region":"eu","cc":"gb","latitude":51.509865,"longitude":-0.118092,"reserved":0,"last_update":"0001-01-01T00:00:00Z","name_a2s":"Uncletopia | London | 6 | All Maps","protocol":17,"map":"cp_dustbowl","folder":"tf","game":"Team Fortress","app_id":440,"player_count":0,"max_players":24,"Bots":0,"server_type":"Dedicated","server_os":"Linux","password":true,"vac":true,"version":"7757534","steam_id":85568392924742830,"keywords":["cp","nocrits","nodmgspread","uncletopia"],"game_id":440,"stv_port":27066,"stv_name":"Uncletopia | London | 6 | All Maps | STV","players":null},{"server_id":40,"name":"Uncletopia | London | 7 | No Payload","name_short":"lon-7","host":"lon-1.uk.uncletopia.com","port":27075,"enabled":true,"region":"eu","cc":"gb","latitude":51.509865,"longitude":-0.118092,"reserved":0,"last_update":"0001-01-01T00:00:00Z","name_a2s":"Uncletopia | London | 7 | No Payload","protocol":17,"map":"koth_king","folder":"tf","game":"Team Fortress","app_id":440,"player_count":6,"max_players":24,"Bots":0,"server_type":"Dedicated","server_os":"Linux","password":true,"vac":true,"version":"7757534","steam_id":85568392924964314,"keywords":["cp","nocrits","nodmgspread","uncletopia"],"game_id":440,"stv_port":27076,"stv_name":"Uncletopia | London | 7 | No Payload | STV","players":[{"user_id":148,"name":"Pinkchup","steam_id":76561198106802803,"connected_time":4770000000000,"state":"active","ping":77},{"user_id":149,"name":"Minimi","steam_id":76561198873850443,"connected_time":4682000000000,"state":"active","ping":43},{"user_id":151,"name":"mesoni","steam_id":76561199141290973,"connected_time":4255000000000,"state":"active","ping":92},{"user_id":155,"name":"FireStorm","steam_id":76561198350478325,"connected_time":2002000000000,"state":"active","ping":39},{"user_id":156,"name":"TehHapp","steam_id":76561198119396288,"connected_time":1137000000000,"state":"active","ping":188},{"user_id":159,"name":"BarbÀtrou","steam_id":76561199439141531,"connected_time":55000000000,"state":"active","ping":71}]},{"server_id":41,"name":"Uncletopia | London | 8 | Community","name_short":"lon-8","host":"lon-1.uk.uncletopia.com","port":27085,"enabled":true,"region":"eu","cc":"gb","latitude":51.509865,"longitude":-0.118092,"reserved":0,"last_update":"0001-01-01T00:00:00Z","name_a2s":"Uncletopia | London | 8 | Community","protocol":17,"map":"workshop/pl_highwood_b13.ugc1769496557","folder":"tf","game":"Team Fortress","app_id":440,"player_count":0,"max_players":24,"Bots":0,"server_type":"Dedicated","server_os":"Linux","password":true,"vac":true,"version":"7757534","steam_id":85568392924964315,"keywords":["nocrits","nodmgspread","payload","uncletopia"],"game_id":440,"stv_port":27086,"stv_name":"Uncletopia | London | 8 | Community | STV","players":null},{"server_id":300,"name":"Uncletopia | Montréal | 1 | All Maps","name_short":"mtl-1","host":"mtl-1.ca.uncletopia.com","port":27015,"enabled":true,"region":"us-east","cc":"ca","latitude":45.50889,"longitude":-73.56167,"reserved":0,"last_update":"0001-01-01T00:00:00Z","name_a2s":"Uncletopia | Montréal | 1 | All Maps","protocol":17,"map":"koth_viaduct","folder":"tf","game":"Team Fortress","app_id":440,"player_count":0,"max_players":24,"Bots":0,"server_type":"Dedicated","server_os":"Linux","password":true,"vac":true,"version":"7757534","steam_id":85568392924500087,"keywords":["cp","nocrits","nodmgspread","uncletopia"],"game_id":440,"stv_port":27016,"stv_name":"Uncletopia | Montréal | 1 | All Maps | STV","players":null},{"server_id":301,"name":"Uncletopia | Montréal | 2 | All Maps","name_short":"mtl-2","host":"mtl-1.ca.uncletopia.com","port":27025,"enabled":true,"region":"us-east","cc":"ca","latitude":45.50889,"longitude":-73.56167,"reserved":0,"last_update":"0001-01-01T00:00:00Z","name_a2s":"Uncletopia | Montréal | 2 | All Maps","protocol":17,"map":"pl_snowycoast","folder":"tf","game":"Team Fortress","app_id":440,"player_count":0,"max_players":24,"Bots":0,"server_type":"Dedicated","server_os":"Linux","password":true,"vac":true,"version":"7757534","steam_id":85568392924500088,"keywords":["nocrits","nodmgspread","payload","uncletopia"],"game_id":440,"stv_port":27026,"stv_name":"Uncletopia | Montréal | 2 | All Maps | STV","players":null},{"server_id":302,"name":"Uncletopia | Montréal | 3 | All Maps","name_short":"mtl-3","host":"mtl-1.ca.uncletopia.com","port":27035,"enabled":true,"region":"us-east","cc":"ca","latitude":45.50889,"longitude":-73.56167,"reserved":0,"last_update":"0001-01-01T00:00:00Z","name_a2s":"Uncletopia | Montréal | 3 | All Maps","protocol":17,"map":"pl_swiftwater_final1","folder":"tf","game":"Team Fortress","app_id":440,"player_count":0,"max_players":24,"Bots":0,"server_type":"Dedicated","server_os":"Linux","password":true,"vac":true,"version":"7757534","steam_id":85568392924500089,"keywords":["nocrits","nodmgspread","payload","uncletopia"],"game_id":440,"stv_port":27036,"stv_name":"Uncletopia | Montréal | 3 | All Maps | STV","players":null},{"server_id":303,"name":"Uncletopia | Montréal | 4 | No Payload","name_short":"mtl-4","host":"mtl-1.ca.uncletopia.com","port":27045,"enabled":true,"region":"us-east","cc":"ca","latitude":45.50889,"longitude":-73.56167,"reserved":0,"last_update":"0001-01-01T00:00:00Z","name_a2s":"Uncletopia | Montréal | 4 | No Payload","protocol":17,"map":"cp_gravelpit","folder":"tf","game":"Team Fortress","app_id":440,"player_count":0,"max_players":24,"Bots":0,"server_type":"Dedicated","server_os":"Linux","password":true,"vac":true,"version":"7757534","steam_id":85568392924500090,"keywords":["cp","nocrits","nodmgspread","uncletopia"],"game_id":440,"stv_port":27046,"stv_name":"Uncletopia | Montréal | 4 | No Payload | STV","players":null},{"server_id":13,"name":"Uncletopia | New York City | 1 | All Maps","name_short":"nyc-1","host":"nyc-1.us.uncletopia.com","port":27015,"enabled":true,"region":"us-east","cc":"us","latitude":40.73061,"longitude":-73.93524,"reserved":0,"last_update":"0001-01-01T00:00:00Z","name_a2s":"Uncletopia | New York City | 1 | All Maps","protocol":17,"map":"ctf_turbine","folder":"tf","game":"Team Fortress","app_id":440,"player_count":22,"max_players":24,"Bots":0,"server_type":"Dedicated","server_os":"Linux","password":true,"vac":true,"version":"7757534","steam_id":85568392924469993,"keywords":["ctf","nocrits","nodmgspread","uncletopia"],"game_id":440,"stv_port":27016,"stv_name":"Uncletopia | New York City | 1 | All Maps | STV","players":[{"user_id":226,"name":"LuBzEur0b3ats","steam_id":76561199041041574,"connected_time":188000000000,"state":"active","ping":52},{"user_id":231,"name":"Gian","steam_id":76561198041434512,"connected_time":7000000000,"state":"active","ping":99},{"user_id":195,"name":"Thermal Thruster Enjoyer","steam_id":76561199045511890,"connected_time":1905000000000,"state":"active","ping":56},{"user_id":203,"name":"Rue","steam_id":76561198013135993,"connected_time":1580000000000,"state":"active","ping":53},{"user_id":125,"name":"yer_nerd","steam_id":76561199435454093,"connected_time":6852000000000,"state":"active","ping":67},{"user_id":221,"name":"Some Stupid Name","steam_id":76561198065575548,"connected_time":532000000000,"state":"active","ping":127},{"user_id":172,"name":"Cursed mario","steam_id":76561198971168093,"connected_time":4303000000000,"state":"active","ping":164},{"user_id":149,"name":"Coughdrop Addict [F2P]","steam_id":76561199254281550,"connected_time":5124000000000,"state":"active","ping":53},{"user_id":197,"name":"Sentry Gun (Maple!)","steam_id":76561199315167502,"connected_time":1814000000000,"state":"active","ping":59},{"user_id":179,"name":"OPOC","steam_id":76561198026539183,"connected_time":3492000000000,"state":"active","ping":61},{"user_id":178,"name":"flamingcookies","steam_id":76561198280864779,"connected_time":3701000000000,"state":"active","ping":65},{"user_id":210,"name":"Thebestsock","steam_id":76561198819141894,"connected_time":838000000000,"state":"active","ping":88},{"user_id":225,"name":"kefkja","steam_id":76561198283963218,"connected_time":256000000000,"state":"active","ping":59},{"user_id":211,"name":"quadapalozle","steam_id":76561198327686110,"connected_time":833000000000,"state":"active","ping":96},{"user_id":228,"name":"Mimickry","steam_id":76561199000471623,"connected_time":126000000000,"state":"active","ping":80},{"user_id":229,"name":"Toast","steam_id":76561198234616616,"connected_time":79000000000,"state":"active","ping":110},{"user_id":171,"name":"asm_ghost","steam_id":76561199205363547,"connected_time":4536000000000,"state":"active","ping":141},{"user_id":189,"name":"dairy","steam_id":76561198117033273,"connected_time":2582000000000,"state":"active","ping":119},{"user_id":192,"name":"Minus273C","steam_id":76561197967510404,"connected_time":2234000000000,"state":"active","ping":82},{"user_id":207,"name":"Sullivate","steam_id":76561198247267324,"connected_time":1375000000000,"state":"active","ping":86},{"user_id":230,"name":"Tangerine","steam_id":76561198373668488,"connected_time":52000000000,"state":"active","ping":88},{"user_id":223,"name":"Goatsifer Grassmuncher The III","steam_id":76561199328079799,"connected_time":397000000000,"state":"active","ping":77}]},{"server_id":14,"name":"Uncletopia | New York City | 2 | All Maps","name_short":"nyc-2","host":"nyc-1.us.uncletopia.com","port":27025,"enabled":true,"region":"us-east","cc":"us","latitude":40.73061,"longitude":-73.93524,"reserved":0,"last_update":"0001-01-01T00:00:00Z","name_a2s":"Uncletopia | New York City | 2 | All Maps","protocol":17,"map":"cp_coldfront","folder":"tf","game":"Team Fortress","app_id":440,"player_count":24,"max_players":24,"Bots":0,"server_type":"Dedicated","server_os":"Linux","password":true,"vac":true,"version":"7757534","steam_id":85568392924469994,"keywords":["cp","nocrits","nodmgspread","uncletopia"],"game_id":440,"stv_port":27026,"stv_name":"Uncletopia | New York City | 2 | All Maps | STV","players":[{"user_id":445,"name":"The Yodelling Pickle","steam_id":76561198095883507,"connected_time":1695000000000,"state":"active","ping":76},{"user_id":454,"name":"Pyro","steam_id":76561197995003142,"connected_time":1102000000000,"state":"active","ping":89},{"user_id":471,"name":"extra tiny putin","steam_id":76561198024544163,"connected_time":292000000000,"state":"active","ping":119},{"user_id":389,"name":"ThatGamingKiwi","steam_id":76561199170522237,"connected_time":5901000000000,"state":"active","ping":81},{"user_id":442,"name":"capeeKo","steam_id":76561197970346623,"connected_time":1809000000000,"state":"active","ping":65},{"user_id":473,"name":"mop","steam_id":76561198083853538,"connected_time":112000000000,"state":"active","ping":67},{"user_id":460,"name":"Jeff Pesos","steam_id":76561198086379892,"connected_time":849000000000,"state":"active","ping":71},{"user_id":466,"name":"Warkeidan","steam_id":76561198118805546,"connected_time":469000000000,"state":"active","ping":80},{"user_id":392,"name":"Sableye","steam_id":76561198061247147,"connected_time":5835000000000,"state":"active","ping":74},{"user_id":437,"name":"bimbo blow up doll! \u003c3","steam_id":76561198959541006,"connected_time":2934000000000,"state":"active","ping":50},{"user_id":462,"name":"Sarah","steam_id":76561199013702818,"connected_time":737000000000,"state":"active","ping":76},{"user_id":432,"name":"Broadway Rose","steam_id":76561198046083342,"connected_time":3031000000000,"state":"active","ping":56},{"user_id":386,"name":"spherewithahat","steam_id":76561199122192660,"connected_time":6013000000000,"state":"active","ping":60},{"user_id":351,"name":"bruh2","steam_id":76561198046055673,"connected_time":9016000000000,"state":"active","ping":60},{"user_id":452,"name":"you forgot the sauce","steam_id":76561198387016713,"connected_time":1169000000000,"state":"active","ping":64},{"user_id":458,"name":"dog flattening machine","steam_id":76561198122487460,"connected_time":951000000000,"state":"active","ping":76},{"user_id":450,"name":"Dr Spaceman","steam_id":76561197969755657,"connected_time":1547000000000,"state":"active","ping":60},{"user_id":464,"name":"potty trained","steam_id":76561198141557766,"connected_time":604000000000,"state":"active","ping":80},{"user_id":447,"name":"vyx","steam_id":76561198037205391,"connected_time":1660000000000,"state":"active","ping":65},{"user_id":469,"name":"Alice in Rubberland","steam_id":76561198087328346,"connected_time":321000000000,"state":"active","ping":61},{"user_id":459,"name":"Tone","steam_id":76561198139386202,"connected_time":860000000000,"state":"active","ping":62},{"user_id":467,"name":"Fudgely","steam_id":76561198039425862,"connected_time":450000000000,"state":"active","ping":62},{"user_id":468,"name":"Marshall","steam_id":76561198042570322,"connected_time":431000000000,"state":"active","ping":81},{"user_id":470,"name":"Portal2Player","steam_id":76561198062870114,"connected_time":310000000000,"state":"active","ping":59}]},{"server_id":15,"name":"Uncletopia | New York City | 3 | Stopwatch Beta","name_short":"nyc-3","host":"nyc-1.us.uncletopia.com","port":27035,"enabled":true,"region":"us-east","cc":"us","latitude":40.73061,"longitude":-73.93524,"reserved":0,"last_update":"0001-01-01T00:00:00Z","name_a2s":"Uncletopia | New York City | 3 | Stopwatch Beta","protocol":17,"map":"koth_lakeside_final","folder":"tf","game":"Team Fortress","app_id":440,"player_count":1,"max_players":24,"Bots":0,"server_type":"Dedicated","server_os":"Linux","password":true,"vac":true,"version":"7757534","steam_id":85568392924742820,"keywords":["cp","nocrits","nodmgspread","uncletopia"],"game_id":440,"stv_port":27036,"stv_name":"Uncletopia | New York City | 3 | Stopwatch Beta | STV","players":[{"user_id":21,"name":"Canc","steam_id":76561198904728855,"connected_time":207000000000,"state":"active","ping":86}]},{"server_id":16,"name":"Uncletopia | New York City | 4 | Community","name_short":"nyc-4","host":"nyc-1.us.uncletopia.com","port":27045,"enabled":true,"region":"us-east","cc":"us","latitude":40.73061,"longitude":-73.93524,"reserved":0,"last_update":"0001-01-01T00:00:00Z","name_a2s":"Uncletopia | New York City | 4 | Community","protocol":17,"map":"pl_swiftwater_final1","folder":"tf","game":"Team Fortress","app_id":440,"player_count":0,"max_players":24,"Bots":0,"server_type":"Dedicated","server_os":"Linux","password":true,"vac":true,"version":"7757534","steam_id":85568392924742821,"keywords":["nocrits","nodmgspread","payload","uncletopia"],"game_id":440,"stv_port":27046,"stv_name":"Uncletopia | New York City | 4 | Community | STV","players":null},{"server_id":142,"name":"Uncletopia | São Paulo | 1 | All Maps","name_short":"sao-1","host":"sao-1.br.uncletopia.com","port":27015,"enabled":true,"region":"sa","cc":"br","latitude":-23.533773,"longitude":-46.62529,"reserved":0,"last_update":"0001-01-01T00:00:00Z","name_a2s":"Uncletopia | São Paulo | 1 | All Maps","protocol":17,"map":"koth_lakeside_final","folder":"tf","game":"Team Fortress","app_id":440,"player_count":0,"max_players":24,"Bots":0,"server_type":"Dedicated","server_os":"Linux","password":true,"vac":true,"version":"7757534","steam_id":85568392924469996,"keywords":["cp","nocrits","nodmgspread","uncletopia"],"game_id":440,"stv_port":27016,"stv_name":"Uncletopia | São Paulo | 1 | All Maps | STV","players":null},{"server_id":143,"name":"Uncletopia | São Paulo | 2 | All Maps","name_short":"sao-2","host":"sao-2.br.uncletopia.com","port":27015,"enabled":true,"region":"sa","cc":"br","latitude":-23.533773,"longitude":-46.62529,"reserved":0,"last_update":"0001-01-01T00:00:00Z","name_a2s":"Uncletopia | São Paulo | 2 | All Maps","protocol":17,"map":"koth_cascade","folder":"tf","game":"Team Fortress","app_id":440,"player_count":0,"max_players":24,"Bots":0,"server_type":"Dedicated","server_os":"Linux","password":true,"vac":true,"version":"7757534","steam_id":85568392924485349,"keywords":["cp","nocrits","nodmgspread","uncletopia"],"game_id":440,"stv_port":27016,"stv_name":"Uncletopia | São Paulo | 2 | All Maps | STV","players":null},{"server_id":7,"name":"Uncletopia | Seattle | 1 | All Maps","name_short":"sea-1","host":"sea-1.us.uncletopia.com","port":27015,"enabled":true,"region":"us-west","cc":"us","latitude":47.608013,"longitude":-122.33517,"reserved":0,"last_update":"0001-01-01T00:00:00Z","name_a2s":"Uncletopia | Seattle | 1 | All Maps","protocol":17,"map":"pl_upward","folder":"tf","game":"Team Fortress","app_id":440,"player_count":21,"max_players":24,"Bots":0,"server_type":"Dedicated","server_os":"Linux","password":true,"vac":true,"version":"7757534","steam_id":85568392924469997,"keywords":["nocrits","nodmgspread","payload","uncletopia"],"game_id":440,"stv_port":27016,"stv_name":"Uncletopia | Seattle | 1 | All Maps | STV","players":[{"user_id":444,"name":"Tyzombiecrusher","steam_id":76561198175855278,"connected_time":1162000000000,"state":"active","ping":109},{"user_id":440,"name":"Falleax","steam_id":76561198021154908,"connected_time":1928000000000,"state":"active","ping":91},{"user_id":452,"name":"Cancerous Pineapple","steam_id":76561198097307656,"connected_time":144000000000,"state":"active","ping":73},{"user_id":442,"name":"skelly702","steam_id":76561198384117003,"connected_time":1597000000000,"state":"active","ping":70},{"user_id":454,"name":"S.A.W Engineer","steam_id":76561199134893517,"connected_time":69000000000,"state":"active","ping":122},{"user_id":450,"name":"john pilksin","steam_id":76561199055951633,"connected_time":368000000000,"state":"active","ping":61},{"user_id":455,"name":"Velvety","steam_id":76561198081922813,"connected_time":66000000000,"state":"active","ping":66},{"user_id":453,"name":"Pickle Lady","steam_id":76561198418116040,"connected_time":82000000000,"state":"active","ping":144},{"user_id":438,"name":"daBigBoss","steam_id":76561198120428029,"connected_time":2089000000000,"state":"active","ping":75},{"user_id":456,"name":"Thorngot","steam_id":76561198398094468,"connected_time":36000000000,"state":"active","ping":38},{"user_id":250,"name":"lili","steam_id":76561199391478575,"connected_time":13661000000000,"state":"active","ping":70},{"user_id":443,"name":"Saint Pablo","steam_id":76561198083300159,"connected_time":1225000000000,"state":"active","ping":64},{"user_id":445,"name":"AnarchyPaladin","steam_id":76561198066635428,"connected_time":1053000000000,"state":"active","ping":77},{"user_id":388,"name":"[TTV]slendermansmoom","steam_id":76561199053946374,"connected_time":4291000000000,"state":"active","ping":60},{"user_id":391,"name":"BIGWELDFROMROBOTS","steam_id":76561199275349806,"connected_time":4053000000000,"state":"active","ping":76},{"user_id":427,"name":"morgenne","steam_id":76561199224141679,"connected_time":2667000000000,"state":"active","ping":39},{"user_id":415,"name":"1dk","steam_id":76561198135104742,"connected_time":3346000000000,"state":"active","ping":45},{"user_id":423,"name":"acura rsx","steam_id":76561198353456379,"connected_time":2844000000000,"state":"active","ping":75},{"user_id":451,"name":"domfoor22","steam_id":76561199445914774,"connected_time":317000000000,"state":"active","ping":128},{"user_id":448,"name":"Themasterman75","steam_id":76561199385573293,"connected_time":648000000000,"state":"active","ping":71},{"user_id":369,"name":"toes","steam_id":76561198221151676,"connected_time":6214000000000,"state":"active","ping":53}]},{"server_id":119,"name":"Uncletopia | Seattle | 2 | All Maps","name_short":"sea-2","host":"sea-1.us.uncletopia.com","port":27025,"enabled":true,"region":"us-west","cc":"us","latitude":47.608013,"longitude":-122.33517,"reserved":0,"last_update":"0001-01-01T00:00:00Z","name_a2s":"Uncletopia | Seattle | 2 | All Maps","protocol":17,"map":"cp_dustbowl","folder":"tf","game":"Team Fortress","app_id":440,"player_count":24,"max_players":24,"Bots":0,"server_type":"Dedicated","server_os":"Linux","password":true,"vac":true,"version":"7757534","steam_id":85568392924469998,"keywords":["cp","nocrits","nodmgspread","uncletopia"],"game_id":440,"stv_port":27026,"stv_name":"Uncletopia | Seattle | 2 | All Maps | STV","players":[{"user_id":151,"name":"O","steam_id":76561198450073779,"connected_time":462000000000,"state":"active","ping":45},{"user_id":124,"name":"lamadre07","steam_id":76561198067337453,"connected_time":2146000000000,"state":"active","ping":130},{"user_id":108,"name":"kodynotcody","steam_id":76561198340685758,"connected_time":3079000000000,"state":"active","ping":66},{"user_id":113,"name":"shy guy","steam_id":76561198151246059,"connected_time":2630000000000,"state":"active","ping":63},{"user_id":148,"name":"merge without looking","steam_id":76561198056702628,"connected_time":605000000000,"state":"active","ping":89},{"user_id":141,"name":"FourBeanSalad","steam_id":76561198117415145,"connected_time":696000000000,"state":"active","ping":47},{"user_id":154,"name":"rustyorion","steam_id":76561198439186347,"connected_time":240000000000,"state":"active","ping":71},{"user_id":130,"name":"Shamrock Shake Oct.10.2020 @8pm","steam_id":76561198833313201,"connected_time":1527000000000,"state":"active","ping":83},{"user_id":155,"name":"fox point ranger","steam_id":76561198000765454,"connected_time":220000000000,"state":"active","ping":81},{"user_id":142,"name":"Bad Opinions Squid #SaveTF2","steam_id":76561198271429852,"connected_time":676000000000,"state":"active","ping":69},{"user_id":149,"name":"dougrocks421","steam_id":76561198165063918,"connected_time":537000000000,"state":"active","ping":42},{"user_id":128,"name":"Villchip","steam_id":76561198198599982,"connected_time":1767000000000,"state":"active","ping":51},{"user_id":132,"name":"Edd","steam_id":76561198203088002,"connected_time":1200000000000,"state":"active","ping":73},{"user_id":134,"name":"Marauding Morty","steam_id":76561198013159528,"connected_time":930000000000,"state":"active","ping":104},{"user_id":143,"name":"strbry","steam_id":76561198155133601,"connected_time":666000000000,"state":"active","ping":54},{"user_id":145,"name":"Troy Winters","steam_id":76561198051442422,"connected_time":656000000000,"state":"active","ping":85},{"user_id":129,"name":"Lesbian Futa Mommy","steam_id":76561198130479030,"connected_time":1658000000000,"state":"active","ping":59},{"user_id":117,"name":"Gocel","steam_id":76561198071467515,"connected_time":2560000000000,"state":"active","ping":124},{"user_id":157,"name":"autumnal.messenger","steam_id":76561199345816635,"connected_time":157000000000,"state":"active","ping":54},{"user_id":147,"name":"TrixieHap","steam_id":76561198728548389,"connected_time":642000000000,"state":"active","ping":57},{"user_id":119,"name":"Orca?","steam_id":76561198164341099,"connected_time":2500000000000,"state":"active","ping":96},{"user_id":156,"name":"chanoc","steam_id":76561198026734746,"connected_time":186000000000,"state":"active","ping":68},{"user_id":101,"name":"June","steam_id":76561198141803658,"connected_time":4319000000000,"state":"active","ping":71},{"user_id":150,"name":"Connick The Hedgehog","steam_id":76561198388471011,"connected_time":484000000000,"state":"active","ping":72}]},{"server_id":406,"name":"Uncletopia | Seattle | 3 | Stopwatch Beta","name_short":"sea-3","host":"sea-1.us.uncletopia.com","port":27035,"enabled":true,"region":"us-west","cc":"us","latitude":47.608013,"longitude":-122.33517,"reserved":0,"last_update":"0001-01-01T00:00:00Z","name_a2s":"Uncletopia | Seattle | 3 | Stopwatch Beta","protocol":17,"map":"cp_dustbowl","folder":"tf","game":"Team Fortress","app_id":440,"player_count":0,"max_players":24,"Bots":0,"server_type":"Dedicated","server_os":"Linux","password":true,"vac":true,"version":"7757534","steam_id":85568392924515217,"keywords":["cp","nocrits","nodmgspread","uncletopia"],"game_id":440,"stv_port":27036,"stv_name":"Uncletopia | Seattle | 3 | Stopwatch Beta | STV","players":null},{"server_id":17,"name":"Uncletopia | San Francisco | 1 | All Maps","name_short":"sfo-1","host":"sfo-1.us.uncletopia.com","port":27015,"enabled":true,"region":"us-west","cc":"us","latitude":37.77397,"longitude":-122.4313,"reserved":0,"last_update":"0001-01-01T00:00:00Z","name_a2s":"Uncletopia | San Francisco | 1 | All Maps","protocol":17,"map":"pl_badwater","folder":"tf","game":"Team Fortress","app_id":440,"player_count":6,"max_players":24,"Bots":0,"server_type":"Dedicated","server_os":"Linux","password":true,"vac":true,"version":"7757534","steam_id":85568392924469999,"keywords":["nocrits","nodmgspread","payload","uncletopia"],"game_id":440,"stv_port":27016,"stv_name":"Uncletopia | San Francisco | 1 | All Maps | STV","players":[{"user_id":18,"name":"goldhed","steam_id":76561198051751133,"connected_time":548000000000,"state":"active","ping":73},{"user_id":17,"name":"N0Ne","steam_id":76561198376822522,"connected_time":956000000000,"state":"active","ping":73},{"user_id":19,"name":"Shampoo Connoisseur","steam_id":76561199362454584,"connected_time":396000000000,"state":"active","ping":79},{"user_id":20,"name":"Busness_pig","steam_id":76561199244823990,"connected_time":188000000000,"state":"active","ping":86},{"user_id":21,"name":"nylapoot","steam_id":76561199273822633,"connected_time":148000000000,"state":"active","ping":65},{"user_id":23,"name":"Drip Lover","steam_id":76561199012302055,"connected_time":36000000000,"state":"active","ping":118}]},{"server_id":18,"name":"Uncletopia | San Francisco | 2 | All Maps","name_short":"sfo-2","host":"sfo-1.us.uncletopia.com","port":27025,"enabled":true,"region":"us-west","cc":"us","latitude":37.77397,"longitude":-122.4313,"reserved":0,"last_update":"0001-01-01T00:00:00Z","name_a2s":"Uncletopia | San Francisco | 2 | All Maps","protocol":17,"map":"cp_sunshine","folder":"tf","game":"Team Fortress","app_id":440,"player_count":0,"max_players":24,"Bots":0,"server_type":"Dedicated","server_os":"Linux","password":true,"vac":true,"version":"7757534","steam_id":85568392924470000,"keywords":["cp","nocrits","nodmgspread","uncletopia"],"game_id":440,"stv_port":27026,"stv_name":"Uncletopia | San Francisco | 2 | All Maps | STV","players":null},{"server_id":19,"name":"Uncletopia | San Francisco | 3 | Stopwatch Beta","name_short":"sfo-3","host":"sfo-1.us.uncletopia.com","port":27035,"enabled":true,"region":"us-west","cc":"us","latitude":37.77397,"longitude":-122.4313,"reserved":0,"last_update":"0001-01-01T00:00:00Z","name_a2s":"Uncletopia | San Francisco | 3 | Stopwatch Beta","protocol":17,"map":"koth_lakeside_final","folder":"tf","game":"Team Fortress","app_id":440,"player_count":0,"max_players":24,"Bots":0,"server_type":"Dedicated","server_os":"Linux","password":true,"vac":true,"version":"7757534","steam_id":85568392924742824,"keywords":["cp","nocrits","nodmgspread","uncletopia"],"game_id":440,"stv_port":27036,"stv_name":"Uncletopia | San Francisco | 3 | Stopwatch Beta | STV","players":null},{"server_id":20,"name":"Uncletopia | San Francisco | 4 | Community","name_short":"sfo-4","host":"sfo-1.us.uncletopia.com","port":27045,"enabled":true,"region":"us-west","cc":"us","latitude":37.77397,"longitude":-122.4313,"reserved":0,"last_update":"0001-01-01T00:00:00Z","name_a2s":"Uncletopia | San Francisco | 4 | Community","protocol":17,"map":"cp_altitude","folder":"tf","game":"Team Fortress","app_id":440,"player_count":0,"max_players":24,"Bots":0,"server_type":"Dedicated","server_os":"Linux","password":true,"vac":true,"version":"7757534","steam_id":85568392924742826,"keywords":["cp","nocrits","nodmgspread","uncletopia"],"game_id":440,"stv_port":27046,"stv_name":"Uncletopia | San Francisco | 4 | Community | STV","players":null},{"server_id":141,"name":"Uncletopia | Sydney | 1 | All Maps","name_short":"syd-1","host":"syd-1.au.uncletopia.com","port":27015,"enabled":true,"region":"au","cc":"au","latitude":-33.865143,"longitude":151.2099,"reserved":0,"last_update":"0001-01-01T00:00:00Z","name_a2s":"Uncletopia | Sydney | 1 | All Maps","protocol":17,"map":"koth_highpass","folder":"tf","game":"Team Fortress","app_id":440,"player_count":0,"max_players":24,"Bots":0,"server_type":"Dedicated","server_os":"Linux","password":true,"vac":true,"version":"7757534","steam_id":85568392924470001,"keywords":["cp","nocrits","nodmgspread","uncletopia"],"game_id":440,"stv_port":27016,"stv_name":"Uncletopia | Sydney | 1 | All Maps | STV","players":null},{"server_id":123,"name":"Uncletopia | Sydney | 2 | All Maps","name_short":"syd-2","host":"syd-1.au.uncletopia.com","port":27025,"enabled":true,"region":"au","cc":"au","latitude":-33.865143,"longitude":151.2099,"reserved":0,"last_update":"0001-01-01T00:00:00Z","name_a2s":"Uncletopia | Sydney | 2 | All Maps","protocol":17,"map":"cp_dustbowl","folder":"tf","game":"Team Fortress","app_id":440,"player_count":0,"max_players":24,"Bots":0,"server_type":"Dedicated","server_os":"Linux","password":true,"vac":true,"version":"7757534","steam_id":85568392924470002,"keywords":["cp","nocrits","nodmgspread","uncletopia"],"game_id":440,"stv_port":27026,"stv_name":"Uncletopia | Sydney | 2 | All Maps | STV","players":null},{"server_id":395,"name":"Uncletopia | Sydney | 3 | All Maps","name_short":"syd-3","host":"syd-1.au.uncletopia.com","port":27035,"enabled":true,"region":"au","cc":"au","latitude":-33.865143,"longitude":151.2099,"reserved":0,"last_update":"0001-01-01T00:00:00Z","name_a2s":"Uncletopia | Sydney | 3 | All Maps","protocol":17,"map":"koth_lakeside_final","folder":"tf","game":"Team Fortress","app_id":440,"player_count":2,"max_players":24,"Bots":0,"server_type":"Dedicated","server_os":"Linux","password":true,"vac":true,"version":"7757534","steam_id":85568392925194467,"keywords":["cp","nocrits","nodmgspread","uncletopia"],"game_id":440,"stv_port":27036,"stv_name":"Uncletopia | Sydney | 3 | All Maps | STV","players":[{"user_id":3,"name":"Smart fella","steam_id":76561198315732431,"connected_time":2546000000000,"state":"active","ping":206},{"user_id":4,"name":"Cosmic Yoshi","steam_id":76561199195528497,"connected_time":2534000000000,"state":"active","ping":218}]},{"server_id":396,"name":"Uncletopia | Sydney | 4 | All Maps","name_short":"syd-4","host":"syd-1.au.uncletopia.com","port":27045,"enabled":true,"region":"au","cc":"au","latitude":-33.865143,"longitude":151.2099,"reserved":0,"last_update":"0001-01-01T00:00:00Z","name_a2s":"Uncletopia | Sydney | 4 | All Maps","protocol":17,"map":"koth_highpass","folder":"tf","game":"Team Fortress","app_id":440,"player_count":0,"max_players":24,"Bots":0,"server_type":"Dedicated","server_os":"Linux","password":true,"vac":true,"version":"7757534","steam_id":85568392925397958,"keywords":["cp","nocrits","nodmgspread","uncletopia"],"game_id":440,"stv_port":27046,"stv_name":"Uncletopia | Sydney | 4 | All Maps | STV","players":null},{"server_id":58,"name":"Uncletopia | Sydney | 5 | Stopwatch Beta","name_short":"syd-5","host":"syd-1.au.uncletopia.com","port":27055,"enabled":true,"region":"au","cc":"au","latitude":-33.865143,"longitude":151.2099,"reserved":0,"last_update":"0001-01-01T00:00:00Z","name_a2s":"Uncletopia | Sydney | 5 | Stopwatch Beta","protocol":17,"map":"koth_cascade","folder":"tf","game":"Team Fortress","app_id":440,"player_count":0,"max_players":24,"Bots":0,"server_type":"Dedicated","server_os":"Linux","password":true,"vac":true,"version":"7757534","steam_id":85568392925397959,"keywords":["cp","nocrits","nodmgspread","uncletopia"],"game_id":440,"stv_port":27056,"stv_name":"Uncletopia | Sydney | 5 | Stopwatch Beta | STV","players":null},{"server_id":59,"name":"Uncletopia | Sydney | 6 | Community","name_short":"syd-6","host":"syd-1.au.uncletopia.com","port":27065,"enabled":true,"region":"au","cc":"au","latitude":-33.865143,"longitude":151.2099,"reserved":0,"last_update":"0001-01-01T00:00:00Z","name_a2s":"Uncletopia | Sydney | 6 | Community","protocol":17,"map":"workshop/pl_badwater_pro_v12.ugc2142942074","folder":"tf","game":"Team Fortress","app_id":440,"player_count":0,"max_players":24,"Bots":0,"server_type":"Dedicated","server_os":"Linux","password":true,"vac":true,"version":"7757534","steam_id":85568392925397960,"keywords":["nocrits","nodmgspread","payload","uncletopia"],"game_id":440,"stv_port":27066,"stv_name":"Uncletopia | Sydney | 6 | Community | STV","players":null},{"server_id":49,"name":"Uncletopia | Warsaw | 1 | All Maps","name_short":"waw-1","host":"waw-1.pl.uncletopia.com","port":27015,"enabled":true,"region":"eu","cc":"pl","latitude":52.2297,"longitude":21.017532,"reserved":0,"last_update":"0001-01-01T00:00:00Z","name_a2s":"","protocol":0,"map":"","folder":"","game":"","app_id":0,"player_count":0,"max_players":0,"Bots":0,"server_type":"","server_os":"","password":false,"vac":false,"version":"","steam_id":0,"keywords":null,"game_id":0,"stv_port":0,"stv_name":"","players":null},{"server_id":50,"name":"Uncletopia | Warsaw | 2 | All Maps","name_short":"waw-2","host":"waw-1.pl.uncletopia.com","port":27025,"enabled":true,"region":"eu","cc":"pl","latitude":52.2297,"longitude":21.017532,"reserved":0,"last_update":"0001-01-01T00:00:00Z","name_a2s":"Uncletopia | Warsaw | 2 | All Maps","protocol":17,"map":"koth_viaduct","folder":"tf","game":"Team Fortress","app_id":440,"player_count":0,"max_players":24,"Bots":0,"server_type":"Dedicated","server_os":"Linux","password":true,"vac":true,"version":"7757534","steam_id":85568392925397851,"keywords":["cp","nocrits","nodmgspread","uncletopia"],"game_id":440,"stv_port":27026,"stv_name":"Uncletopia | Warsaw | 2 | All Maps | STV","players":null},{"server_id":51,"name":"Uncletopia | Warsaw | 3 | All Maps","name_short":"waw-3","host":"waw-1.pl.uncletopia.com","port":27035,"enabled":true,"region":"eu","cc":"pl","latitude":52.2297,"longitude":21.017532,"reserved":0,"last_update":"0001-01-01T00:00:00Z","name_a2s":"Uncletopia | Warsaw | 3 | All Maps","protocol":17,"map":"pl_badwater","folder":"tf","game":"Team Fortress","app_id":440,"player_count":0,"max_players":24,"Bots":0,"server_type":"Dedicated","server_os":"Linux","password":true,"vac":true,"version":"7757534","steam_id":85568392925397852,"keywords":["nocrits","nodmgspread","payload","uncletopia"],"game_id":440,"stv_port":27036,"stv_name":"Uncletopia | Warsaw | 3 | All Maps | STV","players":null},{"server_id":52,"name":"Uncletopia | Warsaw | 4 | All Maps","name_short":"waw-4","host":"waw-1.pl.uncletopia.com","port":27045,"enabled":true,"region":"eu","cc":"pl","latitude":52.2297,"longitude":21.017532,"reserved":0,"last_update":"0001-01-01T00:00:00Z","name_a2s":"Uncletopia | Warsaw | 4 | All Maps","protocol":17,"map":"koth_lakeside_final","folder":"tf","game":"Team Fortress","app_id":440,"player_count":0,"max_players":24,"Bots":0,"server_type":"Dedicated","server_os":"Linux","password":true,"vac":true,"version":"7757534","steam_id":85568392925397853,"keywords":["cp","nocrits","nodmgspread","uncletopia"],"game_id":440,"stv_port":27046,"stv_name":"Uncletopia | Warsaw | 4 | All Maps | STV","players":null},{"server_id":53,"name":"Uncletopia | Warsaw | 5 | Stopwatch Beta","name_short":"waw-5","host":"waw-1.pl.uncletopia.com","port":27055,"enabled":true,"region":"eu","cc":"pl","latitude":52.2297,"longitude":21.017532,"reserved":0,"last_update":"0001-01-01T00:00:00Z","name_a2s":"Uncletopia | Warsaw | 5 | Stopwatch Beta","protocol":17,"map":"pl_borneo","folder":"tf","game":"Team Fortress","app_id":440,"player_count":0,"max_players":24,"Bots":0,"server_type":"Dedicated","server_os":"Linux","password":true,"vac":true,"version":"7757534","steam_id":85568392925397854,"keywords":["nocrits","nodmgspread","payload","uncletopia"],"game_id":440,"stv_port":27056,"stv_name":"Uncletopia | Warsaw | 5 | Stopwatch Beta | STV","players":null},{"server_id":54,"name":"Uncletopia | Warsaw | 6 | Community","name_short":"waw-6","host":"waw-1.pl.uncletopia.com","port":27065,"enabled":true,"region":"eu","cc":"pl","latitude":52.2297,"longitude":21.017532,"reserved":0,"last_update":"0001-01-01T00:00:00Z","name_a2s":"Uncletopia | Warsaw | 6 | Community","protocol":17,"map":"koth_lakeside_final","folder":"tf","game":"Team Fortress","app_id":440,"player_count":0,"max_players":24,"Bots":0,"server_type":"Dedicated","server_os":"Linux","password":true,"vac":true,"version":"7757534","steam_id":85568392925397856,"keywords":["cp","nocrits","nodmgspread","uncletopia"],"game_id":440,"stv_port":27066,"stv_name":"Uncletopia | Warsaw | 6 | Community | STV","players":null}]}