{"status":true,"message":"","result":[{"server_id":9,"name":"Uncletopia | Atlanta | 1 | All Maps","name_short":"atl-1","host":"atl-1.us.uncletopia.com","port":27015,"enabled":true,"region":"us-east","cc":"us","latitude":33.753746,"longitude":-84.38633,"reserved":0,"last_update":"0001-01-01T00:00:00Z","name_a2s":"Uncletopia | Atlanta | 1 | All Maps","protocol":17,"map":"koth_cascade","folder":"tf","game":"Team Fortress","app_id":440,"player_count":0,"max_players":24,"Bots":0,"server_type":"Dedicated","server_os":"Linux","password":true,"vac":true,"version":"7742253","steam_id":85568392924469982,"keywords":["cp","nocrits","nodmgspread","uncletopia"],"game_id":440,"stv_port":27016,"stv_name":"Uncletopia | Atlanta | 1 | All Maps | STV","players":null},{"server_id":400,"name":"Uncletopia | Atlanta | 3 | Stopwatch Beta","name_short":"atl-3","host":"atl-1.us.uncletopia.com","port":27035,"enabled":true,"region":"us-east","cc":"us","latitude":33.753746,"longitude":-84.38633,"reserved":0,"last_update":"0001-01-01T00:00:00Z","name_a2s":"Uncletopia | Atlanta | 3 | Stopwatch Beta","protocol":17,"map":"pl_pier","folder":"tf","game":"Team Fortress","app_id":440,"player_count":0,"max_players":24,"Bots":0,"server_type":"Dedicated","server_os":"Linux","password":true,"vac":true,"version":"7742253","steam_id":85568392924515187,"keywords":["nocrits","nodmgspread","payload","uncletopia"],"game_id":440,"stv_port":27036,"stv_name":"Uncletopia | Atlanta | 3 | Stopwatch Beta | STV","players":null},{"server_id":401,"name":"Uncletopia | Atlanta | 4 | No Payload","name_short":"atl-4","host":"atl-1.us.uncletopia.com","port":27045,"enabled":true,"region":"us-east","cc":"us","latitude":33.753746,"longitude":-84.38633,"reserved":0,"last_update":"0001-01-01T00:00:00Z","name_a2s":"Uncletopia | Atlanta | 4 | No Payload","protocol":17,"map":"pl_pier","folder":"tf","game":"Team Fortress","app_id":440,"player_count":0,"max_players":24,"Bots":0,"server_type":"Dedicated","server_os":"Linux","password":true,"vac":true,"version":"7723704","steam_id":85568392924515188,"keywords":["nocrits","nodmgspread","payload","uncletopia"],"game_id":440,"stv_port":27046,"stv_name":"Uncletopia | Atlanta | 4 | No Payload | STV","players":null},{"server_id":2,"name":"Uncletopia | Chicago | 1 | All Maps","name_short":"chi-1","host":"chi-1.us.uncletopia.com","port":27015,"enabled":true,"region":"us-central","cc":"us","latitude":41.881832,"longitude":-87.62318,"reserved":0,"last_update":"0001-01-01T00:00:00Z","name_a2s":"Uncletopia | Chicago | 1 | All Maps","protocol":17,"map":"pl_barnblitz","folder":"tf","game":"Team Fortress","app_id":440,"player_count":0,"max_players":24,"Bots":0,"server_type":"Dedicated","server_os":"Linux","password":true,"vac":true,"version":"7742253","steam_id":85568392924469984,"keywords":["nocrits","nodmgspread","payload","uncletopia"],"game_id":440,"stv_port":27016,"stv_name":"Uncletopia | Chicago | 1 | All Maps | STV","players":null},{"server_id":106,"name":"Uncletopia | Chicago | 2 | All Maps","name_short":"chi-2","host":"chi-1.us.uncletopia.com","port":27025,"enabled":true,"region":"us-central","cc":"us","latitude":41.881832,"longitude":-87.62318,"reserved":0,"last_update":"0001-01-01T00:00:00Z","name_a2s":"Uncletopia | Chicago | 2 | All Maps","protocol":17,"map":"koth_harvest_final","folder":"tf","game":"Team Fortress","app_id":440,"player_count":24,"max_players":24,"Bots":0,"server_type":"Dedicated","server_os":"Linux","password":true,"vac":true,"version":"7742253","steam_id":85568392924469985,"keywords":["cp","nocrits","nodmgspread","uncletopia"],"game_id":440,"stv_port":27026,"stv_name":"Uncletopia | Chicago | 2 | All Maps | STV","players":[{"user_id":40,"name":"Provocator","steam_id":76561197961830410,"connected_time":1748000000000,"state":"active","ping":70},{"user_id":60,"name":"Jokezonyu","steam_id":76561198213167893,"connected_time":577000000000,"state":"active","ping":93},{"user_id":42,"name":"rlty","steam_id":76561198009395055,"connected_time":1733000000000,"state":"active","ping":64},{"user_id":15,"name":"Mad Cow‚Äª","steam_id":76561198132498594,"connected_time":3212000000000,"state":"active","ping":47},{"user_id":45,"name":"Spooky Wizard","steam_id":76561198052573339,"connected_time":1689000000000,"state":"active","ping":84},{"user_id":43,"name":"TheFlyingTortis","steam_id":76561198071576016,"connected_time":1728000000000,"state":"active","ping":53},{"user_id":59,"name":"Scout","steam_id":76561198081464125,"connected_time":610000000000,"state":"active","ping":64},{"user_id":13,"name":"Ripheart","steam_id":76561198089661561,"connected_time":3809000000000,"state":"active","ping":53},{"user_id":53,"name":"Knock on the sky and listen","steam_id":76561198077597130,"connected_time":1088000000000,"state":"active","ping":92},{"user_id":28,"name":"Coup de Grass","steam_id":76561198011643226,"connected_time":2328000000000,"state":"active","ping":82},{"user_id":55,"name":"IPlayGamez","steam_id":76561198041387508,"connected_time":955000000000,"state":"active","ping":68},{"user_id":19,"name":"The Collective","steam_id":76561198170423483,"connected_time":2753000000000,"state":"active","ping":74},{"user_id":41,"name":"WhippedHook","steam_id":76561198069581138,"connected_time":1738000000000,"state":"active","ping":76},{"user_id":44,"name":"aisu","steam_id":76561198043768507,"connected_time":1714000000000,"state":"active","ping":68},{"user_id":46,"name":"33","steam_id":76561198894676484,"connected_time":1657000000000,"state":"active","ping":98},{"user_id":54,"name":"Mineboi98","steam_id":76561199076830259,"connected_time":1003000000000,"state":"active","ping":76},{"user_id":57,"name":"PKBEAST_7","steam_id":76561198177136537,"connected_time":781000000000,"state":"active","ping":81},{"user_id":30,"name":"Tinker","steam_id":76561198271981179,"connected_time":2311000000000,"state":"active","ping":60},{"user_id":33,"name":"category 5 girl moment","steam_id":76561198972801541,"connected_time":2038000000000,"state":"active","ping":67},{"user_id":48,"name":"Grammer","steam_id":76561197977007845,"connected_time":1418000000000,"state":"active","ping":92},{"user_id":37,"name":"BaguetteThief","steam_id":76561197962257656,"connected_time":1920000000000,"state":"active","ping":74},{"user_id":39,"name":"urban legend","steam_id":76561198069188276,"connected_time":1868000000000,"state":"active","ping":83},{"user_id":52,"name":"Lex","steam_id":76561198165796487,"connected_time":1224000000000,"state":"active","ping":76},{"user_id":58,"name":"Bl√•haj","steam_id":76561198444871237,"connected_time":774000000000,"state":"active","ping":67}]},{"server_id":402,"name":"Uncletopia | Chicago | 3 | All Maps","name_short":"chi-3","host":"chi-1.us.uncletopia.com","port":27035,"enabled":true,"region":"us-central","cc":"us","latitude":41.881832,"longitude":-87.62318,"reserved":0,"last_update":"0001-01-01T00:00:00Z","name_a2s":"Uncletopia | Chicago | 3 | All Maps","protocol":17,"map":"koth_viaduct","folder":"tf","game":"Team Fortress","app_id":440,"player_count":0,"max_players":24,"Bots":0,"server_type":"Dedicated","server_os":"Linux","password":true,"vac":true,"version":"7742253","steam_id":85568392924515191,"keywords":["cp","nocrits","nodmgspread","uncletopia"],"game_id":440,"stv_port":27036,"stv_name":"Uncletopia | Chicago | 3 | All Maps | STV","players":null},{"server_id":403,"name":"Uncletopia | Chicago | 4 | All Maps","name_short":"chi-4","host":"chi-1.us.uncletopia.com","port":27045,"enabled":true,"region":"us-central","cc":"us","latitude":41.881832,"longitude":-87.62318,"reserved":0,"last_update":"0001-01-01T00:00:00Z","name_a2s":"Uncletopia | Chicago | 4 | All Maps","protocol":17,"map":"koth_lakeside_final","folder":"tf","game":"Team Fortress","app_id":440,"player_count":0,"max_players":24,"Bots":0,"server_type":"Dedicated","server_os":"Linux","password":true,"vac":true,"version":"7742253","steam_id":85568392924515193,"keywords":["cp","nocrits","nodmgspread","uncletopia"],"game_id":440,"stv_port":27046,"stv_name":"Uncletopia | Chicago | 4 | All Maps | STV","players":null},{"server_id":36,"name":"Uncletopia | Chicago | 5 | All Maps","name_short":"chi-5","host":"chi-2.us.uncletopia.com","port":27015,"enabled":true,"region":"us-central","cc":"us","latitude":41.881832,"longitude":-87.62318,"reserved":0,"last_update":"0001-01-01T00:00:00Z","name_a2s":"Uncletopia | Chicago | 5 | All Maps","protocol":17,"map":"pl_upward","folder":"tf","game":"Team Fortress","app_id":440,"player_count":0,"max_players":24,"Bots":0,"server_type":"Dedicated","server_os":"Linux","password":true,"vac":true,"version":"7742253","steam_id":85568392924866362,"keywords":["nocrits","nodmgspread","payload","uncletopia"],"game_id":440,"stv_port":27016,"stv_name":"Uncletopia | Chicago | 5 | All Maps | STV","players":null},{"server_id":37,"name":"Uncletopia | Chicago | 6 | All Maps","name_short":"chi-6","host":"chi-2.us.uncletopia.com","port":27025,"enabled":true,"region":"us-central","cc":"us","latitude":41.881832,"longitude":-87.62318,"reserved":0,"last_update":"0001-01-01T00:00:00Z","name_a2s":"Uncletopia | Chicago | 6 | All Maps","protocol":17,"map":"koth_highpass","folder":"tf","game":"Team Fortress","app_id":440,"player_count":0,"max_players":24,"Bots":0,"server_type":"Dedicated","server_os":"Linux","password":true,"vac":true,"version":"7742253","steam_id":85568392924866363,"keywords":["cp","nocrits","nodmgspread","uncletopia"],"game_id":440,"stv_port":27026,"stv_name":"Uncletopia | Chicago | 6 | All Maps | STV","players":null},{"server_id":38,"name":"Uncletopia | Chicago | 7 | Stopwatch Beta","name_short":"chi-7","host":"chi-2.us.uncletopia.com","port":27035,"enabled":true,"region":"us-central","cc":"us","latitude":41.881832,"longitude":-87.62318,"reserved":0,"last_update":"0001-01-01T00:00:00Z","name_a2s":"Uncletopia | Chicago | 7 | Stopwatch Beta","protocol":17,"map":"koth_lakeside_final","folder":"tf","game":"Team Fortress","app_id":440,"player_count":0,"max_players":24,"Bots":0,"server_type":"Dedicated","server_os":"Linux","password":true,"vac":true,"version":"7742253","steam_id":85568392924866364,"keywords":["cp","nocrits","nodmgspread","uncletopia"],"game_id":440,"stv_port":27036,"stv_name":"Uncletopia | Chicago | 7 | Stopwatch Beta | STV","players":null},{"server_id":39,"name":"Uncletopia | Chicago | 8 | Community","name_short":"chi-8","host":"chi-2.us.uncletopia.com","port":27045,"enabled":true,"region":"us-central","cc":"us","latitude":41.881832,"longitude":-87.62318,"reserved":0,"last_update":"0001-01-01T00:00:00Z","name_a2s":"Uncletopia | Chicago | 8 | Community","protocol":17,"map":"koth_lakeside_final","folder":"tf","game":"Team Fortress","app_id":440,"player_count":0,"max_players":24,"Bots":0,"server_type":"Dedicated","server_os":"Linux","password":true,"vac":true,"version":"7742253","steam_id":85568392924866365,"keywords":["cp","nocrits","nodmgspread","uncletopia"],"game_id":440,"stv_port":27046,"stv_name":"Uncletopia | Chicago | 8 | Community | STV","players":null},{"server_id":8,"name":"Uncletopia | Dallas | 1 | All Maps","name_short":"dal-1","host":"dal-1.us.uncletopia.com","port":27015,"enabled":true,"region":"us-central","cc":"us","latitude":32.779167,"longitude":-96.80889,"reserved":0,"last_update":"0001-01-01T00:00:00Z","name_a2s":"Uncletopia | Dallas | 1 | All Maps","protocol":17,"map":"cp_mountainlab","folder":"tf","game":"Team Fortress","app_id":440,"player_count":0,"max_players":24,"Bots":0,"server_type":"Dedicated","server_os":"Linux","password":true,"vac":true,"version":"7742253","steam_id":85568392924469986,"keywords":["cp","nocrits","nodmgspread","uncletopia"],"game_id":440,"stv_port":27016,"stv_name":"Uncletopia | Dallas | 1 | All Maps | STV","players":null},{"server_id":108,"name":"Uncletopia | Dallas | 2 | All Maps","name_short":"dal-2","host":"dal-1.us.uncletopia.com","port":27025,"enabled":true,"region":"us-central","cc":"us","latitude":32.779167,"longitude":-96.80889,"reserved":0,"last_update":"0001-01-01T00:00:00Z","name_a2s":"Uncletopia | Dallas | 2 | All Maps","protocol":17,"map":"koth_highpass","folder":"tf","game":"Team Fortress","app_id":440,"player_count":0,"max_players":24,"Bots":0,"server_type":"Dedicated","server_os":"Linux","password":true,"vac":true,"version":"7742253","steam_id":85568392924469988,"keywords":["cp","nocrits","nodmgspread","uncletopia"],"game_id":440,"stv_port":27026,"stv_name":"Uncletopia | Dallas | 2 | All Maps | STV","players":null},{"server_id":5,"name":"Uncletopia | Frankfurt | 1 | All Maps","name_short":"frk-1","host":"frk-1.de.uncletopia.com","port":27015,"enabled":true,"region":"eu","cc":"de","latitude":50.110924,"longitude":8.682127,"reserved":0,"last_update":"0001-01-01T00:00:00Z","name_a2s":"Uncletopia | Frankfurt | 1 | All Maps","protocol":17,"map":"koth_viaduct","folder":"tf","game":"Team Fortress","app_id":440,"player_count":24,"max_players":24,"Bots":0,"server_type":"Dedicated","server_os":"Linux","password":true,"vac":true,"version":"7742253","steam_id":85568392924469989,"keywords":["cp","nocrits","nodmgspread","uncletopia"],"game_id":440,"stv_port":27016,"stv_name":"Uncletopia | Frankfurt | 1 | All Maps | STV","players":[{"user_id":347,"name":"saml","steam_id":76561198040716257,"connected_time":1339000000000,"state":"active","ping":74},{"user_id":339,"name":"thekoolest88","steam_id":76561199022415672,"connected_time":1506000000000,"state":"active","ping":141},{"user_id":231,"name":"Neenuh","steam_id":76561198082751836,"connected_time":8584000000000,"state":"active","ping":72},{"user_id":350,"name":"BORGETENNISCLUB","steam_id":76561198049343723,"connected_time":942000000000,"state":"active","ping":69},{"user_id":329,"name":"punchmypotatoes","steam_id":76561198091255731,"connected_time":3069000000000,"state":"active","ping":64},{"user_id":327,"name":"Chocofrolik","steam_id":76561198454779847,"connected_time":3087000000000,"state":"active","ping":117},{"user_id":356,"name":"kotamine","steam_id":76561198068907991,"connected_time":2000000000,"state":"spawning","ping":55},{"user_id":322,"name":"Pats [·¥ô-Œº]","steam_id":76561198418538887,"connected_time":3588000000000,"state":"active","ping":92},{"user_id":298,"name":"wolffy","steam_id":76561198083145076,"connected_time":4398000000000,"state":"active","ping":54},{"user_id":337,"name":"DeCorruption","steam_id":76561198174998374,"connected_time":1530000000000,"state":"active","ping":53},{"user_id":352,"name":"Thors","steam_id":76561197968739075,"connected_time":859000000000,"state":"active","ping":42},{"user_id":353,"name":"galaxy","steam_id":76561198164819022,"connected_time":839000000000,"state":"active","ping":58},{"user_id":354,"name":"Mor'du","steam_id":76561198274105878,"connected_time":765000000000,"state":"active","ping":80},{"user_id":357,"name":"Luca Nervi","steam_id":76561198015871883,"connected_time":0,"state":"spawning","ping":0},{"user_id":349,"name":"Kutuzov","steam_id":76561198060988694,"connected_time":962000000000,"state":"active","ping":102},{"user_id":342,"name":"Yoinky Spoinky Do'er","steam_id":76561198120949216,"connected_time":1449000000000,"state":"active","ping":60},{"user_id":326,"name":"Alpharen_22","steam_id":76561198803349451,"connected_time":3212000000000,"state":"active","ping":89},{"user_id":351,"name":"Animatic","steam_id":76561198186421601,"connected_time":880000000000,"state":"active","ping":167},{"user_id":333,"name":"Cippo95","steam_id":76561198255311582,"connected_time":1892000000000,"state":"active","ping":74},{"user_id":305,"name":"Seail_M","steam_id":76561198002405605,"connected_time":4316000000000,"state":"active","ping":38},{"user_id":312,"name":"Potato Receiver","steam_id":76561198982674420,"connected_time":4057000000000,"state":"active","ping":72},{"user_id":325,"name":"the rizzler","steam_id":76561198070664114,"connected_time":3407000000000,"state":"active","ping":63},{"user_id":236,"name":"Seeker","steam_id":76561198873052772,"connected_time":7811000000000,"state":"active","ping":63},{"user_id":346,"name":"Yaire","steam_id":76561198017343510,"connected_time":1378000000000,"state":"active","ping":70}]},{"server_id":110,"name":"Uncletopia | Frankfurt | 2 | All Maps","name_short":"frk-2","host":"frk-1.de.uncletopia.com","port":27025,"enabled":true,"region":"eu","cc":"de","latitude":50.110924,"longitude":8.682127,"reserved":0,"last_update":"0001-01-01T00:00:00Z","name_a2s":"Uncletopia | Frankfurt | 2 | All Maps","protocol":17,"map":"pl_badwater","folder":"tf","game":"Team Fortress","app_id":440,"player_count":24,"max_players":24,"Bots":0,"server_type":"Dedicated","server_os":"Linux","password":true,"vac":true,"version":"7742253","steam_id":85568392924469990,"keywords":["nocrits","nodmgspread","payload","uncletopia"],"game_id":440,"stv_port":27026,"stv_name":"Uncletopia | Frankfurt | 2 | All Maps | STV","players":[{"user_id":33,"name":"...","steam_id":76561198969234594,"connected_time":2850000000000,"state":"active","ping":56},{"user_id":74,"name":"Sneaky boi","steam_id":76561199195985387,"connected_time":616000000000,"state":"active","ping":88},{"user_id":73,"name":"ÂçÑ‰πáÂá†„ÑíÂçÇ‰∏® Áà™ÂçÇÂá† \ufffd\ufffd","steam_id":76561198059281585,"connected_time":753000000000,"state":"active","ping":80},{"user_id":72,"name":"nikola.petkov04","steam_id":76561198844826212,"connected_time":775000000000,"state":"active","ping":65},{"user_id":32,"name":"SoupER","steam_id":76561198063056668,"connected_time":2945000000000,"state":"active","ping":54},{"user_id":21,"name":"lizard","steam_id":76561199074653209,"connected_time":4136000000000,"state":"active","ping":77},{"user_id":22,"name":"Luke SpyWalker","steam_id":76561198008643276,"connected_time":4094000000000,"state":"active","ping":62},{"user_id":64,"name":"Despair","steam_id":76561198259487481,"connected_time":1664000000000,"state":"active","ping":76},{"user_id":26,"name":"Eep","steam_id":76561198356840051,"connected_time":3844000000000,"state":"active","ping":79},{"user_id":77,"name":"KingVoker","steam_id":76561198039602539,"connected_time":160000000000,"state":"active","ping":71},{"user_id":35,"name":"forv","steam_id":76561198326667006,"connected_time":2798000000000,"state":"active","ping":65},{"user_id":71,"name":"Scuutte","steam_id":76561198105496293,"connected_time":888000000000,"state":"active","ping":74},{"user_id":76,"name":"barni","steam_id":76561198170420173,"connected_time":493000000000,"state":"active","ping":82},{"user_id":79,"name":"Dr Sex","steam_id":76561198029044617,"connected_time":79000000000,"state":"active","ping":61},{"user_id":41,"name":"Tonne","steam_id":76561197970856766,"connected_time":2661000000000,"state":"active","ping":52},{"user_id":49,"name":"ryan","steam_id":76561198159073505,"connected_time":2528000000000,"state":"active","ping":105},{"user_id":78,"name":"invis","steam_id":76561198120668070,"connected_time":157000000000,"state":"active","ping":62},{"user_id":75,"name":"L√∂ys√§ Masa","steam_id":76561198343396172,"connected_time":502000000000,"state":"active","ping":119},{"user_id":45,"name":"Polaris","steam_id":76561198007076931,"connected_time":2641000000000,"state":"active","ping":65},{"user_id":46,"name":"janvaljen","steam_id":76561198017781450,"connected_time":2639000000000,"state":"active","ping":82},{"user_id":47,"name":"LetMeTie","steam_id":76561198194923081,"connected_time":2637000000000,"state":"active","ping":80},{"user_id":70,"name":"SisuUkko","steam_id":76561198321850428,"connected_time":1126000000000,"state":"active","ping":96},{"user_id":69,"name":"hallfelt","steam_id":76561199008716852,"connected_time":1196000000000,"state":"active","ping":68},{"user_id":52,"name":"Spam „Ç¥ „Ç¥","steam_id":76561198038118301,"connected_time":2506000000000,"state":"active","ping":85}]},{"server_id":308,"name":"Uncletopia | Frankfurt | 3 | All Maps","name_short":"frk-3","host":"frk-1.de.uncletopia.com","port":27035,"enabled":true,"region":"eu","cc":"de","latitude":50.110924,"longitude":8.682127,"reserved":0,"last_update":"0001-01-01T00:00:00Z","name_a2s":"Uncletopia | Frankfurt | 3 | All Maps","protocol":17,"map":"pl_badwater","folder":"tf","game":"Team Fortress","app_id":440,"player_count":0,"max_players":24,"Bots":0,"server_type":"Dedicated","server_os":"Linux","password":true,"vac":true,"version":"7742253","steam_id":85568392924504274,"keywords":["nocrits","nodmgspread","payload","uncletopia"],"game_id":440,"stv_port":27036,"stv_name":"Uncletopia | Frankfurt | 3 | All Maps | STV","players":null},{"server_id":309,"name":"Uncletopia | Frankfurt | 4 | All Maps","name_short":"frk-4","host":"frk-1.de.uncletopia.com","port":27045,"enabled":true,"region":"eu","cc":"de","latitude":50.110924,"longitude":8.682127,"reserved":0,"last_update":"0001-01-01T00:00:00Z","name_a2s":"Uncletopia | Frankfurt | 4 | All Maps","protocol":17,"map":"pl_upward","folder":"tf","game":"Team Fortress","app_id":440,"player_count":0,"max_players":24,"Bots":0,"server_type":"Dedicated","server_os":"Linux","password":true,"vac":true,"version":"7742253","steam_id":85568392924504275,"keywords":["nocrits","nodmgspread","payload","uncletopia"],"game_id":440,"stv_port":27046,"stv_name":"Uncletopia | Frankfurt | 4 | All Maps | STV","players":null},{"server_id":310,"name":"Uncletopia | Frankfurt | 5 | All Maps","name_short":"frk-5","host":"frk-1.de.uncletopia.com","port":27055,"enabled":true,"region":"eu","cc":"de","latitude":50.110924,"longitude":8.682127,"reserved":0,"last_update":"0001-01-01T00:00:00Z","name_a2s":"Uncletopia | Frankfurt | 5 | All Maps","protocol":17,"map":"pl_badwater","folder":"tf","game":"Team Fortress","app_id":440,"player_count":24,"max_players":24,"Bots":0,"server_type":"Dedicated","server_os":"Linux","password":true,"vac":true,"version":"7742253","steam_id":85568392924504277,"keywords":["nocrits","nodmgspread","payload","uncletopia"],"game_id":440,"stv_port":27056,"stv_name":"Uncletopia | Frankfurt | 5 | All Maps | STV","players":[{"user_id":114,"name":"jonttu","steam_id":76561198201999690,"connected_time":1245000000000,"state":"active","ping":89},{"user_id":89,"name":"yuh","steam_id":76561199005555839,"connected_time":3432000000000,"state":"active","ping":67},{"user_id":108,"name":"SCRAMMMBLED","steam_id":76561197998307746,"connected_time":1952000000000,"state":"active","ping":73},{"user_id":7,"name":"Warpig","steam_id":76561199095184327,"connected_time":9286000000000,"state":"active","ping":54},{"user_id":133,"name":"AewCZ789","steam_id":76561199071142291,"connected_time":140000000000,"state":"active","ping":58},{"user_id":105,"name":"Antonio Gilipollas Caraculo","steam_id":76561198412197820,"connected_time":2342000000000,"state":"active","ping":75},{"user_id":115,"name":"Umbro","steam_id":76561198087930438,"connected_time":982000000000,"state":"active","ping":78},{"user_id":109,"name":"LOBZIK","steam_id":76561198114830120,"connected_time":1931000000000,"state":"active","ping":75},{"user_id":78,"name":"Micha≈Ç","steam_id":76561198320346362,"connected_time":4877000000000,"state":"active","ping":59},{"user_id":128,"name":"gagalak","steam_id":76561198089979108,"connected_time":220000000000,"state":"active","ping":89},{"user_id":93,"name":"gaming","steam_id":76561198044461938,"connected_time":3315000000000,"state":"active","ping":59},{"user_id":126,"name":"sugcs","steam_id":76561199032984087,"connected_time":231000000000,"state":"active","ping":45},{"user_id":117,"name":"KGiorgios_Bully","steam_id":76561198825392728,"connected_time":749000000000,"state":"active","ping":117},{"user_id":86,"name":"Oxitocin","steam_id":76561198119542899,"connected_time":3927000000000,"state":"active","ping":78},{"user_id":131,"name":"punk","steam_id":76561199053880024,"connected_time":191000000000,"state":"active","ping":45},{"user_id":21,"name":"AwterSix","steam_id":76561198042561678,"connected_time":8012000000000,"state":"active","ping":50},{"user_id":122,"name":"catgirl (real)","steam_id":76561199045736884,"connected_time":593000000000,"state":"active","ping":59},{"user_id":129,"name":"jt7","steam_id":76561198073655162,"connected_time":207000000000,"state":"active","ping":65},{"user_id":121,"name":"ZRD83[FR]","steam_id":76561198411341922,"connected_time":619000000000,"state":"active","ping":61},{"user_id":52,"name":"enomis2002","steam_id":76561198387892963,"connected_time":6513000000000,"state":"active","ping":65},{"user_id":132,"name":"goktwoxd","steam_id":76561198065114415,"connected_time":189000000000,"state":"active","ping":75},{"user_id":87,"name":"HwK!","steam_id":76561198287835588,"connected_time":3647000000000,"state":"active","ping":82},{"user_id":125,"name":"Ixion","steam_id":76561198041660675,"connected_time":479000000000,"state":"active","ping":75},{"user_id":32,"name":"Grimm","steam_id":76561198044684227,"connected_time":7815000000000,"state":"active","ping":65}]},{"server_id":311,"name":"Uncletopia | Frankfurt | 6 | All Maps","name_short":"frk-6","host":"frk-1.de.uncletopia.com","port":27065,"enabled":true,"region":"eu","cc":"de","latitude":50.110924,"longitude":8.682127,"reserved":0,"last_update":"0001-01-01T00:00:00Z","name_a2s":"Uncletopia | Frankfurt | 6 | All Maps","protocol":17,"map":"koth_lakeside_final","folder":"tf","game":"Team Fortress","app_id":440,"player_count":0,"max_players":24,"Bots":0,"server_type":"Dedicated","server_os":"Linux","password":true,"vac":true,"version":"7742253","steam_id":85568392924504278,"keywords":["cp","nocrits","nodmgspread","uncletopia"],"game_id":440,"stv_port":27066,"stv_name":"Uncletopia | Frankfurt | 6 | All Maps | STV","players":null},{"server_id":23,"name":"Uncletopia | Frankfurt | 7 | Stopwatch Beta","name_short":"frk-7","host":"frk-1.de.uncletopia.com","port":27075,"enabled":true,"region":"eu","cc":"de","latitude":50.110924,"longitude":8.682127,"reserved":0,"last_update":"0001-01-01T00:00:00Z","name_a2s":"Uncletopia | Frankfurt | 7 | Stopwatch Beta","protocol":17,"map":"pl_badwater","folder":"tf","game":"Team Fortress","app_id":440,"player_count":0,"max_players":24,"Bots":0,"server_type":"Dedicated","server_os":"Linux","password":true,"vac":true,"version":"7742253","steam_id":85568392924742827,"keywords":["nocrits","nodmgspread","payload","uncletopia"],"game_id":440,"stv_port":27076,"stv_name":"Uncletopia | Frankfurt | 7 | Stopwatch Beta | STV","players":null},{"server_id":24,"name":"Uncletopia | Frankfurt | 8 | Community","name_short":"frk-8","host":"frk-1.de.uncletopia.com","port":27085,"enabled":true,"region":"eu","cc":"de","latitude":50.110924,"longitude":8.682127,"reserved":0,"last_update":"0001-01-01T00:00:00Z","name_a2s":"Uncletopia | Frankfurt | 8 | Community","protocol":17,"map":"koth_cascade","folder":"tf","game":"Team Fortress","app_id":440,"player_count":0,"max_players":24,"Bots":0,"server_type":"Dedicated","server_os":"Linux","password":true,"vac":true,"version":"7742253","steam_id":85568392924742828,"keywords":["cp","nocrits","nodmgspread","uncletopia"],"game_id":440,"stv_port":27086,"stv_name":"Uncletopia | Frankfurt | 8 | Community | STV","players":null},{"server_id":202,"name":"Uncletopia | Hong Kong | 1 | All Maps","name_short":"hgk-1","host":"hgk-1.hk.uncletopia.com","port":27015,"enabled":true,"region":"asia","cc":"hk","latitude":22.302711,"longitude":114.177216,"reserved":0,"last_update":"0001-01-01T00:00:00Z","name_a2s":"Uncletopia | Hong Kong | 1 | All Maps","protocol":17,"map":"pl_frontier_final","folder":"tf","game":"Team Fortress","app_id":440,"player_count":24,"max_players":24,"Bots":0,"server_type":"Dedicated","server_os":"Linux","password":true,"vac":true,"version":"7742253","steam_id":85568392924494504,"keywords":["nocrits","nodmgspread","payload","uncletopia"],"game_id":440,"stv_port":27016,"stv_name":"Uncletopia | Hong Kong | 1 | All Maps | STV","players":[{"user_id":403,"name":"Noyour","steam_id":76561198323259830,"connected_time":2836000000000,"state":"active","ping":112},{"user_id":390,"name":"Ïø†ÌÇ§","steam_id":76561197997220367,"connected_time":3500000000000,"state":"active","ping":48},{"user_id":446,"name":"June","steam_id":76561199422972321,"connected_time":268000000000,"state":"active","ping":90},{"user_id":450,"name":"AmaiToxic","steam_id":76561199122491157,"connected_time":9000000000,"state":"spawning","ping":126},{"user_id":423,"name":"\"SKS\"","steam_id":76561198187995386,"connected_time":1588000000000,"state":"active","ping":81},{"user_id":436,"name":"Jennie","steam_id":76561198108948900,"connected_time":547000000000,"state":"active","ping":47},{"user_id":353,"name":"r/leroy","steam_id":76561199137927625,"connected_time":8396000000000,"state":"active","ping":98},{"user_id":409,"name":"ArcticDolphin","steam_id":76561198203626319,"connected_time":2333000000000,"state":"active","ping":201},{"user_id":296,"name":"‡πã","steam_id":76561198413116920,"connected_time":14247000000000,"state":"active","ping":80},{"user_id":438,"name":"Saffron","steam_id":76561199025320247,"connected_time":492000000000,"state":"active","ping":76},{"user_id":449,"name":"Don't uber just heal me pls","steam_id":76561199159894607,"connected_time":198000000000,"state":"active","ping":116},{"user_id":447,"name":"TouchWeed","steam_id":76561198451235659,"connected_time":227000000000,"state":"active","ping":166},{"user_id":432,"name":"Ratboi7Street","steam_id":76561199222913157,"connected_time":634000000000,"state":"active","ping":69},{"user_id":439,"name":"MR.TO","steam_id":76561198044742316,"connected_time":461000000000,"state":"active","ping":45},{"user_id":440,"name":"Momoxhien","steam_id":76561198414997429,"connected_time":398000000000,"state":"active","ping":64},{"user_id":448,"name":"ZRwilson (Can't Chat)","steam_id":76561198263372398,"connected_time":223000000000,"state":"active","ping":49},{"user_id":419,"name":"Prof Booster","steam_id":76561199148930929,"connected_time":1673000000000,"state":"active","ping":32},{"user_id":388,"name":"gob lin","steam_id":76561198379597982,"connected_time":3828000000000,"state":"active","ping":127},{"user_id":442,"name":"Soon","steam_id":76561199085055448,"connected_time":390000000000,"state":"active","ping":62},{"user_id":420,"name":"ÌîºÎ∂ÄÎØ∏Ïù∏ÎìúÎ°ùÎ∞î","steam_id":76561198057200043,"connected_time":1668000000000,"state":"active","ping":88},{"user_id":387,"name":"lettuce at 58p","steam_id":76561199401283123,"connected_time":4299000000000,"state":"active","ping":94},{"user_id":445,"name":"SINDACCO MELON","steam_id":76561199254288337,"connected_time":345000000000,"state":"active","ping":90},{"user_id":425,"name":"Marika","steam_id":76561198212649929,"connected_time":1072000000000,"state":"active","ping":128},{"user_id":430,"name":"Ezylynn","steam_id":76561198388935921,"connected_time":643000000000,"state":"active","ping":65}]},{"server_id":1,"name":"Uncletopia | Los Angeles | 1 | All Maps","name_short":"lax-1","host":"lax-1.us.uncletopia.com","port":27015,"enabled":true,"region":"us-west","cc":"us","latitude":33.94279,"longitude":-118.41004,"reserved":0,"last_update":"0001-01-01T00:00:00Z","name_a2s":"Uncletopia | Los Angeles | 1 | All Maps","protocol":17,"map":"cp_dustbowl","folder":"tf","game":"Team Fortress","app_id":440,"player_count":0,"max_players":24,"Bots":0,"server_type":"Dedicated","server_os":"Linux","password":true,"vac":true,"version":"7742253","steam_id":85568392924469991,"keywords":["cp","nocrits","nodmgspread","uncletopia"],"game_id":440,"stv_port":27016,"stv_name":"Uncletopia | Los Angeles | 1 | All Maps | STV","players":null},{"server_id":112,"name":"Uncletopia | Los Angeles | 2 | All Maps","name_short":"lax-2","host":"lax-1.us.uncletopia.com","port":27025,"enabled":true,"region":"us-west","cc":"us","latitude":33.94279,"longitude":-118.41004,"reserved":0,"last_update":"0001-01-01T00:00:00Z","name_a2s":"Uncletopia | Los Angeles | 2 | All Maps","protocol":17,"map":"pl_frontier_final","folder":"tf","game":"Team Fortress","app_id":440,"player_count":0,"max_players":24,"Bots":0,"server_type":"Dedicated","server_os":"Linux","password":true,"vac":true,"version":"7742253","steam_id":85568392924469992,"keywords":["nocrits","nodmgspread","payload","uncletopia"],"game_id":440,"stv_port":27026,"stv_name":"Uncletopia | Los Angeles | 2 | All Maps | STV","players":null},{"server_id":324,"name":"Uncletopia | Los Angeles | 3 | All Maps","name_short":"lax-3","host":"lax-1.us.uncletopia.com","port":27035,"enabled":true,"region":"us-west","cc":"us","latitude":33.94279,"longitude":-118.41004,"reserved":0,"last_update":"0001-01-01T00:00:00Z","name_a2s":"Uncletopia | Los Angeles | 3 | All Maps","protocol":17,"map":"cp_snakewater_final1","folder":"tf","game":"Team Fortress","app_id":440,"player_count":0,"max_players":24,"Bots":0,"server_type":"Dedicated","server_os":"Linux","password":true,"vac":true,"version":"7742253","steam_id":85568392924510198,"keywords":["cp","nocrits","nodmgspread","uncletopia"],"game_id":440,"stv_port":27036,"stv_name":"Uncletopia | Los Angeles | 3 | All Maps | STV","players":null},{"server_id":25,"name":"Uncletopia | Los Angeles | 4 | Stopwatch Beta","name_short":"lax-4","host":"lax-1.us.uncletopia.com","port":27045,"enabled":true,"region":"us-west","cc":"us","latitude":33.94279,"longitude":-118.41004,"reserved":0,"last_update":"0001-01-01T00:00:00Z","name_a2s":"Uncletopia | Los Angeles | 4 | Stopwatch Beta","protocol":17,"map":"cp_snakewater_final1","folder":"tf","game":"Team Fortress","app_id":440,"player_count":0,"max_players":24,"Bots":0,"server_type":"Dedicated","server_os":"Linux","password":true,"vac":true,"version":"7742253","steam_id":85568392924510199,"keywords":["cp","nocrits","nodmgspread","uncletopia"],"game_id":440,"stv_port":27046,"stv_name":"Uncletopia | Los Angeles | 4 | Stopwatch Beta | STV","players":null},{"server_id":11,"name":"Uncletopia | London | 1 | All Maps","name_short":"lon-1","host":"lon-1.uk.uncletopia.com","port":27015,"enabled":true,"region":"eu","cc":"gb","latitude":51.509865,"longitude":-0.118092,"reserved":0,"last_update":"0001-01-01T00:00:00Z","name_a2s":"Uncletopia | London | 1 | All Maps","protocol":17,"map":"cp_sunshine","folder":"tf","game":"Team Fortress","app_id":440,"player_count":24,"max_players":24,"Bots":0,"server_type":"Dedicated","server_os":"Linux","password":true,"vac":true,"version":"7742253","steam_id":85568392924367362,"keywords":["cp","nocrits","nodmgspread","uncletopia"],"game_id":440,"stv_port":27016,"stv_name":"Uncletopia | London | 1 | All Maps | STV","players":[{"user_id":32,"name":"kackboon","steam_id":76561198044189114,"connected_time":4389000000000,"state":"active","ping":63},{"user_id":84,"name":"JOHN GAMING (based)","steam_id":76561199085822219,"connected_time":1160000000000,"state":"active","ping":82},{"user_id":77,"name":"üß±Big Murstenüß±","steam_id":76561199073257952,"connected_time":1988000000000,"state":"active","ping":65},{"user_id":99,"name":"SirVitek","steam_id":76561198142961758,"connected_time":583000000000,"state":"active","ping":56},{"user_id":44,"name":"Andreus","steam_id":76561199403926001,"connected_time":3803000000000,"state":"active","ping":69},{"user_id":71,"name":"nudjura","steam_id":76561198281986139,"connected_time":2616000000000,"state":"active","ping":44},{"user_id":89,"name":"TiredOcean","steam_id":76561198177747195,"connected_time":1080000000000,"state":"active","ping":38},{"user_id":70,"name":"Xiqui","steam_id":76561198818386611,"connected_time":2658000000000,"state":"active","ping":73},{"user_id":103,"name":"Amon Gus","steam_id":76561199094540960,"connected_time":406000000000,"state":"active","ping":67},{"user_id":96,"name":"Marckal","steam_id":76561199044292961,"connected_time":735000000000,"state":"active","ping":58},{"user_id":95,"name":"big heavy is heavy heavy","steam_id":76561198300059652,"connected_time":782000000000,"state":"active","ping":58},{"user_id":108,"name":"Beamz","steam_id":76561198014230017,"connected_time":102000000000,"state":"active","ping":144},{"user_id":46,"name":"Smag","steam_id":76561198153675141,"connected_time":3773000000000,"state":"active","ping":47},{"user_id":97,"name":"IKERIUS","steam_id":76561198274164589,"connected_time":721000000000,"state":"active","ping":78},{"user_id":60,"name":"heisenburger","steam_id":76561198284589853,"connected_time":3350000000000,"state":"active","ping":89},{"user_id":91,"name":"Echo of Abyss","steam_id":76561198981841782,"connected_time":1053000000000,"state":"active","ping":67},{"user_id":106,"name":"Fire","steam_id":76561198156047154,"connected_time":298000000000,"state":"active","ping":58},{"user_id":102,"name":"a sad engi :(","steam_id":76561198334042273,"connected_time":463000000000,"state":"active","ping":77},{"user_id":53,"name":"chestnutflea","steam_id":76561198144268690,"connected_time":3569000000000,"state":"active","ping":49},{"user_id":107,"name":"Blink","steam_id":76561198144033005,"connected_time":297000000000,"state":"active","ping":52},{"user_id":56,"name":"drippin jimmy","steam_id":76561198219243969,"connected_time":3494000000000,"state":"active","ping":56},{"user_id":62,"name":"Luigi Gaming (real and official","steam_id":76561198082502910,"connected_time":3318000000000,"state":"active","ping":61},{"user_id":65,"name":"yasser","steam_id":76561198103973320,"connected_time":3134000000000,"state":"active","ping":101},{"user_id":105,"name":"y;?wnn","steam_id":76561198088624259,"connected_time":304000000000,"state":"active","ping":56}]},{"server_id":114,"name":"Uncletopia | London | 2 | All Maps","name_short":"lon-2","host":"lon-1.uk.uncletopia.com","port":27025,"enabled":true,"region":"eu","cc":"gb","latitude":51.509865,"longitude":-0.118092,"reserved":0,"last_update":"0001-01-01T00:00:00Z","name_a2s":"Uncletopia | London | 2 | All Maps","protocol":17,"map":"pl_swiftwater_final1","folder":"tf","game":"Team Fortress","app_id":440,"player_count":24,"max_players":24,"Bots":0,"server_type":"Dedicated","server_os":"Linux","password":true,"vac":true,"version":"7742253","steam_id":85568392924470941,"keywords":["nocrits","nodmgspread","payload","uncletopia"],"game_id":440,"stv_port":27026,"stv_name":"Uncletopia | London | 2 | All Maps | STV","players":[{"user_id":412,"name":"Borazilla","steam_id":76561198083626821,"connected_time":387000000000,"state":"active","ping":97},{"user_id":394,"name":"The_Jaystone","steam_id":76561198126280691,"connected_time":1672000000000,"state":"active","ping":39},{"user_id":406,"name":"ghost","steam_id":76561198189940229,"connected_time":855000000000,"state":"active","ping":57},{"user_id":400,"name":"coolmartin11","steam_id":76561198270987522,"connected_time":1034000000000,"state":"active","ping":62},{"user_id":355,"name":"Biscuitbox","steam_id":76561198448396620,"connected_time":4985000000000,"state":"active","ping":53},{"user_id":410,"name":"t.tv/soarfps","steam_id":76561198010662796,"connected_time":524000000000,"state":"active","ping":72},{"user_id":419,"name":"Batunga","steam_id":76561198174496709,"connected_time":106000000000,"state":"active","ping":65},{"user_id":381,"name":"Gaattori","steam_id":76561198065624683,"connected_time":2407000000000,"state":"active","ping":92},{"user_id":340,"name":"StabbyKnife","steam_id":76561198094010004,"connected_time":6123000000000,"state":"active","ping":82},{"user_id":402,"name":"walking plane","steam_id":76561198146779559,"connected_time":1015000000000,"state":"active","ping":81},{"user_id":418,"name":"gaming with inflatable tiddies","steam_id":76561198406992885,"connected_time":112000000000,"state":"active","ping":149},{"user_id":415,"name":"Jamie Hyneman","steam_id":76561198364121077,"connected_time":245000000000,"state":"active","ping":92},{"user_id":417,"name":"Bones","steam_id":76561198065081225,"connected_time":175000000000,"state":"active","ping":42},{"user_id":335,"name":"Retarded Combine","steam_id":76561198025958483,"connected_time":6246000000000,"state":"active","ping":89},{"user_id":364,"name":"dafydd","steam_id":76561198052200325,"connected_time":3645000000000,"state":"active","ping":87},{"user_id":348,"name":"Eisik","steam_id":76561199061086990,"connected_time":5240000000000,"state":"active","ping":65},{"user_id":399,"name":"twitch.tv/vision515","steam_id":76561198065293729,"connected_time":1047000000000,"state":"active","ping":165},{"user_id":397,"name":"KFC Enjoyer","steam_id":76561198840259819,"connected_time":1563000000000,"state":"active","ping":58},{"user_id":416,"name":"bruh","steam_id":76561198109262927,"connected_time":199000000000,"state":"active","ping":75},{"user_id":365,"name":"iBeKelsey","steam_id":76561198426604784,"connected_time":3528000000000,"state":"active","ping":45},{"user_id":384,"name":"Average Sniper Enjoyer","steam_id":76561197965556042,"connected_time":2242000000000,"state":"active","ping":94},{"user_id":414,"name":"Bruschetta","steam_id":76561198251927162,"connected_time":337000000000,"state":"active","ping":66},{"user_id":377,"name":"tictak211","steam_id":76561198128091924,"connected_time":3126000000000,"state":"active","ping":87}]},{"server_id":320,"name":"Uncletopia | London | 3 | All Maps","name_short":"lon-3","host":"lon-1.uk.uncletopia.com","port":27035,"enabled":true,"region":"eu","cc":"gb","latitude":51.509865,"longitude":-0.118092,"reserved":0,"last_update":"0001-01-01T00:00:00Z","name_a2s":"Uncletopia | London | 3 | All Maps","protocol":17,"map":"pl_upward","folder":"tf","game":"Team Fortress","app_id":440,"player_count":24,"max_players":24,"Bots":0,"server_type":"Dedicated","server_os":"Linux","password":true,"vac":true,"version":"7742253","steam_id":85568392924510192,"keywords":["nocrits","nodmgspread","payload","uncletopia"],"game_id":440,"stv_port":27036,"stv_name":"Uncletopia | London | 3 | All Maps | STV","players":[{"user_id":237,"name":"the joy of recycling","steam_id":76561198415564349,"connected_time":1086000000000,"state":"active","ping":62},{"user_id":208,"name":"Comunisation","steam_id":76561199131568273,"connected_time":3700000000000,"state":"active","ping":83},{"user_id":234,"name":"Tickleshits","steam_id":76561198159197241,"connected_time":1414000000000,"state":"active","ping":134},{"user_id":239,"name":"ff:ff:ff:ff:ff:ff","steam_id":76561198072122983,"connected_time":974000000000,"state":"active","ping":104},{"user_id":225,"name":"ghe ghe ghe","steam_id":76561198868286775,"connected_time":2068000000000,"state":"active","ping":89},{"user_id":212,"name":"MAJAX","steam_id":76561198254828632,"connected_time":3485000000000,"state":"active","ping":47},{"user_id":210,"name":"Blastrock64","steam_id":76561199008932704,"connected_time":3665000000000,"state":"active","ping":80},{"user_id":178,"name":"Yatsuzume","steam_id":76561198059762108,"connected_time":6422000000000,"state":"active","ping":52},{"user_id":232,"name":"Fat Bloke","steam_id":76561199101664674,"connected_time":1895000000000,"state":"active","ping":57},{"user_id":244,"name":"Kahvi","steam_id":76561198723244199,"connected_time":407000000000,"state":"active","ping":75},{"user_id":245,"name":"Superspek","steam_id":76561198063980302,"connected_time":397000000000,"state":"active","ping":45},{"user_id":213,"name":"(._.)","steam_id":76561198142286891,"connected_time":3462000000000,"state":"active","ping":52},{"user_id":233,"name":"Alexander The Great","steam_id":76561198839909755,"connected_time":1605000000000,"state":"active","ping":98},{"user_id":241,"name":"Autonomous movement","steam_id":76561198087800030,"connected_time":672000000000,"state":"active","ping":74},{"user_id":236,"name":"‚ò© Knightz ‚ò©","steam_id":76561198040936414,"connected_time":1105000000000,"state":"active","ping":111},{"user_id":235,"name":"hawkblob","steam_id":76561198803720565,"connected_time":1110000000000,"state":"active","ping":62},{"user_id":224,"name":"Mr Prince","steam_id":76561199006591691,"connected_time":2125000000000,"state":"active","ping":51},{"user_id":226,"name":"sethlington14","steam_id":76561199438357690,"connected_time":2060000000000,"state":"active","ping":55},{"user_id":227,"name":"shinji","steam_id":76561198099696876,"connected_time":2060000000000,"state":"active","ping":74},{"user_id":123,"name":"Mono","steam_id":76561198114569493,"connected_time":9625000000000,"state":"active","ping":44},{"user_id":249,"name":"murderwow","steam_id":76561198024566944,"connected_time":197000000000,"state":"active","ping":107},{"user_id":250,"name":"Ôº≤ ÔºØ Ôº¢ Ôº¢ Ôº• Ôº≤ Ôº¥","steam_id":76561198134404830,"connected_time":184000000000,"state":"active","ping":120},{"user_id":200,"name":"British Disapproval","steam_id":76561198001375260,"connected_time":4739000000000,"state":"active","ping":53},{"user_id":242,"name":"Dolcelatte","steam_id":76561198038501770,"connected_time":622000000000,"state":"active","ping":60}]},{"server_id":321,"name":"Uncletopia | London | 4 | All Maps","name_short":"lon-4","host":"lon-1.uk.uncletopia.com","port":27045,"enabled":true,"region":"eu","cc":"gb","latitude":51.509865,"longitude":-0.118092,"reserved":0,"last_update":"0001-01-01T00:00:00Z","name_a2s":"Uncletopia | London | 4 | All Maps","protocol":17,"map":"koth_highpass","folder":"tf","game":"Team Fortress","app_id":440,"player_count":7,"max_players":24,"Bots":0,"server_type":"Dedicated","server_os":"Linux","password":true,"vac":true,"version":"7742253","steam_id":85568392924510193,"keywords":["cp","nocrits","nodmgspread","uncletopia"],"game_id":440,"stv_port":27046,"stv_name":"Uncletopia | London | 4 | All Maps | STV","players":[{"user_id":8,"name":"bricked","steam_id":76561198123562445,"connected_time":1189000000000,"state":"active","ping":44},{"user_id":19,"name":"sweaty tryhard","steam_id":76561197960451181,"connected_time":209000000000,"state":"active","ping":95},{"user_id":10,"name":"Waltuh Whit","steam_id":76561198355545012,"connected_time":924000000000,"state":"active","ping":88},{"user_id":13,"name":"Sam","steam_id":76561198403264672,"connected_time":687000000000,"state":"active","ping":44},{"user_id":17,"name":"Psychicpie","steam_id":76561198126065206,"connected_time":428000000000,"state":"active","ping":46},{"user_id":21,"name":"Ho","steam_id":76561198294426922,"connected_time":124000000000,"state":"active","ping":52},{"user_id":22,"name":"Pioneer","steam_id":76561199404585461,"connected_time":96000000000,"state":"active","ping":85}]},{"server_id":21,"name":"Uncletopia | London | 5 | All Maps","name_short":"lon-5","host":"lon-1.uk.uncletopia.com","port":27055,"enabled":true,"region":"eu","cc":"gb","latitude":51.509865,"longitude":-0.118092,"reserved":0,"last_update":"0001-01-01T00:00:00Z","name_a2s":"Uncletopia | London | 5 | All Maps","protocol":17,"map":"koth_highpass","folder":"tf","game":"Team Fortress","app_id":440,"player_count":0,"max_players":24,"Bots":0,"server_type":"Dedicated","server_os":"Linux","password":true,"vac":true,"version":"7742253","steam_id":85568392924742829,"keywords":["cp","nocrits","nodmgspread","uncletopia"],"game_id":440,"stv_port":27056,"stv_name":"Uncletopia | London | 5 | All Maps | STV","players":null},{"server_id":22,"name":"Uncletopia | London | 6 | All Maps","name_short":"lon-6","host":"lon-1.uk.uncletopia.com","port":27065,"enabled":true,"region":"eu","cc":"gb","latitude":51.509865,"longitude":-0.118092,"reserved":0,"last_update":"0001-01-01T00:00:00Z","name_a2s":"Uncletopia | London | 6 | All Maps","protocol":17,"map":"koth_highpass","folder":"tf","game":"Team Fortress","app_id":440,"player_count":24,"max_players":24,"Bots":0,"server_type":"Dedicated","server_os":"Linux","password":true,"vac":true,"version":"7742253","steam_id":85568392924742830,"keywords":["cp","nocrits","nodmgspread","uncletopia"],"game_id":440,"stv_port":27066,"stv_name":"Uncletopia | London | 6 | All Maps | STV","players":[{"user_id":243,"name":"Munibe","steam_id":76561198107967904,"connected_time":1482000000000,"state":"active","ping":66},{"user_id":238,"name":"Cranjis McBasketball","steam_id":76561198051290193,"connected_time":2009000000000,"state":"active","ping":59},{"user_id":208,"name":"jimmy","steam_id":76561199119176199,"connected_time":4123000000000,"state":"active","ping":93},{"user_id":247,"name":"Osmo","steam_id":76561199286764992,"connected_time":915000000000,"state":"active","ping":91},{"user_id":258,"name":"Prox","steam_id":76561198351490981,"connected_time":200000000000,"state":"active","ping":42},{"user_id":265,"name":"ItsFinnishDaniel","steam_id":76561199078675974,"connected_time":91000000000,"state":"active","ping":75},{"user_id":248,"name":"Gryoss","steam_id":76561197999837111,"connected_time":811000000000,"state":"active","ping":107},{"user_id":266,"name":"BladedBloom4611","steam_id":76561198416655215,"connected_time":60000000000,"state":"active","ping":47},{"user_id":255,"name":"OmR","steam_id":76561198015792609,"connected_time":259000000000,"state":"active","ping":59},{"user_id":202,"name":"slippin jimmy","steam_id":76561199116882319,"connected_time":4251000000000,"state":"active","ping":46},{"user_id":254,"name":"i am bread","steam_id":76561199180277321,"connected_time":265000000000,"state":"active","ping":41},{"user_id":259,"name":"Velarowo","steam_id":76561198349373445,"connected_time":171000000000,"state":"active","ping":59},{"user_id":260,"name":"imcringe","steam_id":76561199434878956,"connected_time":163000000000,"state":"active","ping":135},{"user_id":261,"name":"Rumpiel","steam_id":76561198254303347,"connected_time":156000000000,"state":"active","ping":75},{"user_id":220,"name":"S0LDaTo","steam_id":76561198269413360,"connected_time":3100000000000,"state":"active","ping":85},{"user_id":251,"name":"Tank","steam_id":76561199059174576,"connected_time":458000000000,"state":"active","ping":128},{"user_id":195,"name":"Flare","steam_id":76561198039098320,"connected_time":4700000000000,"state":"active","ping":49},{"user_id":249,"name":"-gunripp0r^be / Obelix^","steam_id":76561197999306879,"connected_time":795000000000,"state":"active","ping":68},{"user_id":267,"name":"Exe_Red","steam_id":76561198154952759,"connected_time":2000000000,"state":"spawning","ping":82},{"user_id":236,"name":"5 noches con alfredo","steam_id":76561198420349969,"connected_time":2112000000000,"state":"active","ping":103},{"user_id":263,"name":"SuperBob103","steam_id":76561199175360012,"connected_time":110000000000,"state":"active","ping":57},{"user_id":246,"name":"tshirt","steam_id":76561198040757844,"connected_time":1061000000000,"state":"active","ping":75},{"user_id":253,"name":"Dominus.","steam_id":76561199065917088,"connected_time":386000000000,"state":"active","ping":68},{"user_id":264,"name":"Something Original","steam_id":76561199092162448,"connected_time":108000000000,"state":"active","ping":125}]},{"server_id":40,"name":"Uncletopia | London | 7 | No Payload","name_short":"lon-7","host":"lon-1.uk.uncletopia.com","port":27075,"enabled":true,"region":"eu","cc":"gb","latitude":51.509865,"longitude":-0.118092,"reserved":0,"last_update":"0001-01-01T00:00:00Z","name_a2s":"Uncletopia | London | 7 | No Payload","protocol":17,"map":"koth_viaduct","folder":"tf","game":"Team Fortress","app_id":440,"player_count":0,"max_players":24,"Bots":0,"server_type":"Dedicated","server_os":"Linux","password":true,"vac":true,"version":"7742253","steam_id":85568392924964314,"keywords":["cp","nocrits","nodmgspread","uncletopia"],"game_id":440,"stv_port":27076,"stv_name":"Uncletopia | London | 7 | No Payload | STV","players":null},{"server_id":41,"name":"Uncletopia | London | 8 | Community","name_short":"lon-8","host":"lon-1.uk.uncletopia.com","port":27085,"enabled":true,"region":"eu","cc":"gb","latitude":51.509865,"longitude":-0.118092,"reserved":0,"last_update":"0001-01-01T00:00:00Z","name_a2s":"Uncletopia | London | 8 | Community","protocol":17,"map":"cp_altitude","folder":"tf","game":"Team Fortress","app_id":440,"player_count":0,"max_players":24,"Bots":0,"server_type":"Dedicated","server_os":"Linux","password":true,"vac":true,"version":"7742253","steam_id":85568392924964315,"keywords":["cp","nocrits","nodmgspread","uncletopia"],"game_id":440,"stv_port":27086,"stv_name":"Uncletopia | London | 8 | Community | STV","players":null},{"server_id":300,"name":"Uncletopia | Montr√©al | 1 | All Maps","name_short":"mtl-1","host":"mtl-1.ca.uncletopia.com","port":27015,"enabled":true,"region":"us-east","cc":"ca","latitude":45.50889,"longitude":-73.56167,"reserved":0,"last_update":"0001-01-01T00:00:00Z","name_a2s":"Uncletopia | Montr√©al | 1 | All Maps","protocol":17,"map":"cp_snakewater_final1","folder":"tf","game":"Team Fortress","app_id":440,"player_count":0,"max_players":24,"Bots":0,"server_type":"Dedicated","server_os":"Linux","password":true,"vac":true,"version":"7742253","steam_id":85568392924500087,"keywords":["cp","nocrits","nodmgspread","uncletopia"],"game_id":440,"stv_port":27016,"stv_name":"Uncletopia | Montr√©al | 1 | All Maps | STV","players":null},{"server_id":301,"name":"Uncletopia | Montr√©al | 2 | All Maps","name_short":"mtl-2","host":"mtl-1.ca.uncletopia.com","port":27025,"enabled":true,"region":"us-east","cc":"ca","latitude":45.50889,"longitude":-73.56167,"reserved":0,"last_update":"0001-01-01T00:00:00Z","name_a2s":"Uncletopia | Montr√©al | 2 | All Maps","protocol":17,"map":"koth_highpass","folder":"tf","game":"Team Fortress","app_id":440,"player_count":0,"max_players":24,"Bots":0,"server_type":"Dedicated","server_os":"Linux","password":true,"vac":true,"version":"7742253","steam_id":85568392924500088,"keywords":["cp","nocrits","nodmgspread","uncletopia"],"game_id":440,"stv_port":27026,"stv_name":"Uncletopia | Montr√©al | 2 | All Maps | STV","players":null},{"server_id":302,"name":"Uncletopia | Montr√©al | 3 | All Maps","name_short":"mtl-3","host":"mtl-1.ca.uncletopia.com","port":27035,"enabled":true,"region":"us-east","cc":"ca","latitude":45.50889,"longitude":-73.56167,"reserved":0,"last_update":"0001-01-01T00:00:00Z","name_a2s":"Uncletopia | Montr√©al | 3 | All Maps","protocol":17,"map":"koth_cascade","folder":"tf","game":"Team Fortress","app_id":440,"player_count":0,"max_players":24,"Bots":0,"server_type":"Dedicated","server_os":"Linux","password":true,"vac":true,"version":"7742253","steam_id":85568392924500089,"keywords":["cp","nocrits","nodmgspread","uncletopia"],"game_id":440,"stv_port":27036,"stv_name":"Uncletopia | Montr√©al | 3 | All Maps | STV","players":null},{"server_id":303,"name":"Uncletopia | Montr√©al | 4 | No Payload","name_short":"mtl-4","host":"mtl-1.ca.uncletopia.com","port":27045,"enabled":true,"region":"us-east","cc":"ca","latitude":45.50889,"longitude":-73.56167,"reserved":0,"last_update":"0001-01-01T00:00:00Z","name_a2s":"Uncletopia | Montr√©al | 4 | No Payload","protocol":17,"map":"cp_snakewater_final1","folder":"tf","game":"Team Fortress","app_id":440,"player_count":0,"max_players":24,"Bots":0,"server_type":"Dedicated","server_os":"Linux","password":true,"vac":true,"version":"7742253","steam_id":85568392924500090,"keywords":["cp","nocrits","nodmgspread","uncletopia"],"game_id":440,"stv_port":27046,"stv_name":"Uncletopia | Montr√©al | 4 | No Payload | STV","players":null},{"server_id":13,"name":"Uncletopia | New York City | 1 | All Maps","name_short":"nyc-1","host":"nyc-1.us.uncletopia.com","port":27015,"enabled":true,"region":"us-east","cc":"us","latitude":40.73061,"longitude":-73.93524,"reserved":0,"last_update":"0001-01-01T00:00:00Z","name_a2s":"Uncletopia | New York City | 1 | All Maps","protocol":17,"map":"cp_mountainlab","folder":"tf","game":"Team Fortress","app_id":440,"player_count":0,"max_players":24,"Bots":0,"server_type":"Dedicated","server_os":"Linux","password":true,"vac":true,"version":"7742253","steam_id":85568392924469993,"keywords":["cp","nocrits","nodmgspread","uncletopia"],"game_id":440,"stv_port":27016,"stv_name":"Uncletopia | New York City | 1 | All Maps | STV","players":null},{"server_id":14,"name":"Uncletopia | New York City | 2 | All Maps","name_short":"nyc-2","host":"nyc-1.us.uncletopia.com","port":27025,"enabled":true,"region":"us-east","cc":"us","latitude":40.73061,"longitude":-73.93524,"reserved":0,"last_update":"0001-01-01T00:00:00Z","name_a2s":"Uncletopia | New York City | 2 | All Maps","protocol":17,"map":"cp_altitude","folder":"tf","game":"Team Fortress","app_id":440,"player_count":0,"max_players":24,"Bots":0,"server_type":"Dedicated","server_os":"Linux","password":true,"vac":true,"version":"7742253","steam_id":85568392924469994,"keywords":["cp","nocrits","nodmgspread","uncletopia"],"game_id":440,"stv_port":27026,"stv_name":"Uncletopia | New York City | 2 | All Maps | STV","players":null},{"server_id":15,"name":"Uncletopia | New York City | 3 | Stopwatch Beta","name_short":"nyc-3","host":"nyc-1.us.uncletopia.com","port":27035,"enabled":true,"region":"us-east","cc":"us","latitude":40.73061,"longitude":-73.93524,"reserved":0,"last_update":"0001-01-01T00:00:00Z","name_a2s":"Uncletopia | New York City | 3 | Stopwatch Beta","protocol":17,"map":"pl_pier","folder":"tf","game":"Team Fortress","app_id":440,"player_count":0,"max_players":24,"Bots":0,"server_type":"Dedicated","server_os":"Linux","password":true,"vac":true,"version":"7742253","steam_id":85568392924742820,"keywords":["nocrits","nodmgspread","payload","uncletopia"],"game_id":440,"stv_port":27036,"stv_name":"Uncletopia | New York City | 3 | Stopwatch Beta | STV","players":null},{"server_id":16,"name":"Uncletopia | New York City | 4 | Community","name_short":"nyc-4","host":"nyc-1.us.uncletopia.com","port":27045,"enabled":true,"region":"us-east","cc":"us","latitude":40.73061,"longitude":-73.93524,"reserved":0,"last_update":"0001-01-01T00:00:00Z","name_a2s":"Uncletopia | New York City | 4 | Community","protocol":17,"map":"koth_viaduct","folder":"tf","game":"Team Fortress","app_id":440,"player_count":0,"max_players":24,"Bots":0,"server_type":"Dedicated","server_os":"Linux","password":true,"vac":true,"version":"7742253","steam_id":85568392924742821,"keywords":["cp","nocrits","nodmgspread","uncletopia"],"game_id":440,"stv_port":27046,"stv_name":"Uncletopia | New York City | 4 | Community | STV","players":null},{"server_id":142,"name":"Uncletopia | S√£o Paulo | 1 | All Maps","name_short":"sao-1","host":"sao-1.br.uncletopia.com","port":27015,"enabled":true,"region":"sa","cc":"br","latitude":-23.533773,"longitude":-46.62529,"reserved":0,"last_update":"0001-01-01T00:00:00Z","name_a2s":"Uncletopia | S√£o Paulo | 1 | All Maps","protocol":17,"map":"koth_viaduct","folder":"tf","game":"Team Fortress","app_id":440,"player_count":0,"max_players":24,"Bots":0,"server_type":"Dedicated","server_os":"Linux","password":true,"vac":true,"version":"7742253","steam_id":85568392924469996,"keywords":["cp","nocrits","nodmgspread","uncletopia"],"game_id":440,"stv_port":27016,"stv_name":"Uncletopia | S√£o Paulo | 1 | All Maps | STV","players":null},{"server_id":143,"name":"Uncletopia | S√£o Paulo | 2 | All Maps","name_short":"sao-2","host":"sao-2.br.uncletopia.com","port":27015,"enabled":true,"region":"sa","cc":"br","latitude":-23.533773,"longitude":-46.62529,"reserved":0,"last_update":"0001-01-01T00:00:00Z","name_a2s":"Uncletopia | S√£o Paulo | 2 | All Maps","protocol":17,"map":"koth_viaduct","folder":"tf","game":"Team Fortress","app_id":440,"player_count":0,"max_players":24,"Bots":0,"server_type":"Dedicated","server_os":"Linux","password":true,"vac":true,"version":"7742253","steam_id":85568392924485349,"keywords":["cp","nocrits","nodmgspread","uncletopia"],"game_id":440,"stv_port":27016,"stv_name":"Uncletopia | S√£o Paulo | 2 | All Maps | STV","players":null},{"server_id":7,"name":"Uncletopia | Seattle | 1 | All Maps","name_short":"sea-1","host":"sea-1.us.uncletopia.com","port":27015,"enabled":true,"region":"us-west","cc":"us","latitude":47.608013,"longitude":-122.33517,"reserved":0,"last_update":"0001-01-01T00:00:00Z","name_a2s":"Uncletopia | Seattle | 1 | All Maps","protocol":17,"map":"pl_frontier_final","folder":"tf","game":"Team Fortress","app_id":440,"player_count":9,"max_players":24,"Bots":0,"server_type":"Dedicated","server_os":"Linux","password":true,"vac":true,"version":"7742253","steam_id":85568392924469997,"keywords":["nocrits","nodmgspread","payload","uncletopia"],"game_id":440,"stv_port":27016,"stv_name":"Uncletopia | Seattle | 1 | All Maps | STV","players":[{"user_id":11,"name":"manbearswineflu","steam_id":76561198083945137,"connected_time":1643000000000,"state":"active","ping":92},{"user_id":4,"name":"BigOil","steam_id":76561199350870177,"connected_time":1730000000000,"state":"active","ping":117},{"user_id":12,"name":"rain maintainer","steam_id":76561198838282369,"connected_time":1304000000000,"state":"active","ping":117},{"user_id":13,"name":"Marcy","steam_id":76561198122136432,"connected_time":756000000000,"state":"active","ping":33},{"user_id":17,"name":"firefly77","steam_id":76561199155478745,"connected_time":237000000000,"state":"active","ping":128},{"user_id":15,"name":"AnonDark","steam_id":76561198293361279,"connected_time":619000000000,"state":"active","ping":82},{"user_id":9,"name":"b4rry","steam_id":76561198365887154,"connected_time":1708000000000,"state":"active","ping":121},{"user_id":18,"name":"nox","steam_id":76561198054390505,"connected_time":115000000000,"state":"active","ping":90},{"user_id":20,"name":"oopsboom24","steam_id":76561199105248648,"connected_time":53000000000,"state":"active","ping":144}]},{"server_id":119,"name":"Uncletopia | Seattle | 2 | All Maps","name_short":"sea-2","host":"sea-1.us.uncletopia.com","port":27025,"enabled":true,"region":"us-west","cc":"us","latitude":47.608013,"longitude":-122.33517,"reserved":0,"last_update":"0001-01-01T00:00:00Z","name_a2s":"Uncletopia | Seattle | 2 | All Maps","protocol":17,"map":"cp_sunshine","folder":"tf","game":"Team Fortress","app_id":440,"player_count":0,"max_players":24,"Bots":0,"server_type":"Dedicated","server_os":"Linux","password":true,"vac":true,"version":"7742253","steam_id":85568392924469998,"keywords":["cp","nocrits","nodmgspread","uncletopia"],"game_id":440,"stv_port":27026,"stv_name":"Uncletopia | Seattle | 2 | All Maps | STV","players":null},{"server_id":406,"name":"Uncletopia | Seattle | 3 | Stopwatch Beta","name_short":"sea-3","host":"sea-1.us.uncletopia.com","port":27035,"enabled":true,"region":"us-west","cc":"us","latitude":47.608013,"longitude":-122.33517,"reserved":0,"last_update":"0001-01-01T00:00:00Z","name_a2s":"Uncletopia | Seattle | 3 | Stopwatch Beta","protocol":17,"map":"cp_altitude","folder":"tf","game":"Team Fortress","app_id":440,"player_count":0,"max_players":24,"Bots":0,"server_type":"Dedicated","server_os":"Linux","password":true,"vac":true,"version":"7742253","steam_id":85568392924515217,"keywords":["cp","nocrits","nodmgspread","uncletopia"],"game_id":440,"stv_port":27036,"stv_name":"Uncletopia | Seattle | 3 | Stopwatch Beta | STV","players":null},{"server_id":17,"name":"Uncletopia | San Francisco | 1 | All Maps","name_short":"sfo-1","host":"sfo-1.us.uncletopia.com","port":27015,"enabled":true,"region":"us-west","cc":"us","latitude":37.77397,"longitude":-122.4313,"reserved":0,"last_update":"0001-01-01T00:00:00Z","name_a2s":"Uncletopia | San Francisco | 1 | All Maps","protocol":17,"map":"pl_snowycoast","folder":"tf","game":"Team Fortress","app_id":440,"player_count":0,"max_players":24,"Bots":0,"server_type":"Dedicated","server_os":"Linux","password":true,"vac":true,"version":"7742253","steam_id":85568392924469999,"keywords":["nocrits","nodmgspread","payload","uncletopia"],"game_id":440,"stv_port":27016,"stv_name":"Uncletopia | San Francisco | 1 | All Maps | STV","players":null},{"server_id":18,"name":"Uncletopia | San Francisco | 2 | All Maps","name_short":"sfo-2","host":"sfo-1.us.uncletopia.com","port":27025,"enabled":true,"region":"us-west","cc":"us","latitude":37.77397,"longitude":-122.4313,"reserved":0,"last_update":"0001-01-01T00:00:00Z","name_a2s":"Uncletopia | San Francisco | 2 | All Maps","protocol":17,"map":"cp_altitude","folder":"tf","game":"Team Fortress","app_id":440,"player_count":0,"max_players":24,"Bots":0,"server_type":"Dedicated","server_os":"Linux","password":true,"vac":true,"version":"7742253","steam_id":85568392924470000,"keywords":["cp","nocrits","nodmgspread","uncletopia"],"game_id":440,"stv_port":27026,"stv_name":"Uncletopia | San Francisco | 2 | All Maps | STV","players":null},{"server_id":19,"name":"Uncletopia | San Francisco | 3 | Stopwatch Beta","name_short":"sfo-3","host":"sfo-1.us.uncletopia.com","port":27035,"enabled":true,"region":"us-west","cc":"us","latitude":37.77397,"longitude":-122.4313,"reserved":0,"last_update":"0001-01-01T00:00:00Z","name_a2s":"Uncletopia | San Francisco | 3 | Stopwatch Beta","protocol":17,"map":"cp_snakewater_final1","folder":"tf","game":"Team Fortress","app_id":440,"player_count":0,"max_players":24,"Bots":0,"server_type":"Dedicated","server_os":"Linux","password":true,"vac":true,"version":"7742253","steam_id":85568392924742824,"keywords":["cp","nocrits","nodmgspread","uncletopia"],"game_id":440,"stv_port":27036,"stv_name":"Uncletopia | San Francisco | 3 | Stopwatch Beta | STV","players":null},{"server_id":20,"name":"Uncletopia | San Francisco | 4 | Community","name_short":"sfo-4","host":"sfo-1.us.uncletopia.com","port":27045,"enabled":true,"region":"us-west","cc":"us","latitude":37.77397,"longitude":-122.4313,"reserved":0,"last_update":"0001-01-01T00:00:00Z","name_a2s":"Uncletopia | San Francisco | 4 | Community","protocol":17,"map":"cp_dustbowl","folder":"tf","game":"Team Fortress","app_id":440,"player_count":0,"max_players":24,"Bots":0,"server_type":"Dedicated","server_os":"Linux","password":true,"vac":true,"version":"7742253","steam_id":85568392924742826,"keywords":["cp","nocrits","nodmgspread","uncletopia"],"game_id":440,"stv_port":27046,"stv_name":"Uncletopia | San Francisco | 4 | Community | STV","players":null},{"server_id":141,"name":"Uncletopia | Sydney | 1 | All Maps","name_short":"syd-1","host":"syd-1.au.uncletopia.com","port":27015,"enabled":true,"region":"au","cc":"au","latitude":-33.865143,"longitude":151.2099,"reserved":0,"last_update":"0001-01-01T00:00:00Z","name_a2s":"Uncletopia | Sydney | 1 | All Maps","protocol":17,"map":"pl_barnblitz","folder":"tf","game":"Team Fortress","app_id":440,"player_count":20,"max_players":24,"Bots":0,"server_type":"Dedicated","server_os":"Linux","password":true,"vac":true,"version":"7742253","steam_id":85568392924470001,"keywords":["nocrits","nodmgspread","payload","uncletopia"],"game_id":440,"stv_port":27016,"stv_name":"Uncletopia | Sydney | 1 | All Maps | STV","players":[{"user_id":628,"name":"oldbie","steam_id":76561198053297711,"connected_time":300000000000,"state":"active","ping":88},{"user_id":567,"name":"April","steam_id":76561198848287180,"connected_time":4169000000000,"state":"active","ping":52},{"user_id":512,"name":"‡∏∏bifcheg","steam_id":76561198319806610,"connected_time":8173000000000,"state":"active","ping":62},{"user_id":626,"name":"The Clusterduck","steam_id":76561198044266901,"connected_time":425000000000,"state":"active","ping":96},{"user_id":609,"name":"Jazbae","steam_id":76561198350910486,"connected_time":1942000000000,"state":"active","ping":62},{"user_id":544,"name":"FrOStY","steam_id":76561198088155805,"connected_time":5747000000000,"state":"active","ping":64},{"user_id":635,"name":"Mikester","steam_id":76561198331560673,"connected_time":81000000000,"state":"active","ping":59},{"user_id":623,"name":"Hot Yoga Instructor","steam_id":76561199163801558,"connected_time":627000000000,"state":"active","ping":46},{"user_id":583,"name":"wombraider","steam_id":76561199375834537,"connected_time":3342000000000,"state":"active","ping":131},{"user_id":565,"name":"hawk","steam_id":76561198135164277,"connected_time":4313000000000,"state":"active","ping":53},{"user_id":636,"name":"te","steam_id":76561198131245396,"connected_time":49000000000,"state":"active","ping":324},{"user_id":630,"name":"‰ªôÂ•≥Â§¥Â≠ê‰∫éË∞¶","steam_id":76561199031075505,"connected_time":138000000000,"state":"active","ping":185},{"user_id":578,"name":"Corn","steam_id":76561198086465847,"connected_time":3585000000000,"state":"active","ping":50},{"user_id":604,"name":"Dice","steam_id":76561198192390023,"connected_time":2279000000000,"state":"active","ping":62},{"user_id":617,"name":"evl","steam_id":76561197980015398,"connected_time":1484000000000,"state":"active","ping":49},{"user_id":622,"name":"Empr","steam_id":76561198024387396,"connected_time":936000000000,"state":"active","ping":63},{"user_id":637,"name":"bunnies002","steam_id":76561199368512129,"connected_time":35000000000,"state":"active","ping":67},{"user_id":619,"name":"HAND BANANA","steam_id":76561197960279341,"connected_time":1322000000000,"state":"active","ping":55},{"user_id":554,"name":"Wrap the Pufferfish in Alfoil","steam_id":76561199369157609,"connected_time":5367000000000,"state":"active","ping":49},{"user_id":624,"name":"ECHO_4","steam_id":76561198929742295,"connected_time":617000000000,"state":"active","ping":89}]},{"server_id":123,"name":"Uncletopia | Sydney | 2 | All Maps","name_short":"syd-2","host":"syd-1.au.uncletopia.com","port":27025,"enabled":true,"region":"au","cc":"au","latitude":-33.865143,"longitude":151.2099,"reserved":0,"last_update":"0001-01-01T00:00:00Z","name_a2s":"Uncletopia | Sydney | 2 | All Maps","protocol":17,"map":"koth_lakeside_final","folder":"tf","game":"Team Fortress","app_id":440,"player_count":0,"max_players":24,"Bots":0,"server_type":"Dedicated","server_os":"Linux","password":true,"vac":true,"version":"7742253","steam_id":85568392924470002,"keywords":["cp","nocrits","nodmgspread","uncletopia"],"game_id":440,"stv_port":27026,"stv_name":"Uncletopia | Sydney | 2 | All Maps | STV","players":null},{"server_id":395,"name":"Uncletopia | Sydney | 3 | All Maps","name_short":"syd-3","host":"syd-1.au.uncletopia.com","port":27035,"enabled":true,"region":"au","cc":"au","latitude":-33.865143,"longitude":151.2099,"reserved":0,"last_update":"0001-01-01T00:00:00Z","name_a2s":"Uncletopia | Sydney | 3 | All Maps","protocol":17,"map":"koth_viaduct","folder":"tf","game":"Team Fortress","app_id":440,"player_count":0,"max_players":24,"Bots":0,"server_type":"Dedicated","server_os":"Linux","password":true,"vac":true,"version":"7742253","steam_id":85568392925194467,"keywords":["cp","nocrits","nodmgspread","uncletopia"],"game_id":440,"stv_port":27036,"stv_name":"Uncletopia | Sydney | 3 | All Maps | STV","players":null},{"server_id":396,"name":"Uncletopia | Sydney | 4 | All Maps","name_short":"syd-4","host":"syd-1.au.uncletopia.com","port":27045,"enabled":true,"region":"au","cc":"au","latitude":-33.865143,"longitude":151.2099,"reserved":0,"last_update":"0001-01-01T00:00:00Z","name_a2s":"Uncletopia | Sydney | 4 | All Maps","protocol":17,"map":"koth_highpass","folder":"tf","game":"Team Fortress","app_id":440,"player_count":0,"max_players":24,"Bots":0,"server_type":"Dedicated","server_os":"Linux","password":true,"vac":true,"version":"7742253","steam_id":85568392925397958,"keywords":["cp","nocrits","nodmgspread","uncletopia"],"game_id":440,"stv_port":27046,"stv_name":"Uncletopia | Sydney | 4 | All Maps | STV","players":null},{"server_id":58,"name":"Uncletopia | Sydney | 5 | Stopwatch Beta","name_short":"syd-5","host":"syd-1.au.uncletopia.com","port":27055,"enabled":true,"region":"au","cc":"au","latitude":-33.865143,"longitude":151.2099,"reserved":0,"last_update":"0001-01-01T00:00:00Z","name_a2s":"Uncletopia | Sydney | 5 | Stopwatch Beta","protocol":17,"map":"workshop/koth_product_final.ugc454272353","folder":"tf","game":"Team Fortress","app_id":440,"player_count":0,"max_players":24,"Bots":0,"server_type":"Dedicated","server_os":"Linux","password":true,"vac":true,"version":"7742253","steam_id":85568392925397959,"keywords":["cp","nocrits","nodmgspread","uncletopia"],"game_id":440,"stv_port":27056,"stv_name":"Uncletopia | Sydney | 5 | Stopwatch Beta | STV","players":null},{"server_id":59,"name":"Uncletopia | Sydney | 6 | Community","name_short":"syd-6","host":"syd-1.au.uncletopia.com","port":27065,"enabled":true,"region":"au","cc":"au","latitude":-33.865143,"longitude":151.2099,"reserved":0,"last_update":"0001-01-01T00:00:00Z","name_a2s":"Uncletopia | Sydney | 6 | Community","protocol":17,"map":"workshop/cp_overgrown_rc7b.ugc503939302","folder":"tf","game":"Team Fortress","app_id":440,"player_count":0,"max_players":24,"Bots":0,"server_type":"Dedicated","server_os":"Linux","password":true,"vac":true,"version":"7742253","steam_id":85568392925397960,"keywords":["cp","nocrits","nodmgspread","uncletopia"],"game_id":440,"stv_port":27066,"stv_name":"Uncletopia | Sydney | 6 | Community | STV","players":null},{"server_id":49,"name":"Uncletopia | Warsaw | 1 | All Maps","name_short":"waw-1","host":"waw-1.pl.uncletopia.com","port":27015,"enabled":true,"region":"eu","cc":"pl","latitude":52.2297,"longitude":21.017532,"reserved":0,"last_update":"0001-01-01T00:00:00Z","name_a2s":"","protocol":0,"map":"","folder":"","game":"","app_id":0,"player_count":0,"max_players":0,"Bots":0,"server_type":"","server_os":"","password":false,"vac":false,"version":"","steam_id":0,"keywords":null,"game_id":0,"stv_port":0,"stv_name":"","players":null},{"server_id":50,"name":"Uncletopia | Warsaw | 2 | All Maps","name_short":"waw-2","host":"waw-1.pl.uncletopia.com","port":27025,"enabled":true,"region":"eu","cc":"pl","latitude":52.2297,"longitude":21.017532,"reserved":0,"last_update":"0001-01-01T00:00:00Z","name_a2s":"Uncletopia | Warsaw | 2 | All Maps","protocol":17,"map":"pl_upward","folder":"tf","game":"Team Fortress","app_id":440,"player_count":0,"max_players":24,"Bots":0,"server_type":"Dedicated","server_os":"Linux","password":true,"vac":true,"version":"7742253","steam_id":85568392925397851,"keywords":["nocrits","nodmgspread","payload","uncletopia"],"game_id":440,"stv_port":27026,"stv_name":"Uncletopia | Warsaw | 2 | All Maps | STV","players":null},{"server_id":51,"name":"Uncletopia | Warsaw | 3 | All Maps","name_short":"waw-3","host":"waw-1.pl.uncletopia.com","port":27035,"enabled":true,"region":"eu","cc":"pl","latitude":52.2297,"longitude":21.017532,"reserved":0,"last_update":"0001-01-01T00:00:00Z","name_a2s":"Uncletopia | Warsaw | 3 | All Maps","protocol":17,"map":"pl_snowycoast","folder":"tf","game":"Team Fortress","app_id":440,"player_count":0,"max_players":24,"Bots":0,"server_type":"Dedicated","server_os":"Linux","password":true,"vac":true,"version":"7742253","steam_id":85568392925397852,"keywords":["nocrits","nodmgspread","payload","uncletopia"],"game_id":440,"stv_port":27036,"stv_name":"Uncletopia | Warsaw | 3 | All Maps | STV","players":null},{"server_id":52,"name":"Uncletopia | Warsaw | 4 | All Maps","name_short":"waw-4","host":"waw-1.pl.uncletopia.com","port":27045,"enabled":true,"region":"eu","cc":"pl","latitude":52.2297,"longitude":21.017532,"reserved":0,"last_update":"0001-01-01T00:00:00Z","name_a2s":"Uncletopia | Warsaw | 4 | All Maps","protocol":17,"map":"pl_upward","folder":"tf","game":"Team Fortress","app_id":440,"player_count":0,"max_players":24,"Bots":0,"server_type":"Dedicated","server_os":"Linux","password":true,"vac":true,"version":"7742253","steam_id":85568392925397853,"keywords":["nocrits","nodmgspread","payload","uncletopia"],"game_id":440,"stv_port":27046,"stv_name":"Uncletopia | Warsaw | 4 | All Maps | STV","players":null},{"server_id":53,"name":"Uncletopia | Warsaw | 5 | Stopwatch Beta","name_short":"waw-5","host":"waw-1.pl.uncletopia.com","port":27055,"enabled":true,"region":"eu","cc":"pl","latitude":52.2297,"longitude":21.017532,"reserved":0,"last_update":"0001-01-01T00:00:00Z","name_a2s":"Uncletopia | Warsaw | 5 | Stopwatch Beta","protocol":17,"map":"pl_swiftwater_final1","folder":"tf","game":"Team Fortress","app_id":440,"player_count":0,"max_players":24,"Bots":0,"server_type":"Dedicated","server_os":"Linux","password":true,"vac":true,"version":"7742253","steam_id":85568392925397854,"keywords":["nocrits","nodmgspread","payload","uncletopia"],"game_id":440,"stv_port":27056,"stv_name":"Uncletopia | Warsaw | 5 | Stopwatch Beta | STV","players":null},{"server_id":54,"name":"Uncletopia | Warsaw | 6 | Community","name_short":"waw-6","host":"waw-1.pl.uncletopia.com","port":27065,"enabled":true,"region":"eu","cc":"pl","latitude":52.2297,"longitude":21.017532,"reserved":0,"last_update":"0001-01-01T00:00:00Z","name_a2s":"Uncletopia | Warsaw | 6 | Community","protocol":17,"map":"workshop/pl_eruption_b9a.ugc2807898013","folder":"tf","game":"Team Fortress","app_id":440,"player_count":19,"max_players":24,"Bots":0,"server_type":"Dedicated","server_os":"Linux","password":true,"vac":true,"version":"7742253","steam_id":85568392925397856,"keywords":["nocrits","nodmgspread","payload","uncletopia"],"game_id":440,"stv_port":27066,"stv_name":"Uncletopia | Warsaw | 6 | Community | STV","players":[{"user_id":37,"name":"Big Earning month","steam_id":76561198799097492,"connected_time":2394000000000,"state":"active","ping":73},{"user_id":77,"name":"a sticky situation","steam_id":76561198011692496,"connected_time":181000000000,"state":"active","ping":62},{"user_id":70,"name":"Chris Hansen","steam_id":76561198064811907,"connected_time":409000000000,"state":"active","ping":73},{"user_id":85,"name":"Such XD","steam_id":76561198129454909,"connected_time":35000000000,"state":"active","ping":91},{"user_id":84,"name":"sgt_peper","steam_id":76561198029751443,"connected_time":46000000000,"state":"active","ping":83},{"user_id":55,"name":"Talloran","steam_id":76561198837255509,"connected_time":919000000000,"state":"active","ping":84},{"user_id":82,"name":"Thales gaming","steam_id":76561198154569703,"connected_time":112000000000,"state":"spawning","ping":419},{"user_id":81,"name":"Daddy Donovan","steam_id":76561198140938904,"connected_time":130000000000,"state":"active","ping":73},{"user_id":28,"name":"lagzer","steam_id":76561198029295449,"connected_time":3349000000000,"state":"active","ping":52},{"user_id":63,"name":"waddle dork","steam_id":76561198297349985,"connected_time":558000000000,"state":"active","ping":69},{"user_id":57,"name":"Zoe","steam_id":76561198095964805,"connected_time":897000000000,"state":"active","ping":91},{"user_id":74,"name":"Teetoos","steam_id":76561198033948240,"connected_time":285000000000,"state":"active","ping":73},{"user_id":59,"name":"SynthBox3","steam_id":76561199094075745,"connected_time":887000000000,"state":"active","ping":106},{"user_id":60,"name":"poliakov.noam","steam_id":76561199259322961,"connected_time":840000000000,"state":"spawning","ping":120},{"user_id":61,"name":"dank pank","steam_id":76561198995052713,"connected_time":602000000000,"state":"active","ping":44},{"user_id":62,"name":"Noob_with_source","steam_id":76561198870362103,"connected_time":597000000000,"state":"active","ping":62},{"user_id":65,"name":"silicon based life form","steam_id":76561199127121346,"connected_time":502000000000,"state":"active","ping":78},{"user_id":67,"name":"garloid farmer","steam_id":76561197995194628,"connected_time":486000000000,"state":"active","ping":88},{"user_id":75,"name":"Nexusis","steam_id":76561198024068376,"connected_time":277000000000,"state":"active","ping":48}]}]}