{"status":true,"message":"","result":[{"server_id":9,"name":"Uncletopia | Atlanta | 1 | All Maps","name_short":"atl-1","host":"atl-1.us.uncletopia.com","port":27015,"enabled":true,"region":"us-east","cc":"us","latitude":33.753746,"longitude":-84.38633,"reserved":0,"last_update":"0001-01-01T00:00:00Z","name_a2s":"Uncletopia | Atlanta | 1 | All Maps","protocol":17,"map":"cp_metalworks","folder":"tf","game":"Team Fortress","app_id":440,"player_count":24,"max_players":24,"Bots":0,"server_type":"Dedicated","server_os":"Linux","password":true,"vac":true,"version":"7961495","steam_id":85568392924469982,"keywords":["cp","nocrits","nodmgspread","uncletopia"],"game_id":440,"stv_port":27016,"stv_name":"Uncletopia | Atlanta | 1 | All Maps | STV","players":null},{"server_id":104,"name":"Uncletopia | Atlanta | 2 | All Maps","name_short":"atl-2","host":"atl-1.us.uncletopia.com","port":27025,"enabled":true,"region":"us-east","cc":"us","latitude":33.753746,"longitude":-84.38633,"reserved":0,"last_update":"0001-01-01T00:00:00Z","name_a2s":"Uncletopia | Atlanta | 2 | All Maps","protocol":17,"map":"pl_badwater","folder":"tf","game":"Team Fortress","app_id":440,"player_count":20,"max_players":24,"Bots":0,"server_type":"Dedicated","server_os":"Linux","password":true,"vac":true,"version":"7961495","steam_id":85568392924469983,"keywords":["nocrits","nodmgspread","payload","uncletopia"],"game_id":440,"stv_port":27026,"stv_name":"Uncletopia | Atlanta | 2 | All Maps | STV","players":null},{"server_id":400,"name":"Uncletopia | Atlanta | 3 | All Maps","name_short":"atl-3","host":"atl-1.us.uncletopia.com","port":27035,"enabled":true,"region":"us-east","cc":"us","latitude":33.753746,"longitude":-84.38633,"reserved":0,"last_update":"0001-01-01T00:00:00Z","name_a2s":"Uncletopia | Atlanta | 3 | All Maps","protocol":17,"map":"pl_goldrush","folder":"tf","game":"Team Fortress","app_id":440,"player_count":24,"max_players":24,"Bots":0,"server_type":"Dedicated","server_os":"Linux","password":true,"vac":true,"version":"7961495","steam_id":85568392924515187,"keywords":["nocrits","nodmgspread","payload","uncletopia"],"game_id":440,"stv_port":27036,"stv_name":"Uncletopia | Atlanta | 3 | All Maps | STV","players":null},{"server_id":401,"name":"Uncletopia | Atlanta | 4 | Community","name_short":"atl-4","host":"atl-1.us.uncletopia.com","port":27045,"enabled":true,"region":"us-east","cc":"us","latitude":33.753746,"longitude":-84.38633,"reserved":0,"last_update":"0001-01-01T00:00:00Z","name_a2s":"Uncletopia | Atlanta | 4 | Community","protocol":17,"map":"koth_trenchfoot_b1a","folder":"tf","game":"Team Fortress","app_id":440,"player_count":0,"max_players":24,"Bots":0,"server_type":"Dedicated","server_os":"Linux","password":true,"vac":true,"version":"7961495","steam_id":85568392924515188,"keywords":["cp","nocrits","nodmgspread","uncletopia"],"game_id":440,"stv_port":27046,"stv_name":"Uncletopia | Atlanta | 4 | Community | STV","players":null},{"server_id":2,"name":"Uncletopia | Chicago | 1 | All Maps","name_short":"chi-1","host":"chi-1.us.uncletopia.com","port":27015,"enabled":true,"region":"us-central","cc":"us","latitude":41.881832,"longitude":-87.62318,"reserved":0,"last_update":"0001-01-01T00:00:00Z","name_a2s":"Uncletopia | Chicago | 1 | All Maps","protocol":17,"map":"pl_pier","folder":"tf","game":"Team Fortress","app_id":440,"player_count":24,"max_players":24,"Bots":0,"server_type":"Dedicated","server_os":"Linux","password":true,"vac":true,"version":"7961495","steam_id":85568392924469984,"keywords":["nocrits","nodmgspread","payload","uncletopia"],"game_id":440,"stv_port":27016,"stv_name":"Uncletopia | Chicago | 1 | All Maps | STV","players":[{"user_id":487,"name":"Stella","steam_id":76561198175334351,"connected_time":427000000000,"state":"active","ping":89},{"user_id":479,"name":"monke12344","steam_id":76561199274757725,"connected_time":865000000000,"state":"active","ping":58},{"user_id":436,"name":"Maverick","steam_id":76561198322829814,"connected_time":5143000000000,"state":"active","ping":82},{"user_id":495,"name":"Pengi","steam_id":76561198333097000,"connected_time":224000000000,"state":"active","ping":44},{"user_id":496,"name":"Floating Peasant","steam_id":76561198000183671,"connected_time":122000000000,"state":"active","ping":60},{"user_id":491,"name":"Kmaids","steam_id":76561198100291036,"connected_time":279000000000,"state":"active","ping":69},{"user_id":445,"name":"Icebrick","steam_id":76561198113271055,"connected_time":4599000000000,"state":"active","ping":74},{"user_id":411,"name":"ATL69 | weewa","steam_id":76561198064876090,"connected_time":6534000000000,"state":"active","ping":71},{"user_id":497,"name":"Letters","steam_id":76561198035508148,"connected_time":44000000000,"state":"active","ping":91},{"user_id":473,"name":"goober","steam_id":76561199014881883,"connected_time":1057000000000,"state":"active","ping":73},{"user_id":477,"name":"AndyRoo","steam_id":76561198126561317,"connected_time":914000000000,"state":"active","ping":71},{"user_id":402,"name":"Giorno Giovanna","steam_id":76561198044106874,"connected_time":7272000000000,"state":"active","ping":92},{"user_id":438,"name":"Glue Gulper","steam_id":76561198158014525,"connected_time":5097000000000,"state":"active","ping":64},{"user_id":493,"name":"Quark","steam_id":76561198328155605,"connected_time":268000000000,"state":"active","ping":55},{"user_id":428,"name":"m yfrogs","steam_id":76561198371149432,"connected_time":5655000000000,"state":"active","ping":46},{"user_id":412,"name":"Captain Bug","steam_id":76561198137763878,"connected_time":6527000000000,"state":"active","ping":81},{"user_id":494,"name":"HoodooHooligan","steam_id":76561198372836206,"connected_time":238000000000,"state":"active","ping":57},{"user_id":469,"name":"Scut","steam_id":76561198973734291,"connected_time":1399000000000,"state":"active","ping":92},{"user_id":484,"name":"TechnoBear2099","steam_id":76561198238863596,"connected_time":661000000000,"state":"active","ping":68},{"user_id":486,"name":"brightx3yes","steam_id":76561198044086855,"connected_time":568000000000,"state":"active","ping":88},{"user_id":481,"name":"nicewithit","steam_id":76561198043819937,"connected_time":850000000000,"state":"active","ping":84},{"user_id":422,"name":"whalemart","steam_id":76561198203395648,"connected_time":6459000000000,"state":"active","ping":74},{"user_id":466,"name":"Scrumpy Main","steam_id":76561198146302597,"connected_time":2242000000000,"state":"active","ping":52},{"user_id":488,"name":"the keebler","steam_id":76561199486326945,"connected_time":400000000000,"state":"active","ping":80}]},{"server_id":106,"name":"Uncletopia | Chicago | 2 | All Maps","name_short":"chi-2","host":"chi-1.us.uncletopia.com","port":27025,"enabled":true,"region":"us-central","cc":"us","latitude":41.881832,"longitude":-87.62318,"reserved":0,"last_update":"0001-01-01T00:00:00Z","name_a2s":"Uncletopia | Chicago | 2 | All Maps","protocol":17,"map":"pl_frontier_final","folder":"tf","game":"Team Fortress","app_id":440,"player_count":24,"max_players":24,"Bots":0,"server_type":"Dedicated","server_os":"Linux","password":true,"vac":true,"version":"7961495","steam_id":85568392924469985,"keywords":["nocrits","nodmgspread","payload","uncletopia"],"game_id":440,"stv_port":27026,"stv_name":"Uncletopia | Chicago | 2 | All Maps | STV","players":[{"user_id":608,"name":"son","steam_id":76561198442138731,"connected_time":1973000000000,"state":"active","ping":64},{"user_id":605,"name":"totoro","steam_id":76561198210420871,"connected_time":2006000000000,"state":"active","ping":45},{"user_id":616,"name":"MY LOVE DRIPS IN RED","steam_id":76561198072179483,"connected_time":1598000000000,"state":"active","ping":90},{"user_id":624,"name":"McNamJam","steam_id":76561198028128686,"connected_time":645000000000,"state":"active","ping":97},{"user_id":627,"name":"Omegacat69","steam_id":76561199224022636,"connected_time":632000000000,"state":"active","ping":65},{"user_id":606,"name":"TheGrassMan (He/Him)","steam_id":76561198118984048,"connected_time":2005000000000,"state":"active","ping":56},{"user_id":610,"name":"Nerd Killer","steam_id":76561198037072888,"connected_time":1866000000000,"state":"active","ping":48},{"user_id":601,"name":"donk","steam_id":76561198097138000,"connected_time":2531000000000,"state":"active","ping":56},{"user_id":618,"name":"i suffer from ligma","steam_id":76561199158496518,"connected_time":1364000000000,"state":"active","ping":141},{"user_id":629,"name":"Harrier \"Harry\" du Bois","steam_id":76561198435876131,"connected_time":608000000000,"state":"active","ping":71},{"user_id":585,"name":"Elm","steam_id":76561198127972568,"connected_time":3144000000000,"state":"active","ping":82},{"user_id":586,"name":"goat gaming","steam_id":76561198068982017,"connected_time":3140000000000,"state":"active","ping":45},{"user_id":587,"name":"Zach from Deadly Premonition","steam_id":76561198007464245,"connected_time":3127000000000,"state":"active","ping":77},{"user_id":632,"name":"Sir Real with Milk","steam_id":76561198090356880,"connected_time":100000000000,"state":"active","ping":42},{"user_id":625,"name":"INFINITE","steam_id":76561197971285557,"connected_time":645000000000,"state":"active","ping":71},{"user_id":633,"name":"Applesauce","steam_id":76561198047011689,"connected_time":62000000000,"state":"active","ping":116},{"user_id":626,"name":"plague be upon ye","steam_id":76561198838822605,"connected_time":638000000000,"state":"active","ping":115},{"user_id":619,"name":"-|FG|- Hamilkar Barca","steam_id":76561198091666474,"connected_time":1336000000000,"state":"active","ping":69},{"user_id":628,"name":"rawrski","steam_id":76561197972464020,"connected_time":628000000000,"state":"active","ping":73},{"user_id":617,"name":"MikeLovesRabbit","steam_id":76561197997742625,"connected_time":1556000000000,"state":"active","ping":64},{"user_id":603,"name":"aeipathy ‚úû","steam_id":76561198061638377,"connected_time":2296000000000,"state":"active","ping":70},{"user_id":612,"name":"feudalism (real)","steam_id":76561198057374871,"connected_time":1864000000000,"state":"active","ping":63},{"user_id":631,"name":"Bird","steam_id":76561198247484514,"connected_time":558000000000,"state":"active","ping":76},{"user_id":621,"name":"K. O. E.","steam_id":76561198025188490,"connected_time":850000000000,"state":"active","ping":83}]},{"server_id":402,"name":"Uncletopia | Chicago | 3 | All Maps","name_short":"chi-3","host":"chi-1.us.uncletopia.com","port":27035,"enabled":true,"region":"us-central","cc":"us","latitude":41.881832,"longitude":-87.62318,"reserved":0,"last_update":"0001-01-01T00:00:00Z","name_a2s":"Uncletopia | Chicago | 3 | All Maps","protocol":17,"map":"pl_upward","folder":"tf","game":"Team Fortress","app_id":440,"player_count":24,"max_players":24,"Bots":0,"server_type":"Dedicated","server_os":"Linux","password":true,"vac":true,"version":"7961495","steam_id":85568392924515191,"keywords":["nocrits","nodmgspread","payload","uncletopia"],"game_id":440,"stv_port":27036,"stv_name":"Uncletopia | Chicago | 3 | All Maps | STV","players":[{"user_id":109,"name":"Word To Your Mothership","steam_id":76561198034329138,"connected_time":842000000000,"state":"active","ping":93},{"user_id":116,"name":"LittleFieryOne","steam_id":76561198107463724,"connected_time":741000000000,"state":"active","ping":59},{"user_id":136,"name":"ChickenShred","steam_id":76561198867897841,"connected_time":28000000000,"state":"active","ping":92},{"user_id":114,"name":"Crabmeat","steam_id":76561198304717724,"connected_time":783000000000,"state":"active","ping":108},{"user_id":110,"name":"TheOneZoot","steam_id":76561198121944243,"connected_time":840000000000,"state":"active","ping":72},{"user_id":111,"name":"A Puppy","steam_id":76561198828184456,"connected_time":838000000000,"state":"active","ping":60},{"user_id":115,"name":"Û†Å≥ ‚ÅßArgo","steam_id":76561198353725622,"connected_time":782000000000,"state":"active","ping":79},{"user_id":117,"name":"sylvyy","steam_id":76561198976976583,"connected_time":723000000000,"state":"active","ping":81},{"user_id":118,"name":"manbearswineflu","steam_id":76561198083945137,"connected_time":693000000000,"state":"active","ping":61},{"user_id":128,"name":"CUBENSiS","steam_id":76561199138699358,"connected_time":465000000000,"state":"active","ping":75},{"user_id":131,"name":"Jh0n","steam_id":76561198059013774,"connected_time":457000000000,"state":"active","ping":149},{"user_id":122,"name":"Metalics","steam_id":76561198121576278,"connected_time":632000000000,"state":"active","ping":57},{"user_id":133,"name":"TheRealFakeNick","steam_id":76561198097588788,"connected_time":205000000000,"state":"active","ping":75},{"user_id":123,"name":"iamprobablynotu","steam_id":76561198097617169,"connected_time":627000000000,"state":"active","ping":86},{"user_id":124,"name":"Doctor Glocktorpus [NGC]","steam_id":76561198049194645,"connected_time":621000000000,"state":"active","ping":64},{"user_id":95,"name":"NJKN","steam_id":76561199061380038,"connected_time":2418000000000,"state":"active","ping":66},{"user_id":125,"name":"Kragono","steam_id":76561198166277845,"connected_time":603000000000,"state":"active","ping":115},{"user_id":137,"name":"Red","steam_id":76561198001939529,"connected_time":15000000000,"state":"spawning","ping":125},{"user_id":104,"name":"Dullahan","steam_id":76561198119668908,"connected_time":1889000000000,"state":"active","ping":94},{"user_id":105,"name":"GreenApples","steam_id":76561198120559543,"connected_time":1885000000000,"state":"active","ping":94},{"user_id":135,"name":"MegaMarioMan","steam_id":76561198275735475,"connected_time":161000000000,"state":"active","ping":115},{"user_id":106,"name":"Lia_Rein","steam_id":76561198151569597,"connected_time":1818000000000,"state":"active","ping":156},{"user_id":98,"name":"MrBiggieCheese.","steam_id":76561199489528525,"connected_time":2359000000000,"state":"active","ping":95},{"user_id":107,"name":"Anthid","steam_id":76561198074493797,"connected_time":1807000000000,"state":"active","ping":64}]},{"server_id":403,"name":"Uncletopia | Chicago | 4 | All Maps","name_short":"chi-4","host":"chi-1.us.uncletopia.com","port":27045,"enabled":true,"region":"us-central","cc":"us","latitude":41.881832,"longitude":-87.62318,"reserved":0,"last_update":"0001-01-01T00:00:00Z","name_a2s":"Uncletopia | Chicago | 4 | All Maps","protocol":17,"map":"cp_sunshine","folder":"tf","game":"Team Fortress","app_id":440,"player_count":0,"max_players":24,"Bots":0,"server_type":"Dedicated","server_os":"Linux","password":true,"vac":true,"version":"7961495","steam_id":85568392924515193,"keywords":["cp","nocrits","nodmgspread","uncletopia"],"game_id":440,"stv_port":27046,"stv_name":"Uncletopia | Chicago | 4 | All Maps | STV","players":null},{"server_id":36,"name":"Uncletopia | Chicago | 5 | All Maps","name_short":"chi-5","host":"chi-2.us.uncletopia.com","port":27015,"enabled":true,"region":"us-central","cc":"us","latitude":41.881832,"longitude":-87.62318,"reserved":0,"last_update":"0001-01-01T00:00:00Z","name_a2s":"Uncletopia | Chicago | 5 | All Maps","protocol":17,"map":"pl_badwater","folder":"tf","game":"Team Fortress","app_id":440,"player_count":23,"max_players":24,"Bots":0,"server_type":"Dedicated","server_os":"Linux","password":true,"vac":true,"version":"7961495","steam_id":85568392924866362,"keywords":["nocrits","nodmgspread","payload","uncletopia"],"game_id":440,"stv_port":27016,"stv_name":"Uncletopia | Chicago | 5 | All Maps | STV","players":[{"user_id":406,"name":"CyberZayne","steam_id":76561198002351356,"connected_time":134000000000,"state":"active","ping":83},{"user_id":408,"name":"wepry","steam_id":76561198114091417,"connected_time":1000000000,"state":"spawning","ping":35},{"user_id":307,"name":"Fat Kid In a Dragonball T-Shirt","steam_id":76561198182589975,"connected_time":6063000000000,"state":"active","ping":75},{"user_id":395,"name":"emily","steam_id":76561198051872256,"connected_time":960000000000,"state":"active","ping":56},{"user_id":371,"name":"Makhnovian","steam_id":76561199090548721,"connected_time":2546000000000,"state":"active","ping":68},{"user_id":386,"name":"SIN K4RMA","steam_id":76561198869287223,"connected_time":1221000000000,"state":"active","ping":89},{"user_id":407,"name":"shotstick","steam_id":76561198138298953,"connected_time":122000000000,"state":"active","ping":73},{"user_id":405,"name":"certi","steam_id":76561198069745628,"connected_time":455000000000,"state":"active","ping":88},{"user_id":404,"name":"oof aim small brain","steam_id":76561198079925551,"connected_time":469000000000,"state":"active","ping":61},{"user_id":358,"name":"Jook_Nookem","steam_id":76561198159916063,"connected_time":3565000000000,"state":"active","ping":83},{"user_id":382,"name":"Buckeye Crusader","steam_id":76561198126115279,"connected_time":1691000000000,"state":"active","ping":77},{"user_id":399,"name":"A Glass of Distilled Water","steam_id":76561198002605350,"connected_time":825000000000,"state":"active","ping":83},{"user_id":383,"name":"Crow","steam_id":76561198274977209,"connected_time":1676000000000,"state":"active","ping":44},{"user_id":290,"name":"aiden","steam_id":76561198449527009,"connected_time":7282000000000,"state":"active","ping":100},{"user_id":391,"name":"reign","steam_id":76561198047269484,"connected_time":1020000000000,"state":"active","ping":136},{"user_id":392,"name":"d1NeRo","steam_id":76561198295578318,"connected_time":1020000000000,"state":"active","ping":120},{"user_id":360,"name":"Ja","steam_id":76561198396340174,"connected_time":3527000000000,"state":"active","ping":71},{"user_id":398,"name":"Â≠´Â≠ê","steam_id":76561198083112681,"connected_time":906000000000,"state":"active","ping":54},{"user_id":403,"name":"Slepii","steam_id":76561198881786224,"connected_time":569000000000,"state":"active","ping":72},{"user_id":379,"name":"MCHolden","steam_id":76561199142512034,"connected_time":1943000000000,"state":"active","ping":62},{"user_id":393,"name":"Garfield","steam_id":76561198147300599,"connected_time":1016000000000,"state":"active","ping":63},{"user_id":401,"name":"feliser","steam_id":76561198084336096,"connected_time":715000000000,"state":"active","ping":52},{"user_id":397,"name":"corned beef","steam_id":76561199366782761,"connected_time":940000000000,"state":"active","ping":155}]},{"server_id":37,"name":"Uncletopia | Chicago | 6 | All Maps","name_short":"chi-6","host":"chi-2.us.uncletopia.com","port":27025,"enabled":true,"region":"us-central","cc":"us","latitude":41.881832,"longitude":-87.62318,"reserved":0,"last_update":"0001-01-01T00:00:00Z","name_a2s":"Uncletopia | Chicago | 6 | All Maps","protocol":17,"map":"pl_badwater","folder":"tf","game":"Team Fortress","app_id":440,"player_count":23,"max_players":24,"Bots":0,"server_type":"Dedicated","server_os":"Linux","password":true,"vac":true,"version":"7961495","steam_id":85568392924866363,"keywords":["nocrits","nodmgspread","payload","uncletopia"],"game_id":440,"stv_port":27026,"stv_name":"Uncletopia | Chicago | 6 | All Maps | STV","players":[{"user_id":501,"name":"katryna","steam_id":76561198023440304,"connected_time":1369000000000,"state":"active","ping":50},{"user_id":503,"name":"pim","steam_id":76561198095163441,"connected_time":1206000000000,"state":"active","ping":72},{"user_id":488,"name":"hung mungus","steam_id":76561198044565579,"connected_time":2135000000000,"state":"active","ping":62},{"user_id":499,"name":"Dirtbike rider","steam_id":76561198030457066,"connected_time":1566000000000,"state":"active","ping":79},{"user_id":513,"name":"E_leet","steam_id":76561198127675182,"connected_time":477000000000,"state":"active","ping":60},{"user_id":515,"name":"Rec","steam_id":76561198022813906,"connected_time":258000000000,"state":"active","ping":50},{"user_id":498,"name":"Ping","steam_id":76561198072947773,"connected_time":1725000000000,"state":"active","ping":57},{"user_id":510,"name":"wunkem","steam_id":76561198055948497,"connected_time":689000000000,"state":"active","ping":59},{"user_id":438,"name":"b√ºddeh","steam_id":76561198070735936,"connected_time":5141000000000,"state":"active","ping":58},{"user_id":472,"name":"Jag","steam_id":76561198001220471,"connected_time":3037000000000,"state":"active","ping":57},{"user_id":473,"name":"SQ | Work-Mann","steam_id":76561198136662801,"connected_time":3024000000000,"state":"active","ping":64},{"user_id":492,"name":"ChozoChorizo","steam_id":76561198272609196,"connected_time":2108000000000,"state":"active","ping":59},{"user_id":512,"name":"Gamering_funy","steam_id":76561199006503777,"connected_time":670000000000,"state":"active","ping":59},{"user_id":505,"name":"WalkedInPoisonIvyNowImIt/She","steam_id":76561198085813708,"connected_time":1066000000000,"state":"active","ping":71},{"user_id":507,"name":"La Tabda","steam_id":76561198120364620,"connected_time":802000000000,"state":"active","ping":96},{"user_id":483,"name":"dbluewillow","steam_id":76561198025417603,"connected_time":2213000000000,"state":"active","ping":70},{"user_id":482,"name":"FlippinShoes","steam_id":76561198028266858,"connected_time":2433000000000,"state":"active","ping":58},{"user_id":478,"name":"Klyskada","steam_id":76561198116915892,"connected_time":2973000000000,"state":"active","ping":85},{"user_id":496,"name":"Calamity-Sanity","steam_id":76561199412529989,"connected_time":2033000000000,"state":"active","ping":101},{"user_id":508,"name":"wow12000000000000098","steam_id":76561198016826181,"connected_time":767000000000,"state":"active","ping":72},{"user_id":506,"name":"bubbakane7","steam_id":76561199079142386,"connected_time":1016000000000,"state":"active","ping":125},{"user_id":517,"name":"IMM0RTAL","steam_id":76561198013747901,"connected_time":42000000000,"state":"active","ping":66},{"user_id":354,"name":"Jak(i)","steam_id":76561198076823144,"connected_time":9891000000000,"state":"active","ping":64}]},{"server_id":38,"name":"Uncletopia | Chicago | 7 | Stopwatch Beta","name_short":"chi-7","host":"chi-2.us.uncletopia.com","port":27035,"enabled":true,"region":"us-central","cc":"us","latitude":41.881832,"longitude":-87.62318,"reserved":0,"last_update":"0001-01-01T00:00:00Z","name_a2s":"Uncletopia | Chicago | 7 | Stopwatch Beta","protocol":17,"map":"pl_badwater","folder":"tf","game":"Team Fortress","app_id":440,"player_count":0,"max_players":24,"Bots":0,"server_type":"Dedicated","server_os":"Linux","password":true,"vac":true,"version":"7961495","steam_id":85568392924866364,"keywords":["nocrits","nodmgspread","payload","uncletopia"],"game_id":440,"stv_port":27036,"stv_name":"Uncletopia | Chicago | 7 | Stopwatch Beta | STV","players":null},{"server_id":39,"name":"Uncletopia | Chicago | 8 | Community","name_short":"chi-8","host":"chi-2.us.uncletopia.com","port":27045,"enabled":true,"region":"us-central","cc":"us","latitude":41.881832,"longitude":-87.62318,"reserved":0,"last_update":"0001-01-01T00:00:00Z","name_a2s":"Uncletopia | Chicago | 8 | Community","protocol":17,"map":"workshop/pl_highwood_b13.ugc1769496557","folder":"tf","game":"Team Fortress","app_id":440,"player_count":23,"max_players":24,"Bots":0,"server_type":"Dedicated","server_os":"Linux","password":true,"vac":true,"version":"7961495","steam_id":85568392924866365,"keywords":["nocrits","nodmgspread","payload","uncletopia"],"game_id":440,"stv_port":27046,"stv_name":"Uncletopia | Chicago | 8 | Community | STV","players":[{"user_id":445,"name":"Bane Of Chains","steam_id":76561198061214216,"connected_time":93000000000,"state":"active","ping":112},{"user_id":427,"name":"Alex","steam_id":76561198135553277,"connected_time":1271000000000,"state":"active","ping":53},{"user_id":424,"name":"Likeia #Savetf2","steam_id":76561198005214207,"connected_time":1283000000000,"state":"active","ping":56},{"user_id":425,"name":"‚ô•Bean‚ô•","steam_id":76561198835286379,"connected_time":1283000000000,"state":"active","ping":70},{"user_id":382,"name":"Neophyte","steam_id":76561198027183394,"connected_time":4227000000000,"state":"active","ping":91},{"user_id":430,"name":"sleepy (Pocket choice)","steam_id":76561199283485895,"connected_time":1179000000000,"state":"active","ping":175},{"user_id":426,"name":"serialnumber435","steam_id":76561199466187650,"connected_time":1282000000000,"state":"active","ping":146},{"user_id":444,"name":"Octomal800","steam_id":76561199453595616,"connected_time":175000000000,"state":"active","ping":73},{"user_id":442,"name":"MINIFIE MAN19","steam_id":76561198259509461,"connected_time":235000000000,"state":"active","ping":58},{"user_id":440,"name":"vaderbento","steam_id":76561198277191465,"connected_time":508000000000,"state":"active","ping":75},{"user_id":441,"name":"LEGO Robin Gaming","steam_id":76561198108393533,"connected_time":471000000000,"state":"active","ping":78},{"user_id":413,"name":"Mocanthl","steam_id":76561198043778324,"connected_time":2575000000000,"state":"active","ping":71},{"user_id":344,"name":"SilverLife25","steam_id":76561198392015722,"connected_time":6171000000000,"state":"active","ping":75},{"user_id":447,"name":"tiggerslovey","steam_id":76561198384861057,"connected_time":6000000000,"state":"spawning","ping":55},{"user_id":433,"name":"Chevlanae","steam_id":76561198038180603,"connected_time":1074000000000,"state":"active","ping":60},{"user_id":439,"name":"Ozelot","steam_id":76561198317836336,"connected_time":615000000000,"state":"active","ping":136},{"user_id":370,"name":"Retrowave","steam_id":76561198061921346,"connected_time":4842000000000,"state":"active","ping":74},{"user_id":421,"name":"Tom","steam_id":76561198070630154,"connected_time":1742000000000,"state":"active","ping":93},{"user_id":408,"name":"Hob_Goublin","steam_id":76561198006321535,"connected_time":2741000000000,"state":"active","ping":78},{"user_id":376,"name":"Whompert","steam_id":76561198042939624,"connected_time":4645000000000,"state":"active","ping":87},{"user_id":437,"name":"Extome","steam_id":76561198097801342,"connected_time":672000000000,"state":"active","ping":54},{"user_id":327,"name":"Vegemate","steam_id":76561199088297770,"connected_time":7570000000000,"state":"active","ping":60},{"user_id":414,"name":"Baka","steam_id":76561198257792049,"connected_time":2560000000000,"state":"active","ping":81}]},{"server_id":8,"name":"Uncletopia | Dallas | 1 | All Maps","name_short":"dal-1","host":"dal-1.us.uncletopia.com","port":27015,"enabled":true,"region":"us-central","cc":"us","latitude":32.779167,"longitude":-96.80889,"reserved":0,"last_update":"0001-01-01T00:00:00Z","name_a2s":"Uncletopia | Dallas | 1 | All Maps","protocol":17,"map":"pl_badwater","folder":"tf","game":"Team Fortress","app_id":440,"player_count":24,"max_players":24,"Bots":0,"server_type":"Dedicated","server_os":"Linux","password":true,"vac":true,"version":"7961495","steam_id":85568392924469986,"keywords":["nocrits","nodmgspread","payload","uncletopia"],"game_id":440,"stv_port":27016,"stv_name":"Uncletopia | Dallas | 1 | All Maps | STV","players":[{"user_id":527,"name":"Misserette","steam_id":76561198357652902,"connected_time":1675000000000,"state":"active","ping":118},{"user_id":503,"name":"phfez","steam_id":76561198046150386,"connected_time":3229000000000,"state":"active","ping":74},{"user_id":528,"name":"awesome orange everyday cleaner","steam_id":76561198078238722,"connected_time":1607000000000,"state":"active","ping":117},{"user_id":426,"name":"Gelliterate","steam_id":76561198107233070,"connected_time":9565000000000,"state":"active","ping":59},{"user_id":507,"name":"pinglefingle","steam_id":76561198216580197,"connected_time":2902000000000,"state":"active","ping":57},{"user_id":473,"name":"John CounterStrike","steam_id":76561198129346110,"connected_time":5716000000000,"state":"active","ping":55},{"user_id":538,"name":"leesh","steam_id":76561198079603938,"connected_time":894000000000,"state":"active","ping":60},{"user_id":540,"name":"banan team fortes","steam_id":76561199073621650,"connected_time":469000000000,"state":"active","ping":75},{"user_id":543,"name":"sunny","steam_id":76561198069380992,"connected_time":419000000000,"state":"active","ping":55},{"user_id":531,"name":"Rob","steam_id":76561199187786660,"connected_time":1277000000000,"state":"active","ping":53},{"user_id":518,"name":"MioAnarchy","steam_id":76561198237106136,"connected_time":2376000000000,"state":"active","ping":95},{"user_id":494,"name":"Pop","steam_id":76561199012562851,"connected_time":4149000000000,"state":"active","ping":98},{"user_id":533,"name":"evil","steam_id":76561199001918194,"connected_time":1242000000000,"state":"active","ping":97},{"user_id":537,"name":"the rizz whizz","steam_id":76561198381136912,"connected_time":987000000000,"state":"active","ping":75},{"user_id":530,"name":"HORNETS IN A BOX!","steam_id":76561199145124973,"connected_time":1365000000000,"state":"active","ping":52},{"user_id":534,"name":"Stolas \u003c3","steam_id":76561198835430280,"connected_time":1217000000000,"state":"active","ping":47},{"user_id":522,"name":"Fyish","steam_id":76561198127303751,"connected_time":2045000000000,"state":"active","ping":40},{"user_id":501,"name":"sih3","steam_id":76561198081462396,"connected_time":3557000000000,"state":"active","ping":61},{"user_id":515,"name":"Abysa.","steam_id":76561198424398862,"connected_time":2847000000000,"state":"active","ping":182},{"user_id":541,"name":"Polar","steam_id":76561198271964253,"connected_time":427000000000,"state":"active","ping":125},{"user_id":532,"name":"pajama mama mia","steam_id":76561198286627157,"connected_time":1268000000000,"state":"active","ping":78},{"user_id":472,"name":"Stillkill","steam_id":76561198065069057,"connected_time":5790000000000,"state":"active","ping":44},{"user_id":542,"name":"purple diesel","steam_id":76561197976548449,"connected_time":425000000000,"state":"active","ping":96},{"user_id":487,"name":"Darling","steam_id":76561198127525888,"connected_time":4608000000000,"state":"active","ping":56}]},{"server_id":108,"name":"Uncletopia | Dallas | 2 | All Maps","name_short":"dal-2","host":"dal-1.us.uncletopia.com","port":27025,"enabled":true,"region":"us-central","cc":"us","latitude":32.779167,"longitude":-96.80889,"reserved":0,"last_update":"0001-01-01T00:00:00Z","name_a2s":"Uncletopia | Dallas | 2 | All Maps","protocol":17,"map":"pl_pier","folder":"tf","game":"Team Fortress","app_id":440,"player_count":24,"max_players":24,"Bots":0,"server_type":"Dedicated","server_os":"Linux","password":true,"vac":true,"version":"7961495","steam_id":85568392924469988,"keywords":["nocrits","nodmgspread","payload","uncletopia"],"game_id":440,"stv_port":27026,"stv_name":"Uncletopia | Dallas | 2 | All Maps | STV","players":[{"user_id":225,"name":"Bajanga.co","steam_id":76561199122049654,"connected_time":1591000000000,"state":"active","ping":105},{"user_id":158,"name":"Voodo133","steam_id":76561198042670351,"connected_time":5744000000000,"state":"active","ping":103},{"user_id":244,"name":"inzang","steam_id":76561198088318074,"connected_time":286000000000,"state":"active","ping":50},{"user_id":232,"name":"Rubby","steam_id":76561198967446392,"connected_time":736000000000,"state":"active","ping":96},{"user_id":204,"name":"rice white","steam_id":76561198320732910,"connected_time":2718000000000,"state":"active","ping":95},{"user_id":209,"name":"I Can't Hear You","steam_id":76561198163777749,"connected_time":2502000000000,"state":"active","ping":71},{"user_id":198,"name":"Pizza \u003c3","steam_id":76561198087357023,"connected_time":2966000000000,"state":"active","ping":104},{"user_id":234,"name":"Lost","steam_id":76561198025933206,"connected_time":724000000000,"state":"active","ping":56},{"user_id":230,"name":"Ra La La","steam_id":76561198836637788,"connected_time":1048000000000,"state":"active","ping":72},{"user_id":151,"name":"Courtney Dickinson","steam_id":76561198061528590,"connected_time":6121000000000,"state":"active","ping":101},{"user_id":233,"name":"sheep man shaun","steam_id":76561198994349483,"connected_time":731000000000,"state":"active","ping":86},{"user_id":42,"name":"souVern","steam_id":76561198046940771,"connected_time":13361000000000,"state":"active","ping":78},{"user_id":229,"name":"Grumby","steam_id":76561198149175262,"connected_time":1281000000000,"state":"active","ping":57},{"user_id":188,"name":"Poop Deck Joe","steam_id":76561198271397568,"connected_time":3529000000000,"state":"active","ping":67},{"user_id":235,"name":"Gwando","steam_id":76561198294629124,"connected_time":690000000000,"state":"active","ping":46},{"user_id":224,"name":"Vazquez Perez","steam_id":76561199185750989,"connected_time":1655000000000,"state":"active","ping":92},{"user_id":241,"name":"Pornelius Hubert","steam_id":76561198186128723,"connected_time":519000000000,"state":"active","ping":49},{"user_id":239,"name":"BULLSHIT MATADOR","steam_id":76561198044488913,"connected_time":594000000000,"state":"active","ping":66},{"user_id":212,"name":"BasedPoweredMan","steam_id":76561198183198382,"connected_time":2439000000000,"state":"active","ping":79},{"user_id":217,"name":"John16Mark","steam_id":76561198119445407,"connected_time":2006000000000,"state":"active","ping":64},{"user_id":202,"name":"Chunk Stuffer","steam_id":76561198856508573,"connected_time":2765000000000,"state":"active","ping":32},{"user_id":237,"name":"el wiwi","steam_id":76561198857304367,"connected_time":678000000000,"state":"active","ping":103},{"user_id":219,"name":"Rockhead","steam_id":76561197995196535,"connected_time":1820000000000,"state":"active","ping":93},{"user_id":238,"name":"Mr. Fluffy Penguins","steam_id":76561198172538149,"connected_time":667000000000,"state":"active","ping":96}]},{"server_id":404,"name":"Uncletopia | Dallas | 3 | All Maps","name_short":"dal-3","host":"dal-1.us.uncletopia.com","port":27035,"enabled":true,"region":"us-central","cc":"us","latitude":32.779167,"longitude":-96.80889,"reserved":0,"last_update":"0001-01-01T00:00:00Z","name_a2s":"Uncletopia | Dallas | 3 | All Maps","protocol":17,"map":"koth_highpass","folder":"tf","game":"Team Fortress","app_id":440,"player_count":0,"max_players":24,"Bots":0,"server_type":"Dedicated","server_os":"Linux","password":true,"vac":true,"version":"7961495","steam_id":85568392924515219,"keywords":["cp","nocrits","nodmgspread","uncletopia"],"game_id":440,"stv_port":27036,"stv_name":"Uncletopia | Dallas | 3 | All Maps | STV","players":null},{"server_id":405,"name":"Uncletopia | Dallas | 4 | Community","name_short":"dal-4","host":"dal-1.us.uncletopia.com","port":27045,"enabled":true,"region":"us-central","cc":"us","latitude":32.779167,"longitude":-96.80889,"reserved":0,"last_update":"0001-01-01T00:00:00Z","name_a2s":"Uncletopia | Dallas | 4 | Community","protocol":17,"map":"workshop/pl_emerge_rc2.ugc888027758","folder":"tf","game":"Team Fortress","app_id":440,"player_count":0,"max_players":24,"Bots":0,"server_type":"Dedicated","server_os":"Linux","password":true,"vac":true,"version":"7961495","steam_id":85568392924515220,"keywords":["nocrits","nodmgspread","payload","uncletopia"],"game_id":440,"stv_port":27046,"stv_name":"Uncletopia | Dallas | 4 | Community | STV","players":null},{"server_id":5,"name":"Uncletopia | Frankfurt | 1 | All Maps","name_short":"frk-1","host":"frk-1.de.uncletopia.com","port":27015,"enabled":true,"region":"eu","cc":"de","latitude":50.110924,"longitude":8.682127,"reserved":0,"last_update":"0001-01-01T00:00:00Z","name_a2s":"Uncletopia | Frankfurt | 1 | All Maps","protocol":17,"map":"pl_frontier_final","folder":"tf","game":"Team Fortress","app_id":440,"player_count":24,"max_players":24,"Bots":0,"server_type":"Dedicated","server_os":"Linux","password":true,"vac":true,"version":"7961495","steam_id":85568392924469989,"keywords":["nocrits","nodmgspread","payload","uncletopia"],"game_id":440,"stv_port":27016,"stv_name":"Uncletopia | Frankfurt | 1 | All Maps | STV","players":[{"user_id":595,"name":"[ Louinskii ]","steam_id":76561198060509154,"connected_time":3326000000000,"state":"active","ping":70},{"user_id":635,"name":"‚ù§Speedbump‚ù§","steam_id":76561198388690313,"connected_time":279000000000,"state":"active","ping":61},{"user_id":565,"name":"Femboy Silly ‚ù§","steam_id":76561198972654736,"connected_time":6075000000000,"state":"active","ping":78},{"user_id":627,"name":"zoinks!","steam_id":76561198068645362,"connected_time":643000000000,"state":"active","ping":55},{"user_id":613,"name":"Chucko Kokos","steam_id":76561198112553005,"connected_time":2015000000000,"state":"active","ping":67},{"user_id":584,"name":"Arsonist","steam_id":76561199087953833,"connected_time":4362000000000,"state":"active","ping":99},{"user_id":532,"name":"avanaR","steam_id":76561198132062124,"connected_time":9587000000000,"state":"active","ping":60},{"user_id":628,"name":"Mc Cheezy","steam_id":76561198834780242,"connected_time":627000000000,"state":"active","ping":105},{"user_id":641,"name":"NassimO","steam_id":76561198004108258,"connected_time":157000000000,"state":"active","ping":59},{"user_id":629,"name":"Robyn","steam_id":76561198140713805,"connected_time":623000000000,"state":"active","ping":76},{"user_id":638,"name":"LeloxPL","steam_id":76561198872370619,"connected_time":203000000000,"state":"active","ping":86},{"user_id":587,"name":"jerry (:","steam_id":76561198205668108,"connected_time":4224000000000,"state":"active","ping":47},{"user_id":599,"name":"Abbplutt","steam_id":76561198121678429,"connected_time":3197000000000,"state":"active","ping":74},{"user_id":642,"name":"GamerPanda","steam_id":76561198061454277,"connected_time":114000000000,"state":"active","ping":55},{"user_id":639,"name":"Lesser of two Weevils","steam_id":76561199475507686,"connected_time":199000000000,"state":"active","ping":159},{"user_id":596,"name":"TunaaFsh","steam_id":76561198127194010,"connected_time":3323000000000,"state":"active","ping":75},{"user_id":612,"name":"Sippie","steam_id":76561198130393388,"connected_time":2107000000000,"state":"active","ping":69},{"user_id":643,"name":"Covetousix","steam_id":76561198293936824,"connected_time":107000000000,"state":"active","ping":74},{"user_id":630,"name":"Skippy","steam_id":76561199245844181,"connected_time":621000000000,"state":"active","ping":66},{"user_id":632,"name":"tone","steam_id":76561197975301462,"connected_time":543000000000,"state":"active","ping":87},{"user_id":644,"name":"Vernom","steam_id":76561199244908741,"connected_time":10000000000,"state":"spawning","ping":166},{"user_id":633,"name":"Urfangonultasadana","steam_id":76561199389286151,"connected_time":491000000000,"state":"active","ping":88},{"user_id":634,"name":"Artificial.Ignorance","steam_id":76561198453090180,"connected_time":460000000000,"state":"active","ping":153},{"user_id":611,"name":"Rony.","steam_id":76561198242110020,"connected_time":2340000000000,"state":"active","ping":95}]},{"server_id":110,"name":"Uncletopia | Frankfurt | 2 | All Maps","name_short":"frk-2","host":"frk-1.de.uncletopia.com","port":27025,"enabled":true,"region":"eu","cc":"de","latitude":50.110924,"longitude":8.682127,"reserved":0,"last_update":"0001-01-01T00:00:00Z","name_a2s":"Uncletopia | Frankfurt | 2 | All Maps","protocol":17,"map":"pl_pier","folder":"tf","game":"Team Fortress","app_id":440,"player_count":24,"max_players":24,"Bots":0,"server_type":"Dedicated","server_os":"Linux","password":true,"vac":true,"version":"7961495","steam_id":85568392924469990,"keywords":["nocrits","nodmgspread","payload","uncletopia"],"game_id":440,"stv_port":27026,"stv_name":"Uncletopia | Frankfurt | 2 | All Maps | STV","players":[{"user_id":564,"name":"nut butter","steam_id":76561198130425399,"connected_time":389000000000,"state":"active","ping":160},{"user_id":546,"name":"grenade37","steam_id":76561198130622248,"connected_time":982000000000,"state":"active","ping":107},{"user_id":565,"name":"Steen","steam_id":76561198122992510,"connected_time":372000000000,"state":"active","ping":45},{"user_id":570,"name":"Piteras","steam_id":76561198858532207,"connected_time":108000000000,"state":"active","ping":71},{"user_id":537,"name":"cute","steam_id":76561198077613549,"connected_time":2254000000000,"state":"active","ping":53},{"user_id":547,"name":"Kjat","steam_id":76561198839433592,"connected_time":963000000000,"state":"active","ping":56},{"user_id":548,"name":"üíñYoshiiüíñ","steam_id":76561198174049277,"connected_time":950000000000,"state":"active","ping":73},{"user_id":567,"name":"Kanny","steam_id":76561198058810184,"connected_time":367000000000,"state":"active","ping":59},{"user_id":543,"name":"Mashiro Shiina","steam_id":76561198301932572,"connected_time":1694000000000,"state":"active","ping":83},{"user_id":554,"name":"ThunderCluckz","steam_id":76561198055066162,"connected_time":826000000000,"state":"active","ping":75},{"user_id":530,"name":"Hann√º","steam_id":76561197969886128,"connected_time":2426000000000,"state":"active","ping":65},{"user_id":551,"name":"topiesie","steam_id":76561198338099207,"connected_time":850000000000,"state":"active","ping":100},{"user_id":552,"name":"Aarquus","steam_id":76561198006689878,"connected_time":836000000000,"state":"active","ping":74},{"user_id":553,"name":"Garth Marenghi","steam_id":76561198009830164,"connected_time":834000000000,"state":"active","ping":60},{"user_id":555,"name":"God's Drunkest Driver","steam_id":76561198044588979,"connected_time":824000000000,"state":"active","ping":76},{"user_id":491,"name":"spilskinanka","steam_id":76561198047390799,"connected_time":5156000000000,"state":"active","ping":69},{"user_id":556,"name":"D0kai","steam_id":76561198389271720,"connected_time":811000000000,"state":"active","ping":62},{"user_id":557,"name":"Hyppy ja liipasin pohjaan :D","steam_id":76561198080669698,"connected_time":790000000000,"state":"active","ping":93},{"user_id":562,"name":"Ch4bby","steam_id":76561198058792875,"connected_time":509000000000,"state":"active","ping":52},{"user_id":540,"name":"takumi fujara","steam_id":76561198078928120,"connected_time":1928000000000,"state":"active","ping":78},{"user_id":559,"name":"Aramos","steam_id":76561198873670385,"connected_time":684000000000,"state":"active","ping":50},{"user_id":560,"name":"Althea","steam_id":76561198284106616,"connected_time":568000000000,"state":"active","ping":89},{"user_id":568,"name":"Zm4j","steam_id":76561198259465946,"connected_time":276000000000,"state":"active","ping":69},{"user_id":569,"name":"jones","steam_id":76561198044434971,"connected_time":268000000000,"state":"active","ping":59}]},{"server_id":308,"name":"Uncletopia | Frankfurt | 3 | All Maps","name_short":"frk-3","host":"frk-1.de.uncletopia.com","port":27035,"enabled":true,"region":"eu","cc":"de","latitude":50.110924,"longitude":8.682127,"reserved":0,"last_update":"0001-01-01T00:00:00Z","name_a2s":"Uncletopia | Frankfurt | 3 | All Maps","protocol":17,"map":"pl_borneo","folder":"tf","game":"Team Fortress","app_id":440,"player_count":0,"max_players":24,"Bots":0,"server_type":"Dedicated","server_os":"Linux","password":true,"vac":true,"version":"7961495","steam_id":85568392924504274,"keywords":["nocrits","nodmgspread","payload","uncletopia"],"game_id":440,"stv_port":27036,"stv_name":"Uncletopia | Frankfurt | 3 | All Maps | STV","players":null},{"server_id":309,"name":"Uncletopia | Frankfurt | 4 | All Maps","name_short":"frk-4","host":"frk-1.de.uncletopia.com","port":27045,"enabled":true,"region":"eu","cc":"de","latitude":50.110924,"longitude":8.682127,"reserved":0,"last_update":"0001-01-01T00:00:00Z","name_a2s":"Uncletopia | Frankfurt | 4 | All Maps","protocol":17,"map":"koth_viaduct","folder":"tf","game":"Team Fortress","app_id":440,"player_count":0,"max_players":24,"Bots":0,"server_type":"Dedicated","server_os":"Linux","password":true,"vac":true,"version":"7961495","steam_id":85568392924504275,"keywords":["cp","nocrits","nodmgspread","uncletopia"],"game_id":440,"stv_port":27046,"stv_name":"Uncletopia | Frankfurt | 4 | All Maps | STV","players":null},{"server_id":310,"name":"Uncletopia | Frankfurt | 5 | All Maps","name_short":"frk-5","host":"frk-1.de.uncletopia.com","port":27055,"enabled":true,"region":"eu","cc":"de","latitude":50.110924,"longitude":8.682127,"reserved":0,"last_update":"0001-01-01T00:00:00Z","name_a2s":"Uncletopia | Frankfurt | 5 | All Maps","protocol":17,"map":"koth_viaduct","folder":"tf","game":"Team Fortress","app_id":440,"player_count":0,"max_players":24,"Bots":0,"server_type":"Dedicated","server_os":"Linux","password":true,"vac":true,"version":"7961495","steam_id":85568392924504277,"keywords":["cp","nocrits","nodmgspread","uncletopia"],"game_id":440,"stv_port":27056,"stv_name":"Uncletopia | Frankfurt | 5 | All Maps | STV","players":null},{"server_id":311,"name":"Uncletopia | Frankfurt | 6 | All Maps","name_short":"frk-6","host":"frk-1.de.uncletopia.com","port":27065,"enabled":true,"region":"eu","cc":"de","latitude":50.110924,"longitude":8.682127,"reserved":0,"last_update":"0001-01-01T00:00:00Z","name_a2s":"Uncletopia | Frankfurt | 6 | All Maps","protocol":17,"map":"koth_viaduct","folder":"tf","game":"Team Fortress","app_id":440,"player_count":8,"max_players":24,"Bots":0,"server_type":"Dedicated","server_os":"Linux","password":true,"vac":true,"version":"7961495","steam_id":85568392924504278,"keywords":["cp","nocrits","nodmgspread","uncletopia"],"game_id":440,"stv_port":27066,"stv_name":"Uncletopia | Frankfurt | 6 | All Maps | STV","players":[{"user_id":204,"name":"mattis130708","steam_id":76561198850683544,"connected_time":2547000000000,"state":"active","ping":56},{"user_id":205,"name":"Thepurpurduck","steam_id":76561199164118153,"connected_time":2512000000000,"state":"active","ping":65},{"user_id":208,"name":"REN","steam_id":76561198000596385,"connected_time":2276000000000,"state":"active","ping":67},{"user_id":217,"name":"Psychicpie","steam_id":76561198126065206,"connected_time":944000000000,"state":"active","ping":55},{"user_id":211,"name":"boyfriend of Riamu Yumemi","steam_id":76561198872340278,"connected_time":2079000000000,"state":"active","ping":67},{"user_id":218,"name":"Tinfoilbot65","steam_id":76561198381090207,"connected_time":511000000000,"state":"active","ping":194},{"user_id":213,"name":"Pan Pan","steam_id":76561199074670515,"connected_time":1392000000000,"state":"active","ping":90},{"user_id":219,"name":"CBT","steam_id":76561199439141531,"connected_time":291000000000,"state":"active","ping":89}]},{"server_id":23,"name":"Uncletopia | Frankfurt | 7 | Stopwatch Beta","name_short":"frk-7","host":"frk-1.de.uncletopia.com","port":27075,"enabled":true,"region":"eu","cc":"de","latitude":50.110924,"longitude":8.682127,"reserved":0,"last_update":"0001-01-01T00:00:00Z","name_a2s":"Uncletopia | Frankfurt | 7 | Stopwatch Beta","protocol":17,"map":"workshop/koth_ashville_final.ugc2130459942","folder":"tf","game":"Team Fortress","app_id":440,"player_count":0,"max_players":24,"Bots":0,"server_type":"Dedicated","server_os":"Linux","password":true,"vac":true,"version":"7961495","steam_id":85568392924742827,"keywords":["cp","nocrits","nodmgspread","uncletopia"],"game_id":440,"stv_port":27076,"stv_name":"Uncletopia | Frankfurt | 7 | Stopwatch Beta | STV","players":null},{"server_id":24,"name":"Uncletopia | Frankfurt | 8 | Community","name_short":"frk-8","host":"frk-1.de.uncletopia.com","port":27085,"enabled":true,"region":"eu","cc":"de","latitude":50.110924,"longitude":8.682127,"reserved":0,"last_update":"0001-01-01T00:00:00Z","name_a2s":"Uncletopia | Frankfurt | 8 | Community","protocol":17,"map":"workshop/koth_synthetic_rc6a.ugc1549817316","folder":"tf","game":"Team Fortress","app_id":440,"player_count":0,"max_players":24,"Bots":0,"server_type":"Dedicated","server_os":"Linux","password":true,"vac":true,"version":"7961495","steam_id":85568392924742828,"keywords":["cp","nocrits","nodmgspread","uncletopia"],"game_id":440,"stv_port":27086,"stv_name":"Uncletopia | Frankfurt | 8 | Community | STV","players":null},{"server_id":202,"name":"Uncletopia | Hong Kong | 1 | All Maps","name_short":"hgk-1","host":"hgk-1.hk.uncletopia.com","port":27015,"enabled":true,"region":"asia","cc":"hk","latitude":22.302711,"longitude":114.177216,"reserved":0,"last_update":"0001-01-01T00:00:00Z","name_a2s":"Uncletopia | Hong Kong | 1 | All Maps","protocol":17,"map":"koth_viaduct","folder":"tf","game":"Team Fortress","app_id":440,"player_count":0,"max_players":24,"Bots":0,"server_type":"Dedicated","server_os":"Linux","password":true,"vac":true,"version":"7961495","steam_id":85568392924494504,"keywords":["cp","nocrits","nodmgspread","uncletopia"],"game_id":440,"stv_port":27016,"stv_name":"Uncletopia | Hong Kong | 1 | All Maps | STV","players":null},{"server_id":1,"name":"Uncletopia | Los Angeles | 1 | All Maps","name_short":"lax-1","host":"lax-1.us.uncletopia.com","port":27015,"enabled":true,"region":"us-west","cc":"us","latitude":33.94279,"longitude":-118.41004,"reserved":0,"last_update":"0001-01-01T00:00:00Z","name_a2s":"Uncletopia | Los Angeles | 1 | All Maps","protocol":17,"map":"pl_goldrush","folder":"tf","game":"Team Fortress","app_id":440,"player_count":24,"max_players":24,"Bots":0,"server_type":"Dedicated","server_os":"Linux","password":true,"vac":true,"version":"7961495","steam_id":85568392924469991,"keywords":["nocrits","nodmgspread","payload","uncletopia"],"game_id":440,"stv_port":27016,"stv_name":"Uncletopia | Los Angeles | 1 | All Maps | STV","players":[{"user_id":327,"name":"canakblasteran","steam_id":76561199472518822,"connected_time":285000000000,"state":"active","ping":58},{"user_id":335,"name":"Asolator0","steam_id":76561198095809798,"connected_time":78000000000,"state":"active","ping":77},{"user_id":328,"name":"Zidjit","steam_id":76561199072950598,"connected_time":247000000000,"state":"active","ping":69},{"user_id":315,"name":"vuldrin","steam_id":76561198383695069,"connected_time":1498000000000,"state":"active","ping":62},{"user_id":287,"name":"Zycron0","steam_id":76561199122983789,"connected_time":3983000000000,"state":"active","ping":126},{"user_id":321,"name":"samvaluez","steam_id":76561199213743808,"connected_time":713000000000,"state":"active","ping":66},{"user_id":329,"name":"elyina","steam_id":76561198035310295,"connected_time":246000000000,"state":"active","ping":45},{"user_id":317,"name":"Simply_Komeiji","steam_id":76561198354177703,"connected_time":1447000000000,"state":"active","ping":86},{"user_id":318,"name":"Toasterduds","steam_id":76561198163477584,"connected_time":1425000000000,"state":"active","ping":55},{"user_id":316,"name":"The Professor","steam_id":76561198046165617,"connected_time":1487000000000,"state":"active","ping":102},{"user_id":307,"name":"Several Ducks","steam_id":76561198010667854,"connected_time":2256000000000,"state":"active","ping":46},{"user_id":313,"name":"Ralph Kramden (Slim Charles)","steam_id":76561197981687895,"connected_time":1723000000000,"state":"active","ping":63},{"user_id":334,"name":"Wrencch","steam_id":76561198155112339,"connected_time":153000000000,"state":"active","ping":74},{"user_id":260,"name":"K2f","steam_id":76561198049600563,"connected_time":5930000000000,"state":"active","ping":46},{"user_id":323,"name":"Bloop","steam_id":76561198418172404,"connected_time":669000000000,"state":"active","ping":111},{"user_id":330,"name":"Starkiller","steam_id":76561198101643120,"connected_time":243000000000,"state":"active","ping":77},{"user_id":331,"name":"Weeb","steam_id":76561198218537659,"connected_time":226000000000,"state":"active","ping":87},{"user_id":319,"name":"ForAPessimistImPrettyOptimistic","steam_id":76561198170128009,"connected_time":985000000000,"state":"active","ping":58},{"user_id":332,"name":"vioxynteris","steam_id":76561198161428666,"connected_time":219000000000,"state":"active","ping":29},{"user_id":324,"name":"itscreestian","steam_id":76561199026075091,"connected_time":664000000000,"state":"active","ping":123},{"user_id":272,"name":"NFL.com","steam_id":76561198113405376,"connected_time":5259000000000,"state":"active","ping":46},{"user_id":333,"name":"Nuts","steam_id":76561199258535559,"connected_time":204000000000,"state":"active","ping":75},{"user_id":320,"name":"gregg","steam_id":76561198034242401,"connected_time":926000000000,"state":"active","ping":101},{"user_id":304,"name":"Silly Shark","steam_id":76561198130714378,"connected_time":3047000000000,"state":"active","ping":85}]},{"server_id":112,"name":"Uncletopia | Los Angeles | 2 | All Maps","name_short":"lax-2","host":"lax-1.us.uncletopia.com","port":27025,"enabled":true,"region":"us-west","cc":"us","latitude":33.94279,"longitude":-118.41004,"reserved":0,"last_update":"0001-01-01T00:00:00Z","name_a2s":"Uncletopia | Los Angeles | 2 | All Maps","protocol":17,"map":"pl_swiftwater_final1","folder":"tf","game":"Team Fortress","app_id":440,"player_count":0,"max_players":24,"Bots":0,"server_type":"Dedicated","server_os":"Linux","password":true,"vac":true,"version":"7961495","steam_id":85568392924469992,"keywords":["nocrits","nodmgspread","payload","uncletopia"],"game_id":440,"stv_port":27026,"stv_name":"Uncletopia | Los Angeles | 2 | All Maps | STV","players":null},{"server_id":324,"name":"Uncletopia | Los Angeles | 3 | All Maps","name_short":"lax-3","host":"lax-1.us.uncletopia.com","port":27035,"enabled":true,"region":"us-west","cc":"us","latitude":33.94279,"longitude":-118.41004,"reserved":0,"last_update":"0001-01-01T00:00:00Z","name_a2s":"Uncletopia | Los Angeles | 3 | All Maps","protocol":17,"map":"pl_pier","folder":"tf","game":"Team Fortress","app_id":440,"player_count":24,"max_players":24,"Bots":0,"server_type":"Dedicated","server_os":"Linux","password":true,"vac":true,"version":"7961495","steam_id":85568392924510198,"keywords":["nocrits","nodmgspread","payload","uncletopia"],"game_id":440,"stv_port":27036,"stv_name":"Uncletopia | Los Angeles | 3 | All Maps | STV","players":[{"user_id":480,"name":"my mom","steam_id":76561199225201569,"connected_time":3099000000000,"state":"active","ping":114},{"user_id":493,"name":"ROME MiG-21bis","steam_id":76561198236109724,"connected_time":1665000000000,"state":"active","ping":47},{"user_id":498,"name":"koko","steam_id":76561198084923633,"connected_time":1362000000000,"state":"active","ping":90},{"user_id":515,"name":"Nate","steam_id":76561198045186954,"connected_time":791000000000,"state":"active","ping":51},{"user_id":497,"name":"VELOURIA","steam_id":76561198116550170,"connected_time":1468000000000,"state":"active","ping":58},{"user_id":502,"name":"fuck yo bitch then i poop","steam_id":76561198125947844,"connected_time":1245000000000,"state":"active","ping":58},{"user_id":511,"name":"Nevarth","steam_id":76561198108504380,"connected_time":1089000000000,"state":"active","ping":57},{"user_id":501,"name":"Tocha","steam_id":76561198119725400,"connected_time":1264000000000,"state":"active","ping":101},{"user_id":503,"name":"kn0n2999","steam_id":76561198249172818,"connected_time":1241000000000,"state":"active","ping":96},{"user_id":482,"name":"Culprit Shy","steam_id":76561198206506481,"connected_time":3040000000000,"state":"active","ping":50},{"user_id":504,"name":"mousecake E.I.M.B","steam_id":76561198046870291,"connected_time":1227000000000,"state":"active","ping":63},{"user_id":517,"name":"Wan Shi Tong","steam_id":76561198076441225,"connected_time":727000000000,"state":"active","ping":113},{"user_id":506,"name":"Man Man","steam_id":76561199068338634,"connected_time":1144000000000,"state":"active","ping":88},{"user_id":483,"name":"[El Fail] MR.BadassMCLee","steam_id":76561198043787818,"connected_time":2356000000000,"state":"active","ping":65},{"user_id":514,"name":"LordKirby","steam_id":76561198006938286,"connected_time":915000000000,"state":"active","ping":71},{"user_id":508,"name":"Mung Daal","steam_id":76561198010725277,"connected_time":1139000000000,"state":"active","ping":122},{"user_id":509,"name":"Dosario","steam_id":76561198298095535,"connected_time":1108000000000,"state":"active","ping":85},{"user_id":423,"name":"Dr. Zoidberg","steam_id":76561198174593497,"connected_time":6977000000000,"state":"active","ping":88},{"user_id":510,"name":"Kamin","steam_id":76561198255299559,"connected_time":1092000000000,"state":"active","ping":102},{"user_id":459,"name":"Canned Lobster","steam_id":76561198110847328,"connected_time":4357000000000,"state":"active","ping":56},{"user_id":512,"name":"weeb_whacker","steam_id":76561198187098041,"connected_time":1074000000000,"state":"active","ping":110},{"user_id":461,"name":"orangePulp","steam_id":76561198038373636,"connected_time":4340000000000,"state":"active","ping":62},{"user_id":513,"name":"yummyham2","steam_id":76561199006339325,"connected_time":1072000000000,"state":"active","ping":65},{"user_id":518,"name":"Punished Jeff (Drain Messiah)","steam_id":76561198304252584,"connected_time":502000000000,"state":"active","ping":54}]},{"server_id":25,"name":"Uncletopia | Los Angeles | 4 | Stopwatch Beta","name_short":"lax-4","host":"lax-1.us.uncletopia.com","port":27045,"enabled":true,"region":"us-west","cc":"us","latitude":33.94279,"longitude":-118.41004,"reserved":0,"last_update":"0001-01-01T00:00:00Z","name_a2s":"Uncletopia | Los Angeles | 4 | Stopwatch Beta","protocol":17,"map":"pl_upward","folder":"tf","game":"Team Fortress","app_id":440,"player_count":0,"max_players":24,"Bots":0,"server_type":"Dedicated","server_os":"Linux","password":true,"vac":true,"version":"7961495","steam_id":85568392924510199,"keywords":["nocrits","nodmgspread","payload","uncletopia"],"game_id":440,"stv_port":27046,"stv_name":"Uncletopia | Los Angeles | 4 | Stopwatch Beta | STV","players":null},{"server_id":11,"name":"Uncletopia | London | 1 | All Maps","name_short":"lon-1","host":"lon-1.uk.uncletopia.com","port":27015,"enabled":true,"region":"eu","cc":"gb","latitude":51.509865,"longitude":-0.118092,"reserved":0,"last_update":"0001-01-01T00:00:00Z","name_a2s":"Uncletopia | London | 1 | All Maps","protocol":17,"map":"pl_frontier_final","folder":"tf","game":"Team Fortress","app_id":440,"player_count":20,"max_players":24,"Bots":0,"server_type":"Dedicated","server_os":"Linux","password":true,"vac":true,"version":"7961495","steam_id":85568392924367362,"keywords":["nocrits","nodmgspread","payload","uncletopia"],"game_id":440,"stv_port":27016,"stv_name":"Uncletopia | London | 1 | All Maps | STV","players":[{"user_id":593,"name":"‚ú™ J","steam_id":76561198094911581,"connected_time":4384000000000,"state":"active","ping":43},{"user_id":645,"name":"Dr Smeggman","steam_id":76561197966614845,"connected_time":67000000000,"state":"spawning","ping":42},{"user_id":646,"name":"Sagzy","steam_id":76561198121010932,"connected_time":1000000000,"state":"spawning","ping":39},{"user_id":644,"name":"beebo","steam_id":76561199120277007,"connected_time":77000000000,"state":"active","ping":52},{"user_id":630,"name":"beda","steam_id":76561198277943630,"connected_time":1267000000000,"state":"active","ping":68},{"user_id":563,"name":"dec","steam_id":76561198009660168,"connected_time":7192000000000,"state":"active","ping":57},{"user_id":640,"name":"ne0n","steam_id":76561198032101031,"connected_time":589000000000,"state":"active","ping":107},{"user_id":639,"name":"owo","steam_id":76561198158209651,"connected_time":625000000000,"state":"active","ping":60},{"user_id":628,"name":"ifih","steam_id":76561199493567777,"connected_time":1372000000000,"state":"active","ping":41},{"user_id":603,"name":"SpacePig","steam_id":76561198044662873,"connected_time":4134000000000,"state":"active","ping":99},{"user_id":569,"name":"sora","steam_id":76561198096547662,"connected_time":6580000000000,"state":"active","ping":50},{"user_id":623,"name":"The Punisher","steam_id":76561198819871606,"connected_time":2333000000000,"state":"active","ping":98},{"user_id":613,"name":"Billy Big Bollocks","steam_id":76561197970114051,"connected_time":2787000000000,"state":"active","ping":41},{"user_id":625,"name":"AWildTamim","steam_id":76561198048060652,"connected_time":2328000000000,"state":"active","ping":39},{"user_id":595,"name":"jonesy","steam_id":76561198073975078,"connected_time":4326000000000,"state":"active","ping":44},{"user_id":626,"name":"armadillo","steam_id":76561198324656652,"connected_time":2308000000000,"state":"active","ping":45},{"user_id":622,"name":"Minimi","steam_id":76561198873850443,"connected_time":2525000000000,"state":"active","ping":43},{"user_id":634,"name":"Suetolog","steam_id":76561199053090212,"connected_time":1147000000000,"state":"active","ping":60},{"user_id":643,"name":"51","steam_id":76561198083505031,"connected_time":330000000000,"state":"active","ping":36},{"user_id":614,"name":"ungrilled cheese","steam_id":76561198072320671,"connected_time":2781000000000,"state":"active","ping":30}]},{"server_id":114,"name":"Uncletopia | London | 2 | All Maps","name_short":"lon-2","host":"lon-1.uk.uncletopia.com","port":27025,"enabled":true,"region":"eu","cc":"gb","latitude":51.509865,"longitude":-0.118092,"reserved":0,"last_update":"0001-01-01T00:00:00Z","name_a2s":"Uncletopia | London | 2 | All Maps","protocol":17,"map":"pl_snowycoast","folder":"tf","game":"Team Fortress","app_id":440,"player_count":24,"max_players":24,"Bots":0,"server_type":"Dedicated","server_os":"Linux","password":true,"vac":true,"version":"7961495","steam_id":85568392924470941,"keywords":["nocrits","nodmgspread","payload","uncletopia"],"game_id":440,"stv_port":27026,"stv_name":"Uncletopia | London | 2 | All Maps | STV","players":[{"user_id":731,"name":"gamer","steam_id":76561198054474684,"connected_time":1593000000000,"state":"active","ping":83},{"user_id":734,"name":"Feel Like a Choco","steam_id":76561198049372640,"connected_time":1263000000000,"state":"active","ping":82},{"user_id":668,"name":"fuck me dead","steam_id":76561198030155915,"connected_time":6923000000000,"state":"active","ping":61},{"user_id":736,"name":"I shit myself","steam_id":76561199174310124,"connected_time":1180000000000,"state":"active","ping":141},{"user_id":725,"name":"mario","steam_id":76561198295028763,"connected_time":1910000000000,"state":"active","ping":50},{"user_id":737,"name":"Sabour","steam_id":76561197963965445,"connected_time":1108000000000,"state":"active","ping":73},{"user_id":710,"name":"frosty","steam_id":76561198094560834,"connected_time":2576000000000,"state":"active","ping":45},{"user_id":697,"name":"LimaAlphaNovemberGolfEchoRomeo","steam_id":76561198087377610,"connected_time":4598000000000,"state":"active","ping":68},{"user_id":741,"name":"cinny","steam_id":76561198832112629,"connected_time":114000000000,"state":"active","ping":81},{"user_id":711,"name":"Bill Carr","steam_id":76561198110033943,"connected_time":2522000000000,"state":"active","ping":38},{"user_id":727,"name":"Mike","steam_id":76561198228455736,"connected_time":1764000000000,"state":"active","ping":57},{"user_id":732,"name":"i have no girlfrend","steam_id":76561198062615920,"connected_time":1531000000000,"state":"active","ping":52},{"user_id":724,"name":"Jonno","steam_id":76561198023443744,"connected_time":1943000000000,"state":"active","ping":56},{"user_id":682,"name":"Sir William Gaming","steam_id":76561198037676472,"connected_time":5937000000000,"state":"active","ping":72},{"user_id":721,"name":"glyph","steam_id":76561197980736364,"connected_time":2238000000000,"state":"active","ping":83},{"user_id":716,"name":"Brian","steam_id":76561198077756206,"connected_time":2406000000000,"state":"active","ping":43},{"user_id":738,"name":"sex","steam_id":76561198442994894,"connected_time":1086000000000,"state":"active","ping":69},{"user_id":730,"name":"ThatKetos","steam_id":76561198989682540,"connected_time":1650000000000,"state":"active","ping":60},{"user_id":718,"name":"E¬≤ FTH","steam_id":76561198066287815,"connected_time":2397000000000,"state":"active","ping":105},{"user_id":735,"name":"Intimatt","steam_id":76561198066393546,"connected_time":1241000000000,"state":"active","ping":56},{"user_id":719,"name":"socks","steam_id":76561198028520603,"connected_time":2384000000000,"state":"active","ping":49},{"user_id":739,"name":"Pipper","steam_id":76561197970326616,"connected_time":1080000000000,"state":"active","ping":84},{"user_id":729,"name":"N3lly","steam_id":76561198815271970,"connected_time":1722000000000,"state":"active","ping":71},{"user_id":665,"name":"DigyB","steam_id":76561198014442345,"connected_time":7266000000000,"state":"active","ping":59}]},{"server_id":320,"name":"Uncletopia | London | 3 | All Maps","name_short":"lon-3","host":"lon-1.uk.uncletopia.com","port":27035,"enabled":true,"region":"eu","cc":"gb","latitude":51.509865,"longitude":-0.118092,"reserved":0,"last_update":"0001-01-01T00:00:00Z","name_a2s":"Uncletopia | London | 3 | All Maps","protocol":17,"map":"pl_upward","folder":"tf","game":"Team Fortress","app_id":440,"player_count":24,"max_players":24,"Bots":0,"server_type":"Dedicated","server_os":"Linux","password":true,"vac":true,"version":"7961495","steam_id":85568392924510192,"keywords":["nocrits","nodmgspread","payload","uncletopia"],"game_id":440,"stv_port":27036,"stv_name":"Uncletopia | London | 3 | All Maps | STV","players":[{"user_id":353,"name":"tm`","steam_id":76561197993580412,"connected_time":817000000000,"state":"active","ping":71},{"user_id":351,"name":"ElElliot","steam_id":76561198842278840,"connected_time":982000000000,"state":"active","ping":118},{"user_id":333,"name":"dragonos451","steam_id":76561198041146385,"connected_time":2169000000000,"state":"active","ping":54},{"user_id":321,"name":"irritable vowel syndrome","steam_id":76561198117033273,"connected_time":2776000000000,"state":"active","ping":53},{"user_id":258,"name":"pezza","steam_id":76561197995173247,"connected_time":7648000000000,"state":"active","ping":63},{"user_id":354,"name":"starwarstg4","steam_id":76561198819508237,"connected_time":740000000000,"state":"active","ping":40},{"user_id":358,"name":"Estamie","steam_id":76561198058527691,"connected_time":512000000000,"state":"active","ping":79},{"user_id":361,"name":"big","steam_id":76561198073870893,"connected_time":418000000000,"state":"active","ping":44},{"user_id":369,"name":"pop7up","steam_id":76561198159869674,"connected_time":289000000000,"state":"active","ping":128},{"user_id":313,"name":"The Lady","steam_id":76561198029895809,"connected_time":3535000000000,"state":"active","ping":86},{"user_id":359,"name":"ThatTFguy","steam_id":76561198056794321,"connected_time":497000000000,"state":"active","ping":63},{"user_id":362,"name":"caber collector","steam_id":76561198114471773,"connected_time":411000000000,"state":"active","ping":41},{"user_id":370,"name":"MaeMae","steam_id":76561198252524452,"connected_time":267000000000,"state":"active","ping":46},{"user_id":344,"name":"Invoker-sama","steam_id":76561198128470403,"connected_time":1416000000000,"state":"active","ping":114},{"user_id":290,"name":"Mr_Pulse_","steam_id":76561198095001602,"connected_time":5351000000000,"state":"active","ping":110},{"user_id":350,"name":"Popop","steam_id":76561198004793795,"connected_time":998000000000,"state":"active","ping":45},{"user_id":334,"name":"hbivnm","steam_id":76561197996468677,"connected_time":2122000000000,"state":"active","ping":61},{"user_id":335,"name":"James","steam_id":76561198138558005,"connected_time":2056000000000,"state":"active","ping":49},{"user_id":352,"name":"skull measuring enjoyer","steam_id":76561197963706968,"connected_time":981000000000,"state":"active","ping":61},{"user_id":373,"name":"joni","steam_id":76561197997323419,"connected_time":150000000000,"state":"active","ping":75},{"user_id":340,"name":"criminal","steam_id":76561198101597453,"connected_time":1559000000000,"state":"active","ping":54},{"user_id":326,"name":"R A S M U S","steam_id":76561198279799226,"connected_time":2496000000000,"state":"active","ping":70},{"user_id":365,"name":"tone'","steam_id":76561198055552635,"connected_time":396000000000,"state":"active","ping":60},{"user_id":371,"name":"jaime8D","steam_id":76561197980590671,"connected_time":237000000000,"state":"active","ping":90}]},{"server_id":321,"name":"Uncletopia | London | 4 | All Maps","name_short":"lon-4","host":"lon-1.uk.uncletopia.com","port":27045,"enabled":true,"region":"eu","cc":"gb","latitude":51.509865,"longitude":-0.118092,"reserved":0,"last_update":"0001-01-01T00:00:00Z","name_a2s":"Uncletopia | London | 4 | All Maps","protocol":17,"map":"cp_dustbowl","folder":"tf","game":"Team Fortress","app_id":440,"player_count":23,"max_players":24,"Bots":0,"server_type":"Dedicated","server_os":"Linux","password":true,"vac":true,"version":"7961495","steam_id":85568392924510193,"keywords":["cp","nocrits","nodmgspread","uncletopia"],"game_id":440,"stv_port":27046,"stv_name":"Uncletopia | London | 4 | All Maps | STV","players":[{"user_id":584,"name":"GoblinGaming","steam_id":76561198360395476,"connected_time":921000000000,"state":"active","ping":56},{"user_id":591,"name":"filthy ‚òÜ","steam_id":76561198089069719,"connected_time":104000000000,"state":"active","ping":49},{"user_id":519,"name":"Houlles","steam_id":76561198095277383,"connected_time":7681000000000,"state":"active","ping":48},{"user_id":563,"name":"Penis Contortionist","steam_id":76561198073663784,"connected_time":3579000000000,"state":"active","ping":40},{"user_id":569,"name":"Tavish McSmeg","steam_id":76561198050845480,"connected_time":2350000000000,"state":"active","ping":58},{"user_id":580,"name":"lofimonkeyjazz","steam_id":76561198117059662,"connected_time":1723000000000,"state":"active","ping":76},{"user_id":545,"name":"Combine Ordinal","steam_id":76561198090445249,"connected_time":4203000000000,"state":"active","ping":106},{"user_id":571,"name":"mateusz","steam_id":76561198111599735,"connected_time":2080000000000,"state":"active","ping":62},{"user_id":590,"name":"Koo","steam_id":76561199435201488,"connected_time":122000000000,"state":"active","ping":96},{"user_id":572,"name":"douio","steam_id":76561199070344811,"connected_time":2077000000000,"state":"active","ping":85},{"user_id":573,"name":"Pathetic","steam_id":76561198081807049,"connected_time":2067000000000,"state":"active","ping":86},{"user_id":592,"name":"Boki","steam_id":76561198044553351,"connected_time":93000000000,"state":"active","ping":75},{"user_id":560,"name":"Naxz Dendenz","steam_id":76561198015804604,"connected_time":3657000000000,"state":"active","ping":88},{"user_id":561,"name":"Critical","steam_id":76561198000772038,"connected_time":3655000000000,"state":"active","ping":99},{"user_id":575,"name":"Podge","steam_id":76561199077425079,"connected_time":1888000000000,"state":"active","ping":56},{"user_id":593,"name":"„É†ngel‚òØ","steam_id":76561198009888169,"connected_time":78000000000,"state":"active","ping":71},{"user_id":361,"name":"finbar","steam_id":76561198056812396,"connected_time":19382000000000,"state":"active","ping":75},{"user_id":521,"name":"LSKi","steam_id":76561198215470228,"connected_time":7015000000000,"state":"active","ping":71},{"user_id":594,"name":"harper","steam_id":76561198188642265,"connected_time":50000000000,"state":"active","ping":62},{"user_id":583,"name":"Zedifo","steam_id":76561198044032070,"connected_time":1256000000000,"state":"active","ping":36},{"user_id":513,"name":"Average Medic Enjoyer","steam_id":76561198048867302,"connected_time":8077000000000,"state":"active","ping":63},{"user_id":562,"name":"worm with a fat ass","steam_id":76561198170026338,"connected_time":3641000000000,"state":"active","ping":71},{"user_id":585,"name":"Tyler Durden","steam_id":76561198851157897,"connected_time":726000000000,"state":"active","ping":67}]},{"server_id":21,"name":"Uncletopia | London | 5 | All Maps","name_short":"lon-5","host":"lon-1.uk.uncletopia.com","port":27055,"enabled":true,"region":"eu","cc":"gb","latitude":51.509865,"longitude":-0.118092,"reserved":0,"last_update":"0001-01-01T00:00:00Z","name_a2s":"Uncletopia | London | 5 | All Maps","protocol":17,"map":"pl_snowycoast","folder":"tf","game":"Team Fortress","app_id":440,"player_count":24,"max_players":24,"Bots":0,"server_type":"Dedicated","server_os":"Linux","password":true,"vac":true,"version":"7961495","steam_id":85568392924742829,"keywords":["nocrits","nodmgspread","payload","uncletopia"],"game_id":440,"stv_port":27056,"stv_name":"Uncletopia | London | 5 | All Maps | STV","players":[{"user_id":617,"name":"y9o0","steam_id":76561198061135303,"connected_time":488000000000,"state":"active","ping":67},{"user_id":544,"name":"prophits","steam_id":76561198011854314,"connected_time":6054000000000,"state":"active","ping":60},{"user_id":616,"name":"\u003eBoomerang","steam_id":76561198083791402,"connected_time":552000000000,"state":"active","ping":71},{"user_id":618,"name":"Mr Gnash","steam_id":76561198007410990,"connected_time":435000000000,"state":"active","ping":69},{"user_id":619,"name":"Bus","steam_id":76561199351730117,"connected_time":336000000000,"state":"active","ping":78},{"user_id":620,"name":"jorntrinivie","steam_id":76561198826039815,"connected_time":320000000000,"state":"active","ping":78},{"user_id":527,"name":"guildyfan2001","steam_id":76561198038827937,"connected_time":8199000000000,"state":"active","ping":51},{"user_id":486,"name":"benry1964","steam_id":76561198008795422,"connected_time":9887000000000,"state":"active","ping":67},{"user_id":588,"name":"Lord","steam_id":76561198241305816,"connected_time":3076000000000,"state":"active","ping":124},{"user_id":553,"name":"FatCuddlyBear","steam_id":76561198133613253,"connected_time":5629000000000,"state":"active","ping":159},{"user_id":621,"name":"TheMousyMouse","steam_id":76561199404232209,"connected_time":315000000000,"state":"active","ping":71},{"user_id":554,"name":"Bee","steam_id":76561199489934354,"connected_time":5613000000000,"state":"active","ping":160},{"user_id":607,"name":"MeBandae","steam_id":76561198910770432,"connected_time":909000000000,"state":"active","ping":92},{"user_id":624,"name":"gbearda","steam_id":76561198297604298,"connected_time":291000000000,"state":"active","ping":80},{"user_id":555,"name":"Swayer","steam_id":76561198056192460,"connected_time":5465000000000,"state":"active","ping":64},{"user_id":623,"name":"Chinese Kharp","steam_id":76561199383220023,"connected_time":305000000000,"state":"active","ping":86},{"user_id":601,"name":"‚àûDerp‚àû ·µáÀ° ∏·µÉ·µó","steam_id":76561198061755956,"connected_time":1568000000000,"state":"active","ping":70},{"user_id":625,"name":"travis","steam_id":76561198138119811,"connected_time":273000000000,"state":"active","ping":45},{"user_id":626,"name":"Hoxton","steam_id":76561198129209505,"connected_time":206000000000,"state":"active","ping":84},{"user_id":595,"name":"Oldworldjazz","steam_id":76561198184632645,"connected_time":2559000000000,"state":"active","ping":94},{"user_id":627,"name":"Ecton","steam_id":76561198025103720,"connected_time":176000000000,"state":"active","ping":56},{"user_id":586,"name":"mans big iron","steam_id":76561198011819389,"connected_time":3129000000000,"state":"active","ping":68},{"user_id":628,"name":"Drommelsch","steam_id":76561198019318954,"connected_time":163000000000,"state":"active","ping":65},{"user_id":587,"name":"Johnny Dang","steam_id":76561198333897550,"connected_time":3113000000000,"state":"active","ping":85}]},{"server_id":22,"name":"Uncletopia | London | 6 | All Maps","name_short":"lon-6","host":"lon-1.uk.uncletopia.com","port":27065,"enabled":true,"region":"eu","cc":"gb","latitude":51.509865,"longitude":-0.118092,"reserved":0,"last_update":"0001-01-01T00:00:00Z","name_a2s":"Uncletopia | London | 6 | All Maps","protocol":17,"map":"pl_snowycoast","folder":"tf","game":"Team Fortress","app_id":440,"player_count":11,"max_players":24,"Bots":0,"server_type":"Dedicated","server_os":"Linux","password":true,"vac":true,"version":"7961495","steam_id":85568392924742830,"keywords":["nocrits","nodmgspread","payload","uncletopia"],"game_id":440,"stv_port":27066,"stv_name":"Uncletopia | London | 6 | All Maps | STV","players":[{"user_id":378,"name":"blibby smalls","steam_id":76561198984296222,"connected_time":1921000000000,"state":"active","ping":62},{"user_id":400,"name":"aminoxsos","steam_id":76561198839741609,"connected_time":222000000000,"state":"active","ping":84},{"user_id":358,"name":"Whimsyy","steam_id":76561198065557010,"connected_time":4028000000000,"state":"active","ping":45},{"user_id":361,"name":"whyamialive","steam_id":76561199070008862,"connected_time":3663000000000,"state":"active","ping":43},{"user_id":377,"name":"majid211","steam_id":76561198402076844,"connected_time":2167000000000,"state":"active","ping":50},{"user_id":380,"name":"gk","steam_id":76561198010433741,"connected_time":1810000000000,"state":"active","ping":53},{"user_id":382,"name":"NoihBuns","steam_id":76561198371441486,"connected_time":1672000000000,"state":"active","ping":77},{"user_id":395,"name":"echteBilbo","steam_id":76561198071077844,"connected_time":990000000000,"state":"active","ping":39},{"user_id":342,"name":"DelaNo","steam_id":76561199125086655,"connected_time":5727000000000,"state":"active","ping":38},{"user_id":366,"name":"Fawks 5","steam_id":76561198405052347,"connected_time":3244000000000,"state":"active","ping":122},{"user_id":398,"name":"Jrazz","steam_id":76561199075670262,"connected_time":495000000000,"state":"active","ping":159}]},{"server_id":40,"name":"Uncletopia | London | 7 | No Payload","name_short":"lon-7","host":"lon-1.uk.uncletopia.com","port":27075,"enabled":true,"region":"eu","cc":"gb","latitude":51.509865,"longitude":-0.118092,"reserved":0,"last_update":"0001-01-01T00:00:00Z","name_a2s":"Uncletopia | London | 7 | No Payload","protocol":17,"map":"koth_harvest_final","folder":"tf","game":"Team Fortress","app_id":440,"player_count":0,"max_players":24,"Bots":0,"server_type":"Dedicated","server_os":"Linux","password":true,"vac":true,"version":"7961495","steam_id":85568392924964314,"keywords":["cp","nocrits","nodmgspread","uncletopia"],"game_id":440,"stv_port":27076,"stv_name":"Uncletopia | London | 7 | No Payload | STV","players":null},{"server_id":41,"name":"Uncletopia | London | 8 | Community","name_short":"lon-8","host":"lon-1.uk.uncletopia.com","port":27085,"enabled":true,"region":"eu","cc":"gb","latitude":51.509865,"longitude":-0.118092,"reserved":0,"last_update":"0001-01-01T00:00:00Z","name_a2s":"Uncletopia | London | 8 | Community","protocol":17,"map":"workshop/cp_kalinka_rc6a.ugc1272700588","folder":"tf","game":"Team Fortress","app_id":440,"player_count":0,"max_players":24,"Bots":0,"server_type":"Dedicated","server_os":"Linux","password":true,"vac":true,"version":"7961495","steam_id":85568392924964315,"keywords":["cp","nocrits","nodmgspread","uncletopia"],"game_id":440,"stv_port":27086,"stv_name":"Uncletopia | London | 8 | Community | STV","players":null},{"server_id":300,"name":"Uncletopia | Montr√©al | 1 | All Maps","name_short":"mtl-1","host":"mtl-1.ca.uncletopia.com","port":27015,"enabled":true,"region":"us-east","cc":"ca","latitude":45.50889,"longitude":-73.56167,"reserved":0,"last_update":"0001-01-01T00:00:00Z","name_a2s":"","protocol":0,"map":"","folder":"","game":"","app_id":0,"player_count":3,"max_players":0,"Bots":0,"server_type":"","server_os":"","password":false,"vac":false,"version":"","steam_id":0,"keywords":null,"game_id":0,"stv_port":0,"stv_name":"","players":[{"user_id":232,"name":"Triple-Edged","steam_id":76561198308472155,"connected_time":259000000000,"state":"active","ping":37},{"user_id":233,"name":"BEES","steam_id":76561198811545874,"connected_time":246000000000,"state":"active","ping":49},{"user_id":234,"name":"Codcruiser17","steam_id":76561199118698384,"connected_time":121000000000,"state":"active","ping":61}]},{"server_id":301,"name":"Uncletopia | Montr√©al | 2 | All Maps","name_short":"mtl-2","host":"mtl-1.ca.uncletopia.com","port":27025,"enabled":true,"region":"us-east","cc":"ca","latitude":45.50889,"longitude":-73.56167,"reserved":0,"last_update":"0001-01-01T00:00:00Z","name_a2s":"","protocol":0,"map":"","folder":"","game":"","app_id":0,"player_count":0,"max_players":0,"Bots":0,"server_type":"","server_os":"","password":false,"vac":false,"version":"","steam_id":0,"keywords":null,"game_id":0,"stv_port":0,"stv_name":"","players":null},{"server_id":302,"name":"Uncletopia | Montr√©al | 3 | All Maps","name_short":"mtl-3","host":"mtl-1.ca.uncletopia.com","port":27035,"enabled":true,"region":"us-east","cc":"ca","latitude":45.50889,"longitude":-73.56167,"reserved":0,"last_update":"0001-01-01T00:00:00Z","name_a2s":"","protocol":0,"map":"","folder":"","game":"","app_id":0,"player_count":0,"max_players":0,"Bots":0,"server_type":"","server_os":"","password":false,"vac":false,"version":"","steam_id":0,"keywords":null,"game_id":0,"stv_port":0,"stv_name":"","players":null},{"server_id":303,"name":"Uncletopia | Montr√©al | 4 | No Payload","name_short":"mtl-4","host":"mtl-1.ca.uncletopia.com","port":27045,"enabled":true,"region":"us-east","cc":"ca","latitude":45.50889,"longitude":-73.56167,"reserved":0,"last_update":"0001-01-01T00:00:00Z","name_a2s":"","protocol":0,"map":"","folder":"","game":"","app_id":0,"player_count":2,"max_players":0,"Bots":0,"server_type":"","server_os":"","password":false,"vac":false,"version":"","steam_id":0,"keywords":null,"game_id":0,"stv_port":0,"stv_name":"","players":[{"user_id":9,"name":"sneakyflamingo","steam_id":76561199093026056,"connected_time":2250000000000,"state":"active","ping":68},{"user_id":11,"name":"Bully Maguire","steam_id":76561199081621029,"connected_time":1972000000000,"state":"active","ping":115}]},{"server_id":13,"name":"Uncletopia | New York City | 1 | All Maps","name_short":"nyc-1","host":"nyc-1.us.uncletopia.com","port":27015,"enabled":true,"region":"us-east","cc":"us","latitude":40.73061,"longitude":-73.93524,"reserved":0,"last_update":"0001-01-01T00:00:00Z","name_a2s":"Uncletopia | New York City | 1 | All Maps","protocol":17,"map":"cp_egypt_final","folder":"tf","game":"Team Fortress","app_id":440,"player_count":8,"max_players":24,"Bots":0,"server_type":"Dedicated","server_os":"Linux","password":true,"vac":true,"version":"7961495","steam_id":85568392924469993,"keywords":["cp","nocrits","nodmgspread","uncletopia"],"game_id":440,"stv_port":27016,"stv_name":"Uncletopia | New York City | 1 | All Maps | STV","players":[{"user_id":435,"name":"Tailsmonster12","steam_id":76561198399989261,"connected_time":266000000000,"state":"active","ping":41},{"user_id":422,"name":"DrMisteryous2","steam_id":76561198336307012,"connected_time":1855000000000,"state":"active","ping":177},{"user_id":436,"name":"Loona Gaming","steam_id":76561199479212831,"connected_time":154000000000,"state":"active","ping":70},{"user_id":437,"name":"Miss Pauling (Real)","steam_id":76561198202101848,"connected_time":149000000000,"state":"active","ping":127},{"user_id":430,"name":"CesarSalad","steam_id":76561198985356050,"connected_time":878000000000,"state":"active","ping":60},{"user_id":438,"name":"dreadward07","steam_id":76561198198504190,"connected_time":95000000000,"state":"active","ping":100},{"user_id":432,"name":"TrickorTreat","steam_id":76561198104385060,"connected_time":743000000000,"state":"active","ping":67},{"user_id":415,"name":"GH578","steam_id":76561199493262585,"connected_time":2533000000000,"state":"active","ping":123}]},{"server_id":14,"name":"Uncletopia | New York City | 2 | All Maps","name_short":"nyc-2","host":"nyc-1.us.uncletopia.com","port":27025,"enabled":true,"region":"us-east","cc":"us","latitude":40.73061,"longitude":-73.93524,"reserved":0,"last_update":"0001-01-01T00:00:00Z","name_a2s":"Uncletopia | New York City | 2 | All Maps","protocol":17,"map":"cp_dustbowl","folder":"tf","game":"Team Fortress","app_id":440,"player_count":24,"max_players":24,"Bots":0,"server_type":"Dedicated","server_os":"Linux","password":true,"vac":true,"version":"7961495","steam_id":85568392924469994,"keywords":["cp","nocrits","nodmgspread","uncletopia"],"game_id":440,"stv_port":27026,"stv_name":"Uncletopia | New York City | 2 | All Maps | STV","players":[{"user_id":292,"name":"Hackpanic247","steam_id":76561198298267092,"connected_time":1889000000000,"state":"active","ping":73},{"user_id":322,"name":"50 grams of whey protein","steam_id":76561198319442494,"connected_time":457000000000,"state":"active","ping":114},{"user_id":309,"name":"x","steam_id":76561198013735714,"connected_time":1053000000000,"state":"active","ping":70},{"user_id":328,"name":"neet","steam_id":76561197968115168,"connected_time":197000000000,"state":"active","ping":45},{"user_id":310,"name":"Madlag","steam_id":76561199481854201,"connected_time":984000000000,"state":"active","ping":55},{"user_id":181,"name":"PyroEagle","steam_id":76561198296434231,"connected_time":10768000000000,"state":"active","ping":88},{"user_id":311,"name":"Non Critical Thinker","steam_id":76561198123401597,"connected_time":968000000000,"state":"active","ping":76},{"user_id":312,"name":"Raza","steam_id":76561198996455559,"connected_time":963000000000,"state":"active","ping":68},{"user_id":313,"name":"Bunny Eater","steam_id":76561198029563721,"connected_time":962000000000,"state":"active","ping":57},{"user_id":329,"name":"whoopsydoodle","steam_id":76561198045145360,"connected_time":180000000000,"state":"active","ping":46},{"user_id":330,"name":"lost in spaaaaace","steam_id":76561199085974120,"connected_time":177000000000,"state":"active","ping":59},{"user_id":308,"name":"Bulk","steam_id":76561199009814535,"connected_time":1144000000000,"state":"active","ping":54},{"user_id":290,"name":"peterochs","steam_id":76561198288802283,"connected_time":2102000000000,"state":"active","ping":64},{"user_id":316,"name":"Czar","steam_id":76561198122463353,"connected_time":894000000000,"state":"active","ping":62},{"user_id":331,"name":"ft. Mitk","steam_id":76561199109203558,"connected_time":176000000000,"state":"active","ping":72},{"user_id":267,"name":"The","steam_id":76561198359311605,"connected_time":4381000000000,"state":"active","ping":141},{"user_id":302,"name":"breathingtrees","steam_id":76561198118931690,"connected_time":1645000000000,"state":"active","ping":51},{"user_id":320,"name":"Great","steam_id":76561198895516433,"connected_time":818000000000,"state":"active","ping":69},{"user_id":295,"name":"Michaelpc1","steam_id":76561198088365519,"connected_time":1814000000000,"state":"active","ping":60},{"user_id":325,"name":"Ddonut gamer","steam_id":76561198858852245,"connected_time":324000000000,"state":"active","ping":122},{"user_id":296,"name":"Kirbs","steam_id":76561198970654800,"connected_time":1766000000000,"state":"active","ping":45},{"user_id":332,"name":"Walmart Employee","steam_id":76561198840373909,"connected_time":108000000000,"state":"active","ping":93},{"user_id":305,"name":"MaineGameBoy","steam_id":76561198278698726,"connected_time":1437000000000,"state":"active","ping":99},{"user_id":226,"name":"g00bur","steam_id":76561197993622520,"connected_time":7890000000000,"state":"active","ping":60}]},{"server_id":15,"name":"Uncletopia | New York City | 3 | Stopwatch Beta","name_short":"nyc-3","host":"nyc-1.us.uncletopia.com","port":27035,"enabled":true,"region":"us-east","cc":"us","latitude":40.73061,"longitude":-73.93524,"reserved":0,"last_update":"0001-01-01T00:00:00Z","name_a2s":"Uncletopia | New York City | 3 | Stopwatch Beta","protocol":17,"map":"workshop/pl_barnblitz_pro7.ugc582280235","folder":"tf","game":"Team Fortress","app_id":440,"player_count":0,"max_players":24,"Bots":0,"server_type":"Dedicated","server_os":"Linux","password":true,"vac":true,"version":"7961495","steam_id":85568392924742820,"keywords":["nocrits","nodmgspread","payload","uncletopia"],"game_id":440,"stv_port":27036,"stv_name":"Uncletopia | New York City | 3 | Stopwatch Beta | STV","players":null},{"server_id":16,"name":"Uncletopia | New York City | 4 | Community","name_short":"nyc-4","host":"nyc-1.us.uncletopia.com","port":27045,"enabled":true,"region":"us-east","cc":"us","latitude":40.73061,"longitude":-73.93524,"reserved":0,"last_update":"0001-01-01T00:00:00Z","name_a2s":"Uncletopia | New York City | 4 | Community","protocol":17,"map":"workshop/pl_highwood_b13.ugc1769496557","folder":"tf","game":"Team Fortress","app_id":440,"player_count":23,"max_players":24,"Bots":0,"server_type":"Dedicated","server_os":"Linux","password":true,"vac":true,"version":"7961495","steam_id":85568392924742821,"keywords":["nocrits","nodmgspread","payload","uncletopia"],"game_id":440,"stv_port":27046,"stv_name":"Uncletopia | New York City | 4 | Community | STV","players":[{"user_id":218,"name":"Spectre","steam_id":76561198025652246,"connected_time":26000000000,"state":"active","ping":64},{"user_id":208,"name":"Sabishi","steam_id":76561198348176826,"connected_time":1312000000000,"state":"active","ping":51},{"user_id":204,"name":"hondjo","steam_id":76561198119324108,"connected_time":1440000000000,"state":"active","ping":129},{"user_id":193,"name":"FROG ‘Ö(‚äô–î‚äô) ","steam_id":76561199008884088,"connected_time":2078000000000,"state":"active","ping":58},{"user_id":194,"name":"Skiddy","steam_id":76561198125942665,"connected_time":2048000000000,"state":"active","ping":60},{"user_id":166,"name":"erf","steam_id":76561198078203677,"connected_time":4747000000000,"state":"active","ping":51},{"user_id":197,"name":"Spamton Plush [At half price!]","steam_id":76561198799704762,"connected_time":1969000000000,"state":"active","ping":69},{"user_id":214,"name":"Ginger Jesus","steam_id":76561198052386458,"connected_time":337000000000,"state":"active","ping":43},{"user_id":199,"name":"St. Bobson Q Dugnutt III Esq Sr","steam_id":76561197993459985,"connected_time":1626000000000,"state":"active","ping":54},{"user_id":187,"name":"Portizz","steam_id":76561198095732366,"connected_time":3140000000000,"state":"active","ping":70},{"user_id":156,"name":"Tankless Water Heater","steam_id":76561198014574925,"connected_time":5660000000000,"state":"active","ping":59},{"user_id":189,"name":"Shuu","steam_id":76561199199180558,"connected_time":2850000000000,"state":"active","ping":46},{"user_id":215,"name":"ashsillygoober","steam_id":76561199454622997,"connected_time":312000000000,"state":"active","ping":84},{"user_id":216,"name":"all_classics","steam_id":76561198012738913,"connected_time":150000000000,"state":"active","ping":69},{"user_id":186,"name":"RarestGuide","steam_id":76561198050338923,"connected_time":3154000000000,"state":"active","ping":63},{"user_id":167,"name":"Hook, Line, and Sphincter","steam_id":76561198078207743,"connected_time":4741000000000,"state":"active","ping":45},{"user_id":202,"name":"Zhong Xina","steam_id":76561198048157121,"connected_time":1508000000000,"state":"active","ping":67},{"user_id":203,"name":"famcal2017","steam_id":76561198973479241,"connected_time":1480000000000,"state":"active","ping":108},{"user_id":173,"name":"Matt","steam_id":76561198008108521,"connected_time":4236000000000,"state":"active","ping":52},{"user_id":205,"name":"Bheem","steam_id":76561198170453459,"connected_time":1429000000000,"state":"active","ping":115},{"user_id":211,"name":"Aquadude","steam_id":76561199044288315,"connected_time":1145000000000,"state":"active","ping":44},{"user_id":217,"name":"wals","steam_id":76561199166474769,"connected_time":145000000000,"state":"active","ping":148},{"user_id":175,"name":"WitheringLeo","steam_id":76561198046722918,"connected_time":4199000000000,"state":"active","ping":75}]},{"server_id":142,"name":"Uncletopia | S√£o Paulo | 1 | All Maps","name_short":"sao-1","host":"sao-1.br.uncletopia.com","port":27015,"enabled":true,"region":"sa","cc":"br","latitude":-23.533773,"longitude":-46.62529,"reserved":0,"last_update":"0001-01-01T00:00:00Z","name_a2s":"Uncletopia | S√£o Paulo | 1 | All Maps","protocol":17,"map":"koth_viaduct","folder":"tf","game":"Team Fortress","app_id":440,"player_count":0,"max_players":24,"Bots":0,"server_type":"Dedicated","server_os":"Linux","password":true,"vac":true,"version":"7961495","steam_id":85568392924469996,"keywords":["cp","nocrits","nodmgspread","uncletopia"],"game_id":440,"stv_port":27016,"stv_name":"Uncletopia | S√£o Paulo | 1 | All Maps | STV","players":null},{"server_id":143,"name":"Uncletopia | S√£o Paulo | 2 | Community","name_short":"sao-2","host":"sao-2.br.uncletopia.com","port":27015,"enabled":true,"region":"sa","cc":"br","latitude":-23.533773,"longitude":-46.62529,"reserved":0,"last_update":"0001-01-01T00:00:00Z","name_a2s":"Uncletopia | S√£o Paulo | 2 | Community","protocol":17,"map":"workshop/pl_vigil_rc9.ugc1266210012","folder":"tf","game":"Team Fortress","app_id":440,"player_count":0,"max_players":24,"Bots":0,"server_type":"Dedicated","server_os":"Linux","password":true,"vac":true,"version":"7961495","steam_id":85568392924485349,"keywords":["nocrits","nodmgspread","payload","uncletopia"],"game_id":440,"stv_port":27016,"stv_name":"Uncletopia | S√£o Paulo | 2 | Community | STV","players":null},{"server_id":7,"name":"Uncletopia | Seattle | 1 | All Maps","name_short":"sea-1","host":"sea-1.us.uncletopia.com","port":27015,"enabled":true,"region":"us-west","cc":"us","latitude":47.608013,"longitude":-122.33517,"reserved":0,"last_update":"0001-01-01T00:00:00Z","name_a2s":"Uncletopia | Seattle | 1 | All Maps","protocol":17,"map":"pl_thundermountain","folder":"tf","game":"Team Fortress","app_id":440,"player_count":23,"max_players":24,"Bots":0,"server_type":"Dedicated","server_os":"Linux","password":true,"vac":true,"version":"7961495","steam_id":85568392924469997,"keywords":["nocrits","nodmgspread","payload","uncletopia"],"game_id":440,"stv_port":27016,"stv_name":"Uncletopia | Seattle | 1 | All Maps | STV","players":[{"user_id":397,"name":"Cam","steam_id":76561198285054047,"connected_time":455000000000,"state":"active","ping":77},{"user_id":289,"name":"Tripll-L","steam_id":76561197998077437,"connected_time":7243000000000,"state":"active","ping":60},{"user_id":349,"name":"oo","steam_id":76561198119626492,"connected_time":4016000000000,"state":"active","ping":67},{"user_id":386,"name":"Your eggs are reasonably firm","steam_id":76561198112211345,"connected_time":883000000000,"state":"active","ping":57},{"user_id":357,"name":"Fh","steam_id":76561198000903511,"connected_time":3523000000000,"state":"active","ping":60},{"user_id":384,"name":"help","steam_id":76561198171840525,"connected_time":890000000000,"state":"active","ping":46},{"user_id":347,"name":"boffo","steam_id":76561198096978718,"connected_time":4139000000000,"state":"active","ping":74},{"user_id":388,"name":"HotHead","steam_id":76561198138468982,"connected_time":876000000000,"state":"active","ping":48},{"user_id":387,"name":"invenomious","steam_id":76561199032714821,"connected_time":878000000000,"state":"active","ping":38},{"user_id":404,"name":"McDumDum","steam_id":76561198040738807,"connected_time":55000000000,"state":"active","ping":114},{"user_id":400,"name":"dust | she/it","steam_id":76561198045218909,"connected_time":353000000000,"state":"active","ping":44},{"user_id":395,"name":"freedom staff","steam_id":76561199123218315,"connected_time":630000000000,"state":"active","ping":130},{"user_id":378,"name":"magic","steam_id":76561198031957385,"connected_time":1721000000000,"state":"active","ping":66},{"user_id":396,"name":"pepe warlord","steam_id":76561198080819197,"connected_time":531000000000,"state":"active","ping":82},{"user_id":402,"name":"Closed.","steam_id":76561198212598967,"connected_time":279000000000,"state":"active","ping":98},{"user_id":398,"name":"Engineer Gaming","steam_id":76561198074958039,"connected_time":449000000000,"state":"active","ping":77},{"user_id":380,"name":"Sgt. Goober","steam_id":76561198174745902,"connected_time":1671000000000,"state":"active","ping":80},{"user_id":352,"name":"MonteJT","steam_id":76561198055409360,"connected_time":3954000000000,"state":"active","ping":40},{"user_id":403,"name":"Tubbyy","steam_id":76561198042995673,"connected_time":167000000000,"state":"active","ping":61},{"user_id":385,"name":"Themasterman75","steam_id":76561199385573293,"connected_time":889000000000,"state":"active","ping":72},{"user_id":376,"name":"Pinky","steam_id":76561198281968187,"connected_time":1812000000000,"state":"active","ping":66},{"user_id":381,"name":"[TrC] Dackstrus","steam_id":76561197973518509,"connected_time":1662000000000,"state":"active","ping":59},{"user_id":382,"name":"Villchip","steam_id":76561198198599982,"connected_time":1652000000000,"state":"active","ping":54}]},{"server_id":119,"name":"Uncletopia | Seattle | 2 | All Maps","name_short":"sea-2","host":"sea-1.us.uncletopia.com","port":27025,"enabled":true,"region":"us-west","cc":"us","latitude":47.608013,"longitude":-122.33517,"reserved":0,"last_update":"0001-01-01T00:00:00Z","name_a2s":"Uncletopia | Seattle | 2 | All Maps","protocol":17,"map":"koth_lakeside_final","folder":"tf","game":"Team Fortress","app_id":440,"player_count":24,"max_players":24,"Bots":0,"server_type":"Dedicated","server_os":"Linux","password":true,"vac":true,"version":"7961495","steam_id":85568392924469998,"keywords":["cp","nocrits","nodmgspread","uncletopia"],"game_id":440,"stv_port":27026,"stv_name":"Uncletopia | Seattle | 2 | All Maps | STV","players":[{"user_id":83,"name":"MormonDude","steam_id":76561199101985449,"connected_time":2375000000000,"state":"active","ping":101},{"user_id":96,"name":"Strength!!","steam_id":76561198001241984,"connected_time":924000000000,"state":"active","ping":46},{"user_id":105,"name":"Crazy Cactus","steam_id":76561198324386814,"connected_time":527000000000,"state":"active","ping":73},{"user_id":111,"name":"Kreacher |","steam_id":76561198061639792,"connected_time":328000000000,"state":"active","ping":123},{"user_id":80,"name":"Joh Bags","steam_id":76561198097004438,"connected_time":2736000000000,"state":"active","ping":85},{"user_id":45,"name":"G.bo","steam_id":76561198085176270,"connected_time":4553000000000,"state":"active","ping":78},{"user_id":40,"name":"D.A.V.I.D","steam_id":76561199443570634,"connected_time":5472000000000,"state":"active","ping":66},{"user_id":98,"name":"yolginmo","steam_id":76561198157985901,"connected_time":878000000000,"state":"active","ping":64},{"user_id":106,"name":"Sherman didn't go far enough","steam_id":76561198013310722,"connected_time":521000000000,"state":"active","ping":91},{"user_id":86,"name":"Please...I can cook for you!","steam_id":76561198035698704,"connected_time":1977000000000,"state":"active","ping":71},{"user_id":75,"name":"top Golf","steam_id":76561198241265568,"connected_time":2897000000000,"state":"active","ping":39},{"user_id":104,"name":"KarmaKid","steam_id":76561198079580094,"connected_time":627000000000,"state":"active","ping":134},{"user_id":100,"name":"chocky","steam_id":76561198057491296,"connected_time":858000000000,"state":"active","ping":46},{"user_id":112,"name":"Once in a Lifetime","steam_id":76561199180652178,"connected_time":232000000000,"state":"active","ping":138},{"user_id":60,"name":"Dura","steam_id":76561198081086998,"connected_time":3518000000000,"state":"active","ping":58},{"user_id":102,"name":"Nickel04","steam_id":76561199000214877,"connected_time":846000000000,"state":"active","ping":59},{"user_id":107,"name":"eryn üó∫","steam_id":76561198004433070,"connected_time":444000000000,"state":"active","ping":114},{"user_id":108,"name":"[Industrial] A_HUMBLEBUMBLED","steam_id":76561198064771878,"connected_time":433000000000,"state":"active","ping":30},{"user_id":113,"name":"[TTV]slendermansmoom","steam_id":76561199053946374,"connected_time":190000000000,"state":"active","ping":68},{"user_id":91,"name":"Soulja Boy","steam_id":76561198066091050,"connected_time":1533000000000,"state":"active","ping":46},{"user_id":93,"name":"Sledger","steam_id":76561198801675539,"connected_time":1391000000000,"state":"active","ping":120},{"user_id":66,"name":"Alabit","steam_id":76561198065578560,"connected_time":3462000000000,"state":"active","ping":81},{"user_id":109,"name":"radicalPolio","steam_id":76561197961561855,"connected_time":418000000000,"state":"active","ping":94},{"user_id":110,"name":"Shopkeeper","steam_id":76561198105888756,"connected_time":385000000000,"state":"active","ping":63}]},{"server_id":406,"name":"Uncletopia | Seattle | 3 | Stopwatch Beta","name_short":"sea-3","host":"sea-1.us.uncletopia.com","port":27035,"enabled":true,"region":"us-west","cc":"us","latitude":47.608013,"longitude":-122.33517,"reserved":0,"last_update":"0001-01-01T00:00:00Z","name_a2s":"Uncletopia | Seattle | 3 | Stopwatch Beta","protocol":17,"map":"koth_lakeside_final","folder":"tf","game":"Team Fortress","app_id":440,"player_count":0,"max_players":24,"Bots":0,"server_type":"Dedicated","server_os":"Linux","password":true,"vac":true,"version":"7961495","steam_id":85568392924515217,"keywords":["cp","nocrits","nodmgspread","uncletopia"],"game_id":440,"stv_port":27036,"stv_name":"Uncletopia | Seattle | 3 | Stopwatch Beta | STV","players":null},{"server_id":17,"name":"Uncletopia | San Francisco | 1 | All Maps","name_short":"sfo-1","host":"sfo-1.us.uncletopia.com","port":27015,"enabled":true,"region":"us-west","cc":"us","latitude":37.77397,"longitude":-122.4313,"reserved":0,"last_update":"0001-01-01T00:00:00Z","name_a2s":"Uncletopia | San Francisco | 1 | All Maps","protocol":17,"map":"pl_swiftwater_final1","folder":"tf","game":"Team Fortress","app_id":440,"player_count":24,"max_players":24,"Bots":0,"server_type":"Dedicated","server_os":"Linux","password":true,"vac":true,"version":"7961495","steam_id":85568392924469999,"keywords":["nocrits","nodmgspread","payload","uncletopia"],"game_id":440,"stv_port":27016,"stv_name":"Uncletopia | San Francisco | 1 | All Maps | STV","players":[{"user_id":224,"name":"Gary P","steam_id":76561198149108488,"connected_time":3806000000000,"state":"active","ping":81},{"user_id":274,"name":"the \"crab\"","steam_id":76561198027422512,"connected_time":533000000000,"state":"active","ping":75},{"user_id":276,"name":"moe","steam_id":76561198929586245,"connected_time":482000000000,"state":"active","ping":51},{"user_id":275,"name":"Goose","steam_id":76561198036774894,"connected_time":504000000000,"state":"active","ping":73},{"user_id":265,"name":"Yeoman","steam_id":76561198049472346,"connected_time":926000000000,"state":"active","ping":116},{"user_id":285,"name":"rf","steam_id":76561198195359229,"connected_time":102000000000,"state":"active","ping":60},{"user_id":283,"name":"German Mud Wizard","steam_id":76561198004962632,"connected_time":298000000000,"state":"active","ping":88},{"user_id":231,"name":"Rhutebeer","steam_id":76561198018302761,"connected_time":3377000000000,"state":"active","ping":130},{"user_id":284,"name":"Love Waffle","steam_id":76561197990077189,"connected_time":165000000000,"state":"active","ping":85},{"user_id":272,"name":"Sadodere Grimace","steam_id":76561198008332028,"connected_time":710000000000,"state":"active","ping":72},{"user_id":249,"name":"Gentle Opp 3","steam_id":76561198150406851,"connected_time":1771000000000,"state":"active","ping":50},{"user_id":250,"name":"Sax","steam_id":76561198055425123,"connected_time":1729000000000,"state":"active","ping":80},{"user_id":235,"name":"fiermo","steam_id":76561198105374054,"connected_time":2792000000000,"state":"active","ping":70},{"user_id":214,"name":"Dimple #TF2Center","steam_id":76561198980324190,"connected_time":4714000000000,"state":"active","ping":72},{"user_id":260,"name":"Keamy","steam_id":76561199471434875,"connected_time":1351000000000,"state":"active","ping":60},{"user_id":190,"name":"Lyxbris","steam_id":76561198172294627,"connected_time":5713000000000,"state":"active","ping":59},{"user_id":278,"name":"fungi","steam_id":76561198169755734,"connected_time":447000000000,"state":"active","ping":47},{"user_id":279,"name":"Acolyte of Goatse","steam_id":76561198046526036,"connected_time":430000000000,"state":"active","ping":54},{"user_id":281,"name":"no vc no c","steam_id":76561197989503095,"connected_time":398000000000,"state":"active","ping":149},{"user_id":191,"name":"Based","steam_id":76561199089316436,"connected_time":5702000000000,"state":"active","ping":60},{"user_id":204,"name":"toastylotus","steam_id":76561198060043969,"connected_time":5063000000000,"state":"active","ping":125},{"user_id":201,"name":"worker","steam_id":76561198039608940,"connected_time":5148000000000,"state":"active","ping":85},{"user_id":251,"name":"drank baby","steam_id":76561199483723843,"connected_time":1680000000000,"state":"active","ping":63},{"user_id":282,"name":"Wock Sipper","steam_id":76561198844442095,"connected_time":368000000000,"state":"active","ping":85}]},{"server_id":18,"name":"Uncletopia | San Francisco | 2 | All Maps","name_short":"sfo-2","host":"sfo-1.us.uncletopia.com","port":27025,"enabled":true,"region":"us-west","cc":"us","latitude":37.77397,"longitude":-122.4313,"reserved":0,"last_update":"0001-01-01T00:00:00Z","name_a2s":"Uncletopia | San Francisco | 2 | All Maps","protocol":17,"map":"cp_sunshine","folder":"tf","game":"Team Fortress","app_id":440,"player_count":5,"max_players":24,"Bots":0,"server_type":"Dedicated","server_os":"Linux","password":true,"vac":true,"version":"7961495","steam_id":85568392924470000,"keywords":["cp","nocrits","nodmgspread","uncletopia"],"game_id":440,"stv_port":27026,"stv_name":"Uncletopia | San Francisco | 2 | All Maps | STV","players":[{"user_id":14,"name":"Yackaboi","steam_id":76561199444911765,"connected_time":3896000000000,"state":"active","ping":85},{"user_id":29,"name":"ZOOM","steam_id":76561198968058652,"connected_time":880000000000,"state":"active","ping":63},{"user_id":30,"name":"Caspian","steam_id":76561199041466962,"connected_time":190000000000,"state":"active","ping":35},{"user_id":21,"name":"The Frozen Maratcha","steam_id":76561198976732896,"connected_time":2351000000000,"state":"active","ping":85},{"user_id":26,"name":"CamWtheDestroyer","steam_id":76561198950777742,"connected_time":1367000000000,"state":"active","ping":128}]},{"server_id":19,"name":"Uncletopia | San Francisco | 3 | Stopwatch Beta","name_short":"sfo-3","host":"sfo-1.us.uncletopia.com","port":27035,"enabled":true,"region":"us-west","cc":"us","latitude":37.77397,"longitude":-122.4313,"reserved":0,"last_update":"0001-01-01T00:00:00Z","name_a2s":"Uncletopia | San Francisco | 3 | Stopwatch Beta","protocol":17,"map":"pl_borneo","folder":"tf","game":"Team Fortress","app_id":440,"player_count":0,"max_players":24,"Bots":0,"server_type":"Dedicated","server_os":"Linux","password":true,"vac":true,"version":"7961495","steam_id":85568392924742824,"keywords":["nocrits","nodmgspread","payload","uncletopia"],"game_id":440,"stv_port":27036,"stv_name":"Uncletopia | San Francisco | 3 | Stopwatch Beta | STV","players":null},{"server_id":20,"name":"Uncletopia | San Francisco | 4 | Community","name_short":"sfo-4","host":"sfo-1.us.uncletopia.com","port":27045,"enabled":true,"region":"us-west","cc":"us","latitude":37.77397,"longitude":-122.4313,"reserved":0,"last_update":"0001-01-01T00:00:00Z","name_a2s":"Uncletopia | San Francisco | 4 | Community","protocol":17,"map":"koth_viaduct","folder":"tf","game":"Team Fortress","app_id":440,"player_count":0,"max_players":24,"Bots":0,"server_type":"Dedicated","server_os":"Linux","password":true,"vac":true,"version":"7961495","steam_id":85568392924742826,"keywords":["cp","nocrits","nodmgspread","uncletopia"],"game_id":440,"stv_port":27046,"stv_name":"Uncletopia | San Francisco | 4 | Community | STV","players":null},{"server_id":141,"name":"Uncletopia | Sydney | 1 | All Maps","name_short":"syd-1","host":"syd-1.au.uncletopia.com","port":27015,"enabled":true,"region":"au","cc":"au","latitude":-33.865143,"longitude":151.2099,"reserved":0,"last_update":"0001-01-01T00:00:00Z","name_a2s":"Uncletopia | Sydney | 1 | All Maps","protocol":17,"map":"cp_snakewater_final1","folder":"tf","game":"Team Fortress","app_id":440,"player_count":0,"max_players":24,"Bots":0,"server_type":"Dedicated","server_os":"Linux","password":true,"vac":true,"version":"7961495","steam_id":85568392924470001,"keywords":["cp","nocrits","nodmgspread","uncletopia"],"game_id":440,"stv_port":27016,"stv_name":"Uncletopia | Sydney | 1 | All Maps | STV","players":null},{"server_id":123,"name":"Uncletopia | Sydney | 2 | All Maps","name_short":"syd-2","host":"syd-1.au.uncletopia.com","port":27025,"enabled":true,"region":"au","cc":"au","latitude":-33.865143,"longitude":151.2099,"reserved":0,"last_update":"0001-01-01T00:00:00Z","name_a2s":"Uncletopia | Sydney | 2 | All Maps","protocol":17,"map":"pl_snowycoast","folder":"tf","game":"Team Fortress","app_id":440,"player_count":0,"max_players":24,"Bots":0,"server_type":"Dedicated","server_os":"Linux","password":true,"vac":true,"version":"7961495","steam_id":85568392924470002,"keywords":["nocrits","nodmgspread","payload","uncletopia"],"game_id":440,"stv_port":27026,"stv_name":"Uncletopia | Sydney | 2 | All Maps | STV","players":null},{"server_id":395,"name":"Uncletopia | Sydney | 3 | All Maps","name_short":"syd-3","host":"syd-1.au.uncletopia.com","port":27035,"enabled":true,"region":"au","cc":"au","latitude":-33.865143,"longitude":151.2099,"reserved":0,"last_update":"0001-01-01T00:00:00Z","name_a2s":"Uncletopia | Sydney | 3 | All Maps","protocol":17,"map":"cp_dustbowl","folder":"tf","game":"Team Fortress","app_id":440,"player_count":0,"max_players":24,"Bots":0,"server_type":"Dedicated","server_os":"Linux","password":true,"vac":true,"version":"7961495","steam_id":85568392925194467,"keywords":["cp","nocrits","nodmgspread","uncletopia"],"game_id":440,"stv_port":27036,"stv_name":"Uncletopia | Sydney | 3 | All Maps | STV","players":null},{"server_id":396,"name":"Uncletopia | Sydney | 4 | All Maps","name_short":"syd-4","host":"syd-1.au.uncletopia.com","port":27045,"enabled":true,"region":"au","cc":"au","latitude":-33.865143,"longitude":151.2099,"reserved":0,"last_update":"0001-01-01T00:00:00Z","name_a2s":"Uncletopia | Sydney | 4 | All Maps","protocol":17,"map":"koth_viaduct","folder":"tf","game":"Team Fortress","app_id":440,"player_count":0,"max_players":24,"Bots":0,"server_type":"Dedicated","server_os":"Linux","password":true,"vac":true,"version":"7961495","steam_id":85568392925397958,"keywords":["cp","nocrits","nodmgspread","uncletopia"],"game_id":440,"stv_port":27046,"stv_name":"Uncletopia | Sydney | 4 | All Maps | STV","players":null},{"server_id":58,"name":"Uncletopia | Sydney | 5 | Stopwatch Beta","name_short":"syd-5","host":"syd-1.au.uncletopia.com","port":27055,"enabled":true,"region":"au","cc":"au","latitude":-33.865143,"longitude":151.2099,"reserved":0,"last_update":"0001-01-01T00:00:00Z","name_a2s":"Uncletopia | Sydney | 5 | Stopwatch Beta","protocol":17,"map":"koth_viaduct","folder":"tf","game":"Team Fortress","app_id":440,"player_count":0,"max_players":24,"Bots":0,"server_type":"Dedicated","server_os":"Linux","password":true,"vac":true,"version":"7961495","steam_id":85568392925397959,"keywords":["cp","nocrits","nodmgspread","uncletopia"],"game_id":440,"stv_port":27056,"stv_name":"Uncletopia | Sydney | 5 | Stopwatch Beta | STV","players":null},{"server_id":59,"name":"Uncletopia | Sydney | 6 | Community","name_short":"syd-6","host":"syd-1.au.uncletopia.com","port":27065,"enabled":true,"region":"au","cc":"au","latitude":-33.865143,"longitude":151.2099,"reserved":0,"last_update":"0001-01-01T00:00:00Z","name_a2s":"Uncletopia | Sydney | 6 | Community","protocol":17,"map":"koth_cascade","folder":"tf","game":"Team Fortress","app_id":440,"player_count":0,"max_players":24,"Bots":0,"server_type":"Dedicated","server_os":"Linux","password":true,"vac":true,"version":"7961495","steam_id":85568392925397960,"keywords":["cp","nocrits","nodmgspread","uncletopia"],"game_id":440,"stv_port":27066,"stv_name":"Uncletopia | Sydney | 6 | Community | STV","players":null},{"server_id":49,"name":"Uncletopia | Warsaw | 1 | All Maps","name_short":"waw-1","host":"waw-1.pl.uncletopia.com","port":27015,"enabled":true,"region":"eu","cc":"pl","latitude":52.2297,"longitude":21.017532,"reserved":0,"last_update":"0001-01-01T00:00:00Z","name_a2s":"Uncletopia | Warsaw | 1 | All Maps","protocol":17,"map":"koth_highpass","folder":"tf","game":"Team Fortress","app_id":440,"player_count":0,"max_players":24,"Bots":0,"server_type":"Dedicated","server_os":"Linux","password":true,"vac":true,"version":"7961495","steam_id":85568392925397850,"keywords":["cp","nocrits","nodmgspread","uncletopia"],"game_id":440,"stv_port":27016,"stv_name":"Uncletopia | Warsaw | 1 | All Maps | STV","players":null},{"server_id":50,"name":"Uncletopia | Warsaw | 2 | All Maps","name_short":"waw-2","host":"waw-1.pl.uncletopia.com","port":27025,"enabled":true,"region":"eu","cc":"pl","latitude":52.2297,"longitude":21.017532,"reserved":0,"last_update":"0001-01-01T00:00:00Z","name_a2s":"Uncletopia | Warsaw | 2 | All Maps","protocol":17,"map":"koth_viaduct","folder":"tf","game":"Team Fortress","app_id":440,"player_count":0,"max_players":24,"Bots":0,"server_type":"Dedicated","server_os":"Linux","password":true,"vac":true,"version":"7961495","steam_id":85568392925397851,"keywords":["cp","nocrits","nodmgspread","uncletopia"],"game_id":440,"stv_port":27026,"stv_name":"Uncletopia | Warsaw | 2 | All Maps | STV","players":null},{"server_id":51,"name":"Uncletopia | Warsaw | 3 | All Maps","name_short":"waw-3","host":"waw-1.pl.uncletopia.com","port":27035,"enabled":true,"region":"eu","cc":"pl","latitude":52.2297,"longitude":21.017532,"reserved":0,"last_update":"0001-01-01T00:00:00Z","name_a2s":"Uncletopia | Warsaw | 3 | All Maps","protocol":17,"map":"cp_sunshine","folder":"tf","game":"Team Fortress","app_id":440,"player_count":0,"max_players":24,"Bots":0,"server_type":"Dedicated","server_os":"Linux","password":true,"vac":true,"version":"7961495","steam_id":85568392925397852,"keywords":["cp","nocrits","nodmgspread","uncletopia"],"game_id":440,"stv_port":27036,"stv_name":"Uncletopia | Warsaw | 3 | All Maps | STV","players":null},{"server_id":52,"name":"Uncletopia | Warsaw | 4 | All Maps","name_short":"waw-4","host":"waw-1.pl.uncletopia.com","port":27045,"enabled":true,"region":"eu","cc":"pl","latitude":52.2297,"longitude":21.017532,"reserved":0,"last_update":"0001-01-01T00:00:00Z","name_a2s":"Uncletopia | Warsaw | 4 | All Maps","protocol":17,"map":"pl_swiftwater_final1","folder":"tf","game":"Team Fortress","app_id":440,"player_count":0,"max_players":24,"Bots":0,"server_type":"Dedicated","server_os":"Linux","password":true,"vac":true,"version":"7961495","steam_id":85568392925397853,"keywords":["nocrits","nodmgspread","payload","uncletopia"],"game_id":440,"stv_port":27046,"stv_name":"Uncletopia | Warsaw | 4 | All Maps | STV","players":null},{"server_id":53,"name":"Uncletopia | Warsaw | 5 | Stopwatch Beta","name_short":"waw-5","host":"waw-1.pl.uncletopia.com","port":27055,"enabled":true,"region":"eu","cc":"pl","latitude":52.2297,"longitude":21.017532,"reserved":0,"last_update":"0001-01-01T00:00:00Z","name_a2s":"Uncletopia | Warsaw | 5 | Stopwatch Beta","protocol":17,"map":"workshop/koth_ramjam_rc1.ugc459778887","folder":"tf","game":"Team Fortress","app_id":440,"player_count":0,"max_players":24,"Bots":0,"server_type":"Dedicated","server_os":"Linux","password":true,"vac":true,"version":"7961495","steam_id":85568392925397854,"keywords":["cp","nocrits","nodmgspread","uncletopia"],"game_id":440,"stv_port":27056,"stv_name":"Uncletopia | Warsaw | 5 | Stopwatch Beta | STV","players":null},{"server_id":54,"name":"Uncletopia | Warsaw | 6 | Community","name_short":"waw-6","host":"waw-1.pl.uncletopia.com","port":27065,"enabled":true,"region":"eu","cc":"pl","latitude":52.2297,"longitude":21.017532,"reserved":0,"last_update":"0001-01-01T00:00:00Z","name_a2s":"Uncletopia | Warsaw | 6 | Community","protocol":17,"map":"workshop/pl_vigil_rc9.ugc1266210012","folder":"tf","game":"Team Fortress","app_id":440,"player_count":0,"max_players":24,"Bots":0,"server_type":"Dedicated","server_os":"Linux","password":true,"vac":true,"version":"7961495","steam_id":85568392925397856,"keywords":["nocrits","nodmgspread","payload","uncletopia"],"game_id":440,"stv_port":27066,"stv_name":"Uncletopia | Warsaw | 6 | Community | STV","players":null}]}