{"status":true,"message":"","result":[{"server_id":9,"name":"Uncletopia | Atlanta | 1 | All Maps","name_short":"atl-1","host":"atl-1.us.uncletopia.com","port":27015,"enabled":true,"region":"us-east","cc":"us","latitude":33.753746,"longitude":-84.38633,"reserved":0,"last_update":"0001-01-01T00:00:00Z","name_a2s":"Uncletopia | Atlanta | 1 | All Maps","protocol":17,"map":"koth_highpass","folder":"tf","game":"Team Fortress","app_id":440,"player_count":0,"max_players":24,"Bots":0,"server_type":"Dedicated","server_os":"Linux","password":true,"vac":true,"version":"7961495","steam_id":85568392924469982,"keywords":["cp","nocrits","nodmgspread","uncletopia"],"game_id":440,"stv_port":27016,"stv_name":"Uncletopia | Atlanta | 1 | All Maps | STV","players":null},{"server_id":104,"name":"Uncletopia | Atlanta | 2 | All Maps","name_short":"atl-2","host":"atl-1.us.uncletopia.com","port":27025,"enabled":true,"region":"us-east","cc":"us","latitude":33.753746,"longitude":-84.38633,"reserved":0,"last_update":"0001-01-01T00:00:00Z","name_a2s":"Uncletopia | Atlanta | 2 | All Maps","protocol":17,"map":"pl_upward","folder":"tf","game":"Team Fortress","app_id":440,"player_count":1,"max_players":24,"Bots":0,"server_type":"Dedicated","server_os":"Linux","password":true,"vac":true,"version":"7961495","steam_id":85568392924469983,"keywords":["nocrits","nodmgspread","payload","uncletopia"],"game_id":440,"stv_port":27026,"stv_name":"Uncletopia | Atlanta | 2 | All Maps | STV","players":[{"user_id":778,"name":"JakePackage","steam_id":76561198033973438,"connected_time":2344000000000,"state":"active","ping":63}]},{"server_id":400,"name":"Uncletopia | Atlanta | 3 | Stopwatch","name_short":"atl-3","host":"atl-1.us.uncletopia.com","port":27035,"enabled":true,"region":"us-east","cc":"us","latitude":33.753746,"longitude":-84.38633,"reserved":0,"last_update":"0001-01-01T00:00:00Z","name_a2s":"Uncletopia | Atlanta | 3 | Stopwatch","protocol":17,"map":"koth_highpass","folder":"tf","game":"Team Fortress","app_id":440,"player_count":0,"max_players":24,"Bots":0,"server_type":"Dedicated","server_os":"Linux","password":true,"vac":true,"version":"7961495","steam_id":85568392924515187,"keywords":["cp","nocrits","nodmgspread","uncletopia"],"game_id":440,"stv_port":27036,"stv_name":"Uncletopia | Atlanta | 3 | Stopwatch | STV","players":null},{"server_id":401,"name":"Uncletopia | Atlanta | 4 | Community","name_short":"atl-4","host":"atl-1.us.uncletopia.com","port":27045,"enabled":true,"region":"us-east","cc":"us","latitude":33.753746,"longitude":-84.38633,"reserved":0,"last_update":"0001-01-01T00:00:00Z","name_a2s":"Uncletopia | Atlanta | 4 | Community","protocol":17,"map":"workshop/koth_trenchfoot_ab1.ugc731436616","folder":"tf","game":"Team Fortress","app_id":440,"player_count":0,"max_players":24,"Bots":0,"server_type":"Dedicated","server_os":"Linux","password":true,"vac":true,"version":"7961495","steam_id":85568392924515188,"keywords":["cp","nocrits","nodmgspread","uncletopia"],"game_id":440,"stv_port":27046,"stv_name":"Uncletopia | Atlanta | 4 | Community | STV","players":null},{"server_id":2,"name":"Uncletopia | Chicago | 1 | All Maps","name_short":"chi-1","host":"chi-1.us.uncletopia.com","port":27015,"enabled":true,"region":"us-central","cc":"us","latitude":41.881832,"longitude":-87.62318,"reserved":0,"last_update":"0001-01-01T00:00:00Z","name_a2s":"Uncletopia | Chicago | 1 | All Maps","protocol":17,"map":"cp_altitude","folder":"tf","game":"Team Fortress","app_id":440,"player_count":0,"max_players":24,"Bots":0,"server_type":"Dedicated","server_os":"Linux","password":true,"vac":true,"version":"7961495","steam_id":85568392924469984,"keywords":["cp","nocrits","nodmgspread","uncletopia"],"game_id":440,"stv_port":27016,"stv_name":"Uncletopia | Chicago | 1 | All Maps | STV","players":null},{"server_id":106,"name":"Uncletopia | Chicago | 2 | All Maps","name_short":"chi-2","host":"chi-1.us.uncletopia.com","port":27025,"enabled":true,"region":"us-central","cc":"us","latitude":41.881832,"longitude":-87.62318,"reserved":0,"last_update":"0001-01-01T00:00:00Z","name_a2s":"Uncletopia | Chicago | 2 | All Maps","protocol":17,"map":"pl_pier","folder":"tf","game":"Team Fortress","app_id":440,"player_count":24,"max_players":24,"Bots":0,"server_type":"Dedicated","server_os":"Linux","password":true,"vac":true,"version":"7961495","steam_id":85568392924469985,"keywords":["nocrits","nodmgspread","payload","uncletopia"],"game_id":440,"stv_port":27026,"stv_name":"Uncletopia | Chicago | 2 | All Maps | STV","players":[{"user_id":797,"name":"Snoopist","steam_id":76561198144023761,"connected_time":358000000000,"state":"active","ping":36},{"user_id":781,"name":"A Mysterious Gift","steam_id":76561198077838946,"connected_time":1251000000000,"state":"active","ping":66},{"user_id":747,"name":"steven","steam_id":76561198173047169,"connected_time":4308000000000,"state":"active","ping":56},{"user_id":800,"name":"\"Psychotic Chiaki Nanami\" GF","steam_id":76561198164782653,"connected_time":83000000000,"state":"active","ping":76},{"user_id":782,"name":"Scremz (Jeffery Bomber)","steam_id":76561198090314229,"connected_time":1240000000000,"state":"active","ping":70},{"user_id":787,"name":"YASAI JUICE","steam_id":76561198131971992,"connected_time":687000000000,"state":"active","ping":31},{"user_id":695,"name":"PizzaThot","steam_id":76561198278237289,"connected_time":8186000000000,"state":"active","ping":85},{"user_id":783,"name":"ChocolatteMousse","steam_id":76561198136313455,"connected_time":1136000000000,"state":"active","ping":70},{"user_id":779,"name":"raya","steam_id":76561198051504581,"connected_time":1372000000000,"state":"active","ping":71},{"user_id":736,"name":"Alecto","steam_id":76561198042476864,"connected_time":5170000000000,"state":"active","ping":45},{"user_id":784,"name":"twitch.tv/Yoshi21 | TF2Pugs.com","steam_id":76561198002516729,"connected_time":892000000000,"state":"active","ping":62},{"user_id":785,"name":"KindlyRaze","steam_id":76561198159660970,"connected_time":702000000000,"state":"active","ping":87},{"user_id":786,"name":"Rudy","steam_id":76561198013456828,"connected_time":698000000000,"state":"active","ping":70},{"user_id":801,"name":"Andrew's Taint","steam_id":76561198131400543,"connected_time":71000000000,"state":"active","ping":83},{"user_id":704,"name":"Jerry Kool-Aid","steam_id":76561198030281560,"connected_time":8005000000000,"state":"active","ping":63},{"user_id":790,"name":"gerg","steam_id":76561197997127387,"connected_time":595000000000,"state":"active","ping":110},{"user_id":693,"name":"Nefarious Fentsmokaa Rudebwoy","steam_id":76561198160572249,"connected_time":8218000000000,"state":"active","ping":84},{"user_id":791,"name":"daemon","steam_id":76561198001541433,"connected_time":591000000000,"state":"active","ping":53},{"user_id":729,"name":"Crystal Toa","steam_id":76561198033861221,"connected_time":6129000000000,"state":"active","ping":113},{"user_id":798,"name":"endwalker simp","steam_id":76561198066177299,"connected_time":303000000000,"state":"active","ping":93},{"user_id":760,"name":"Jeremy","steam_id":76561198286240347,"connected_time":3019000000000,"state":"active","ping":62},{"user_id":793,"name":"Doni_KOF.EloriginalKIM","steam_id":76561198837857545,"connected_time":581000000000,"state":"active","ping":174},{"user_id":794,"name":"Dakota","steam_id":76561198134092308,"connected_time":580000000000,"state":"active","ping":70},{"user_id":795,"name":"GordonTheSeal","steam_id":76561198880716969,"connected_time":558000000000,"state":"active","ping":69}]},{"server_id":402,"name":"Uncletopia | Chicago | 3 | All Maps","name_short":"chi-3","host":"chi-1.us.uncletopia.com","port":27035,"enabled":true,"region":"us-central","cc":"us","latitude":41.881832,"longitude":-87.62318,"reserved":0,"last_update":"0001-01-01T00:00:00Z","name_a2s":"Uncletopia | Chicago | 3 | All Maps","protocol":17,"map":"pl_swiftwater_final1","folder":"tf","game":"Team Fortress","app_id":440,"player_count":24,"max_players":24,"Bots":0,"server_type":"Dedicated","server_os":"Linux","password":true,"vac":true,"version":"7961495","steam_id":85568392924515191,"keywords":["nocrits","nodmgspread","payload","uncletopia"],"game_id":440,"stv_port":27036,"stv_name":"Uncletopia | Chicago | 3 | All Maps | STV","players":[{"user_id":655,"name":"Whomst'd've","steam_id":76561198061169754,"connected_time":496000000000,"state":"active","ping":69},{"user_id":651,"name":"yeahelliot","steam_id":76561198167299951,"connected_time":960000000000,"state":"active","ping":57},{"user_id":598,"name":"jb","steam_id":76561198038607085,"connected_time":4186000000000,"state":"active","ping":84},{"user_id":629,"name":"craven","steam_id":76561198088191503,"connected_time":2190000000000,"state":"active","ping":74},{"user_id":591,"name":"Bearegard","steam_id":76561198061926542,"connected_time":4641000000000,"state":"active","ping":51},{"user_id":635,"name":"Steak-Pocketer","steam_id":76561198277651410,"connected_time":1525000000000,"state":"active","ping":59},{"user_id":664,"name":"ryann","steam_id":76561198042996639,"connected_time":219000000000,"state":"active","ping":96},{"user_id":640,"name":"DRUMMY GRAMMY","steam_id":76561198047642540,"connected_time":1267000000000,"state":"active","ping":85},{"user_id":639,"name":"CJDGuy","steam_id":76561198213009545,"connected_time":1342000000000,"state":"active","ping":62},{"user_id":657,"name":"American Dad Funny Moments #32","steam_id":76561198254874328,"connected_time":413000000000,"state":"active","ping":119},{"user_id":658,"name":"weedexperiment","steam_id":76561198083975056,"connected_time":408000000000,"state":"active","ping":71},{"user_id":627,"name":"b","steam_id":76561198156336213,"connected_time":2742000000000,"state":"active","ping":74},{"user_id":642,"name":"pinglefingle","steam_id":76561198216580197,"connected_time":1243000000000,"state":"active","ping":81},{"user_id":546,"name":"Large Man","steam_id":76561198880396651,"connected_time":8962000000000,"state":"active","ping":82},{"user_id":493,"name":"shitass | troutsupply.net","steam_id":76561198210572481,"connected_time":13608000000000,"state":"active","ping":89},{"user_id":659,"name":"Vynthex","steam_id":76561198990762666,"connected_time":393000000000,"state":"active","ping":67},{"user_id":660,"name":"TTV/ZenmanTTV","steam_id":76561198110651094,"connected_time":380000000000,"state":"active","ping":78},{"user_id":649,"name":"Máquina de Fuego","steam_id":76561198119445407,"connected_time":1038000000000,"state":"active","ping":88},{"user_id":646,"name":"Mystborne","steam_id":76561198050661805,"connected_time":1166000000000,"state":"active","ping":76},{"user_id":661,"name":"Onsyn","steam_id":76561199201517591,"connected_time":369000000000,"state":"active","ping":80},{"user_id":662,"name":"Lord of the Ping","steam_id":76561198019648669,"connected_time":355000000000,"state":"active","ping":154},{"user_id":663,"name":"Ｓｈｎｅｓｈ","steam_id":76561198826005248,"connected_time":331000000000,"state":"active","ping":167},{"user_id":653,"name":"Ville","steam_id":76561198137424821,"connected_time":940000000000,"state":"active","ping":138},{"user_id":623,"name":"VidzCMC","steam_id":76561198848142973,"connected_time":2944000000000,"state":"active","ping":54}]},{"server_id":403,"name":"Uncletopia | Chicago | 4 | All Maps","name_short":"chi-4","host":"chi-1.us.uncletopia.com","port":27045,"enabled":true,"region":"us-central","cc":"us","latitude":41.881832,"longitude":-87.62318,"reserved":0,"last_update":"0001-01-01T00:00:00Z","name_a2s":"Uncletopia | Chicago | 4 | All Maps","protocol":17,"map":"koth_viaduct","folder":"tf","game":"Team Fortress","app_id":440,"player_count":21,"max_players":24,"Bots":0,"server_type":"Dedicated","server_os":"Linux","password":true,"vac":true,"version":"7961495","steam_id":85568392924515193,"keywords":["cp","nocrits","nodmgspread","uncletopia"],"game_id":440,"stv_port":27046,"stv_name":"Uncletopia | Chicago | 4 | All Maps | STV","players":[{"user_id":866,"name":"Dom","steam_id":76561198156431338,"connected_time":148000000000,"state":"active","ping":59},{"user_id":834,"name":"Overwatch's PvE Mode","steam_id":76561198046127710,"connected_time":2964000000000,"state":"active","ping":55},{"user_id":800,"name":"♡Ame♡","steam_id":76561198071217748,"connected_time":5212000000000,"state":"active","ping":51},{"user_id":801,"name":"We Make It Look Easy™","steam_id":76561198024442760,"connected_time":5191000000000,"state":"active","ping":65},{"user_id":837,"name":"tiny","steam_id":76561198010743348,"connected_time":2548000000000,"state":"active","ping":71},{"user_id":857,"name":"mommy","steam_id":76561198129195009,"connected_time":765000000000,"state":"active","ping":74},{"user_id":858,"name":"ChaoticAngel","steam_id":76561198293528217,"connected_time":758000000000,"state":"active","ping":60},{"user_id":861,"name":"Dick to ball ratio","steam_id":76561198072205512,"connected_time":365000000000,"state":"active","ping":70},{"user_id":859,"name":"Felinity Black Lives Matter","steam_id":76561197967253119,"connected_time":469000000000,"state":"active","ping":81},{"user_id":860,"name":"UnimaginablePassionFruit","steam_id":76561198032610223,"connected_time":466000000000,"state":"active","ping":82},{"user_id":862,"name":"Schnow","steam_id":76561198311130730,"connected_time":318000000000,"state":"active","ping":57},{"user_id":863,"name":"all cock, no balls","steam_id":76561198159823948,"connected_time":262000000000,"state":"active","ping":54},{"user_id":854,"name":"Alloid","steam_id":76561198046444289,"connected_time":1423000000000,"state":"active","ping":96},{"user_id":790,"name":"ms. capgras [troutsupply.net]","steam_id":76561199080209996,"connected_time":6114000000000,"state":"active","ping":52},{"user_id":841,"name":"Genesis","steam_id":76561198141287198,"connected_time":2461000000000,"state":"active","ping":75},{"user_id":647,"name":"kaputon","steam_id":76561198146299782,"connected_time":15019000000000,"state":"active","ping":59},{"user_id":864,"name":"dzcreeper","steam_id":76561198072250723,"connected_time":234000000000,"state":"active","ping":72},{"user_id":865,"name":"vulcan nightclub pon farr night","steam_id":76561197974283797,"connected_time":222000000000,"state":"active","ping":46},{"user_id":867,"name":"bladees realest, saddest verse","steam_id":76561198098099826,"connected_time":133000000000,"state":"active","ping":109},{"user_id":868,"name":"Joe, Banana","steam_id":76561198077551754,"connected_time":21000000000,"state":"active","ping":61},{"user_id":632,"name":"Shrebbie","steam_id":76561198875230824,"connected_time":16950000000000,"state":"active","ping":60}]},{"server_id":36,"name":"Uncletopia | Chicago | 5 | All Maps","name_short":"chi-5","host":"chi-2.us.uncletopia.com","port":27015,"enabled":true,"region":"us-central","cc":"us","latitude":41.881832,"longitude":-87.62318,"reserved":0,"last_update":"0001-01-01T00:00:00Z","name_a2s":"Uncletopia | Chicago | 5 | All Maps","protocol":17,"map":"pl_upward","folder":"tf","game":"Team Fortress","app_id":440,"player_count":5,"max_players":24,"Bots":0,"server_type":"Dedicated","server_os":"Linux","password":true,"vac":true,"version":"7961495","steam_id":85568392924866362,"keywords":["nocrits","nodmgspread","payload","uncletopia"],"game_id":440,"stv_port":27016,"stv_name":"Uncletopia | Chicago | 5 | All Maps | STV","players":[{"user_id":708,"name":"badvernxxxxx","steam_id":76561198310087851,"connected_time":4325000000000,"state":"active","ping":252},{"user_id":718,"name":"Roaper","steam_id":76561198000141041,"connected_time":2686000000000,"state":"active","ping":121},{"user_id":707,"name":"doing the sponge","steam_id":76561198058209703,"connected_time":4996000000000,"state":"active","ping":53},{"user_id":721,"name":"MoomyBoomy","steam_id":76561198150787961,"connected_time":283000000000,"state":"active","ping":73},{"user_id":711,"name":"GrunerJunge","steam_id":76561199492836198,"connected_time":3947000000000,"state":"active","ping":72}]},{"server_id":37,"name":"Uncletopia | Chicago | 6 | All Maps","name_short":"chi-6","host":"chi-2.us.uncletopia.com","port":27025,"enabled":true,"region":"us-central","cc":"us","latitude":41.881832,"longitude":-87.62318,"reserved":0,"last_update":"0001-01-01T00:00:00Z","name_a2s":"Uncletopia | Chicago | 6 | All Maps","protocol":17,"map":"pl_hoodoo_final","folder":"tf","game":"Team Fortress","app_id":440,"player_count":24,"max_players":24,"Bots":0,"server_type":"Dedicated","server_os":"Linux","password":true,"vac":true,"version":"7961495","steam_id":85568392924866363,"keywords":["nocrits","nodmgspread","payload","uncletopia"],"game_id":440,"stv_port":27026,"stv_name":"Uncletopia | Chicago | 6 | All Maps | STV","players":[{"user_id":376,"name":"BANDIDO","steam_id":76561199509676031,"connected_time":5776000000000,"state":"active","ping":46},{"user_id":344,"name":"Kola ✧","steam_id":76561198049995341,"connected_time":8201000000000,"state":"active","ping":49},{"user_id":374,"name":"LVL","steam_id":76561198334403617,"connected_time":5792000000000,"state":"active","ping":59},{"user_id":427,"name":"TOBY!!!","steam_id":76561199380822531,"connected_time":439000000000,"state":"active","ping":53},{"user_id":390,"name":"The One True Luke","steam_id":76561198180891187,"connected_time":2930000000000,"state":"active","ping":69},{"user_id":426,"name":"rose","steam_id":76561198048882285,"connected_time":624000000000,"state":"active","ping":60},{"user_id":391,"name":"Ya_Boi_Clapitao","steam_id":76561198274969584,"connected_time":2918000000000,"state":"active","ping":115},{"user_id":382,"name":"Lord_Manship","steam_id":76561198045168765,"connected_time":4622000000000,"state":"active","ping":80},{"user_id":392,"name":"Grand Theft Hobby Lobby","steam_id":76561198306384449,"connected_time":2910000000000,"state":"active","ping":97},{"user_id":419,"name":"The Home Depot","steam_id":76561198025290537,"connected_time":1510000000000,"state":"active","ping":121},{"user_id":327,"name":"frank","steam_id":76561198137777483,"connected_time":9721000000000,"state":"active","ping":64},{"user_id":422,"name":"GangGang LIL PUMPSKI","steam_id":76561198083529768,"connected_time":1148000000000,"state":"active","ping":75},{"user_id":425,"name":"JESUS (OLD FRIEND)","steam_id":76561198031706013,"connected_time":700000000000,"state":"active","ping":67},{"user_id":429,"name":"poopybutt420","steam_id":76561199000805315,"connected_time":353000000000,"state":"active","ping":94},{"user_id":379,"name":"I. C. Wiener","steam_id":76561198062777610,"connected_time":5685000000000,"state":"active","ping":102},{"user_id":373,"name":"jordan","steam_id":76561198136642793,"connected_time":6125000000000,"state":"active","ping":68},{"user_id":420,"name":"Comradical","steam_id":76561197990808285,"connected_time":1231000000000,"state":"active","ping":73},{"user_id":377,"name":"FELON #COMEGETME","steam_id":76561198144766439,"connected_time":5764000000000,"state":"active","ping":45},{"user_id":402,"name":"chikin.sauce","steam_id":76561198042464635,"connected_time":2650000000000,"state":"active","ping":82},{"user_id":412,"name":"YohjiYamamotoSasukeUchihaHyoma","steam_id":76561198150382695,"connected_time":2018000000000,"state":"active","ping":75},{"user_id":421,"name":"GoldtoothFour","steam_id":76561198055529332,"connected_time":1196000000000,"state":"active","ping":54},{"user_id":418,"name":"SasChris","steam_id":76561198017592170,"connected_time":1529000000000,"state":"active","ping":80},{"user_id":410,"name":"Sweater-Fan","steam_id":76561199389567214,"connected_time":2194000000000,"state":"active","ping":63},{"user_id":424,"name":"Grim","steam_id":76561198985601764,"connected_time":999000000000,"state":"active","ping":59}]},{"server_id":38,"name":"Uncletopia | Chicago | 7 | Stopwatch","name_short":"chi-7","host":"chi-2.us.uncletopia.com","port":27035,"enabled":true,"region":"us-central","cc":"us","latitude":41.881832,"longitude":-87.62318,"reserved":0,"last_update":"0001-01-01T00:00:00Z","name_a2s":"Uncletopia | Chicago | 7 | Stopwatch","protocol":17,"map":"koth_highpass","folder":"tf","game":"Team Fortress","app_id":440,"player_count":0,"max_players":24,"Bots":0,"server_type":"Dedicated","server_os":"Linux","password":true,"vac":true,"version":"7961495","steam_id":85568392924866364,"keywords":["cp","nocrits","nodmgspread","uncletopia"],"game_id":440,"stv_port":27036,"stv_name":"Uncletopia | Chicago | 7 | Stopwatch | STV","players":null},{"server_id":39,"name":"Uncletopia | Chicago | 8 | Community","name_short":"chi-8","host":"chi-2.us.uncletopia.com","port":27045,"enabled":true,"region":"us-central","cc":"us","latitude":41.881832,"longitude":-87.62318,"reserved":0,"last_update":"0001-01-01T00:00:00Z","name_a2s":"Uncletopia | Chicago | 8 | Community","protocol":17,"map":"workshop/koth_slaughter_rc1.ugc1712845210","folder":"tf","game":"Team Fortress","app_id":440,"player_count":0,"max_players":24,"Bots":0,"server_type":"Dedicated","server_os":"Linux","password":true,"vac":true,"version":"7961495","steam_id":85568392924866365,"keywords":["cp","nocrits","nodmgspread","uncletopia"],"game_id":440,"stv_port":27046,"stv_name":"Uncletopia | Chicago | 8 | Community | STV","players":null},{"server_id":8,"name":"Uncletopia | Dallas | 1 | All Maps","name_short":"dal-1","host":"dal-1.us.uncletopia.com","port":27015,"enabled":true,"region":"us-central","cc":"us","latitude":32.779167,"longitude":-96.80889,"reserved":0,"last_update":"0001-01-01T00:00:00Z","name_a2s":"Uncletopia | Dallas | 1 | All Maps","protocol":17,"map":"pl_borneo","folder":"tf","game":"Team Fortress","app_id":440,"player_count":24,"max_players":24,"Bots":0,"server_type":"Dedicated","server_os":"Linux","password":true,"vac":true,"version":"7961495","steam_id":85568392924469986,"keywords":["nocrits","nodmgspread","payload","uncletopia"],"game_id":440,"stv_port":27016,"stv_name":"Uncletopia | Dallas | 1 | All Maps | STV","players":[{"user_id":680,"name":"Muselk, but mexican","steam_id":76561199289676387,"connected_time":4896000000000,"state":"active","ping":60},{"user_id":639,"name":"Pvt. Dimitri Petrenko","steam_id":76561198078040091,"connected_time":10412000000000,"state":"active","ping":55},{"user_id":752,"name":"Drapph","steam_id":76561199384213314,"connected_time":91000000000,"state":"active","ping":84},{"user_id":737,"name":"Nyah","steam_id":76561199192601345,"connected_time":1762000000000,"state":"active","ping":66},{"user_id":741,"name":"Tiger Mafia","steam_id":76561198010708247,"connected_time":402000000000,"state":"active","ping":100},{"user_id":718,"name":"5k RPM","steam_id":76561198926416886,"connected_time":3065000000000,"state":"active","ping":64},{"user_id":713,"name":"Spoinga Bob","steam_id":76561198172772014,"connected_time":3209000000000,"state":"active","ping":78},{"user_id":710,"name":"errant","steam_id":76561197961758410,"connected_time":3500000000000,"state":"active","ping":38},{"user_id":743,"name":"Boston","steam_id":76561198061078236,"connected_time":376000000000,"state":"active","ping":63},{"user_id":742,"name":"Jeremiah Finch","steam_id":76561198046899113,"connected_time":396000000000,"state":"active","ping":97},{"user_id":740,"name":"imma let my nuts hang","steam_id":76561198097544038,"connected_time":917000000000,"state":"active","ping":67},{"user_id":688,"name":"Lav (She/They)","steam_id":76561198289106015,"connected_time":4417000000000,"state":"active","ping":91},{"user_id":729,"name":"Person Man","steam_id":76561198293857963,"connected_time":2145000000000,"state":"active","ping":92},{"user_id":712,"name":"StarfruitGalaxy","steam_id":76561198279236985,"connected_time":3365000000000,"state":"active","ping":116},{"user_id":744,"name":"ack.awesome676","steam_id":76561199109415958,"connected_time":367000000000,"state":"active","ping":76},{"user_id":745,"name":"Tony","steam_id":76561198169799653,"connected_time":346000000000,"state":"active","ping":60},{"user_id":746,"name":"Artic_Ryuu","steam_id":76561198182194918,"connected_time":331000000000,"state":"active","ping":75},{"user_id":747,"name":"Sou1Eater7","steam_id":76561198011330131,"connected_time":308000000000,"state":"active","ping":217},{"user_id":730,"name":"ArcticTone","steam_id":76561199163932146,"connected_time":2143000000000,"state":"active","ping":70},{"user_id":748,"name":"ocky","steam_id":76561198313049944,"connected_time":260000000000,"state":"active","ping":89},{"user_id":646,"name":"AzuriousAlex","steam_id":76561198158026405,"connected_time":9489000000000,"state":"active","ping":81},{"user_id":749,"name":"Laughs at Dorks","steam_id":76561197993724071,"connected_time":255000000000,"state":"active","ping":70},{"user_id":732,"name":"leguang james","steam_id":76561198143312969,"connected_time":2079000000000,"state":"active","ping":45},{"user_id":751,"name":"goober","steam_id":76561199102839784,"connected_time":248000000000,"state":"active","ping":76}]},{"server_id":108,"name":"Uncletopia | Dallas | 2 | All Maps","name_short":"dal-2","host":"dal-1.us.uncletopia.com","port":27025,"enabled":true,"region":"us-central","cc":"us","latitude":32.779167,"longitude":-96.80889,"reserved":0,"last_update":"0001-01-01T00:00:00Z","name_a2s":"Uncletopia | Dallas | 2 | All Maps","protocol":17,"map":"cp_steel","folder":"tf","game":"Team Fortress","app_id":440,"player_count":6,"max_players":24,"Bots":0,"server_type":"Dedicated","server_os":"Linux","password":true,"vac":true,"version":"7961495","steam_id":85568392924469988,"keywords":["cp","nocrits","nodmgspread","uncletopia"],"game_id":440,"stv_port":27026,"stv_name":"Uncletopia | Dallas | 2 | All Maps | STV","players":[{"user_id":838,"name":"JOHNSMOKER007","steam_id":76561198145015891,"connected_time":3047000000000,"state":"active","ping":52},{"user_id":858,"name":"ShadowBolt","steam_id":76561198061610985,"connected_time":264000000000,"state":"active","ping":95},{"user_id":768,"name":"Rat Smacker","steam_id":76561198043629646,"connected_time":7263000000000,"state":"active","ping":53},{"user_id":788,"name":"LaChancla","steam_id":76561198971528917,"connected_time":6864000000000,"state":"active","ping":44},{"user_id":836,"name":"Alivefox","steam_id":76561198075211239,"connected_time":3079000000000,"state":"active","ping":39},{"user_id":820,"name":"totoro","steam_id":76561198210420871,"connected_time":4443000000000,"state":"active","ping":64}]},{"server_id":404,"name":"Uncletopia | Dallas | 3 | All Maps","name_short":"dal-3","host":"dal-1.us.uncletopia.com","port":27035,"enabled":true,"region":"us-central","cc":"us","latitude":32.779167,"longitude":-96.80889,"reserved":0,"last_update":"0001-01-01T00:00:00Z","name_a2s":"Uncletopia | Dallas | 3 | All Maps","protocol":17,"map":"pl_borneo","folder":"tf","game":"Team Fortress","app_id":440,"player_count":0,"max_players":24,"Bots":0,"server_type":"Dedicated","server_os":"Linux","password":true,"vac":true,"version":"7961495","steam_id":85568392924515219,"keywords":["nocrits","nodmgspread","payload","uncletopia"],"game_id":440,"stv_port":27036,"stv_name":"Uncletopia | Dallas | 3 | All Maps | STV","players":null},{"server_id":405,"name":"Uncletopia | Dallas | 4 | Community","name_short":"dal-4","host":"dal-1.us.uncletopia.com","port":27045,"enabled":true,"region":"us-central","cc":"us","latitude":32.779167,"longitude":-96.80889,"reserved":0,"last_update":"0001-01-01T00:00:00Z","name_a2s":"Uncletopia | Dallas | 4 | Community","protocol":17,"map":"workshop/cp_hazyfort_rc6.ugc1365963729","folder":"tf","game":"Team Fortress","app_id":440,"player_count":0,"max_players":24,"Bots":0,"server_type":"Dedicated","server_os":"Linux","password":true,"vac":true,"version":"7961495","steam_id":85568392924515220,"keywords":["cp","nocrits","nodmgspread","uncletopia"],"game_id":440,"stv_port":27046,"stv_name":"Uncletopia | Dallas | 4 | Community | STV","players":null},{"server_id":5,"name":"Uncletopia | Frankfurt | 1 | All Maps","name_short":"frk-1","host":"frk-1.de.uncletopia.com","port":27015,"enabled":true,"region":"eu","cc":"de","latitude":50.110924,"longitude":8.682127,"reserved":0,"last_update":"0001-01-01T00:00:00Z","name_a2s":"Uncletopia | Frankfurt | 1 | All Maps","protocol":17,"map":"koth_highpass","folder":"tf","game":"Team Fortress","app_id":440,"player_count":0,"max_players":24,"Bots":0,"server_type":"Dedicated","server_os":"Linux","password":true,"vac":true,"version":"7961495","steam_id":85568392924469989,"keywords":["cp","nocrits","nodmgspread","uncletopia"],"game_id":440,"stv_port":27016,"stv_name":"Uncletopia | Frankfurt | 1 | All Maps | STV","players":null},{"server_id":110,"name":"Uncletopia | Frankfurt | 2 | All Maps","name_short":"frk-2","host":"frk-1.de.uncletopia.com","port":27025,"enabled":true,"region":"eu","cc":"de","latitude":50.110924,"longitude":8.682127,"reserved":0,"last_update":"0001-01-01T00:00:00Z","name_a2s":"Uncletopia | Frankfurt | 2 | All Maps","protocol":17,"map":"cp_coldfront","folder":"tf","game":"Team Fortress","app_id":440,"player_count":0,"max_players":24,"Bots":0,"server_type":"Dedicated","server_os":"Linux","password":true,"vac":true,"version":"7961495","steam_id":85568392924469990,"keywords":["cp","nocrits","nodmgspread","uncletopia"],"game_id":440,"stv_port":27026,"stv_name":"Uncletopia | Frankfurt | 2 | All Maps | STV","players":null},{"server_id":308,"name":"Uncletopia | Frankfurt | 3 | All Maps","name_short":"frk-3","host":"frk-1.de.uncletopia.com","port":27035,"enabled":true,"region":"eu","cc":"de","latitude":50.110924,"longitude":8.682127,"reserved":0,"last_update":"0001-01-01T00:00:00Z","name_a2s":"Uncletopia | Frankfurt | 3 | All Maps","protocol":17,"map":"plr_pipeline","folder":"tf","game":"Team Fortress","app_id":440,"player_count":0,"max_players":24,"Bots":0,"server_type":"Dedicated","server_os":"Linux","password":true,"vac":true,"version":"7961495","steam_id":85568392924504274,"keywords":["nocrits","nodmgspread","payload","uncletopia"],"game_id":440,"stv_port":27036,"stv_name":"Uncletopia | Frankfurt | 3 | All Maps | STV","players":null},{"server_id":309,"name":"Uncletopia | Frankfurt | 4 | All Maps","name_short":"frk-4","host":"frk-1.de.uncletopia.com","port":27045,"enabled":true,"region":"eu","cc":"de","latitude":50.110924,"longitude":8.682127,"reserved":0,"last_update":"0001-01-01T00:00:00Z","name_a2s":"Uncletopia | Frankfurt | 4 | All Maps","protocol":17,"map":"koth_lakeside_final","folder":"tf","game":"Team Fortress","app_id":440,"player_count":0,"max_players":24,"Bots":0,"server_type":"Dedicated","server_os":"Linux","password":true,"vac":true,"version":"7961495","steam_id":85568392924504275,"keywords":["cp","nocrits","nodmgspread","uncletopia"],"game_id":440,"stv_port":27046,"stv_name":"Uncletopia | Frankfurt | 4 | All Maps | STV","players":null},{"server_id":310,"name":"Uncletopia | Frankfurt | 5 | All Maps","name_short":"frk-5","host":"frk-1.de.uncletopia.com","port":27055,"enabled":true,"region":"eu","cc":"de","latitude":50.110924,"longitude":8.682127,"reserved":0,"last_update":"0001-01-01T00:00:00Z","name_a2s":"Uncletopia | Frankfurt | 5 | All Maps","protocol":17,"map":"cp_gorge","folder":"tf","game":"Team Fortress","app_id":440,"player_count":0,"max_players":24,"Bots":0,"server_type":"Dedicated","server_os":"Linux","password":true,"vac":true,"version":"7961495","steam_id":85568392924504277,"keywords":["cp","nocrits","nodmgspread","uncletopia"],"game_id":440,"stv_port":27056,"stv_name":"Uncletopia | Frankfurt | 5 | All Maps | STV","players":null},{"server_id":311,"name":"Uncletopia | Frankfurt | 6 | All Maps","name_short":"frk-6","host":"frk-1.de.uncletopia.com","port":27065,"enabled":true,"region":"eu","cc":"de","latitude":50.110924,"longitude":8.682127,"reserved":0,"last_update":"0001-01-01T00:00:00Z","name_a2s":"Uncletopia | Frankfurt | 6 | All Maps","protocol":17,"map":"cp_steel","folder":"tf","game":"Team Fortress","app_id":440,"player_count":0,"max_players":24,"Bots":0,"server_type":"Dedicated","server_os":"Linux","password":true,"vac":true,"version":"7961495","steam_id":85568392924504278,"keywords":["cp","nocrits","nodmgspread","uncletopia"],"game_id":440,"stv_port":27066,"stv_name":"Uncletopia | Frankfurt | 6 | All Maps | STV","players":null},{"server_id":23,"name":"Uncletopia | Frankfurt | 7 | Stopwatch","name_short":"frk-7","host":"frk-1.de.uncletopia.com","port":27075,"enabled":true,"region":"eu","cc":"de","latitude":50.110924,"longitude":8.682127,"reserved":0,"last_update":"0001-01-01T00:00:00Z","name_a2s":"Uncletopia | Frankfurt | 7 | Stopwatch","protocol":17,"map":"workshop/koth_clearcut_b15.ugc2107050255","folder":"tf","game":"Team Fortress","app_id":440,"player_count":0,"max_players":24,"Bots":0,"server_type":"Dedicated","server_os":"Linux","password":true,"vac":true,"version":"7961495","steam_id":85568392924742827,"keywords":["cp","nocrits","nodmgspread","uncletopia"],"game_id":440,"stv_port":27076,"stv_name":"Uncletopia | Frankfurt | 7 | Stopwatch | STV","players":null},{"server_id":24,"name":"Uncletopia | Frankfurt | 8 | Community","name_short":"frk-8","host":"frk-1.de.uncletopia.com","port":27085,"enabled":true,"region":"eu","cc":"de","latitude":50.110924,"longitude":8.682127,"reserved":0,"last_update":"0001-01-01T00:00:00Z","name_a2s":"Uncletopia | Frankfurt | 8 | Community","protocol":17,"map":"workshop/pl_stallberg_rc3.ugc1849111469","folder":"tf","game":"Team Fortress","app_id":440,"player_count":0,"max_players":24,"Bots":0,"server_type":"Dedicated","server_os":"Linux","password":true,"vac":true,"version":"7961495","steam_id":85568392924742828,"keywords":["nocrits","nodmgspread","payload","uncletopia"],"game_id":440,"stv_port":27086,"stv_name":"Uncletopia | Frankfurt | 8 | Community | STV","players":null},{"server_id":202,"name":"Uncletopia | Hong Kong | 1 | All Maps","name_short":"hgk-1","host":"hgk-1.hk.uncletopia.com","port":27015,"enabled":true,"region":"asia","cc":"hk","latitude":22.302711,"longitude":114.177216,"reserved":0,"last_update":"0001-01-01T00:00:00Z","name_a2s":"Uncletopia | Hong Kong | 1 | All Maps","protocol":17,"map":"pl_upward","folder":"tf","game":"Team Fortress","app_id":440,"player_count":25,"max_players":24,"Bots":0,"server_type":"Dedicated","server_os":"Linux","password":true,"vac":true,"version":"7961495","steam_id":85568392924494504,"keywords":["nocrits","nodmgspread","payload","uncletopia"],"game_id":440,"stv_port":27016,"stv_name":"Uncletopia | Hong Kong | 1 | All Maps | STV","players":[{"user_id":219,"name":"screamer","steam_id":76561198147950041,"connected_time":1701000000000,"state":"active","ping":79},{"user_id":226,"name":"paul","steam_id":76561198989168133,"connected_time":796000000000,"state":"active","ping":88},{"user_id":224,"name":"Nooting time","steam_id":76561198256615819,"connected_time":986000000000,"state":"active","ping":60},{"user_id":168,"name":"im_0ff","steam_id":76561198339346695,"connected_time":6452000000000,"state":"active","ping":119},{"user_id":197,"name":"Cloud","steam_id":76561198272454184,"connected_time":3967000000000,"state":"active","ping":93},{"user_id":202,"name":"steame17","steam_id":76561199387872784,"connected_time":3894000000000,"state":"active","ping":139},{"user_id":59,"name":"14","steam_id":76561198113401862,"connected_time":15315000000000,"state":"active","ping":90},{"user_id":162,"name":"好油喔peko","steam_id":76561198326354576,"connected_time":7429000000000,"state":"active","ping":101},{"user_id":132,"name":"UR MOTHERRR... IS A N**GERRR","steam_id":76561198797699056,"connected_time":10244000000000,"state":"active","ping":91},{"user_id":179,"name":"water tastes good","steam_id":76561199375947670,"connected_time":5577000000000,"state":"active","ping":71},{"user_id":205,"name":"Variety","steam_id":76561198047396742,"connected_time":3765000000000,"state":"active","ping":70},{"user_id":169,"name":"Mac09","steam_id":76561198934873063,"connected_time":6353000000000,"state":"active","ping":75},{"user_id":207,"name":"screaming sniper","steam_id":76561199085568674,"connected_time":3691000000000,"state":"active","ping":68},{"user_id":227,"name":"a windy musian","steam_id":76561198152588681,"connected_time":664000000000,"state":"active","ping":80},{"user_id":218,"name":"TomProPlayer","steam_id":76561199223292521,"connected_time":2209000000000,"state":"active","ping":69},{"user_id":206,"name":"toad♡","steam_id":76561198082199290,"connected_time":3756000000000,"state":"active","ping":44},{"user_id":217,"name":"qingque","steam_id":76561198230213828,"connected_time":2233000000000,"state":"active","ping":59},{"user_id":228,"name":"Bad at Everything","steam_id":76561199360517933,"connected_time":643000000000,"state":"active","ping":143},{"user_id":166,"name":"v1.","steam_id":76561198037571054,"connected_time":6626000000000,"state":"active","ping":43},{"user_id":212,"name":"Ivy's evil clone","steam_id":76561199219484527,"connected_time":3198000000000,"state":"active","ping":106},{"user_id":164,"name":"tiden2000","steam_id":76561198092969425,"connected_time":6765000000000,"state":"active","ping":64},{"user_id":181,"name":"Professor 'Iggins","steam_id":76561198064448905,"connected_time":5441000000000,"state":"active","ping":50},{"user_id":230,"name":"Under The Bridge","steam_id":76561198093184384,"connected_time":500000000000,"state":"active","ping":84},{"user_id":243,"name":"17","steam_id":76561198241530712,"connected_time":2000000000,"state":"spawning","ping":99},{"user_id":154,"name":"Ivy","steam_id":76561198400698408,"connected_time":8019000000000,"state":"active","ping":96}]},{"server_id":1,"name":"Uncletopia | Los Angeles | 1 | All Maps","name_short":"lax-1","host":"lax-1.us.uncletopia.com","port":27015,"enabled":true,"region":"us-west","cc":"us","latitude":33.94279,"longitude":-118.41004,"reserved":0,"last_update":"0001-01-01T00:00:00Z","name_a2s":"Uncletopia | Los Angeles | 1 | All Maps","protocol":17,"map":"cp_powerhouse","folder":"tf","game":"Team Fortress","app_id":440,"player_count":24,"max_players":24,"Bots":0,"server_type":"Dedicated","server_os":"Linux","password":true,"vac":true,"version":"7961495","steam_id":85568392924469991,"keywords":["cp","nocrits","nodmgspread","uncletopia"],"game_id":440,"stv_port":27016,"stv_name":"Uncletopia | Los Angeles | 1 | All Maps | STV","players":[{"user_id":498,"name":"vanillain","steam_id":76561198058617608,"connected_time":114000000000,"state":"active","ping":59},{"user_id":489,"name":"circus","steam_id":76561199085524751,"connected_time":836000000000,"state":"active","ping":48},{"user_id":391,"name":"HAT-WEARING™ Maggot Gamer Cat","steam_id":76561197973992705,"connected_time":8807000000000,"state":"active","ping":65},{"user_id":484,"name":"Icepunch","steam_id":76561198037075088,"connected_time":1269000000000,"state":"active","ping":45},{"user_id":494,"name":"Giorno Giovanna","steam_id":76561198044106874,"connected_time":350000000000,"state":"active","ping":50},{"user_id":472,"name":"Rotarius","steam_id":76561198109893506,"connected_time":1749000000000,"state":"active","ping":70},{"user_id":499,"name":"DisDoodEatFood","steam_id":76561198360724348,"connected_time":34000000000,"state":"active","ping":59},{"user_id":463,"name":"Witch Vomit","steam_id":76561199079587227,"connected_time":2145000000000,"state":"active","ping":80},{"user_id":460,"name":"cada","steam_id":76561198341189135,"connected_time":2501000000000,"state":"active","ping":103},{"user_id":490,"name":"Cat on the Moon","steam_id":76561198272661627,"connected_time":798000000000,"state":"active","ping":48},{"user_id":464,"name":"[DFC] j_yuuki","steam_id":76561198864314450,"connected_time":2051000000000,"state":"active","ping":56},{"user_id":491,"name":"life","steam_id":76561198227112556,"connected_time":736000000000,"state":"active","ping":59},{"user_id":496,"name":"Sheep","steam_id":76561198161218914,"connected_time":266000000000,"state":"active","ping":54},{"user_id":479,"name":"Clagger","steam_id":76561198066701092,"connected_time":1377000000000,"state":"active","ping":66},{"user_id":466,"name":"CaptainTal","steam_id":76561198304671916,"connected_time":1999000000000,"state":"active","ping":66},{"user_id":318,"name":"FI LO","steam_id":76561198976530881,"connected_time":15042000000000,"state":"active","ping":43},{"user_id":431,"name":"Gamer to Femboy pipeline","steam_id":76561198026941076,"connected_time":4187000000000,"state":"active","ping":58},{"user_id":500,"name":"tuz","steam_id":76561197979961213,"connected_time":31000000000,"state":"active","ping":115},{"user_id":481,"name":"Mr. Pine","steam_id":76561198112203861,"connected_time":1365000000000,"state":"active","ping":81},{"user_id":452,"name":"Aeon","steam_id":76561198079117315,"connected_time":3077000000000,"state":"active","ping":51},{"user_id":454,"name":"Choy","steam_id":76561198005322345,"connected_time":2892000000000,"state":"active","ping":50},{"user_id":475,"name":"fart","steam_id":76561198074198286,"connected_time":1595000000000,"state":"active","ping":60},{"user_id":492,"name":"PONTIFEX MAXIMUS","steam_id":76561198074758287,"connected_time":727000000000,"state":"active","ping":105},{"user_id":483,"name":"Kronk","steam_id":76561198267956028,"connected_time":1293000000000,"state":"active","ping":65}]},{"server_id":112,"name":"Uncletopia | Los Angeles | 2 | All Maps","name_short":"lax-2","host":"lax-1.us.uncletopia.com","port":27025,"enabled":true,"region":"us-west","cc":"us","latitude":33.94279,"longitude":-118.41004,"reserved":0,"last_update":"0001-01-01T00:00:00Z","name_a2s":"Uncletopia | Los Angeles | 2 | All Maps","protocol":17,"map":"ctf_2fort","folder":"tf","game":"Team Fortress","app_id":440,"player_count":23,"max_players":24,"Bots":0,"server_type":"Dedicated","server_os":"Linux","password":true,"vac":true,"version":"7961495","steam_id":85568392924469992,"keywords":["ctf","nocrits","nodmgspread","uncletopia"],"game_id":440,"stv_port":27026,"stv_name":"Uncletopia | Los Angeles | 2 | All Maps | STV","players":[{"user_id":161,"name":"Pork Belly","steam_id":76561198053003142,"connected_time":9689000000000,"state":"active","ping":59},{"user_id":278,"name":"jjbers","steam_id":76561198293094802,"connected_time":658000000000,"state":"active","ping":106},{"user_id":271,"name":"FaceLaces","steam_id":76561198194417725,"connected_time":950000000000,"state":"active","ping":47},{"user_id":195,"name":"MORE BOUNCE TO THE OUNCE","steam_id":76561198243399336,"connected_time":7429000000000,"state":"active","ping":82},{"user_id":211,"name":"waffles con leche","steam_id":76561198246934872,"connected_time":5924000000000,"state":"active","ping":62},{"user_id":258,"name":"tOwl","steam_id":76561198094005426,"connected_time":2688000000000,"state":"active","ping":50},{"user_id":269,"name":"CRABMAN","steam_id":76561198016139425,"connected_time":1464000000000,"state":"active","ping":117},{"user_id":238,"name":"Mak","steam_id":76561198089197922,"connected_time":3482000000000,"state":"active","ping":78},{"user_id":268,"name":"Eden","steam_id":76561198081284664,"connected_time":1765000000000,"state":"active","ping":56},{"user_id":272,"name":"RealSkyrimGuard","steam_id":76561199218979828,"connected_time":814000000000,"state":"active","ping":68},{"user_id":227,"name":"Irony is pretty cringy","steam_id":76561198120391460,"connected_time":4796000000000,"state":"active","ping":46},{"user_id":283,"name":"Buben","steam_id":76561198081841996,"connected_time":297000000000,"state":"active","ping":60},{"user_id":274,"name":"ChubbySolution","steam_id":76561198160468964,"connected_time":708000000000,"state":"active","ping":109},{"user_id":251,"name":"Tohubohu","steam_id":76561198077838448,"connected_time":3257000000000,"state":"active","ping":56},{"user_id":266,"name":"just took estrogen ama :3","steam_id":76561198039225492,"connected_time":2259000000000,"state":"active","ping":53},{"user_id":275,"name":"barks","steam_id":76561198283462369,"connected_time":702000000000,"state":"active","ping":58},{"user_id":277,"name":"omega male","steam_id":76561198146241989,"connected_time":683000000000,"state":"active","ping":107},{"user_id":267,"name":"estrogen in my vape juice","steam_id":76561198068387373,"connected_time":2250000000000,"state":"active","ping":67},{"user_id":280,"name":"Humble Learner","steam_id":76561198066091050,"connected_time":557000000000,"state":"active","ping":72},{"user_id":231,"name":"Scrux","steam_id":76561198129763115,"connected_time":4335000000000,"state":"active","ping":46},{"user_id":270,"name":"★_Beef_★","steam_id":76561198083456770,"connected_time":1433000000000,"state":"active","ping":124},{"user_id":281,"name":"lol","steam_id":76561198026491738,"connected_time":519000000000,"state":"active","ping":72},{"user_id":282,"name":"AwesomeLilBuddy","steam_id":76561199104972720,"connected_time":484000000000,"state":"active","ping":124}]},{"server_id":324,"name":"Uncletopia | Los Angeles | 3 | All Maps","name_short":"lax-3","host":"lax-1.us.uncletopia.com","port":27035,"enabled":true,"region":"us-west","cc":"us","latitude":33.94279,"longitude":-118.41004,"reserved":0,"last_update":"0001-01-01T00:00:00Z","name_a2s":"Uncletopia | Los Angeles | 3 | All Maps","protocol":17,"map":"koth_lakeside_final","folder":"tf","game":"Team Fortress","app_id":440,"player_count":0,"max_players":24,"Bots":0,"server_type":"Dedicated","server_os":"Linux","password":true,"vac":true,"version":"7961495","steam_id":85568392924510198,"keywords":["cp","nocrits","nodmgspread","uncletopia"],"game_id":440,"stv_port":27036,"stv_name":"Uncletopia | Los Angeles | 3 | All Maps | STV","players":null},{"server_id":25,"name":"Uncletopia | Los Angeles | 4 | Stopwatch","name_short":"lax-4","host":"lax-1.us.uncletopia.com","port":27045,"enabled":true,"region":"us-west","cc":"us","latitude":33.94279,"longitude":-118.41004,"reserved":0,"last_update":"0001-01-01T00:00:00Z","name_a2s":"Uncletopia | Los Angeles | 4 | Stopwatch","protocol":17,"map":"cp_metalworks","folder":"tf","game":"Team Fortress","app_id":440,"player_count":0,"max_players":24,"Bots":0,"server_type":"Dedicated","server_os":"Linux","password":true,"vac":true,"version":"7961495","steam_id":85568392924510199,"keywords":["cp","nocrits","nodmgspread","uncletopia"],"game_id":440,"stv_port":27046,"stv_name":"Uncletopia | Los Angeles | 4 | Stopwatch | STV","players":null},{"server_id":11,"name":"Uncletopia | London | 1 | All Maps","name_short":"lon-1","host":"lon-1.uk.uncletopia.com","port":27015,"enabled":true,"region":"eu","cc":"gb","latitude":51.509865,"longitude":-0.118092,"reserved":0,"last_update":"0001-01-01T00:00:00Z","name_a2s":"Uncletopia | London | 1 | All Maps","protocol":17,"map":"pl_badwater","folder":"tf","game":"Team Fortress","app_id":440,"player_count":24,"max_players":24,"Bots":0,"server_type":"Dedicated","server_os":"Linux","password":true,"vac":true,"version":"7961495","steam_id":85568392924367362,"keywords":["nocrits","nodmgspread","payload","uncletopia"],"game_id":440,"stv_port":27016,"stv_name":"Uncletopia | London | 1 | All Maps | STV","players":[{"user_id":3,"name":"AnimeGirl(real)","steam_id":76561199062433944,"connected_time":9496000000000,"state":"active","ping":134},{"user_id":78,"name":"Sumbody","steam_id":76561198155371407,"connected_time":1059000000000,"state":"active","ping":103},{"user_id":43,"name":"Zulik92","steam_id":76561198152442373,"connected_time":4223000000000,"state":"active","ping":68},{"user_id":51,"name":"Arthur Morgan","steam_id":76561198148190507,"connected_time":3561000000000,"state":"active","ping":69},{"user_id":45,"name":"r2r keygen music","steam_id":76561198269154534,"connected_time":4065000000000,"state":"active","ping":44},{"user_id":9,"name":"pulsar","steam_id":76561198842123868,"connected_time":8265000000000,"state":"active","ping":105},{"user_id":67,"name":"Saint","steam_id":76561198003296382,"connected_time":1911000000000,"state":"active","ping":74},{"user_id":14,"name":"Dov","steam_id":76561198856685379,"connected_time":6424000000000,"state":"active","ping":56},{"user_id":25,"name":"night.s","steam_id":76561198326287823,"connected_time":5392000000000,"state":"active","ping":72},{"user_id":16,"name":"dopamine overdose","steam_id":76561199032511302,"connected_time":6271000000000,"state":"active","ping":105},{"user_id":62,"name":"Stellar Fox","steam_id":76561198236985244,"connected_time":2285000000000,"state":"active","ping":73},{"user_id":53,"name":"randem_","steam_id":76561198338793755,"connected_time":3424000000000,"state":"active","ping":44},{"user_id":47,"name":"FanFish","steam_id":76561199389558024,"connected_time":3825000000000,"state":"active","ping":53},{"user_id":30,"name":"ez VAC from Bornholm","steam_id":76561198052381812,"connected_time":5184000000000,"state":"active","ping":60},{"user_id":23,"name":"Lewylow","steam_id":76561198005425686,"connected_time":5469000000000,"state":"active","ping":56},{"user_id":71,"name":"json","steam_id":76561198378866654,"connected_time":1770000000000,"state":"active","ping":98},{"user_id":81,"name":"Johnson","steam_id":76561199382978934,"connected_time":117000000000,"state":"active","ping":94},{"user_id":49,"name":"Yonio","steam_id":76561198408428132,"connected_time":3784000000000,"state":"active","ping":75},{"user_id":77,"name":"Cloudy","steam_id":76561199132456382,"connected_time":1074000000000,"state":"active","ping":82},{"user_id":79,"name":"Veirū Viseris","steam_id":76561197989857176,"connected_time":825000000000,"state":"active","ping":83},{"user_id":39,"name":"Nyhde","steam_id":76561198012771416,"connected_time":4832000000000,"state":"active","ping":97},{"user_id":64,"name":"Yuzu","steam_id":76561198121694613,"connected_time":2171000000000,"state":"active","ping":50},{"user_id":80,"name":"G r e y","steam_id":76561198073954578,"connected_time":825000000000,"state":"active","ping":98},{"user_id":70,"name":"The worst TF2 player(Real)","steam_id":76561199184873889,"connected_time":1796000000000,"state":"active","ping":78}]},{"server_id":114,"name":"Uncletopia | London | 2 | All Maps","name_short":"lon-2","host":"lon-1.uk.uncletopia.com","port":27025,"enabled":true,"region":"eu","cc":"gb","latitude":51.509865,"longitude":-0.118092,"reserved":0,"last_update":"0001-01-01T00:00:00Z","name_a2s":"Uncletopia | London | 2 | All Maps","protocol":17,"map":"cp_mountainlab","folder":"tf","game":"Team Fortress","app_id":440,"player_count":0,"max_players":24,"Bots":0,"server_type":"Dedicated","server_os":"Linux","password":true,"vac":true,"version":"7961495","steam_id":85568392924470941,"keywords":["cp","nocrits","nodmgspread","uncletopia"],"game_id":440,"stv_port":27026,"stv_name":"Uncletopia | London | 2 | All Maps | STV","players":null},{"server_id":320,"name":"Uncletopia | London | 3 | All Maps","name_short":"lon-3","host":"lon-1.uk.uncletopia.com","port":27035,"enabled":true,"region":"eu","cc":"gb","latitude":51.509865,"longitude":-0.118092,"reserved":0,"last_update":"0001-01-01T00:00:00Z","name_a2s":"Uncletopia | London | 3 | All Maps","protocol":17,"map":"cp_mountainlab","folder":"tf","game":"Team Fortress","app_id":440,"player_count":0,"max_players":24,"Bots":0,"server_type":"Dedicated","server_os":"Linux","password":true,"vac":true,"version":"7961495","steam_id":85568392924510192,"keywords":["cp","nocrits","nodmgspread","uncletopia"],"game_id":440,"stv_port":27036,"stv_name":"Uncletopia | London | 3 | All Maps | STV","players":null},{"server_id":321,"name":"Uncletopia | London | 4 | All Maps","name_short":"lon-4","host":"lon-1.uk.uncletopia.com","port":27045,"enabled":true,"region":"eu","cc":"gb","latitude":51.509865,"longitude":-0.118092,"reserved":0,"last_update":"0001-01-01T00:00:00Z","name_a2s":"Uncletopia | London | 4 | All Maps","protocol":17,"map":"pl_badwater","folder":"tf","game":"Team Fortress","app_id":440,"player_count":0,"max_players":24,"Bots":0,"server_type":"Dedicated","server_os":"Linux","password":true,"vac":true,"version":"7961495","steam_id":85568392924510193,"keywords":["nocrits","nodmgspread","payload","uncletopia"],"game_id":440,"stv_port":27046,"stv_name":"Uncletopia | London | 4 | All Maps | STV","players":null},{"server_id":21,"name":"Uncletopia | London | 5 | All Maps","name_short":"lon-5","host":"lon-1.uk.uncletopia.com","port":27055,"enabled":true,"region":"eu","cc":"gb","latitude":51.509865,"longitude":-0.118092,"reserved":0,"last_update":"0001-01-01T00:00:00Z","name_a2s":"Uncletopia | London | 5 | All Maps","protocol":17,"map":"koth_suijin","folder":"tf","game":"Team Fortress","app_id":440,"player_count":0,"max_players":24,"Bots":0,"server_type":"Dedicated","server_os":"Linux","password":true,"vac":true,"version":"7961495","steam_id":85568392924742829,"keywords":["cp","nocrits","nodmgspread","uncletopia"],"game_id":440,"stv_port":27056,"stv_name":"Uncletopia | London | 5 | All Maps | STV","players":null},{"server_id":22,"name":"Uncletopia | London | 6 | All Maps","name_short":"lon-6","host":"lon-1.uk.uncletopia.com","port":27065,"enabled":true,"region":"eu","cc":"gb","latitude":51.509865,"longitude":-0.118092,"reserved":0,"last_update":"0001-01-01T00:00:00Z","name_a2s":"Uncletopia | London | 6 | All Maps","protocol":17,"map":"pl_frontier_final","folder":"tf","game":"Team Fortress","app_id":440,"player_count":0,"max_players":24,"Bots":0,"server_type":"Dedicated","server_os":"Linux","password":true,"vac":true,"version":"7961495","steam_id":85568392924742830,"keywords":["nocrits","nodmgspread","payload","uncletopia"],"game_id":440,"stv_port":27066,"stv_name":"Uncletopia | London | 6 | All Maps | STV","players":null},{"server_id":40,"name":"Uncletopia | London | 7 | Stopwatch","name_short":"lon-7","host":"lon-1.uk.uncletopia.com","port":27075,"enabled":true,"region":"eu","cc":"gb","latitude":51.509865,"longitude":-0.118092,"reserved":0,"last_update":"0001-01-01T00:00:00Z","name_a2s":"Uncletopia | London | 7 | Stopwatch","protocol":17,"map":"pl_swiftwater_final1","folder":"tf","game":"Team Fortress","app_id":440,"player_count":0,"max_players":24,"Bots":0,"server_type":"Dedicated","server_os":"Linux","password":true,"vac":true,"version":"7961495","steam_id":85568392924964314,"keywords":["nocrits","nodmgspread","payload","uncletopia"],"game_id":440,"stv_port":27076,"stv_name":"Uncletopia | London | 7 | Stopwatch | STV","players":null},{"server_id":41,"name":"Uncletopia | London | 8 | Community","name_short":"lon-8","host":"lon-1.uk.uncletopia.com","port":27085,"enabled":true,"region":"eu","cc":"gb","latitude":51.509865,"longitude":-0.118092,"reserved":0,"last_update":"0001-01-01T00:00:00Z","name_a2s":"Uncletopia | London | 8 | Community","protocol":17,"map":"workshop/cp_propaganda_b18.ugc1603743849","folder":"tf","game":"Team Fortress","app_id":440,"player_count":0,"max_players":24,"Bots":0,"server_type":"Dedicated","server_os":"Linux","password":true,"vac":true,"version":"7961495","steam_id":85568392924964315,"keywords":["cp","nocrits","nodmgspread","uncletopia"],"game_id":440,"stv_port":27086,"stv_name":"Uncletopia | London | 8 | Community | STV","players":null},{"server_id":300,"name":"Uncletopia | Montréal | 1 | One Thousand Uncles","name_short":"mtl-1","host":"mtl-1.ca.uncletopia.com","port":27015,"enabled":true,"region":"us-east","cc":"ca","latitude":45.50889,"longitude":-73.56167,"reserved":0,"last_update":"0001-01-01T00:00:00Z","name_a2s":"Uncletopia | Montréal | 1 | One Thousand Uncles","protocol":17,"map":"cp_egypt_final","folder":"tf","game":"Team Fortress","app_id":440,"player_count":21,"max_players":32,"Bots":20,"server_type":"Dedicated","server_os":"Linux","password":true,"vac":true,"version":"7961495","steam_id":85568392924500087,"keywords":["alltalk","bots","cp","danepve","increased_maxplayers","norespawntime","uncletopia"],"game_id":440,"stv_port":0,"stv_name":"","players":[{"user_id":546,"name":"REDOYSTERCULT302","steam_id":76561199499023967,"connected_time":1451000000000,"state":"active","ping":73}]},{"server_id":301,"name":"Uncletopia | Montréal | 2 | One Thousand Uncles","name_short":"mtl-2","host":"mtl-1.ca.uncletopia.com","port":27025,"enabled":true,"region":"us-east","cc":"ca","latitude":45.50889,"longitude":-73.56167,"reserved":0,"last_update":"0001-01-01T00:00:00Z","name_a2s":"Uncletopia | Montréal | 2 | One Thousand Uncles","protocol":17,"map":"cp_dustbowl","folder":"tf","game":"Team Fortress","app_id":440,"player_count":0,"max_players":32,"Bots":0,"server_type":"Dedicated","server_os":"Linux","password":true,"vac":true,"version":"7961495","steam_id":85568392924500088,"keywords":["alltalk","cp","danepve","increased_maxplayers","norespawntime","uncletopia"],"game_id":440,"stv_port":0,"stv_name":"","players":null},{"server_id":302,"name":"Uncletopia | Montréal | 3 | One Thousand Uncles","name_short":"mtl-3","host":"mtl-1.ca.uncletopia.com","port":27035,"enabled":true,"region":"us-east","cc":"ca","latitude":45.50889,"longitude":-73.56167,"reserved":0,"last_update":"0001-01-01T00:00:00Z","name_a2s":"Uncletopia | Montréal | 3 | One Thousand Uncles","protocol":17,"map":"pl_thundermountain","folder":"tf","game":"Team Fortress","app_id":440,"player_count":0,"max_players":32,"Bots":0,"server_type":"Dedicated","server_os":"Linux","password":true,"vac":true,"version":"7961495","steam_id":85568392924500089,"keywords":["alltalk","danepve","increased_maxplayers","norespawntime","payload","uncletopia"],"game_id":440,"stv_port":0,"stv_name":"","players":null},{"server_id":13,"name":"Uncletopia | New York City | 1 | All Maps","name_short":"nyc-1","host":"nyc-1.us.uncletopia.com","port":27015,"enabled":true,"region":"us-east","cc":"us","latitude":40.73061,"longitude":-73.93524,"reserved":0,"last_update":"0001-01-01T00:00:00Z","name_a2s":"Uncletopia | New York City | 1 | All Maps","protocol":17,"map":"ctf_landfall","folder":"tf","game":"Team Fortress","app_id":440,"player_count":22,"max_players":24,"Bots":0,"server_type":"Dedicated","server_os":"Linux","password":true,"vac":true,"version":"7961495","steam_id":85568392924469993,"keywords":["ctf","nocrits","nodmgspread","uncletopia"],"game_id":440,"stv_port":27016,"stv_name":"Uncletopia | New York City | 1 | All Maps | STV","players":[{"user_id":851,"name":"komodoom","steam_id":76561198048619639,"connected_time":4368000000000,"state":"active","ping":74},{"user_id":888,"name":"Papyrus Undertale","steam_id":76561199202517286,"connected_time":314000000000,"state":"active","ping":74},{"user_id":881,"name":"joe","steam_id":76561198045781320,"connected_time":699000000000,"state":"active","ping":52},{"user_id":883,"name":"Just Juanito","steam_id":76561198241446874,"connected_time":541000000000,"state":"active","ping":128},{"user_id":854,"name":"Zippy","steam_id":76561198279229422,"connected_time":4313000000000,"state":"active","ping":71},{"user_id":879,"name":"Zeelidox","steam_id":76561198110613375,"connected_time":1650000000000,"state":"active","ping":88},{"user_id":872,"name":"ssg god","steam_id":76561198821451167,"connected_time":2290000000000,"state":"active","ping":169},{"user_id":893,"name":"HopeDaGamer","steam_id":76561199487262348,"connected_time":47000000000,"state":"active","ping":178},{"user_id":884,"name":"tunaa","steam_id":76561198362763159,"connected_time":539000000000,"state":"active","ping":107},{"user_id":861,"name":"[HOH] 「Kenubis」","steam_id":76561198105671758,"connected_time":2776000000000,"state":"active","ping":137},{"user_id":874,"name":"living in mushroom park","steam_id":76561198097588802,"connected_time":2025000000000,"state":"active","ping":66},{"user_id":860,"name":"Knocksban","steam_id":76561198436480853,"connected_time":3319000000000,"state":"active","ping":98},{"user_id":843,"name":"Aoiuchuu","steam_id":76561198051947219,"connected_time":5171000000000,"state":"active","ping":164},{"user_id":885,"name":"JossteZu","steam_id":76561198962929805,"connected_time":518000000000,"state":"active","ping":154},{"user_id":886,"name":"castro","steam_id":76561198834358497,"connected_time":466000000000,"state":"active","ping":53},{"user_id":844,"name":"GrinchsUltimatum","steam_id":76561198075366657,"connected_time":5159000000000,"state":"active","ping":115},{"user_id":875,"name":"World's Biggest Sniper Hater","steam_id":76561198209153291,"connected_time":1981000000000,"state":"active","ping":120},{"user_id":887,"name":"booofs!","steam_id":76561198345410702,"connected_time":456000000000,"state":"active","ping":142},{"user_id":845,"name":"Cobaltion","steam_id":76561198035701210,"connected_time":5131000000000,"state":"active","ping":124},{"user_id":890,"name":"Cat","steam_id":76561198152736160,"connected_time":163000000000,"state":"active","ping":75},{"user_id":891,"name":"Pebble","steam_id":76561197978548514,"connected_time":132000000000,"state":"active","ping":128},{"user_id":892,"name":"blone","steam_id":76561199077504411,"connected_time":75000000000,"state":"active","ping":100}]},{"server_id":14,"name":"Uncletopia | New York City | 2 | All Maps","name_short":"nyc-2","host":"nyc-1.us.uncletopia.com","port":27025,"enabled":true,"region":"us-east","cc":"us","latitude":40.73061,"longitude":-73.93524,"reserved":0,"last_update":"0001-01-01T00:00:00Z","name_a2s":"Uncletopia | New York City | 2 | All Maps","protocol":17,"map":"koth_viaduct","folder":"tf","game":"Team Fortress","app_id":440,"player_count":0,"max_players":24,"Bots":0,"server_type":"Dedicated","server_os":"Linux","password":true,"vac":true,"version":"7961495","steam_id":85568392924469994,"keywords":["cp","nocrits","nodmgspread","uncletopia"],"game_id":440,"stv_port":27026,"stv_name":"Uncletopia | New York City | 2 | All Maps | STV","players":null},{"server_id":15,"name":"Uncletopia | New York City | 3 | Stopwatch","name_short":"nyc-3","host":"nyc-1.us.uncletopia.com","port":27035,"enabled":true,"region":"us-east","cc":"us","latitude":40.73061,"longitude":-73.93524,"reserved":0,"last_update":"0001-01-01T00:00:00Z","name_a2s":"Uncletopia | New York City | 3 | Stopwatch","protocol":17,"map":"workshop/pl_badwater_pro_v12.ugc2142942074","folder":"tf","game":"Team Fortress","app_id":440,"player_count":0,"max_players":24,"Bots":0,"server_type":"Dedicated","server_os":"Linux","password":true,"vac":true,"version":"7961495","steam_id":85568392924742820,"keywords":["nocrits","nodmgspread","payload","uncletopia"],"game_id":440,"stv_port":27036,"stv_name":"Uncletopia | New York City | 3 | Stopwatch | STV","players":null},{"server_id":16,"name":"Uncletopia | New York City | 4 | Community","name_short":"nyc-4","host":"nyc-1.us.uncletopia.com","port":27045,"enabled":true,"region":"us-east","cc":"us","latitude":40.73061,"longitude":-73.93524,"reserved":0,"last_update":"0001-01-01T00:00:00Z","name_a2s":"Uncletopia | New York City | 4 | Community","protocol":17,"map":"workshop/cp_bruhstbowl_b6.ugc2878604990","folder":"tf","game":"Team Fortress","app_id":440,"player_count":0,"max_players":24,"Bots":0,"server_type":"Dedicated","server_os":"Linux","password":true,"vac":true,"version":"7961495","steam_id":85568392924742821,"keywords":["cp","nocrits","nodmgspread","uncletopia"],"game_id":440,"stv_port":27046,"stv_name":"Uncletopia | New York City | 4 | Community | STV","players":null},{"server_id":142,"name":"Uncletopia | São Paulo | 1 | All Maps","name_short":"sao-1","host":"sao-1.br.uncletopia.com","port":27015,"enabled":true,"region":"sa","cc":"br","latitude":-23.533773,"longitude":-46.62529,"reserved":0,"last_update":"0001-01-01T00:00:00Z","name_a2s":"Uncletopia | São Paulo | 1 | All Maps","protocol":17,"map":"cp_gorge","folder":"tf","game":"Team Fortress","app_id":440,"player_count":0,"max_players":24,"Bots":0,"server_type":"Dedicated","server_os":"Linux","password":true,"vac":true,"version":"7961495","steam_id":85568392924469996,"keywords":["cp","nocrits","nodmgspread","uncletopia"],"game_id":440,"stv_port":27016,"stv_name":"Uncletopia | São Paulo | 1 | All Maps | STV","players":null},{"server_id":143,"name":"Uncletopia | São Paulo | 2 | Community","name_short":"sao-2","host":"sao-2.br.uncletopia.com","port":27015,"enabled":true,"region":"sa","cc":"br","latitude":-23.533773,"longitude":-46.62529,"reserved":0,"last_update":"0001-01-01T00:00:00Z","name_a2s":"Uncletopia | São Paulo | 2 | Community","protocol":17,"map":"workshop/koth_product_final.ugc454272353","folder":"tf","game":"Team Fortress","app_id":440,"player_count":0,"max_players":24,"Bots":0,"server_type":"Dedicated","server_os":"Linux","password":true,"vac":true,"version":"7961495","steam_id":85568392924485349,"keywords":["cp","nocrits","nodmgspread","uncletopia"],"game_id":440,"stv_port":27016,"stv_name":"Uncletopia | São Paulo | 2 | Community | STV","players":null},{"server_id":7,"name":"Uncletopia | Seattle | 1 | All Maps","name_short":"sea-1","host":"sea-1.us.uncletopia.com","port":27015,"enabled":true,"region":"us-west","cc":"us","latitude":47.608013,"longitude":-122.33517,"reserved":0,"last_update":"0001-01-01T00:00:00Z","name_a2s":"Uncletopia | Seattle | 1 | All Maps","protocol":17,"map":"cp_process_final","folder":"tf","game":"Team Fortress","app_id":440,"player_count":24,"max_players":24,"Bots":0,"server_type":"Dedicated","server_os":"Linux","password":true,"vac":true,"version":"7961495","steam_id":85568392924469997,"keywords":["cp","nocrits","nodmgspread","uncletopia"],"game_id":440,"stv_port":27016,"stv_name":"Uncletopia | Seattle | 1 | All Maps | STV","players":[{"user_id":918,"name":"4lorist LFT FROTTING","steam_id":76561198009121060,"connected_time":406000000000,"state":"active","ping":46},{"user_id":753,"name":"ghor","steam_id":76561197994547132,"connected_time":11173000000000,"state":"active","ping":32},{"user_id":912,"name":"rorywashere /ᐠ - ˕ -マ Ⳋ","steam_id":76561198065825165,"connected_time":1105000000000,"state":"active","ping":101},{"user_id":920,"name":"👁 sumixodic","steam_id":76561198090770710,"connected_time":208000000000,"state":"active","ping":48},{"user_id":890,"name":"lavender","steam_id":76561199069518286,"connected_time":3801000000000,"state":"active","ping":69},{"user_id":895,"name":"Cancerous Pineapple","steam_id":76561198097307656,"connected_time":3525000000000,"state":"active","ping":68},{"user_id":898,"name":"Soupcan","steam_id":76561198056269538,"connected_time":2916000000000,"state":"active","ping":53},{"user_id":919,"name":"raf simons spring/summer 2002","steam_id":76561198239598834,"connected_time":285000000000,"state":"active","ping":148},{"user_id":900,"name":"Henchie!","steam_id":76561198047567464,"connected_time":2885000000000,"state":"active","ping":100},{"user_id":863,"name":"3 or 4 gin\u0026sodas","steam_id":76561198150281353,"connected_time":6441000000000,"state":"active","ping":57},{"user_id":915,"name":"how do i control my guy?","steam_id":76561198158855211,"connected_time":996000000000,"state":"active","ping":47},{"user_id":872,"name":"smeasly","steam_id":76561198028718812,"connected_time":5711000000000,"state":"active","ping":44},{"user_id":913,"name":"Mr8bittripper","steam_id":76561198133894229,"connected_time":1083000000000,"state":"active","ping":45},{"user_id":904,"name":"LFF prophet","steam_id":76561198131166135,"connected_time":2699000000000,"state":"active","ping":39},{"user_id":873,"name":"Sniff","steam_id":76561198010270922,"connected_time":5681000000000,"state":"active","ping":44},{"user_id":905,"name":"Shazzy","steam_id":76561198145460523,"connected_time":1544000000000,"state":"active","ping":44},{"user_id":917,"name":"2 Point Tom","steam_id":76561198087617008,"connected_time":445000000000,"state":"active","ping":54},{"user_id":878,"name":"Moffein","steam_id":76561198016739296,"connected_time":5054000000000,"state":"active","ping":62},{"user_id":916,"name":"The Shaq Attack","steam_id":76561198075285534,"connected_time":675000000000,"state":"active","ping":31},{"user_id":866,"name":"fadeaway backshots","steam_id":76561198086878595,"connected_time":6423000000000,"state":"active","ping":74},{"user_id":910,"name":"popped my clogs","steam_id":76561197980280272,"connected_time":1149000000000,"state":"active","ping":44},{"user_id":911,"name":"Hawksgamer","steam_id":76561198152405941,"connected_time":1142000000000,"state":"active","ping":55},{"user_id":914,"name":"edgebug b-roll","steam_id":76561198043558709,"connected_time":1053000000000,"state":"active","ping":45},{"user_id":906,"name":"lukamine","steam_id":76561198166827208,"connected_time":1544000000000,"state":"active","ping":45}]},{"server_id":119,"name":"Uncletopia | Seattle | 2 | All Maps","name_short":"sea-2","host":"sea-1.us.uncletopia.com","port":27025,"enabled":true,"region":"us-west","cc":"us","latitude":47.608013,"longitude":-122.33517,"reserved":0,"last_update":"0001-01-01T00:00:00Z","name_a2s":"Uncletopia | Seattle | 2 | All Maps","protocol":17,"map":"pl_badwater","folder":"tf","game":"Team Fortress","app_id":440,"player_count":24,"max_players":24,"Bots":0,"server_type":"Dedicated","server_os":"Linux","password":true,"vac":true,"version":"7961495","steam_id":85568392924469998,"keywords":["nocrits","nodmgspread","payload","uncletopia"],"game_id":440,"stv_port":27026,"stv_name":"Uncletopia | Seattle | 2 | All Maps | STV","players":[{"user_id":648,"name":"Toad","steam_id":76561198304137354,"connected_time":88000000000,"state":"active","ping":82},{"user_id":634,"name":"Blo'Hole Blast","steam_id":76561199035402139,"connected_time":915000000000,"state":"active","ping":47},{"user_id":631,"name":"Lord Shmeck","steam_id":76561198023851456,"connected_time":1170000000000,"state":"active","ping":48},{"user_id":647,"name":"plutonium isotope","steam_id":76561198319442494,"connected_time":103000000000,"state":"active","ping":86},{"user_id":605,"name":"smoking spy","steam_id":76561198329096986,"connected_time":5655000000000,"state":"active","ping":104},{"user_id":626,"name":"gingerbredman","steam_id":76561199165814938,"connected_time":2793000000000,"state":"active","ping":56},{"user_id":614,"name":"self sufficient kitten ♥","steam_id":76561197960592612,"connected_time":4552000000000,"state":"active","ping":44},{"user_id":646,"name":"Siopao","steam_id":76561198254089497,"connected_time":280000000000,"state":"active","ping":68},{"user_id":615,"name":"hungry kibten","steam_id":76561198184099558,"connected_time":4535000000000,"state":"active","ping":42},{"user_id":636,"name":"Cobruh Bubbles","steam_id":76561198134322282,"connected_time":866000000000,"state":"active","ping":82},{"user_id":642,"name":"Xylemon","steam_id":76561197965297420,"connected_time":434000000000,"state":"active","ping":70},{"user_id":618,"name":"superweedprincess4000","steam_id":76561198049258493,"connected_time":4222000000000,"state":"active","ping":57},{"user_id":641,"name":"Entar","steam_id":76561197968661166,"connected_time":457000000000,"state":"active","ping":110},{"user_id":649,"name":"HOG RIDER","steam_id":76561198298589502,"connected_time":47000000000,"state":"active","ping":75},{"user_id":637,"name":"SERGEANT BRICK","steam_id":76561198067911436,"connected_time":858000000000,"state":"active","ping":90},{"user_id":638,"name":"An","steam_id":76561198043603558,"connected_time":786000000000,"state":"active","ping":111},{"user_id":625,"name":"Precision_Context","steam_id":76561199180393975,"connected_time":3149000000000,"state":"active","ping":59},{"user_id":627,"name":"MoistPP","steam_id":76561199100990739,"connected_time":2353000000000,"state":"active","ping":55},{"user_id":639,"name":"VinnyTheG","steam_id":76561198862202293,"connected_time":775000000000,"state":"active","ping":135},{"user_id":645,"name":"Shnakes","steam_id":76561198201649518,"connected_time":296000000000,"state":"active","ping":91},{"user_id":640,"name":"PaigeX4","steam_id":76561199480813481,"connected_time":749000000000,"state":"active","ping":44},{"user_id":610,"name":"Sexy Kitten","steam_id":76561197979056451,"connected_time":5020000000000,"state":"active","ping":53},{"user_id":617,"name":"paws :3","steam_id":76561199371694361,"connected_time":4370000000000,"state":"active","ping":79},{"user_id":594,"name":"Dogg wader","steam_id":76561199090314340,"connected_time":7815000000000,"state":"active","ping":104}]},{"server_id":406,"name":"Uncletopia | Seattle | 3 | Stopwatch","name_short":"sea-3","host":"sea-1.us.uncletopia.com","port":27035,"enabled":true,"region":"us-west","cc":"us","latitude":47.608013,"longitude":-122.33517,"reserved":0,"last_update":"0001-01-01T00:00:00Z","name_a2s":"Uncletopia | Seattle | 3 | Stopwatch","protocol":17,"map":"pl_upward","folder":"tf","game":"Team Fortress","app_id":440,"player_count":0,"max_players":24,"Bots":0,"server_type":"Dedicated","server_os":"Linux","password":true,"vac":true,"version":"7961495","steam_id":85568392924515217,"keywords":["nocrits","nodmgspread","payload","uncletopia"],"game_id":440,"stv_port":27036,"stv_name":"Uncletopia | Seattle | 3 | Stopwatch | STV","players":null},{"server_id":17,"name":"Uncletopia | San Francisco | 1 | All Maps","name_short":"sfo-1","host":"sfo-1.us.uncletopia.com","port":27015,"enabled":true,"region":"us-west","cc":"us","latitude":37.77397,"longitude":-122.4313,"reserved":0,"last_update":"0001-01-01T00:00:00Z","name_a2s":"Uncletopia | San Francisco | 1 | All Maps","protocol":17,"map":"pl_borneo","folder":"tf","game":"Team Fortress","app_id":440,"player_count":0,"max_players":24,"Bots":0,"server_type":"Dedicated","server_os":"Linux","password":true,"vac":true,"version":"7961495","steam_id":85568392924469999,"keywords":["nocrits","nodmgspread","payload","uncletopia"],"game_id":440,"stv_port":27016,"stv_name":"Uncletopia | San Francisco | 1 | All Maps | STV","players":null},{"server_id":18,"name":"Uncletopia | San Francisco | 2 | All Maps","name_short":"sfo-2","host":"sfo-1.us.uncletopia.com","port":27025,"enabled":true,"region":"us-west","cc":"us","latitude":37.77397,"longitude":-122.4313,"reserved":0,"last_update":"0001-01-01T00:00:00Z","name_a2s":"Uncletopia | San Francisco | 2 | All Maps","protocol":17,"map":"koth_viaduct","folder":"tf","game":"Team Fortress","app_id":440,"player_count":8,"max_players":24,"Bots":0,"server_type":"Dedicated","server_os":"Linux","password":true,"vac":true,"version":"7961495","steam_id":85568392924470000,"keywords":["cp","nocrits","nodmgspread","uncletopia"],"game_id":440,"stv_port":27026,"stv_name":"Uncletopia | San Francisco | 2 | All Maps | STV","players":[{"user_id":122,"name":"Spare(8)Ball","steam_id":76561197982432995,"connected_time":3213000000000,"state":"active","ping":54},{"user_id":115,"name":"Ryver","steam_id":76561199082197266,"connected_time":3559000000000,"state":"active","ping":165},{"user_id":125,"name":"› We Are You.j2","steam_id":76561197995242200,"connected_time":3123000000000,"state":"active","ping":48},{"user_id":147,"name":"1000 Ping","steam_id":76561198098330939,"connected_time":483000000000,"state":"active","ping":76},{"user_id":102,"name":"FrostyBoiGrim","steam_id":76561198114335037,"connected_time":4272000000000,"state":"active","ping":40},{"user_id":133,"name":"chickenenthusiast427","steam_id":76561198909415646,"connected_time":2081000000000,"state":"active","ping":89},{"user_id":64,"name":"kiwi","steam_id":76561198052177917,"connected_time":8267000000000,"state":"active","ping":67},{"user_id":146,"name":"Bow kid","steam_id":76561199157332160,"connected_time":883000000000,"state":"active","ping":83}]},{"server_id":19,"name":"Uncletopia | San Francisco | 3 | Stopwatch","name_short":"sfo-3","host":"sfo-1.us.uncletopia.com","port":27035,"enabled":true,"region":"us-west","cc":"us","latitude":37.77397,"longitude":-122.4313,"reserved":0,"last_update":"0001-01-01T00:00:00Z","name_a2s":"Uncletopia | San Francisco | 3 | Stopwatch","protocol":17,"map":"workshop/pl_barnblitz_pro7.ugc582280235","folder":"tf","game":"Team Fortress","app_id":440,"player_count":0,"max_players":24,"Bots":0,"server_type":"Dedicated","server_os":"Linux","password":true,"vac":true,"version":"7961495","steam_id":85568392924742824,"keywords":["nocrits","nodmgspread","payload","uncletopia"],"game_id":440,"stv_port":27036,"stv_name":"Uncletopia | San Francisco | 3 | Stopwatch | STV","players":null},{"server_id":20,"name":"Uncletopia | San Francisco | 4 | Community","name_short":"sfo-4","host":"sfo-1.us.uncletopia.com","port":27045,"enabled":true,"region":"us-west","cc":"us","latitude":37.77397,"longitude":-122.4313,"reserved":0,"last_update":"0001-01-01T00:00:00Z","name_a2s":"Uncletopia | San Francisco | 4 | Community","protocol":17,"map":"workshop/koth_bagel_rc6.ugc2514036946","folder":"tf","game":"Team Fortress","app_id":440,"player_count":0,"max_players":24,"Bots":0,"server_type":"Dedicated","server_os":"Linux","password":true,"vac":true,"version":"7961495","steam_id":85568392924742826,"keywords":["cp","nocrits","nodmgspread","uncletopia"],"game_id":440,"stv_port":27046,"stv_name":"Uncletopia | San Francisco | 4 | Community | STV","players":null},{"server_id":141,"name":"Uncletopia | Sydney | 1 | All Maps","name_short":"syd-1","host":"syd-1.au.uncletopia.com","port":27015,"enabled":true,"region":"au","cc":"au","latitude":-33.865143,"longitude":151.2099,"reserved":0,"last_update":"0001-01-01T00:00:00Z","name_a2s":"Uncletopia | Sydney | 1 | All Maps","protocol":17,"map":"pl_upward","folder":"tf","game":"Team Fortress","app_id":440,"player_count":24,"max_players":24,"Bots":0,"server_type":"Dedicated","server_os":"Linux","password":true,"vac":true,"version":"7961495","steam_id":85568392924470001,"keywords":["nocrits","nodmgspread","payload","uncletopia"],"game_id":440,"stv_port":27016,"stv_name":"Uncletopia | Sydney | 1 | All Maps | STV","players":[{"user_id":320,"name":"entradinkgle","steam_id":76561198137562689,"connected_time":2109000000000,"state":"active","ping":54},{"user_id":336,"name":"Madallar","steam_id":76561198379635302,"connected_time":450000000000,"state":"active","ping":79},{"user_id":340,"name":"Lords Resistance Army","steam_id":76561198010870577,"connected_time":149000000000,"state":"active","ping":111},{"user_id":324,"name":"Two Fortress Enjoyer","steam_id":76561198039845750,"connected_time":1870000000000,"state":"active","ping":59},{"user_id":334,"name":"MINI S.","steam_id":76561198116179875,"connected_time":611000000000,"state":"active","ping":44},{"user_id":306,"name":"will smith","steam_id":76561198112980997,"connected_time":3562000000000,"state":"active","ping":57},{"user_id":257,"name":"Dot","steam_id":76561198064534661,"connected_time":8479000000000,"state":"active","ping":58},{"user_id":290,"name":"COLLINSct","steam_id":76561198045395403,"connected_time":5463000000000,"state":"active","ping":47},{"user_id":335,"name":"gameboy350","steam_id":76561198045903394,"connected_time":599000000000,"state":"active","ping":89},{"user_id":313,"name":"ReHou2","steam_id":76561199197155555,"connected_time":2905000000000,"state":"active","ping":60},{"user_id":260,"name":"Glockenspe (She/Her)","steam_id":76561199184115241,"connected_time":8167000000000,"state":"active","ping":49},{"user_id":304,"name":"Franky 'Fist Me' Farnsworth","steam_id":76561198059546358,"connected_time":3944000000000,"state":"active","ping":59},{"user_id":308,"name":"Ace","steam_id":76561198143792684,"connected_time":3137000000000,"state":"active","ping":59},{"user_id":338,"name":"kimmybob47","steam_id":76561198850317251,"connected_time":310000000000,"state":"active","ping":92},{"user_id":322,"name":"Venom Spitz","steam_id":76561198163510505,"connected_time":2006000000000,"state":"active","ping":71},{"user_id":339,"name":"al","steam_id":76561198997885828,"connected_time":272000000000,"state":"active","ping":70},{"user_id":332,"name":"pathway","steam_id":76561198346674092,"connected_time":965000000000,"state":"active","ping":64},{"user_id":341,"name":"dumbvent ⛟","steam_id":76561198190062810,"connected_time":108000000000,"state":"active","ping":63},{"user_id":329,"name":"papa","steam_id":76561198163034070,"connected_time":1270000000000,"state":"active","ping":46},{"user_id":299,"name":"Chooka","steam_id":76561197992307814,"connected_time":4290000000000,"state":"active","ping":83},{"user_id":342,"name":"Matt","steam_id":76561198009757360,"connected_time":28000000000,"state":"active","ping":60},{"user_id":317,"name":"A Tree","steam_id":76561199038681860,"connected_time":2840000000000,"state":"active","ping":54},{"user_id":268,"name":"ANDY64","steam_id":76561198049447026,"connected_time":6907000000000,"state":"active","ping":78},{"user_id":326,"name":"akmon753","steam_id":76561199507989067,"connected_time":1634000000000,"state":"active","ping":74}]},{"server_id":123,"name":"Uncletopia | Sydney | 2 | All Maps","name_short":"syd-2","host":"syd-1.au.uncletopia.com","port":27025,"enabled":true,"region":"au","cc":"au","latitude":-33.865143,"longitude":151.2099,"reserved":0,"last_update":"0001-01-01T00:00:00Z","name_a2s":"Uncletopia | Sydney | 2 | All Maps","protocol":17,"map":"cp_granary","folder":"tf","game":"Team Fortress","app_id":440,"player_count":22,"max_players":24,"Bots":0,"server_type":"Dedicated","server_os":"Linux","password":true,"vac":true,"version":"7961495","steam_id":85568392924470002,"keywords":["cp","nocrits","nodmgspread","uncletopia"],"game_id":440,"stv_port":27026,"stv_name":"Uncletopia | Sydney | 2 | All Maps | STV","players":[{"user_id":102,"name":"Depressed Jew","steam_id":76561198151970552,"connected_time":42000000000,"state":"active","ping":43},{"user_id":100,"name":"timboe","steam_id":76561198003442007,"connected_time":230000000000,"state":"active","ping":46},{"user_id":82,"name":"CypressFluff (she/her)","steam_id":76561198174667818,"connected_time":2640000000000,"state":"active","ping":73},{"user_id":58,"name":"doctor morbin' (official)","steam_id":76561199365241695,"connected_time":4311000000000,"state":"active","ping":124},{"user_id":67,"name":"El","steam_id":76561198095659550,"connected_time":3981000000000,"state":"active","ping":91},{"user_id":59,"name":"dark modus","steam_id":76561198000568803,"connected_time":4205000000000,"state":"active","ping":56},{"user_id":52,"name":"better safe than Gregory","steam_id":76561198301282416,"connected_time":4641000000000,"state":"active","ping":59},{"user_id":53,"name":"Livid","steam_id":76561198060024585,"connected_time":4634000000000,"state":"active","ping":43},{"user_id":96,"name":"Zeron","steam_id":76561198125778202,"connected_time":990000000000,"state":"active","ping":50},{"user_id":55,"name":"...","steam_id":76561198309750355,"connected_time":4557000000000,"state":"active","ping":55},{"user_id":61,"name":"4LOW","steam_id":76561199156942316,"connected_time":4198000000000,"state":"active","ping":89},{"user_id":83,"name":"Tantei Rotana","steam_id":76561198041204323,"connected_time":2505000000000,"state":"active","ping":66},{"user_id":63,"name":"monkey (with spoon)","steam_id":76561198301254663,"connected_time":4183000000000,"state":"active","ping":70},{"user_id":92,"name":"hop on tf2","steam_id":76561198197824065,"connected_time":1233000000000,"state":"active","ping":77},{"user_id":97,"name":"The Lad","steam_id":76561198865537226,"connected_time":904000000000,"state":"active","ping":89},{"user_id":85,"name":"Diming","steam_id":76561198325584599,"connected_time":1840000000000,"state":"active","ping":56},{"user_id":90,"name":"Penis Inspector","steam_id":76561198018102901,"connected_time":1287000000000,"state":"active","ping":91},{"user_id":87,"name":"Mole Cricket Romancer","steam_id":76561198004276062,"connected_time":1638000000000,"state":"active","ping":78},{"user_id":71,"name":"young thug disciple","steam_id":76561198046239819,"connected_time":3917000000000,"state":"active","ping":78},{"user_id":98,"name":"lavanderpumpernickle","steam_id":76561199093611800,"connected_time":551000000000,"state":"active","ping":46},{"user_id":76,"name":"bangs","steam_id":76561198041334029,"connected_time":3661000000000,"state":"active","ping":93},{"user_id":94,"name":"Qurkey","steam_id":76561198059482977,"connected_time":1175000000000,"state":"active","ping":45}]},{"server_id":395,"name":"Uncletopia | Sydney | 3 | All Maps","name_short":"syd-3","host":"syd-1.au.uncletopia.com","port":27035,"enabled":true,"region":"au","cc":"au","latitude":-33.865143,"longitude":151.2099,"reserved":0,"last_update":"0001-01-01T00:00:00Z","name_a2s":"Uncletopia | Sydney | 3 | All Maps","protocol":17,"map":"koth_brazil","folder":"tf","game":"Team Fortress","app_id":440,"player_count":0,"max_players":24,"Bots":0,"server_type":"Dedicated","server_os":"Linux","password":true,"vac":true,"version":"7961495","steam_id":85568392925194467,"keywords":["cp","nocrits","nodmgspread","uncletopia"],"game_id":440,"stv_port":27036,"stv_name":"Uncletopia | Sydney | 3 | All Maps | STV","players":null},{"server_id":396,"name":"Uncletopia | Sydney | 4 | All Maps","name_short":"syd-4","host":"syd-1.au.uncletopia.com","port":27045,"enabled":true,"region":"au","cc":"au","latitude":-33.865143,"longitude":151.2099,"reserved":0,"last_update":"0001-01-01T00:00:00Z","name_a2s":"Uncletopia | Sydney | 4 | All Maps","protocol":17,"map":"koth_cascade","folder":"tf","game":"Team Fortress","app_id":440,"player_count":0,"max_players":24,"Bots":0,"server_type":"Dedicated","server_os":"Linux","password":true,"vac":true,"version":"7961495","steam_id":85568392925397958,"keywords":["cp","nocrits","nodmgspread","uncletopia"],"game_id":440,"stv_port":27046,"stv_name":"Uncletopia | Sydney | 4 | All Maps | STV","players":null},{"server_id":58,"name":"Uncletopia | Sydney | 5 | Stopwatch","name_short":"syd-5","host":"syd-1.au.uncletopia.com","port":27055,"enabled":true,"region":"au","cc":"au","latitude":-33.865143,"longitude":151.2099,"reserved":0,"last_update":"0001-01-01T00:00:00Z","name_a2s":"Uncletopia | Sydney | 5 | Stopwatch","protocol":17,"map":"koth_highpass","folder":"tf","game":"Team Fortress","app_id":440,"player_count":0,"max_players":24,"Bots":0,"server_type":"Dedicated","server_os":"Linux","password":true,"vac":true,"version":"7961495","steam_id":85568392925397959,"keywords":["cp","nocrits","nodmgspread","uncletopia"],"game_id":440,"stv_port":27056,"stv_name":"Uncletopia | Sydney | 5 | Stopwatch | STV","players":null},{"server_id":59,"name":"Uncletopia | Sydney | 6 | Community","name_short":"syd-6","host":"syd-1.au.uncletopia.com","port":27065,"enabled":true,"region":"au","cc":"au","latitude":-33.865143,"longitude":151.2099,"reserved":0,"last_update":"0001-01-01T00:00:00Z","name_a2s":"Uncletopia | Sydney | 6 | Community","protocol":17,"map":"workshop/cp_mannbase_rc2a.ugc1900737467","folder":"tf","game":"Team Fortress","app_id":440,"player_count":0,"max_players":24,"Bots":0,"server_type":"Dedicated","server_os":"Linux","password":true,"vac":true,"version":"7961495","steam_id":85568392925397960,"keywords":["cp","nocrits","nodmgspread","uncletopia"],"game_id":440,"stv_port":27066,"stv_name":"Uncletopia | Sydney | 6 | Community | STV","players":null},{"server_id":49,"name":"Uncletopia | Warsaw | 1 | One Thousand Uncles","name_short":"waw-1","host":"waw-1.pl.uncletopia.com","port":27015,"enabled":true,"region":"eu","cc":"pl","latitude":52.2297,"longitude":21.017532,"reserved":0,"last_update":"0001-01-01T00:00:00Z","name_a2s":"Uncletopia | Warsaw | 1 | One Thousand Uncles","protocol":17,"map":"cp_egypt_final","folder":"tf","game":"Team Fortress","app_id":440,"player_count":0,"max_players":32,"Bots":0,"server_type":"Dedicated","server_os":"Linux","password":true,"vac":true,"version":"7961495","steam_id":85568392925397850,"keywords":["alltalk","cp","danepve","increased_maxplayers","norespawntime","uncletopia"],"game_id":440,"stv_port":0,"stv_name":"","players":null},{"server_id":50,"name":"Uncletopia | Warsaw | 2 | One Thousand Uncles","name_short":"waw-2","host":"waw-1.pl.uncletopia.com","port":27025,"enabled":true,"region":"eu","cc":"pl","latitude":52.2297,"longitude":21.017532,"reserved":0,"last_update":"0001-01-01T00:00:00Z","name_a2s":"Uncletopia | Warsaw | 2 | One Thousand Uncles","protocol":17,"map":"cp_altitude","folder":"tf","game":"Team Fortress","app_id":440,"player_count":30,"max_players":32,"Bots":20,"server_type":"Dedicated","server_os":"Linux","password":true,"vac":true,"version":"7961495","steam_id":85568392925397851,"keywords":["alltalk","bots","cp","danepve","increased_maxplayers","norespawntime","uncletopia"],"game_id":440,"stv_port":0,"stv_name":"","players":[{"user_id":85,"name":"Mango_Archimedes","steam_id":76561199096635508,"connected_time":921000000000,"state":"active","ping":67},{"user_id":89,"name":"korea","steam_id":76561198120520111,"connected_time":237000000000,"state":"active","ping":53},{"user_id":86,"name":"Iron Man","steam_id":76561199072364251,"connected_time":600000000000,"state":"active","ping":65},{"user_id":82,"name":"Volmari","steam_id":76561198054253542,"connected_time":1373000000000,"state":"active","ping":69},{"user_id":87,"name":"404nonamefound","steam_id":76561198354682115,"connected_time":404000000000,"state":"active","ping":95},{"user_id":79,"name":"absolutely befuddled","steam_id":76561199329784491,"connected_time":1970000000000,"state":"active","ping":90},{"user_id":88,"name":"im come from my dad's balls","steam_id":76561199065090344,"connected_time":351000000000,"state":"active","ping":167},{"user_id":90,"name":"DAAS","steam_id":76561198001997578,"connected_time":154000000000,"state":"active","ping":66},{"user_id":91,"name":"MegaKEKER","steam_id":76561199485792353,"connected_time":60000000000,"state":"active","ping":85},{"user_id":92,"name":"sinkuchan","steam_id":76561198054012474,"connected_time":35000000000,"state":"active","ping":75}]},{"server_id":51,"name":"Uncletopia | Warsaw | 3 | All Maps","name_short":"waw-3","host":"waw-1.pl.uncletopia.com","port":27035,"enabled":true,"region":"eu","cc":"pl","latitude":52.2297,"longitude":21.017532,"reserved":0,"last_update":"0001-01-01T00:00:00Z","name_a2s":"Uncletopia | Warsaw | 3 | All Maps","protocol":17,"map":"pl_frontier_final","folder":"tf","game":"Team Fortress","app_id":440,"player_count":0,"max_players":24,"Bots":0,"server_type":"Dedicated","server_os":"Linux","password":true,"vac":true,"version":"7961495","steam_id":85568392925397852,"keywords":["nocrits","nodmgspread","payload","uncletopia"],"game_id":440,"stv_port":27036,"stv_name":"Uncletopia | Warsaw | 3 | All Maps | STV","players":null},{"server_id":52,"name":"Uncletopia | Warsaw | 4 | All Maps","name_short":"waw-4","host":"waw-1.pl.uncletopia.com","port":27045,"enabled":true,"region":"eu","cc":"pl","latitude":52.2297,"longitude":21.017532,"reserved":0,"last_update":"0001-01-01T00:00:00Z","name_a2s":"Uncletopia | Warsaw | 4 | All Maps","protocol":17,"map":"ctf_turbine","folder":"tf","game":"Team Fortress","app_id":440,"player_count":0,"max_players":24,"Bots":0,"server_type":"Dedicated","server_os":"Linux","password":true,"vac":true,"version":"7961495","steam_id":85568392925397853,"keywords":["ctf","nocrits","nodmgspread","uncletopia"],"game_id":440,"stv_port":27046,"stv_name":"Uncletopia | Warsaw | 4 | All Maps | STV","players":null},{"server_id":53,"name":"Uncletopia | Warsaw | 5 | Stopwatch","name_short":"waw-5","host":"waw-1.pl.uncletopia.com","port":27055,"enabled":true,"region":"eu","cc":"pl","latitude":52.2297,"longitude":21.017532,"reserved":0,"last_update":"0001-01-01T00:00:00Z","name_a2s":"Uncletopia | Warsaw | 5 | Stopwatch","protocol":17,"map":"workshop/koth_clearcut_b15.ugc2107050255","folder":"tf","game":"Team Fortress","app_id":440,"player_count":0,"max_players":24,"Bots":0,"server_type":"Dedicated","server_os":"Linux","password":true,"vac":true,"version":"7961495","steam_id":85568392925397854,"keywords":["cp","nocrits","nodmgspread","uncletopia"],"game_id":440,"stv_port":27056,"stv_name":"Uncletopia | Warsaw | 5 | Stopwatch | STV","players":null},{"server_id":54,"name":"Uncletopia | Warsaw | 6 | Community","name_short":"waw-6","host":"waw-1.pl.uncletopia.com","port":27065,"enabled":true,"region":"eu","cc":"pl","latitude":52.2297,"longitude":21.017532,"reserved":0,"last_update":"0001-01-01T00:00:00Z","name_a2s":"Uncletopia | Warsaw | 6 | Community","protocol":17,"map":"workshop/pl_highwood_b19.ugc1769496557","folder":"tf","game":"Team Fortress","app_id":440,"player_count":0,"max_players":24,"Bots":0,"server_type":"Dedicated","server_os":"Linux","password":true,"vac":true,"version":"7961495","steam_id":85568392925397856,"keywords":["nocrits","nodmgspread","payload","uncletopia"],"game_id":440,"stv_port":27066,"stv_name":"Uncletopia | Warsaw | 6 | Community | STV","players":null}]}