{"status":true,"message":"","result":[{"server_id":9,"name":"Uncletopia | Atlanta | 1 | All Maps","name_short":"atl-1","host":"atl-1.us.uncletopia.com","port":27015,"enabled":true,"region":"us-east","cc":"us","latitude":33.753746,"longitude":-84.38633,"reserved":0,"last_update":"0001-01-01T00:00:00Z","name_a2s":"Uncletopia | Atlanta | 1 | All Maps","protocol":17,"map":"koth_highpass","folder":"tf","game":"Team Fortress","app_id":440,"player_count":0,"max_players":24,"Bots":0,"server_type":"Dedicated","server_os":"Linux","password":true,"vac":true,"version":"7961495","steam_id":85568392924469982,"keywords":["cp","nocrits","nodmgspread","uncletopia"],"game_id":440,"stv_port":27016,"stv_name":"Uncletopia | Atlanta | 1 | All Maps | STV","players":null},{"server_id":104,"name":"Uncletopia | Atlanta | 2 | All Maps","name_short":"atl-2","host":"atl-1.us.uncletopia.com","port":27025,"enabled":true,"region":"us-east","cc":"us","latitude":33.753746,"longitude":-84.38633,"reserved":0,"last_update":"0001-01-01T00:00:00Z","name_a2s":"Uncletopia | Atlanta | 2 | All Maps","protocol":17,"map":"koth_viaduct","folder":"tf","game":"Team Fortress","app_id":440,"player_count":0,"max_players":24,"Bots":0,"server_type":"Dedicated","server_os":"Linux","password":true,"vac":true,"version":"7961495","steam_id":85568392924469983,"keywords":["cp","nocrits","nodmgspread","uncletopia"],"game_id":440,"stv_port":27026,"stv_name":"Uncletopia | Atlanta | 2 | All Maps | STV","players":null},{"server_id":400,"name":"Uncletopia | Atlanta | 3 | All Maps","name_short":"atl-3","host":"atl-1.us.uncletopia.com","port":27035,"enabled":true,"region":"us-east","cc":"us","latitude":33.753746,"longitude":-84.38633,"reserved":0,"last_update":"0001-01-01T00:00:00Z","name_a2s":"Uncletopia | Atlanta | 3 | All Maps","protocol":17,"map":"koth_lakeside_final","folder":"tf","game":"Team Fortress","app_id":440,"player_count":0,"max_players":24,"Bots":0,"server_type":"Dedicated","server_os":"Linux","password":true,"vac":true,"version":"7961495","steam_id":85568392924515187,"keywords":["cp","nocrits","nodmgspread","uncletopia"],"game_id":440,"stv_port":27036,"stv_name":"Uncletopia | Atlanta | 3 | All Maps | STV","players":null},{"server_id":401,"name":"Uncletopia | Atlanta | 4 | Community","name_short":"atl-4","host":"atl-1.us.uncletopia.com","port":27045,"enabled":true,"region":"us-east","cc":"us","latitude":33.753746,"longitude":-84.38633,"reserved":0,"last_update":"0001-01-01T00:00:00Z","name_a2s":"Uncletopia | Atlanta | 4 | Community","protocol":17,"map":"cp_dustbowl","folder":"tf","game":"Team Fortress","app_id":440,"player_count":0,"max_players":24,"Bots":0,"server_type":"Dedicated","server_os":"Linux","password":true,"vac":true,"version":"7961495","steam_id":85568392924515188,"keywords":["cp","nocrits","nodmgspread","uncletopia"],"game_id":440,"stv_port":27046,"stv_name":"Uncletopia | Atlanta | 4 | Community | STV","players":null},{"server_id":2,"name":"Uncletopia | Chicago | 1 | All Maps","name_short":"chi-1","host":"chi-1.us.uncletopia.com","port":27015,"enabled":true,"region":"us-central","cc":"us","latitude":41.881832,"longitude":-87.62318,"reserved":0,"last_update":"0001-01-01T00:00:00Z","name_a2s":"Uncletopia | Chicago | 1 | All Maps","protocol":17,"map":"pl_swiftwater_final1","folder":"tf","game":"Team Fortress","app_id":440,"player_count":24,"max_players":24,"Bots":0,"server_type":"Dedicated","server_os":"Linux","password":true,"vac":true,"version":"7961495","steam_id":85568392924469984,"keywords":["nocrits","nodmgspread","payload","uncletopia"],"game_id":440,"stv_port":27016,"stv_name":"Uncletopia | Chicago | 1 | All Maps | STV","players":[{"user_id":198,"name":"Finn","steam_id":76561199038429679,"connected_time":3111000000000,"state":"active","ping":91},{"user_id":245,"name":"Brown_Dream","steam_id":76561198975766145,"connected_time":328000000000,"state":"active","ping":79},{"user_id":241,"name":"Enderneer","steam_id":76561198012136653,"connected_time":516000000000,"state":"active","ping":59},{"user_id":237,"name":"dunk","steam_id":76561198066114874,"connected_time":584000000000,"state":"active","ping":99},{"user_id":217,"name":"Gravity","steam_id":76561198066875223,"connected_time":1590000000000,"state":"active","ping":81},{"user_id":228,"name":"Whorse","steam_id":76561198114141445,"connected_time":1355000000000,"state":"active","ping":69},{"user_id":227,"name":"Person","steam_id":76561198093244204,"connected_time":1376000000000,"state":"active","ping":75},{"user_id":224,"name":"Punsequence64","steam_id":76561199201885917,"connected_time":1538000000000,"state":"active","ping":68},{"user_id":213,"name":"Yam Jazzy Jim","steam_id":76561198000788950,"connected_time":1621000000000,"state":"active","ping":65},{"user_id":248,"name":"Moonman327","steam_id":76561197992616059,"connected_time":186000000000,"state":"active","ping":67},{"user_id":249,"name":"Bread","steam_id":76561198309684977,"connected_time":152000000000,"state":"active","ping":72},{"user_id":105,"name":"Khun Aguero Agnes","steam_id":76561198055542546,"connected_time":10319000000000,"state":"active","ping":74},{"user_id":250,"name":"The Rock","steam_id":76561198433328517,"connected_time":137000000000,"state":"active","ping":66},{"user_id":210,"name":"josh","steam_id":76561198077902438,"connected_time":1625000000000,"state":"active","ping":76},{"user_id":243,"name":"._.","steam_id":76561198300316801,"connected_time":489000000000,"state":"active","ping":58},{"user_id":251,"name":"88","steam_id":76561198165212575,"connected_time":123000000000,"state":"active","ping":65},{"user_id":238,"name":"bonk","steam_id":76561199158470103,"connected_time":578000000000,"state":"active","ping":84},{"user_id":101,"name":"Rat Smoker","steam_id":76561198090419068,"connected_time":10902000000000,"state":"active","ping":127},{"user_id":229,"name":"Kataklysm","steam_id":76561199025168404,"connected_time":1278000000000,"state":"active","ping":83},{"user_id":191,"name":"DSG","steam_id":76561198207574152,"connected_time":3809000000000,"state":"active","ping":63},{"user_id":239,"name":"Freyja","steam_id":76561198207412177,"connected_time":569000000000,"state":"active","ping":76},{"user_id":246,"name":"stupid haver 2","steam_id":76561198044443985,"connected_time":266000000000,"state":"active","ping":84},{"user_id":247,"name":"Exo","steam_id":76561198076645019,"connected_time":214000000000,"state":"active","ping":66},{"user_id":222,"name":"firstlastmcgee","steam_id":76561198170187989,"connected_time":1562000000000,"state":"active","ping":66}]},{"server_id":106,"name":"Uncletopia | Chicago | 2 | All Maps","name_short":"chi-2","host":"chi-1.us.uncletopia.com","port":27025,"enabled":true,"region":"us-central","cc":"us","latitude":41.881832,"longitude":-87.62318,"reserved":0,"last_update":"0001-01-01T00:00:00Z","name_a2s":"Uncletopia | Chicago | 2 | All Maps","protocol":17,"map":"pl_rumford_event","folder":"tf","game":"Team Fortress","app_id":440,"player_count":17,"max_players":24,"Bots":0,"server_type":"Dedicated","server_os":"Linux","password":true,"vac":true,"version":"7961495","steam_id":85568392924469985,"keywords":["nocrits","nodmgspread","payload","uncletopia"],"game_id":440,"stv_port":27026,"stv_name":"Uncletopia | Chicago | 2 | All Maps | STV","players":[{"user_id":128,"name":"orphanslayer","steam_id":76561199476198856,"connected_time":87000000000,"state":"active","ping":88},{"user_id":132,"name":"Griffers","steam_id":76561198040782561,"connected_time":33000000000,"state":"active","ping":111},{"user_id":93,"name":"D.E.O","steam_id":76561198096992957,"connected_time":2443000000000,"state":"active","ping":122},{"user_id":117,"name":"=Silver=","steam_id":76561198292307127,"connected_time":724000000000,"state":"active","ping":93},{"user_id":124,"name":"Swedish Crowbar","steam_id":76561199105488936,"connected_time":521000000000,"state":"active","ping":149},{"user_id":80,"name":"Wuggler","steam_id":76561198409907417,"connected_time":2935000000000,"state":"active","ping":103},{"user_id":129,"name":"]HaS[ Mostly Harmless","steam_id":76561197995268718,"connected_time":66000000000,"state":"active","ping":73},{"user_id":67,"name":"Cuttle's Fish","steam_id":76561198280483257,"connected_time":4915000000000,"state":"active","ping":57},{"user_id":131,"name":"Candy Sparkles","steam_id":76561198126871264,"connected_time":50000000000,"state":"active","ping":78},{"user_id":133,"name":"jim bob","steam_id":76561198815547064,"connected_time":22000000000,"state":"active","ping":76},{"user_id":125,"name":"scamchez","steam_id":76561198447562701,"connected_time":486000000000,"state":"active","ping":113},{"user_id":110,"name":"Flowers","steam_id":76561198031669899,"connected_time":1348000000000,"state":"active","ping":76},{"user_id":127,"name":"soltuno","steam_id":76561198074430565,"connected_time":323000000000,"state":"active","ping":113},{"user_id":112,"name":"melon","steam_id":76561199014039702,"connected_time":1311000000000,"state":"active","ping":62},{"user_id":119,"name":"Dennis Hopper (real)","steam_id":76561198004065704,"connected_time":701000000000,"state":"active","ping":89},{"user_id":114,"name":"Try Gardening","steam_id":76561198120311340,"connected_time":1176000000000,"state":"active","ping":45},{"user_id":48,"name":"Rornir","steam_id":76561198081829615,"connected_time":6779000000000,"state":"active","ping":34}]},{"server_id":402,"name":"Uncletopia | Chicago | 3 | All Maps","name_short":"chi-3","host":"chi-1.us.uncletopia.com","port":27035,"enabled":true,"region":"us-central","cc":"us","latitude":41.881832,"longitude":-87.62318,"reserved":0,"last_update":"0001-01-01T00:00:00Z","name_a2s":"Uncletopia | Chicago | 3 | All Maps","protocol":17,"map":"cp_process_final","folder":"tf","game":"Team Fortress","app_id":440,"player_count":0,"max_players":24,"Bots":0,"server_type":"Dedicated","server_os":"Linux","password":true,"vac":true,"version":"7961495","steam_id":85568392924515191,"keywords":["cp","nocrits","nodmgspread","uncletopia"],"game_id":440,"stv_port":27036,"stv_name":"Uncletopia | Chicago | 3 | All Maps | STV","players":null},{"server_id":403,"name":"Uncletopia | Chicago | 4 | All Maps","name_short":"chi-4","host":"chi-1.us.uncletopia.com","port":27045,"enabled":true,"region":"us-central","cc":"us","latitude":41.881832,"longitude":-87.62318,"reserved":0,"last_update":"0001-01-01T00:00:00Z","name_a2s":"Uncletopia | Chicago | 4 | All Maps","protocol":17,"map":"pl_barnblitz","folder":"tf","game":"Team Fortress","app_id":440,"player_count":24,"max_players":24,"Bots":0,"server_type":"Dedicated","server_os":"Linux","password":true,"vac":true,"version":"7961495","steam_id":85568392924515193,"keywords":["nocrits","nodmgspread","payload","uncletopia"],"game_id":440,"stv_port":27046,"stv_name":"Uncletopia | Chicago | 4 | All Maps | STV","players":[{"user_id":230,"name":"Phocae {She/Her}","steam_id":76561199317584594,"connected_time":5311000000000,"state":"active","ping":62},{"user_id":281,"name":"the guy inside your printer","steam_id":76561198321313604,"connected_time":200000000000,"state":"active","ping":75},{"user_id":275,"name":"raini the R-A-T King","steam_id":76561198217444765,"connected_time":1104000000000,"state":"active","ping":79},{"user_id":232,"name":"mrappledumb","steam_id":76561199133590774,"connected_time":5089000000000,"state":"active","ping":88},{"user_id":209,"name":"The Great Eagle Scourge of 1822","steam_id":76561198325086209,"connected_time":6969000000000,"state":"active","ping":111},{"user_id":106,"name":"0100101101100001011100100110110","steam_id":76561198034028769,"connected_time":15147000000000,"state":"active","ping":64},{"user_id":267,"name":"Sergeant Snowflake","steam_id":76561198041474489,"connected_time":2640000000000,"state":"active","ping":57},{"user_id":277,"name":"femtofarad‚Ñ¢","steam_id":76561198308583053,"connected_time":615000000000,"state":"active","ping":84},{"user_id":279,"name":"Jericho von Generico","steam_id":76561198206139559,"connected_time":223000000000,"state":"active","ping":80},{"user_id":255,"name":"Bee_Pirate","steam_id":76561199000599111,"connected_time":3547000000000,"state":"active","ping":55},{"user_id":276,"name":"derz","steam_id":76561198010742216,"connected_time":1032000000000,"state":"active","ping":60},{"user_id":280,"name":"tarpit","steam_id":76561198258595884,"connected_time":208000000000,"state":"active","ping":60},{"user_id":235,"name":"Zomboboi_","steam_id":76561198139401380,"connected_time":5073000000000,"state":"active","ping":66},{"user_id":259,"name":"Sunflower","steam_id":76561198081223793,"connected_time":3275000000000,"state":"active","ping":60},{"user_id":248,"name":"Oopsie Daisy ‚ùã","steam_id":76561198042144492,"connected_time":4055000000000,"state":"active","ping":78},{"user_id":257,"name":"B.","steam_id":76561198040445907,"connected_time":3315000000000,"state":"active","ping":73},{"user_id":263,"name":"Lucon","steam_id":76561198067147724,"connected_time":3119000000000,"state":"active","ping":60},{"user_id":237,"name":"yoss","steam_id":76561198198855267,"connected_time":5060000000000,"state":"active","ping":86},{"user_id":212,"name":"Captain Emerald The Changeling","steam_id":76561198320651177,"connected_time":6852000000000,"state":"active","ping":62},{"user_id":272,"name":"bagel cream cheese","steam_id":76561198017954785,"connected_time":1713000000000,"state":"active","ping":88},{"user_id":268,"name":"johnny","steam_id":76561198855841242,"connected_time":2433000000000,"state":"active","ping":84},{"user_id":273,"name":"Sanshi","steam_id":76561198145823543,"connected_time":1711000000000,"state":"active","ping":155},{"user_id":197,"name":"Verse","steam_id":76561198996078605,"connected_time":7759000000000,"state":"active","ping":67},{"user_id":264,"name":"Aristotle Voulton","steam_id":76561198100174923,"connected_time":3103000000000,"state":"active","ping":79}]},{"server_id":36,"name":"Uncletopia | Chicago | 5 | All Maps","name_short":"chi-5","host":"chi-2.us.uncletopia.com","port":27015,"enabled":true,"region":"us-central","cc":"us","latitude":41.881832,"longitude":-87.62318,"reserved":0,"last_update":"0001-01-01T00:00:00Z","name_a2s":"Uncletopia | Chicago | 5 | All Maps","protocol":17,"map":"pl_barnblitz","folder":"tf","game":"Team Fortress","app_id":440,"player_count":0,"max_players":24,"Bots":0,"server_type":"Dedicated","server_os":"Linux","password":true,"vac":true,"version":"7961495","steam_id":85568392924866362,"keywords":["nocrits","nodmgspread","payload","uncletopia"],"game_id":440,"stv_port":27016,"stv_name":"Uncletopia | Chicago | 5 | All Maps | STV","players":null},{"server_id":37,"name":"Uncletopia | Chicago | 6 | All Maps","name_short":"chi-6","host":"chi-2.us.uncletopia.com","port":27025,"enabled":true,"region":"us-central","cc":"us","latitude":41.881832,"longitude":-87.62318,"reserved":0,"last_update":"0001-01-01T00:00:00Z","name_a2s":"Uncletopia | Chicago | 6 | All Maps","protocol":17,"map":"koth_harvest_final","folder":"tf","game":"Team Fortress","app_id":440,"player_count":23,"max_players":24,"Bots":0,"server_type":"Dedicated","server_os":"Linux","password":true,"vac":true,"version":"7961495","steam_id":85568392924866363,"keywords":["cp","nocrits","nodmgspread","uncletopia"],"game_id":440,"stv_port":27026,"stv_name":"Uncletopia | Chicago | 6 | All Maps | STV","players":[{"user_id":138,"name":"FIREPOW","steam_id":76561198111259720,"connected_time":1528000000000,"state":"spawning","ping":92},{"user_id":137,"name":"Terium","steam_id":76561198331234327,"connected_time":1618000000000,"state":"spawning","ping":44},{"user_id":95,"name":"Durt","steam_id":76561198073569962,"connected_time":4917000000000,"state":"spawning","ping":74},{"user_id":150,"name":"NotEnoughSoul","steam_id":76561198301468342,"connected_time":1141000000000,"state":"spawning","ping":99},{"user_id":103,"name":"Jarnold","steam_id":76561198090434537,"connected_time":4679000000000,"state":"spawning","ping":79},{"user_id":92,"name":"HalfDead","steam_id":76561198049700226,"connected_time":5409000000000,"state":"spawning","ping":87},{"user_id":136,"name":"[NAME-REDACTED]","steam_id":76561198035682975,"connected_time":1636000000000,"state":"spawning","ping":67},{"user_id":140,"name":"DADDY ESCANOR","steam_id":76561198075102565,"connected_time":1519000000000,"state":"spawning","ping":80},{"user_id":158,"name":"JerlBays","steam_id":76561198096773292,"connected_time":20000000000,"state":"spawning","ping":75},{"user_id":98,"name":"Kermit","steam_id":76561198034559979,"connected_time":4794000000000,"state":"spawning","ping":99},{"user_id":59,"name":"Asha'man","steam_id":76561198057913763,"connected_time":7468000000000,"state":"spawning","ping":57},{"user_id":141,"name":"money getting 1 percenter","steam_id":76561198012796388,"connected_time":1488000000000,"state":"spawning","ping":77},{"user_id":89,"name":"R{FITH}‚Ñ¢Infornando","steam_id":76561198094891050,"connected_time":5775000000000,"state":"spawning","ping":112},{"user_id":157,"name":"BEES","steam_id":76561198811545874,"connected_time":37000000000,"state":"spawning","ping":93},{"user_id":105,"name":"Petebros","steam_id":76561198892196829,"connected_time":4432000000000,"state":"spawning","ping":78},{"user_id":142,"name":"Da Big Bumby","steam_id":76561198044511738,"connected_time":1483000000000,"state":"spawning","ping":72},{"user_id":159,"name":"6t26j","steam_id":76561198278282836,"connected_time":5000000000,"state":"spawning","ping":82},{"user_id":144,"name":"Triple-Edged","steam_id":76561198308472155,"connected_time":1424000000000,"state":"spawning","ping":80},{"user_id":145,"name":"Stephhh","steam_id":76561199099876931,"connected_time":1422000000000,"state":"spawning","ping":94},{"user_id":135,"name":"dolph","steam_id":76561198341304816,"connected_time":1673000000000,"state":"spawning","ping":96},{"user_id":146,"name":"neet","steam_id":76561197968115168,"connected_time":1404000000000,"state":"spawning","ping":78},{"user_id":134,"name":"Syrus","steam_id":76561198079606024,"connected_time":1737000000000,"state":"spawning","ping":94},{"user_id":155,"name":"taylor_pink_blob","steam_id":76561198796412358,"connected_time":749000000000,"state":"spawning","ping":122}]},{"server_id":38,"name":"Uncletopia | Chicago | 7 | Stopwatch Beta","name_short":"chi-7","host":"chi-2.us.uncletopia.com","port":27035,"enabled":true,"region":"us-central","cc":"us","latitude":41.881832,"longitude":-87.62318,"reserved":0,"last_update":"0001-01-01T00:00:00Z","name_a2s":"Uncletopia | Chicago | 7 | Stopwatch Beta","protocol":17,"map":"pl_borneo","folder":"tf","game":"Team Fortress","app_id":440,"player_count":0,"max_players":24,"Bots":0,"server_type":"Dedicated","server_os":"Linux","password":true,"vac":true,"version":"7961495","steam_id":85568392924866364,"keywords":["nocrits","nodmgspread","payload","uncletopia"],"game_id":440,"stv_port":27036,"stv_name":"Uncletopia | Chicago | 7 | Stopwatch Beta | STV","players":null},{"server_id":39,"name":"Uncletopia | Chicago | 8 | Community","name_short":"chi-8","host":"chi-2.us.uncletopia.com","port":27045,"enabled":true,"region":"us-central","cc":"us","latitude":41.881832,"longitude":-87.62318,"reserved":0,"last_update":"0001-01-01T00:00:00Z","name_a2s":"Uncletopia | Chicago | 8 | Community","protocol":17,"map":"pl_barnblitz","folder":"tf","game":"Team Fortress","app_id":440,"player_count":0,"max_players":24,"Bots":0,"server_type":"Dedicated","server_os":"Linux","password":true,"vac":true,"version":"7961495","steam_id":85568392924866365,"keywords":["nocrits","nodmgspread","payload","uncletopia"],"game_id":440,"stv_port":27046,"stv_name":"Uncletopia | Chicago | 8 | Community | STV","players":null},{"server_id":8,"name":"Uncletopia | Dallas | 1 | All Maps","name_short":"dal-1","host":"dal-1.us.uncletopia.com","port":27015,"enabled":true,"region":"us-central","cc":"us","latitude":32.779167,"longitude":-96.80889,"reserved":0,"last_update":"0001-01-01T00:00:00Z","name_a2s":"Uncletopia | Dallas | 1 | All Maps","protocol":17,"map":"cp_egypt_final","folder":"tf","game":"Team Fortress","app_id":440,"player_count":24,"max_players":24,"Bots":0,"server_type":"Dedicated","server_os":"Linux","password":true,"vac":true,"version":"7961495","steam_id":85568392924469986,"keywords":["cp","nocrits","nodmgspread","uncletopia"],"game_id":440,"stv_port":27016,"stv_name":"Uncletopia | Dallas | 1 | All Maps | STV","players":[{"user_id":88,"name":"--_Cook_--","steam_id":76561198080855748,"connected_time":26000000000,"state":"spawning","ping":43},{"user_id":82,"name":"crashymicsplody","steam_id":76561198213916765,"connected_time":240000000000,"state":"active","ping":87},{"user_id":62,"name":"Klip","steam_id":76561198316254429,"connected_time":1299000000000,"state":"active","ping":53},{"user_id":71,"name":"GaiBerd","steam_id":76561198177100634,"connected_time":856000000000,"state":"active","ping":76},{"user_id":20,"name":"Soul of Cinder (aka SoC)","steam_id":76561198018958668,"connected_time":4008000000000,"state":"active","ping":76},{"user_id":83,"name":"Cipherlock | YT","steam_id":76561198075994493,"connected_time":239000000000,"state":"active","ping":79},{"user_id":84,"name":"Gimli","steam_id":76561198153729934,"connected_time":221000000000,"state":"active","ping":64},{"user_id":64,"name":"PickleChunks","steam_id":76561198055627980,"connected_time":1276000000000,"state":"active","ping":99},{"user_id":55,"name":"techdeck","steam_id":76561199022751661,"connected_time":1706000000000,"state":"active","ping":56},{"user_id":72,"name":"OriginalName The Pyro Main","steam_id":76561199087937797,"connected_time":825000000000,"state":"active","ping":59},{"user_id":76,"name":"Deshift00","steam_id":76561198058015192,"connected_time":414000000000,"state":"active","ping":86},{"user_id":73,"name":"Heathcliff","steam_id":76561198044288534,"connected_time":777000000000,"state":"active","ping":85},{"user_id":59,"name":"Coffeemelon","steam_id":76561198285891257,"connected_time":1544000000000,"state":"active","ping":103},{"user_id":67,"name":"Rappitor","steam_id":76561198105613110,"connected_time":1227000000000,"state":"active","ping":75},{"user_id":35,"name":"WeegeePJ","steam_id":76561199383362382,"connected_time":2959000000000,"state":"active","ping":85},{"user_id":78,"name":"Jonny4Balls","steam_id":76561198979333994,"connected_time":353000000000,"state":"active","ping":102},{"user_id":74,"name":"muffinoos","steam_id":76561199063285268,"connected_time":732000000000,"state":"active","ping":88},{"user_id":38,"name":"ADUMSAND","steam_id":76561198146955512,"connected_time":2845000000000,"state":"active","ping":85},{"user_id":85,"name":"Captain Underbelly","steam_id":76561198811270935,"connected_time":140000000000,"state":"active","ping":97},{"user_id":86,"name":"teratoma","steam_id":76561198179249054,"connected_time":124000000000,"state":"active","ping":89},{"user_id":41,"name":"Zetta","steam_id":76561198045710113,"connected_time":2775000000000,"state":"active","ping":83},{"user_id":47,"name":"Kid named download","steam_id":76561199192074448,"connected_time":2678000000000,"state":"active","ping":100},{"user_id":45,"name":"Vorpas Jabwak","steam_id":76561198112186064,"connected_time":2726000000000,"state":"active","ping":80},{"user_id":69,"name":"rapscallion","steam_id":76561198188722751,"connected_time":985000000000,"state":"active","ping":90}]},{"server_id":108,"name":"Uncletopia | Dallas | 2 | All Maps","name_short":"dal-2","host":"dal-1.us.uncletopia.com","port":27025,"enabled":true,"region":"us-central","cc":"us","latitude":32.779167,"longitude":-96.80889,"reserved":0,"last_update":"0001-01-01T00:00:00Z","name_a2s":"Uncletopia | Dallas | 2 | All Maps","protocol":17,"map":"koth_highpass","folder":"tf","game":"Team Fortress","app_id":440,"player_count":0,"max_players":24,"Bots":0,"server_type":"Dedicated","server_os":"Linux","password":true,"vac":true,"version":"7961495","steam_id":85568392924469988,"keywords":["cp","nocrits","nodmgspread","uncletopia"],"game_id":440,"stv_port":27026,"stv_name":"Uncletopia | Dallas | 2 | All Maps | STV","players":null},{"server_id":404,"name":"Uncletopia | Dallas | 3 | All Maps","name_short":"dal-3","host":"dal-1.us.uncletopia.com","port":27035,"enabled":true,"region":"us-central","cc":"us","latitude":32.779167,"longitude":-96.80889,"reserved":0,"last_update":"0001-01-01T00:00:00Z","name_a2s":"Uncletopia | Dallas | 3 | All Maps","protocol":17,"map":"pl_pier","folder":"tf","game":"Team Fortress","app_id":440,"player_count":0,"max_players":24,"Bots":0,"server_type":"Dedicated","server_os":"Linux","password":true,"vac":true,"version":"7961495","steam_id":85568392924515219,"keywords":["nocrits","nodmgspread","payload","uncletopia"],"game_id":440,"stv_port":27036,"stv_name":"Uncletopia | Dallas | 3 | All Maps | STV","players":null},{"server_id":405,"name":"Uncletopia | Dallas | 4 | Community","name_short":"dal-4","host":"dal-1.us.uncletopia.com","port":27045,"enabled":true,"region":"us-central","cc":"us","latitude":32.779167,"longitude":-96.80889,"reserved":0,"last_update":"0001-01-01T00:00:00Z","name_a2s":"Uncletopia | Dallas | 4 | Community","protocol":17,"map":"workshop/pl_highwood_b13.ugc1769496557","folder":"tf","game":"Team Fortress","app_id":440,"player_count":24,"max_players":24,"Bots":0,"server_type":"Dedicated","server_os":"Linux","password":true,"vac":true,"version":"7961495","steam_id":85568392924515220,"keywords":["nocrits","nodmgspread","payload","uncletopia"],"game_id":440,"stv_port":27046,"stv_name":"Uncletopia | Dallas | 4 | Community | STV","players":[{"user_id":101,"name":"harold","steam_id":76561199016285746,"connected_time":46000000000,"state":"spawning","ping":2141},{"user_id":60,"name":"Lock'd","steam_id":76561198170108230,"connected_time":2855000000000,"state":"active","ping":60},{"user_id":90,"name":"cousin dusty","steam_id":76561198001488041,"connected_time":567000000000,"state":"active","ping":61},{"user_id":7,"name":"QuartzGeek","steam_id":76561199011674698,"connected_time":6496000000000,"state":"active","ping":51},{"user_id":94,"name":"hoOmIN","steam_id":76561198334947079,"connected_time":461000000000,"state":"active","ping":70},{"user_id":12,"name":"Cheesemelt","steam_id":76561198008221847,"connected_time":5509000000000,"state":"active","ping":82},{"user_id":13,"name":"BluCoffee","steam_id":76561198214995967,"connected_time":5505000000000,"state":"active","ping":81},{"user_id":88,"name":"HalfGuest","steam_id":76561199045682328,"connected_time":728000000000,"state":"active","ping":106},{"user_id":89,"name":"CeLeb144","steam_id":76561199089907740,"connected_time":693000000000,"state":"active","ping":60},{"user_id":41,"name":"DragonKnight343","steam_id":76561199235854406,"connected_time":3742000000000,"state":"active","ping":116},{"user_id":45,"name":"Hawkborne","steam_id":76561198107249245,"connected_time":3356000000000,"state":"active","ping":67},{"user_id":23,"name":"1tsR0B0T","steam_id":76561198324525822,"connected_time":4865000000000,"state":"active","ping":62},{"user_id":69,"name":"A Gamer [F2P]","steam_id":76561198138712892,"connected_time":2161000000000,"state":"active","ping":42},{"user_id":34,"name":"Solaris","steam_id":76561198073166053,"connected_time":4036000000000,"state":"active","ping":85},{"user_id":92,"name":"Catticus","steam_id":76561198345819349,"connected_time":503000000000,"state":"active","ping":81},{"user_id":93,"name":"King Sans","steam_id":76561198294198517,"connected_time":483000000000,"state":"active","ping":75},{"user_id":72,"name":"denzell05","steam_id":76561198086987061,"connected_time":2057000000000,"state":"active","ping":77},{"user_id":49,"name":"dweamy","steam_id":76561198119181880,"connected_time":3301000000000,"state":"active","ping":71},{"user_id":85,"name":"Rin \"Hindwing\" Redtail","steam_id":76561199074865638,"connected_time":1196000000000,"state":"active","ping":57},{"user_id":98,"name":"NVM!!!","steam_id":76561198432721568,"connected_time":350000000000,"state":"active","ping":123},{"user_id":96,"name":"merica","steam_id":76561198018632307,"connected_time":432000000000,"state":"active","ping":90},{"user_id":97,"name":"IanTheAwsm","steam_id":76561198093031738,"connected_time":428000000000,"state":"active","ping":78},{"user_id":100,"name":"Wan Shi Tong","steam_id":76561198076441225,"connected_time":105000000000,"state":"active","ping":88},{"user_id":58,"name":"Neophyte","steam_id":76561198027183394,"connected_time":3070000000000,"state":"active","ping":89}]},{"server_id":5,"name":"Uncletopia | Frankfurt | 1 | All Maps","name_short":"frk-1","host":"frk-1.de.uncletopia.com","port":27015,"enabled":true,"region":"eu","cc":"de","latitude":50.110924,"longitude":8.682127,"reserved":0,"last_update":"0001-01-01T00:00:00Z","name_a2s":"Uncletopia | Frankfurt | 1 | All Maps","protocol":17,"map":"cp_dustbowl","folder":"tf","game":"Team Fortress","app_id":440,"player_count":24,"max_players":24,"Bots":0,"server_type":"Dedicated","server_os":"Linux","password":true,"vac":true,"version":"7961495","steam_id":85568392924469989,"keywords":["cp","nocrits","nodmgspread","uncletopia"],"game_id":440,"stv_port":27016,"stv_name":"Uncletopia | Frankfurt | 1 | All Maps | STV","players":[{"user_id":524,"name":"Sinnmeister","steam_id":76561198201091797,"connected_time":3042000000000,"state":"active","ping":61},{"user_id":530,"name":"boneez","steam_id":76561198186800982,"connected_time":2586000000000,"state":"active","ping":49},{"user_id":568,"name":"TriR–ò–å","steam_id":76561198119622375,"connected_time":81000000000,"state":"active","ping":72},{"user_id":566,"name":"weherio","steam_id":76561198394862508,"connected_time":432000000000,"state":"active","ping":86},{"user_id":481,"name":"realness","steam_id":76561199129226935,"connected_time":5953000000000,"state":"active","ping":90},{"user_id":482,"name":"gnarly business","steam_id":76561198832688767,"connected_time":5939000000000,"state":"active","ping":50},{"user_id":558,"name":"–•—É–π –≤ —Ä–æ—Ç Styles","steam_id":76561198992528373,"connected_time":517000000000,"state":"active","ping":72},{"user_id":549,"name":"walrus","steam_id":76561198167898969,"connected_time":1465000000000,"state":"active","ping":73},{"user_id":443,"name":"hyvakii705","steam_id":76561198086630552,"connected_time":9473000000000,"state":"active","ping":105},{"user_id":559,"name":"‚ù§Speedbump‚ù§","steam_id":76561198388690313,"connected_time":507000000000,"state":"active","ping":60},{"user_id":526,"name":"slifty","steam_id":76561198166682199,"connected_time":2975000000000,"state":"active","ping":69},{"user_id":544,"name":"Cocaine Cowboy","steam_id":76561198372742045,"connected_time":1662000000000,"state":"active","ping":52},{"user_id":491,"name":"‚ôÇ Animan ‚ôÇ Studios ‚ôÇ","steam_id":76561198308302932,"connected_time":5511000000000,"state":"active","ping":103},{"user_id":546,"name":"Lubi Animal","steam_id":76561199041620433,"connected_time":1569000000000,"state":"active","ping":48},{"user_id":543,"name":"JayKey","steam_id":76561198008847925,"connected_time":1861000000000,"state":"active","ping":45},{"user_id":518,"name":"B3REX","steam_id":76561198062701587,"connected_time":3372000000000,"state":"active","ping":74},{"user_id":531,"name":"taste Fanta through your balls","steam_id":76561198823497252,"connected_time":2542000000000,"state":"active","ping":50},{"user_id":561,"name":"Max","steam_id":76561198138959361,"connected_time":499000000000,"state":"active","ping":45},{"user_id":563,"name":"Daruun","steam_id":76561198019068781,"connected_time":478000000000,"state":"active","ping":75},{"user_id":567,"name":"Squash Nyderü•í Tarm Bryder\ufffd\ufffd\ufffd","steam_id":76561198300501653,"connected_time":328000000000,"state":"active","ping":45},{"user_id":514,"name":"steve","steam_id":76561198335143890,"connected_time":3610000000000,"state":"active","ping":64},{"user_id":551,"name":"Bayoyo","steam_id":76561199069591774,"connected_time":1419000000000,"state":"active","ping":71},{"user_id":501,"name":"Leah Kate","steam_id":76561198974207724,"connected_time":4750000000000,"state":"active","ping":105},{"user_id":542,"name":"Lukas","steam_id":76561198454286820,"connected_time":1996000000000,"state":"active","ping":78}]},{"server_id":110,"name":"Uncletopia | Frankfurt | 2 | All Maps","name_short":"frk-2","host":"frk-1.de.uncletopia.com","port":27025,"enabled":true,"region":"eu","cc":"de","latitude":50.110924,"longitude":8.682127,"reserved":0,"last_update":"0001-01-01T00:00:00Z","name_a2s":"Uncletopia | Frankfurt | 2 | All Maps","protocol":17,"map":"pl_badwater","folder":"tf","game":"Team Fortress","app_id":440,"player_count":24,"max_players":24,"Bots":0,"server_type":"Dedicated","server_os":"Linux","password":true,"vac":true,"version":"7961495","steam_id":85568392924469990,"keywords":["nocrits","nodmgspread","payload","uncletopia"],"game_id":440,"stv_port":27026,"stv_name":"Uncletopia | Frankfurt | 2 | All Maps | STV","players":[{"user_id":231,"name":"SVIFT danny","steam_id":76561198056930504,"connected_time":1854000000000,"state":"active","ping":45},{"user_id":230,"name":"hama","steam_id":76561198051497921,"connected_time":1881000000000,"state":"active","ping":63},{"user_id":257,"name":"dumdum","steam_id":76561198069430083,"connected_time":174000000000,"state":"active","ping":85},{"user_id":266,"name":"Fyann","steam_id":76561199139052789,"connected_time":82000000000,"state":"active","ping":69},{"user_id":246,"name":"HUGO","steam_id":76561198317134996,"connected_time":498000000000,"state":"active","ping":83},{"user_id":252,"name":"sapiens aim","steam_id":76561198078780040,"connected_time":434000000000,"state":"active","ping":55},{"user_id":255,"name":"TF2_F2P","steam_id":76561199065028772,"connected_time":240000000000,"state":"active","ping":71},{"user_id":238,"name":"draingangfan0465069500","steam_id":76561198219945364,"connected_time":972000000000,"state":"active","ping":83},{"user_id":204,"name":"Kotlet schabowy","steam_id":76561198048983509,"connected_time":3801000000000,"state":"active","ping":78},{"user_id":205,"name":"YARrICk.¬´+¬ª","steam_id":76561197990126485,"connected_time":3762000000000,"state":"active","ping":64},{"user_id":242,"name":"silves","steam_id":76561198106407598,"connected_time":584000000000,"state":"active","ping":74},{"user_id":232,"name":"rets_","steam_id":76561198061551392,"connected_time":1854000000000,"state":"active","ping":49},{"user_id":243,"name":"ZAZA SMOAKER","steam_id":76561198030853412,"connected_time":571000000000,"state":"active","ping":52},{"user_id":261,"name":"c4ctus","steam_id":76561198925655488,"connected_time":124000000000,"state":"active","ping":86},{"user_id":226,"name":"A Silent Kek","steam_id":76561198044084210,"connected_time":2233000000000,"state":"active","ping":85},{"user_id":206,"name":"Sleepy Dummy","steam_id":76561198122108762,"connected_time":3735000000000,"state":"active","ping":59},{"user_id":262,"name":"pickle peter","steam_id":76561198049312442,"connected_time":119000000000,"state":"active","ping":60},{"user_id":263,"name":"Sulejman______________________\ufffd","steam_id":76561198276847676,"connected_time":118000000000,"state":"active","ping":96},{"user_id":264,"name":"LainBizkit","steam_id":76561199200708626,"connected_time":117000000000,"state":"active","ping":111},{"user_id":208,"name":"tqla","steam_id":76561198073092585,"connected_time":3703000000000,"state":"active","ping":77},{"user_id":259,"name":"MEDiUM","steam_id":76561198112328561,"connected_time":142000000000,"state":"active","ping":74},{"user_id":233,"name":"kechu a d mussard","steam_id":76561198057722639,"connected_time":1825000000000,"state":"active","ping":60},{"user_id":265,"name":"The_Jaystone","steam_id":76561198126280691,"connected_time":106000000000,"state":"active","ping":46},{"user_id":250,"name":"tier 10 spellcaster","steam_id":76561198031573426,"connected_time":470000000000,"state":"active","ping":61}]},{"server_id":308,"name":"Uncletopia | Frankfurt | 3 | All Maps","name_short":"frk-3","host":"frk-1.de.uncletopia.com","port":27035,"enabled":true,"region":"eu","cc":"de","latitude":50.110924,"longitude":8.682127,"reserved":0,"last_update":"0001-01-01T00:00:00Z","name_a2s":"Uncletopia | Frankfurt | 3 | All Maps","protocol":17,"map":"koth_suijin","folder":"tf","game":"Team Fortress","app_id":440,"player_count":24,"max_players":24,"Bots":0,"server_type":"Dedicated","server_os":"Linux","password":true,"vac":true,"version":"7961495","steam_id":85568392924504274,"keywords":["cp","nocrits","nodmgspread","uncletopia"],"game_id":440,"stv_port":27036,"stv_name":"Uncletopia | Frankfurt | 3 | All Maps | STV","players":[{"user_id":53,"name":"Ennard777","steam_id":76561198965409493,"connected_time":3308000000000,"state":"active","ping":97},{"user_id":104,"name":"Lammet","steam_id":76561198149409729,"connected_time":227000000000,"state":"active","ping":76},{"user_id":71,"name":"eye","steam_id":76561198343328308,"connected_time":1868000000000,"state":"active","ping":61},{"user_id":102,"name":"twitch.tv/cockroachjones","steam_id":76561199070677866,"connected_time":299000000000,"state":"active","ping":76},{"user_id":73,"name":"Prome","steam_id":76561199050383942,"connected_time":1824000000000,"state":"active","ping":68},{"user_id":97,"name":"Utkunator","steam_id":76561198967463151,"connected_time":554000000000,"state":"active","ping":90},{"user_id":105,"name":"‚Ñ≥-√°-∆ä-a","steam_id":76561198359578979,"connected_time":186000000000,"state":"active","ping":154},{"user_id":89,"name":"Genesis","steam_id":76561198999652040,"connected_time":950000000000,"state":"active","ping":44},{"user_id":86,"name":"G_0N","steam_id":76561199403909211,"connected_time":1016000000000,"state":"active","ping":51},{"user_id":85,"name":"Nozzo","steam_id":76561198012367783,"connected_time":1049000000000,"state":"active","ping":75},{"user_id":101,"name":"Favi","steam_id":76561198013236935,"connected_time":390000000000,"state":"active","ping":63},{"user_id":83,"name":"Piteras","steam_id":76561198858532207,"connected_time":1331000000000,"state":"active","ping":70},{"user_id":82,"name":"Cabbch","steam_id":76561198045955679,"connected_time":1348000000000,"state":"active","ping":56},{"user_id":103,"name":"D√•vid","steam_id":76561198184135755,"connected_time":294000000000,"state":"active","ping":58},{"user_id":106,"name":"Plain Toast","steam_id":76561198451580251,"connected_time":177000000000,"state":"active","ping":171},{"user_id":98,"name":"ANGELFISH","steam_id":76561198027536466,"connected_time":552000000000,"state":"active","ping":103},{"user_id":79,"name":"Artemis","steam_id":76561198199091801,"connected_time":1597000000000,"state":"active","ping":44},{"user_id":100,"name":"Keroz1n","steam_id":76561197998681491,"connected_time":444000000000,"state":"active","ping":69},{"user_id":107,"name":"TJ1212","steam_id":76561199013575313,"connected_time":134000000000,"state":"active","ping":64},{"user_id":108,"name":"Borloxos","steam_id":76561198123110073,"connected_time":133000000000,"state":"active","ping":61},{"user_id":38,"name":"Massmarine","steam_id":76561198038696531,"connected_time":4248000000000,"state":"active","ping":111},{"user_id":99,"name":"Liko","steam_id":76561197994660517,"connected_time":550000000000,"state":"active","ping":82},{"user_id":69,"name":"SwLucie","steam_id":76561197969984656,"connected_time":1888000000000,"state":"active","ping":65},{"user_id":77,"name":"Talkkari","steam_id":76561198025327723,"connected_time":1774000000000,"state":"active","ping":61}]},{"server_id":309,"name":"Uncletopia | Frankfurt | 4 | All Maps","name_short":"frk-4","host":"frk-1.de.uncletopia.com","port":27045,"enabled":true,"region":"eu","cc":"de","latitude":50.110924,"longitude":8.682127,"reserved":0,"last_update":"0001-01-01T00:00:00Z","name_a2s":"Uncletopia | Frankfurt | 4 | All Maps","protocol":17,"map":"pl_badwater","folder":"tf","game":"Team Fortress","app_id":440,"player_count":24,"max_players":24,"Bots":0,"server_type":"Dedicated","server_os":"Linux","password":true,"vac":true,"version":"7961495","steam_id":85568392924504275,"keywords":["nocrits","nodmgspread","payload","uncletopia"],"game_id":440,"stv_port":27046,"stv_name":"Uncletopia | Frankfurt | 4 | All Maps | STV","players":[{"user_id":521,"name":"Technic","steam_id":76561198128096130,"connected_time":3195000000000,"state":"active","ping":44},{"user_id":553,"name":"Wardruna96","steam_id":76561199057083828,"connected_time":1229000000000,"state":"active","ping":75},{"user_id":542,"name":"Who's laughing?","steam_id":76561198013961148,"connected_time":1876000000000,"state":"active","ping":99},{"user_id":532,"name":"robbie","steam_id":76561198798195287,"connected_time":2116000000000,"state":"active","ping":56},{"user_id":526,"name":"Andrea","steam_id":76561199487380678,"connected_time":2859000000000,"state":"active","ping":86},{"user_id":509,"name":"szmen","steam_id":76561198072569764,"connected_time":4341000000000,"state":"active","ping":77},{"user_id":543,"name":"Faraday's Law","steam_id":76561198105385977,"connected_time":1852000000000,"state":"active","ping":62},{"user_id":535,"name":"Daddy-O","steam_id":76561198120101147,"connected_time":2081000000000,"state":"active","ping":94},{"user_id":490,"name":"Zerfesh","steam_id":76561198117534358,"connected_time":5789000000000,"state":"active","ping":89},{"user_id":508,"name":"GMsU | Smiley","steam_id":76561198121494414,"connected_time":4452000000000,"state":"active","ping":87},{"user_id":559,"name":"Lyell","steam_id":76561198350329389,"connected_time":736000000000,"state":"active","ping":86},{"user_id":530,"name":"Ajvej","steam_id":76561198857665836,"connected_time":2142000000000,"state":"active","ping":59},{"user_id":557,"name":"Fales","steam_id":76561198126124929,"connected_time":900000000000,"state":"active","ping":71},{"user_id":561,"name":"kallerannar","steam_id":76561199095701143,"connected_time":532000000000,"state":"active","ping":100},{"user_id":453,"name":"Slooshie","steam_id":76561198008749909,"connected_time":9499000000000,"state":"active","ping":61},{"user_id":556,"name":"Circlefly_","steam_id":76561198138960827,"connected_time":1002000000000,"state":"active","ping":45},{"user_id":548,"name":"fricked ur meemaw","steam_id":76561198017114970,"connected_time":1448000000000,"state":"active","ping":51},{"user_id":549,"name":"Not A Fake Uncletopia Server","steam_id":76561198152871288,"connected_time":1400000000000,"state":"active","ping":62},{"user_id":544,"name":"·¥ã·¥á ô·¥ú","steam_id":76561199006025475,"connected_time":1851000000000,"state":"active","ping":107},{"user_id":545,"name":"Warmerfall","steam_id":76561198812218923,"connected_time":1738000000000,"state":"active","ping":189},{"user_id":529,"name":"miiko22","steam_id":76561198296394929,"connected_time":2362000000000,"state":"active","ping":119},{"user_id":547,"name":"Random Weeb [YUE]","steam_id":76561198839212897,"connected_time":1631000000000,"state":"active","ping":110},{"user_id":552,"name":"DrExplosive","steam_id":76561198063678579,"connected_time":1347000000000,"state":"active","ping":52},{"user_id":469,"name":"Economic crisis","steam_id":76561198063562843,"connected_time":7272000000000,"state":"active","ping":66}]},{"server_id":310,"name":"Uncletopia | Frankfurt | 5 | All Maps","name_short":"frk-5","host":"frk-1.de.uncletopia.com","port":27055,"enabled":true,"region":"eu","cc":"de","latitude":50.110924,"longitude":8.682127,"reserved":0,"last_update":"0001-01-01T00:00:00Z","name_a2s":"Uncletopia | Frankfurt | 5 | All Maps","protocol":17,"map":"pl_snowycoast","folder":"tf","game":"Team Fortress","app_id":440,"player_count":24,"max_players":24,"Bots":0,"server_type":"Dedicated","server_os":"Linux","password":true,"vac":true,"version":"7961495","steam_id":85568392924504277,"keywords":["nocrits","nodmgspread","payload","uncletopia"],"game_id":440,"stv_port":27056,"stv_name":"Uncletopia | Frankfurt | 5 | All Maps | STV","players":[{"user_id":329,"name":"Snd","steam_id":76561198010816408,"connected_time":354000000000,"state":"active","ping":83},{"user_id":247,"name":"Wario","steam_id":76561198356089255,"connected_time":5819000000000,"state":"active","ping":59},{"user_id":326,"name":"zeppa114","steam_id":76561198065192734,"connected_time":966000000000,"state":"active","ping":62},{"user_id":327,"name":"Urfangonultasadana","steam_id":76561199389286151,"connected_time":940000000000,"state":"active","ping":97},{"user_id":335,"name":"LEGION","steam_id":76561198332255341,"connected_time":285000000000,"state":"active","ping":63},{"user_id":297,"name":"Erection Man","steam_id":76561198021714542,"connected_time":3544000000000,"state":"active","ping":59},{"user_id":302,"name":"sareena","steam_id":76561198810194062,"connected_time":3379000000000,"state":"active","ping":74},{"user_id":330,"name":"Wilderhammer","steam_id":76561198132133702,"connected_time":350000000000,"state":"active","ping":43},{"user_id":331,"name":"my mom","steam_id":76561199225201569,"connected_time":344000000000,"state":"active","ping":145},{"user_id":316,"name":"wlk-CZ","steam_id":76561197998898143,"connected_time":2020000000000,"state":"active","ping":68},{"user_id":294,"name":"Finnish Farmer","steam_id":76561198205366043,"connected_time":3966000000000,"state":"active","ping":95},{"user_id":328,"name":"Virgil","steam_id":76561198248786778,"connected_time":510000000000,"state":"active","ping":116},{"user_id":281,"name":"dochris.2","steam_id":76561198026478625,"connected_time":4547000000000,"state":"active","ping":45},{"user_id":336,"name":"Jonno","steam_id":76561198023443744,"connected_time":278000000000,"state":"active","ping":58},{"user_id":310,"name":"Arno","steam_id":76561198025329937,"connected_time":2930000000000,"state":"active","ping":59},{"user_id":324,"name":"Majami","steam_id":76561198054365738,"connected_time":1436000000000,"state":"active","ping":87},{"user_id":325,"name":"gosi","steam_id":76561198084111532,"connected_time":1357000000000,"state":"active","ping":58},{"user_id":338,"name":"mossfan1","steam_id":76561198087525446,"connected_time":175000000000,"state":"active","ping":90},{"user_id":333,"name":"shibe","steam_id":76561198859421176,"connected_time":338000000000,"state":"active","ping":74},{"user_id":285,"name":"ÔΩÑÔΩÖÔΩìÔΩãÔΩíÔΩÅÔΩô","steam_id":76561198805536170,"connected_time":4515000000000,"state":"active","ping":76},{"user_id":308,"name":"the one who grips","steam_id":76561198381106289,"connected_time":3040000000000,"state":"active","ping":76},{"user_id":301,"name":"Grey","steam_id":76561198187190267,"connected_time":3390000000000,"state":"active","ping":45},{"user_id":334,"name":"You slumber","steam_id":76561198344639692,"connected_time":332000000000,"state":"active","ping":94},{"user_id":337,"name":"Cak3","steam_id":76561198012633295,"connected_time":276000000000,"state":"active","ping":74}]},{"server_id":311,"name":"Uncletopia | Frankfurt | 6 | All Maps","name_short":"frk-6","host":"frk-1.de.uncletopia.com","port":27065,"enabled":true,"region":"eu","cc":"de","latitude":50.110924,"longitude":8.682127,"reserved":0,"last_update":"0001-01-01T00:00:00Z","name_a2s":"Uncletopia | Frankfurt | 6 | All Maps","protocol":17,"map":"pl_borneo","folder":"tf","game":"Team Fortress","app_id":440,"player_count":24,"max_players":24,"Bots":0,"server_type":"Dedicated","server_os":"Linux","password":true,"vac":true,"version":"7961495","steam_id":85568392924504278,"keywords":["nocrits","nodmgspread","payload","uncletopia"],"game_id":440,"stv_port":27066,"stv_name":"Uncletopia | Frankfurt | 6 | All Maps | STV","players":[{"user_id":435,"name":"DottorPuce","steam_id":76561198070413248,"connected_time":699000000000,"state":"active","ping":65},{"user_id":424,"name":"beam slut","steam_id":76561198162873354,"connected_time":1620000000000,"state":"active","ping":116},{"user_id":370,"name":"Brainless goga enjoyer","steam_id":76561198040509712,"connected_time":6422000000000,"state":"active","ping":61},{"user_id":347,"name":"guh","steam_id":76561198257158275,"connected_time":7269000000000,"state":"active","ping":130},{"user_id":434,"name":"cursed 60hz gameplay","steam_id":76561198033695429,"connected_time":802000000000,"state":"active","ping":55},{"user_id":414,"name":"Oceanic | tuesday maybe","steam_id":76561197979741827,"connected_time":1842000000000,"state":"active","ping":67},{"user_id":446,"name":"Krabs","steam_id":76561198161679477,"connected_time":127000000000,"state":"active","ping":60},{"user_id":445,"name":"Young SheckWes","steam_id":76561198018450489,"connected_time":164000000000,"state":"active","ping":64},{"user_id":428,"name":"Deckard","steam_id":76561198004704647,"connected_time":1171000000000,"state":"active","ping":77},{"user_id":352,"name":"ChibiYama","steam_id":76561198338543495,"connected_time":7159000000000,"state":"active","ping":95},{"user_id":431,"name":"MeSeaBass","steam_id":76561198390822393,"connected_time":1102000000000,"state":"active","ping":169},{"user_id":443,"name":"mashete","steam_id":76561198151829282,"connected_time":453000000000,"state":"active","ping":83},{"user_id":415,"name":"golfmastr","steam_id":76561198993144124,"connected_time":1794000000000,"state":"active","ping":71},{"user_id":404,"name":"Bob Sacamano","steam_id":76561198085610701,"connected_time":2900000000000,"state":"active","ping":82},{"user_id":416,"name":"Radovanko","steam_id":76561198333428302,"connected_time":1788000000000,"state":"active","ping":51},{"user_id":439,"name":"xiiski","steam_id":76561198152387747,"connected_time":602000000000,"state":"active","ping":93},{"user_id":426,"name":"Phat","steam_id":76561198272293356,"connected_time":1274000000000,"state":"active","ping":71},{"user_id":438,"name":"Latty451","steam_id":76561199250507255,"connected_time":613000000000,"state":"active","ping":84},{"user_id":418,"name":"Aven","steam_id":76561198974343597,"connected_time":1782000000000,"state":"active","ping":88},{"user_id":432,"name":"CLIF Bar Blueberry Crisp","steam_id":76561198060339391,"connected_time":1091000000000,"state":"active","ping":46},{"user_id":389,"name":"broodje_snor","steam_id":76561198186581081,"connected_time":4826000000000,"state":"active","ping":69},{"user_id":422,"name":"Kapitan Polska","steam_id":76561197968069413,"connected_time":1730000000000,"state":"active","ping":75},{"user_id":442,"name":"hichem","steam_id":76561198056197307,"connected_time":555000000000,"state":"active","ping":60},{"user_id":444,"name":"Weebot00","steam_id":76561199479204459,"connected_time":182000000000,"state":"active","ping":75}]},{"server_id":23,"name":"Uncletopia | Frankfurt | 7 | Stopwatch Beta","name_short":"frk-7","host":"frk-1.de.uncletopia.com","port":27075,"enabled":true,"region":"eu","cc":"de","latitude":50.110924,"longitude":8.682127,"reserved":0,"last_update":"0001-01-01T00:00:00Z","name_a2s":"Uncletopia | Frankfurt | 7 | Stopwatch Beta","protocol":17,"map":"pl_frontier_final","folder":"tf","game":"Team Fortress","app_id":440,"player_count":0,"max_players":24,"Bots":0,"server_type":"Dedicated","server_os":"Linux","password":true,"vac":true,"version":"7961495","steam_id":85568392924742827,"keywords":["nocrits","nodmgspread","payload","uncletopia"],"game_id":440,"stv_port":27076,"stv_name":"Uncletopia | Frankfurt | 7 | Stopwatch Beta | STV","players":null},{"server_id":24,"name":"Uncletopia | Frankfurt | 8 | Community","name_short":"frk-8","host":"frk-1.de.uncletopia.com","port":27085,"enabled":true,"region":"eu","cc":"de","latitude":50.110924,"longitude":8.682127,"reserved":0,"last_update":"0001-01-01T00:00:00Z","name_a2s":"Uncletopia | Frankfurt | 8 | Community","protocol":17,"map":"workshop/cp_reckoner_rc6.ugc674719999","folder":"tf","game":"Team Fortress","app_id":440,"player_count":0,"max_players":24,"Bots":0,"server_type":"Dedicated","server_os":"Linux","password":true,"vac":true,"version":"7961495","steam_id":85568392924742828,"keywords":["cp","nocrits","nodmgspread","uncletopia"],"game_id":440,"stv_port":27086,"stv_name":"Uncletopia | Frankfurt | 8 | Community | STV","players":null},{"server_id":202,"name":"Uncletopia | Hong Kong | 1 | All Maps","name_short":"hgk-1","host":"hgk-1.hk.uncletopia.com","port":27015,"enabled":true,"region":"asia","cc":"hk","latitude":22.302711,"longitude":114.177216,"reserved":0,"last_update":"0001-01-01T00:00:00Z","name_a2s":"Uncletopia | Hong Kong | 1 | All Maps","protocol":17,"map":"pl_frontier_final","folder":"tf","game":"Team Fortress","app_id":440,"player_count":0,"max_players":24,"Bots":0,"server_type":"Dedicated","server_os":"Linux","password":true,"vac":true,"version":"7961495","steam_id":85568392924494504,"keywords":["nocrits","nodmgspread","payload","uncletopia"],"game_id":440,"stv_port":27016,"stv_name":"Uncletopia | Hong Kong | 1 | All Maps | STV","players":null},{"server_id":1,"name":"Uncletopia | Los Angeles | 1 | All Maps","name_short":"lax-1","host":"lax-1.us.uncletopia.com","port":27015,"enabled":true,"region":"us-west","cc":"us","latitude":33.94279,"longitude":-118.41004,"reserved":0,"last_update":"0001-01-01T00:00:00Z","name_a2s":"Uncletopia | Los Angeles | 1 | All Maps","protocol":17,"map":"pl_badwater","folder":"tf","game":"Team Fortress","app_id":440,"player_count":24,"max_players":24,"Bots":0,"server_type":"Dedicated","server_os":"Linux","password":true,"vac":true,"version":"7961495","steam_id":85568392924469991,"keywords":["nocrits","nodmgspread","payload","uncletopia"],"game_id":440,"stv_port":27016,"stv_name":"Uncletopia | Los Angeles | 1 | All Maps | STV","players":[{"user_id":55,"name":"Stultus","steam_id":76561198115116367,"connected_time":1137000000000,"state":"active","ping":122},{"user_id":27,"name":"Sirmrmagoo","steam_id":76561198993190424,"connected_time":2361000000000,"state":"active","ping":99},{"user_id":20,"name":"se√±ora","steam_id":76561199353185652,"connected_time":2634000000000,"state":"active","ping":145},{"user_id":28,"name":"albert jones","steam_id":76561198404271005,"connected_time":2321000000000,"state":"active","ping":59},{"user_id":56,"name":"gucky","steam_id":76561198210951041,"connected_time":1116000000000,"state":"active","ping":183},{"user_id":12,"name":"Borgor Boi","steam_id":76561199061388107,"connected_time":5384000000000,"state":"active","ping":70},{"user_id":68,"name":"monkey squirts","steam_id":76561197983101644,"connected_time":219000000000,"state":"active","ping":45},{"user_id":22,"name":"Sailor","steam_id":76561199081983517,"connected_time":2437000000000,"state":"active","ping":83},{"user_id":23,"name":"Scout gaming (not real)","steam_id":76561199047638041,"connected_time":2415000000000,"state":"active","ping":83},{"user_id":54,"name":"kai","steam_id":76561198093818959,"connected_time":1326000000000,"state":"active","ping":79},{"user_id":69,"name":"RIP CHICO, COCO and FRANK :(","steam_id":76561198865172720,"connected_time":50000000000,"state":"active","ping":59},{"user_id":51,"name":"jayeskae","steam_id":76561198144220801,"connected_time":1696000000000,"state":"active","ping":76},{"user_id":61,"name":"jlsimon911","steam_id":76561199404849068,"connected_time":878000000000,"state":"active","ping":59},{"user_id":57,"name":"Dimple #TF2Center","steam_id":76561198980324190,"connected_time":1111000000000,"state":"active","ping":89},{"user_id":52,"name":"ouchie pain ow GOD AGHHG-","steam_id":76561198163022669,"connected_time":1691000000000,"state":"active","ping":120},{"user_id":36,"name":"Jango","steam_id":76561198084589742,"connected_time":2158000000000,"state":"active","ping":108},{"user_id":66,"name":"Obama","steam_id":76561198194065283,"connected_time":795000000000,"state":"active","ping":45},{"user_id":39,"name":"vfa","steam_id":76561198055729118,"connected_time":2079000000000,"state":"active","ping":78},{"user_id":62,"name":"Bleat","steam_id":76561198138678917,"connected_time":871000000000,"state":"active","ping":176},{"user_id":41,"name":"NippleSaw","steam_id":76561198164381638,"connected_time":2051000000000,"state":"active","ping":99},{"user_id":47,"name":"Skabbety","steam_id":76561198168044257,"connected_time":1862000000000,"state":"active","ping":67},{"user_id":49,"name":"CocoNUTGun","steam_id":76561198073086100,"connected_time":1787000000000,"state":"active","ping":102},{"user_id":64,"name":"Mr_sir132","steam_id":76561198125278692,"connected_time":858000000000,"state":"active","ping":67}]},{"server_id":112,"name":"Uncletopia | Los Angeles | 2 | All Maps","name_short":"lax-2","host":"lax-1.us.uncletopia.com","port":27025,"enabled":true,"region":"us-west","cc":"us","latitude":33.94279,"longitude":-118.41004,"reserved":0,"last_update":"0001-01-01T00:00:00Z","name_a2s":"Uncletopia | Los Angeles | 2 | All Maps","protocol":17,"map":"pl_badwater","folder":"tf","game":"Team Fortress","app_id":440,"player_count":0,"max_players":24,"Bots":0,"server_type":"Dedicated","server_os":"Linux","password":true,"vac":true,"version":"7961495","steam_id":85568392924469992,"keywords":["nocrits","nodmgspread","payload","uncletopia"],"game_id":440,"stv_port":27026,"stv_name":"Uncletopia | Los Angeles | 2 | All Maps | STV","players":null},{"server_id":324,"name":"Uncletopia | Los Angeles | 3 | All Maps","name_short":"lax-3","host":"lax-1.us.uncletopia.com","port":27035,"enabled":true,"region":"us-west","cc":"us","latitude":33.94279,"longitude":-118.41004,"reserved":0,"last_update":"0001-01-01T00:00:00Z","name_a2s":"Uncletopia | Los Angeles | 3 | All Maps","protocol":17,"map":"koth_nucleus","folder":"tf","game":"Team Fortress","app_id":440,"player_count":24,"max_players":24,"Bots":0,"server_type":"Dedicated","server_os":"Linux","password":true,"vac":true,"version":"7961495","steam_id":85568392924510198,"keywords":["cp","nocrits","nodmgspread","uncletopia"],"game_id":440,"stv_port":27036,"stv_name":"Uncletopia | Los Angeles | 3 | All Maps | STV","players":[{"user_id":234,"name":"shakoiwa","steam_id":76561199059441773,"connected_time":1029000000000,"state":"active","ping":97},{"user_id":233,"name":"The Undertaker","steam_id":76561198186304318,"connected_time":1090000000000,"state":"active","ping":131},{"user_id":239,"name":"suffrage for frogs","steam_id":76561198024661591,"connected_time":533000000000,"state":"active","ping":83},{"user_id":243,"name":"Sax","steam_id":76561198055425123,"connected_time":268000000000,"state":"active","ping":97},{"user_id":179,"name":"Sleuth","steam_id":76561198418288939,"connected_time":4796000000000,"state":"active","ping":69},{"user_id":245,"name":"weedfucker09","steam_id":76561198338739253,"connected_time":47000000000,"state":"active","ping":47},{"user_id":216,"name":"RoyalKaiser RBMK","steam_id":76561198886933897,"connected_time":1888000000000,"state":"active","ping":101},{"user_id":225,"name":"Npcutz64","steam_id":76561198320867336,"connected_time":1521000000000,"state":"active","ping":127},{"user_id":211,"name":"¬∞Creamy Gilligan","steam_id":76561198001569384,"connected_time":2055000000000,"state":"active","ping":107},{"user_id":224,"name":"Kazmirl","steam_id":76561198116008410,"connected_time":1549000000000,"state":"active","ping":76},{"user_id":244,"name":"MR SKELTAL","steam_id":76561198031089598,"connected_time":240000000000,"state":"active","ping":119},{"user_id":214,"name":"some nerd","steam_id":76561198297272878,"connected_time":1982000000000,"state":"active","ping":44},{"user_id":208,"name":"Dreamzapp","steam_id":76561199084936632,"connected_time":2415000000000,"state":"active","ping":69},{"user_id":228,"name":"Phat Bakey","steam_id":76561199048082940,"connected_time":1450000000000,"state":"active","ping":79},{"user_id":210,"name":"bonk","steam_id":76561198922763623,"connected_time":2085000000000,"state":"active","ping":47},{"user_id":238,"name":"Gabe","steam_id":76561198081153719,"connected_time":662000000000,"state":"active","ping":64},{"user_id":174,"name":"VixianUwU","steam_id":76561198948815060,"connected_time":5448000000000,"state":"active","ping":75},{"user_id":209,"name":"Shroomish","steam_id":76561199109440924,"connected_time":2170000000000,"state":"active","ping":83},{"user_id":34,"name":"DragonJimmy","steam_id":76561198272966565,"connected_time":16158000000000,"state":"active","ping":81},{"user_id":240,"name":"k1tty","steam_id":76561198869348268,"connected_time":506000000000,"state":"active","ping":45},{"user_id":237,"name":"Els","steam_id":76561198354718934,"connected_time":793000000000,"state":"active","ping":123},{"user_id":231,"name":"OmniMoto","steam_id":76561198091298557,"connected_time":1279000000000,"state":"active","ping":74},{"user_id":229,"name":"Buswolley","steam_id":76561197995205571,"connected_time":1394000000000,"state":"active","ping":58},{"user_id":232,"name":"Darkspiral","steam_id":76561198080807559,"connected_time":1279000000000,"state":"active","ping":47}]},{"server_id":25,"name":"Uncletopia | Los Angeles | 4 | Stopwatch Beta","name_short":"lax-4","host":"lax-1.us.uncletopia.com","port":27045,"enabled":true,"region":"us-west","cc":"us","latitude":33.94279,"longitude":-118.41004,"reserved":0,"last_update":"0001-01-01T00:00:00Z","name_a2s":"Uncletopia | Los Angeles | 4 | Stopwatch Beta","protocol":17,"map":"pl_swiftwater_final1","folder":"tf","game":"Team Fortress","app_id":440,"player_count":0,"max_players":24,"Bots":0,"server_type":"Dedicated","server_os":"Linux","password":true,"vac":true,"version":"7961495","steam_id":85568392924510199,"keywords":["nocrits","nodmgspread","payload","uncletopia"],"game_id":440,"stv_port":27046,"stv_name":"Uncletopia | Los Angeles | 4 | Stopwatch Beta | STV","players":null},{"server_id":11,"name":"Uncletopia | London | 1 | All Maps","name_short":"lon-1","host":"lon-1.uk.uncletopia.com","port":27015,"enabled":true,"region":"eu","cc":"gb","latitude":51.509865,"longitude":-0.118092,"reserved":0,"last_update":"0001-01-01T00:00:00Z","name_a2s":"Uncletopia | London | 1 | All Maps","protocol":17,"map":"koth_cascade","folder":"tf","game":"Team Fortress","app_id":440,"player_count":24,"max_players":24,"Bots":0,"server_type":"Dedicated","server_os":"Linux","password":true,"vac":true,"version":"7961495","steam_id":85568392924367362,"keywords":["cp","nocrits","nodmgspread","uncletopia"],"game_id":440,"stv_port":27016,"stv_name":"Uncletopia | London | 1 | All Maps | STV","players":[{"user_id":825,"name":"kanasta","steam_id":76561198206177349,"connected_time":208000000000,"state":"active","ping":54},{"user_id":791,"name":"MargoulGetron","steam_id":76561198020551698,"connected_time":3331000000000,"state":"active","ping":60},{"user_id":810,"name":"klizeƒái","steam_id":76561198073320621,"connected_time":1300000000000,"state":"active","ping":135},{"user_id":823,"name":"soar","steam_id":76561198010662796,"connected_time":303000000000,"state":"active","ping":47},{"user_id":790,"name":"Slifer the GiantEnemy SkyDragon","steam_id":76561198062255803,"connected_time":3351000000000,"state":"active","ping":73},{"user_id":734,"name":"Snake-chan","steam_id":76561199044755854,"connected_time":6802000000000,"state":"active","ping":78},{"user_id":774,"name":"Stan √Ålvarez (Satan)","steam_id":76561198045538223,"connected_time":4006000000000,"state":"active","ping":50},{"user_id":821,"name":"shadow wizard money gang","steam_id":76561199062586342,"connected_time":340000000000,"state":"active","ping":70},{"user_id":786,"name":"ein","steam_id":76561198152162834,"connected_time":3611000000000,"state":"active","ping":97},{"user_id":796,"name":"Anri Okita's Massive Milkers","steam_id":76561199186352720,"connected_time":2763000000000,"state":"active","ping":50},{"user_id":808,"name":"DUNDUNDUN","steam_id":76561199384813153,"connected_time":2024000000000,"state":"active","ping":66},{"user_id":822,"name":"Asfreild","steam_id":76561198055901120,"connected_time":327000000000,"state":"active","ping":73},{"user_id":818,"name":"Romultra","steam_id":76561198354105082,"connected_time":603000000000,"state":"active","ping":46},{"user_id":781,"name":"Qwerty","steam_id":76561198023525894,"connected_time":3757000000000,"state":"active","ping":94},{"user_id":784,"name":"Fiddlah","steam_id":76561198077916925,"connected_time":3648000000000,"state":"active","ping":45},{"user_id":809,"name":"krayy (she/her)","steam_id":76561198035037830,"connected_time":1734000000000,"state":"active","ping":51},{"user_id":817,"name":"Princess Peach","steam_id":76561198260272240,"connected_time":734000000000,"state":"active","ping":51},{"user_id":824,"name":"gayboi farti","steam_id":76561199121999431,"connected_time":297000000000,"state":"active","ping":40},{"user_id":811,"name":"Alexandre","steam_id":76561198121784446,"connected_time":1237000000000,"state":"active","ping":44},{"user_id":807,"name":"dsoik","steam_id":76561198397892856,"connected_time":2070000000000,"state":"active","ping":90},{"user_id":732,"name":"max","steam_id":76561198039534890,"connected_time":7320000000000,"state":"active","ping":61},{"user_id":819,"name":"Kiryu Kazuma","steam_id":76561198120390292,"connected_time":514000000000,"state":"active","ping":60},{"user_id":815,"name":"brtaba","steam_id":76561198796334790,"connected_time":1176000000000,"state":"active","ping":75},{"user_id":795,"name":"harper","steam_id":76561198188642265,"connected_time":2804000000000,"state":"active","ping":59}]},{"server_id":114,"name":"Uncletopia | London | 2 | All Maps","name_short":"lon-2","host":"lon-1.uk.uncletopia.com","port":27025,"enabled":true,"region":"eu","cc":"gb","latitude":51.509865,"longitude":-0.118092,"reserved":0,"last_update":"0001-01-01T00:00:00Z","name_a2s":"Uncletopia | London | 2 | All Maps","protocol":17,"map":"cp_steel","folder":"tf","game":"Team Fortress","app_id":440,"player_count":24,"max_players":24,"Bots":0,"server_type":"Dedicated","server_os":"Linux","password":true,"vac":true,"version":"7961495","steam_id":85568392924470941,"keywords":["cp","nocrits","nodmgspread","uncletopia"],"game_id":440,"stv_port":27026,"stv_name":"Uncletopia | London | 2 | All Maps | STV","players":[{"user_id":360,"name":"Praskaton1905","steam_id":76561199086026716,"connected_time":574000000000,"state":"active","ping":93},{"user_id":364,"name":"stun","steam_id":76561198276681691,"connected_time":2000000000,"state":"spawning","ping":44},{"user_id":363,"name":"pad6z23h8s","steam_id":76561198880756741,"connected_time":4000000000,"state":"spawning","ping":68},{"user_id":352,"name":"Plep","steam_id":76561198840259819,"connected_time":1269000000000,"state":"active","ping":55},{"user_id":332,"name":"lawn","steam_id":76561198001243486,"connected_time":2228000000000,"state":"active","ping":44},{"user_id":336,"name":"Lilypadio","steam_id":76561198090146457,"connected_time":1966000000000,"state":"active","ping":37},{"user_id":341,"name":"lunaire","steam_id":76561198163344452,"connected_time":1505000000000,"state":"active","ping":90},{"user_id":362,"name":"jumpbug jerry","steam_id":76561198963378933,"connected_time":13000000000,"state":"active","ping":36},{"user_id":347,"name":"enine","steam_id":76561198890193313,"connected_time":1394000000000,"state":"active","ping":55},{"user_id":338,"name":"CumMan","steam_id":76561198417963797,"connected_time":1760000000000,"state":"active","ping":159},{"user_id":357,"name":"fuck you!!!!!","steam_id":76561198858440051,"connected_time":1060000000000,"state":"active","ping":90},{"user_id":322,"name":"Lyra","steam_id":76561198043601838,"connected_time":2570000000000,"state":"active","ping":60},{"user_id":355,"name":"Kappa","steam_id":76561198089341471,"connected_time":1180000000000,"state":"active","ping":70},{"user_id":290,"name":"Buzz Chudson, MD","steam_id":76561198040565889,"connected_time":5603000000000,"state":"active","ping":153},{"user_id":361,"name":"Wattseyy","steam_id":76561198248567360,"connected_time":364000000000,"state":"active","ping":38},{"user_id":285,"name":"Vershal Smershal","steam_id":76561198116223995,"connected_time":5803000000000,"state":"active","ping":60},{"user_id":358,"name":"face beautiful lies","steam_id":76561198079277466,"connected_time":826000000000,"state":"active","ping":69},{"user_id":328,"name":"KierUK |","steam_id":76561198119447994,"connected_time":2374000000000,"state":"active","ping":49},{"user_id":292,"name":"Papa_dump","steam_id":76561199048394261,"connected_time":5553000000000,"state":"active","ping":147},{"user_id":359,"name":"emojis on my grave","steam_id":76561198088624259,"connected_time":632000000000,"state":"active","ping":65},{"user_id":339,"name":"Xydran","steam_id":76561198042397402,"connected_time":1680000000000,"state":"active","ping":45},{"user_id":350,"name":"Healix","steam_id":76561198130270161,"connected_time":1286000000000,"state":"active","ping":56},{"user_id":297,"name":"cactus_octoling","steam_id":76561198837919828,"connected_time":4657000000000,"state":"active","ping":106},{"user_id":351,"name":"WasnaG","steam_id":76561197994445955,"connected_time":1286000000000,"state":"active","ping":77}]},{"server_id":320,"name":"Uncletopia | London | 3 | All Maps","name_short":"lon-3","host":"lon-1.uk.uncletopia.com","port":27035,"enabled":true,"region":"eu","cc":"gb","latitude":51.509865,"longitude":-0.118092,"reserved":0,"last_update":"0001-01-01T00:00:00Z","name_a2s":"Uncletopia | London | 3 | All Maps","protocol":17,"map":"koth_harvest_final","folder":"tf","game":"Team Fortress","app_id":440,"player_count":25,"max_players":24,"Bots":0,"server_type":"Dedicated","server_os":"Linux","password":true,"vac":true,"version":"7961495","steam_id":85568392924510192,"keywords":["cp","nocrits","nodmgspread","uncletopia"],"game_id":440,"stv_port":27036,"stv_name":"Uncletopia | London | 3 | All Maps | STV","players":[{"user_id":132,"name":"Diver","steam_id":76561197971087141,"connected_time":2545000000000,"state":"active","ping":59},{"user_id":163,"name":"QR code 78","steam_id":76561198073749509,"connected_time":10000000000,"state":"active","ping":67},{"user_id":125,"name":"Average meme enjoyer","steam_id":76561199087566663,"connected_time":2646000000000,"state":"active","ping":87},{"user_id":154,"name":"I am a human","steam_id":76561198211511400,"connected_time":803000000000,"state":"active","ping":137},{"user_id":155,"name":"Brem","steam_id":76561198202349485,"connected_time":567000000000,"state":"active","ping":63},{"user_id":146,"name":"1couver","steam_id":76561198168553215,"connected_time":1220000000000,"state":"active","ping":94},{"user_id":135,"name":"DJ Sheeve","steam_id":76561198095910139,"connected_time":2198000000000,"state":"active","ping":158},{"user_id":151,"name":"executive producer larry david","steam_id":76561198057868438,"connected_time":1016000000000,"state":"active","ping":75},{"user_id":141,"name":"Fran","steam_id":76561199070516960,"connected_time":1527000000000,"state":"active","ping":75},{"user_id":116,"name":"bad_egg","steam_id":76561198870666753,"connected_time":3228000000000,"state":"active","ping":83},{"user_id":133,"name":"Nakisan","steam_id":76561198237652106,"connected_time":2531000000000,"state":"active","ping":48},{"user_id":136,"name":"1914","steam_id":76561198257383813,"connected_time":2175000000000,"state":"active","ping":56},{"user_id":160,"name":"Fridge","steam_id":76561198071665589,"connected_time":55000000000,"state":"active","ping":89},{"user_id":142,"name":"cowb√∂y","steam_id":76561198048990716,"connected_time":1491000000000,"state":"active","ping":96},{"user_id":118,"name":"Weegad Wobus","steam_id":76561199429562693,"connected_time":3207000000000,"state":"active","ping":70},{"user_id":161,"name":"Certified Hood pybro (ua)","steam_id":76561198970562699,"connected_time":41000000000,"state":"active","ping":59},{"user_id":162,"name":"Nero","steam_id":76561198339980449,"connected_time":22000000000,"state":"active","ping":70},{"user_id":153,"name":"gx71","steam_id":76561198035112358,"connected_time":935000000000,"state":"active","ping":44},{"user_id":164,"name":"8008135","steam_id":76561198045708372,"connected_time":5000000000,"state":"spawning","ping":92},{"user_id":156,"name":"LEGO brick #4070","steam_id":76561198125853536,"connected_time":561000000000,"state":"active","ping":81},{"user_id":121,"name":"Kenny_killer_69","steam_id":76561199465207725,"connected_time":3187000000000,"state":"active","ping":73},{"user_id":147,"name":"Virginty Rocks","steam_id":76561198040120219,"connected_time":1192000000000,"state":"active","ping":88},{"user_id":131,"name":"Dizzy","steam_id":76561198010192462,"connected_time":2595000000000,"state":"active","ping":59},{"user_id":144,"name":"snowycoast","steam_id":76561198346638308,"connected_time":1456000000000,"state":"active","ping":59},{"user_id":165,"name":"AftiksPL","steam_id":76561198875182686,"connected_time":5000000000,"state":"spawning","ping":152}]},{"server_id":321,"name":"Uncletopia | London | 4 | All Maps","name_short":"lon-4","host":"lon-1.uk.uncletopia.com","port":27045,"enabled":true,"region":"eu","cc":"gb","latitude":51.509865,"longitude":-0.118092,"reserved":0,"last_update":"0001-01-01T00:00:00Z","name_a2s":"Uncletopia | London | 4 | All Maps","protocol":17,"map":"pl_swiftwater_final1","folder":"tf","game":"Team Fortress","app_id":440,"player_count":24,"max_players":24,"Bots":0,"server_type":"Dedicated","server_os":"Linux","password":true,"vac":true,"version":"7961495","steam_id":85568392924510193,"keywords":["nocrits","nodmgspread","payload","uncletopia"],"game_id":440,"stv_port":27046,"stv_name":"Uncletopia | London | 4 | All Maps | STV","players":[{"user_id":353,"name":"Mineflow","steam_id":76561199073568116,"connected_time":1552000000000,"state":"active","ping":104},{"user_id":354,"name":"VEH-DEH-VEH","steam_id":76561198010978989,"connected_time":1529000000000,"state":"active","ping":73},{"user_id":336,"name":"IgorVitoriev","steam_id":76561198075723591,"connected_time":2786000000000,"state":"active","ping":72},{"user_id":350,"name":"Der_Gilb","steam_id":76561197960319580,"connected_time":1985000000000,"state":"active","ping":56},{"user_id":361,"name":"Spurt","steam_id":76561198078523852,"connected_time":438000000000,"state":"active","ping":55},{"user_id":357,"name":"akakez","steam_id":76561198095432821,"connected_time":1262000000000,"state":"active","ping":112},{"user_id":349,"name":"ü•ë Avocado ü•ë HM","steam_id":76561199007231261,"connected_time":2019000000000,"state":"active","ping":76},{"user_id":290,"name":"0xDEADBEEF","steam_id":76561199075416111,"connected_time":5405000000000,"state":"active","ping":81},{"user_id":234,"name":"Quiet Kid","steam_id":76561199134800446,"connected_time":9102000000000,"state":"active","ping":106},{"user_id":363,"name":"slippin' jimmy","steam_id":76561198161854243,"connected_time":16000000000,"state":"spawning","ping":112},{"user_id":309,"name":"TheLawYGO","steam_id":76561198024347260,"connected_time":3782000000000,"state":"active","ping":123},{"user_id":268,"name":"coella","steam_id":76561198442803577,"connected_time":6821000000000,"state":"active","ping":65},{"user_id":238,"name":":)","steam_id":76561198039964082,"connected_time":8989000000000,"state":"active","ping":60},{"user_id":362,"name":"Jon (ebic gamer)","steam_id":76561199380849468,"connected_time":304000000000,"state":"active","ping":62},{"user_id":360,"name":"static","steam_id":76561198836825741,"connected_time":547000000000,"state":"active","ping":58},{"user_id":279,"name":"Egor Pomidor","steam_id":76561199175688390,"connected_time":5744000000000,"state":"active","ping":82},{"user_id":297,"name":"Yoss","steam_id":76561198013655572,"connected_time":4901000000000,"state":"active","ping":45},{"user_id":335,"name":"7 7","steam_id":76561198190663138,"connected_time":2798000000000,"state":"active","ping":103},{"user_id":346,"name":"doctwoeight","steam_id":76561198153488940,"connected_time":2334000000000,"state":"active","ping":79},{"user_id":351,"name":"Curls","steam_id":76561198079039937,"connected_time":1560000000000,"state":"active","ping":61},{"user_id":274,"name":"TheEventGuy","steam_id":76561197972797744,"connected_time":6210000000000,"state":"active","ping":82},{"user_id":352,"name":"frosty","steam_id":76561198094560834,"connected_time":1560000000000,"state":"active","ping":54},{"user_id":319,"name":"rwota","steam_id":76561198385769722,"connected_time":3209000000000,"state":"active","ping":111},{"user_id":254,"name":"Boki","steam_id":76561198044553351,"connected_time":7687000000000,"state":"active","ping":75}]},{"server_id":21,"name":"Uncletopia | London | 5 | All Maps","name_short":"lon-5","host":"lon-1.uk.uncletopia.com","port":27055,"enabled":true,"region":"eu","cc":"gb","latitude":51.509865,"longitude":-0.118092,"reserved":0,"last_update":"0001-01-01T00:00:00Z","name_a2s":"Uncletopia | London | 5 | All Maps","protocol":17,"map":"pl_borneo","folder":"tf","game":"Team Fortress","app_id":440,"player_count":24,"max_players":24,"Bots":0,"server_type":"Dedicated","server_os":"Linux","password":true,"vac":true,"version":"7961495","steam_id":85568392924742829,"keywords":["nocrits","nodmgspread","payload","uncletopia"],"game_id":440,"stv_port":27056,"stv_name":"Uncletopia | London | 5 | All Maps | STV","players":[{"user_id":200,"name":"Mancomb Seepgood","steam_id":76561197974116369,"connected_time":2321000000000,"state":"active","ping":39},{"user_id":243,"name":"Ferrariracer5f1","steam_id":76561199229815098,"connected_time":922000000000,"state":"active","ping":54},{"user_id":174,"name":"Bruschetta","steam_id":76561198251927162,"connected_time":4072000000000,"state":"active","ping":71},{"user_id":179,"name":"marty","steam_id":76561198082934864,"connected_time":3802000000000,"state":"active","ping":69},{"user_id":231,"name":"DeterminedXD[HUN]","steam_id":76561199469006453,"connected_time":1407000000000,"state":"active","ping":103},{"user_id":246,"name":"M2rtRa","steam_id":76561198111036466,"connected_time":638000000000,"state":"active","ping":79},{"user_id":224,"name":"leo","steam_id":76561198090848620,"connected_time":1629000000000,"state":"active","ping":97},{"user_id":206,"name":"Mortified","steam_id":76561198010225496,"connected_time":2252000000000,"state":"active","ping":63},{"user_id":252,"name":"Javier dorsaless","steam_id":76561198179324075,"connected_time":249000000000,"state":"active","ping":62},{"user_id":244,"name":"Soup","steam_id":76561199081651572,"connected_time":868000000000,"state":"active","ping":60},{"user_id":250,"name":"Queso Johnson","steam_id":76561198421160187,"connected_time":327000000000,"state":"active","ping":56},{"user_id":251,"name":"spy among us","steam_id":76561198392537090,"connected_time":326000000000,"state":"active","ping":65},{"user_id":202,"name":"kat","steam_id":76561198879664338,"connected_time":2314000000000,"state":"active","ping":69},{"user_id":218,"name":"M√©bh √ìg MacT√≠re","steam_id":76561198346399624,"connected_time":2012000000000,"state":"active","ping":88},{"user_id":233,"name":"Sleapy","steam_id":76561198057793679,"connected_time":1337000000000,"state":"active","ping":62},{"user_id":238,"name":"VibeCat22","steam_id":76561199248330295,"connected_time":1206000000000,"state":"active","ping":56},{"user_id":210,"name":"Mono","steam_id":76561198114569493,"connected_time":2198000000000,"state":"active","ping":45},{"user_id":230,"name":"Ziy???","steam_id":76561197995765491,"connected_time":1504000000000,"state":"active","ping":52},{"user_id":226,"name":"TheBeardedM1G","steam_id":76561198040208946,"connected_time":1611000000000,"state":"active","ping":41},{"user_id":242,"name":"Dr.Nefario","steam_id":76561198874586020,"connected_time":950000000000,"state":"active","ping":75},{"user_id":245,"name":"FloatingEmpire3","steam_id":76561198809514696,"connected_time":686000000000,"state":"active","ping":69},{"user_id":213,"name":"Unknown Round Object","steam_id":76561198000359584,"connected_time":2177000000000,"state":"active","ping":50},{"user_id":240,"name":"Toaster1337","steam_id":76561198103706881,"connected_time":1089000000000,"state":"active","ping":65},{"user_id":171,"name":"fence_","steam_id":76561198150386379,"connected_time":4317000000000,"state":"active","ping":43}]},{"server_id":22,"name":"Uncletopia | London | 6 | All Maps","name_short":"lon-6","host":"lon-1.uk.uncletopia.com","port":27065,"enabled":true,"region":"eu","cc":"gb","latitude":51.509865,"longitude":-0.118092,"reserved":0,"last_update":"0001-01-01T00:00:00Z","name_a2s":"Uncletopia | London | 6 | All Maps","protocol":17,"map":"cp_sunshine","folder":"tf","game":"Team Fortress","app_id":440,"player_count":22,"max_players":24,"Bots":0,"server_type":"Dedicated","server_os":"Linux","password":true,"vac":true,"version":"7961495","steam_id":85568392924742830,"keywords":["cp","nocrits","nodmgspread","uncletopia"],"game_id":440,"stv_port":27066,"stv_name":"Uncletopia | London | 6 | All Maps | STV","players":[{"user_id":269,"name":"pajakala","steam_id":76561198271641525,"connected_time":1109000000000,"state":"active","ping":71},{"user_id":213,"name":"Forklift Certified","steam_id":76561198001816577,"connected_time":5617000000000,"state":"active","ping":86},{"user_id":288,"name":"Mafew","steam_id":76561198119993886,"connected_time":103000000000,"state":"active","ping":59},{"user_id":283,"name":"Dirge","steam_id":76561198092203228,"connected_time":642000000000,"state":"active","ping":55},{"user_id":284,"name":"I AM DOT","steam_id":76561198354118090,"connected_time":391000000000,"state":"active","ping":80},{"user_id":281,"name":"Warrior555MainsGanon","steam_id":76561198388627786,"connected_time":797000000000,"state":"active","ping":67},{"user_id":211,"name":"Can I get a Beep Beep","steam_id":76561198010730967,"connected_time":5721000000000,"state":"active","ping":67},{"user_id":282,"name":"Captain Puddleboat","steam_id":76561198053913970,"connected_time":789000000000,"state":"active","ping":55},{"user_id":276,"name":"Unstable Goat","steam_id":76561197985788557,"connected_time":1012000000000,"state":"active","ping":85},{"user_id":228,"name":"Bottle O' Scrumpy","steam_id":76561199244250562,"connected_time":4658000000000,"state":"active","ping":100},{"user_id":289,"name":"Lyrista","steam_id":76561198136435129,"connected_time":54000000000,"state":"active","ping":71},{"user_id":285,"name":"kee.wun","steam_id":76561198025293098,"connected_time":155000000000,"state":"active","ping":54},{"user_id":290,"name":"mohemmedmokhter2005","steam_id":76561199197650506,"connected_time":44000000000,"state":"active","ping":112},{"user_id":286,"name":"The Demoman","steam_id":76561199101935057,"connected_time":128000000000,"state":"active","ping":106},{"user_id":291,"name":"Simon","steam_id":76561199122086348,"connected_time":44000000000,"state":"active","ping":111},{"user_id":279,"name":"Blar","steam_id":76561198042438229,"connected_time":948000000000,"state":"active","ping":62},{"user_id":287,"name":"quickfast","steam_id":76561199438900919,"connected_time":123000000000,"state":"active","ping":43},{"user_id":277,"name":"Naeso","steam_id":76561198068602498,"connected_time":1001000000000,"state":"active","ping":44},{"user_id":232,"name":"Popop","steam_id":76561198004793795,"connected_time":4483000000000,"state":"active","ping":48},{"user_id":236,"name":"Ch4bby","steam_id":76561198058792875,"connected_time":4361000000000,"state":"active","ping":56},{"user_id":246,"name":"georgeiscool3","steam_id":76561199116151412,"connected_time":3427000000000,"state":"active","ping":67},{"user_id":258,"name":"smookie20","steam_id":76561198435986481,"connected_time":1789000000000,"state":"active","ping":58}]},{"server_id":40,"name":"Uncletopia | London | 7 | No Payload","name_short":"lon-7","host":"lon-1.uk.uncletopia.com","port":27075,"enabled":true,"region":"eu","cc":"gb","latitude":51.509865,"longitude":-0.118092,"reserved":0,"last_update":"0001-01-01T00:00:00Z","name_a2s":"Uncletopia | London | 7 | No Payload","protocol":17,"map":"ctf_doublecross","folder":"tf","game":"Team Fortress","app_id":440,"player_count":20,"max_players":24,"Bots":0,"server_type":"Dedicated","server_os":"Linux","password":true,"vac":true,"version":"7961495","steam_id":85568392924964314,"keywords":["ctf","nocrits","nodmgspread","uncletopia"],"game_id":440,"stv_port":27076,"stv_name":"Uncletopia | London | 7 | No Payload | STV","players":[{"user_id":241,"name":"Na'vi Misato (by popular demand","steam_id":76561198130860698,"connected_time":1082000000000,"state":"active","ping":57},{"user_id":227,"name":"HADID_sex_god","steam_id":76561198302623594,"connected_time":1973000000000,"state":"active","ping":98},{"user_id":239,"name":"debil","steam_id":76561198160047415,"connected_time":1242000000000,"state":"active","ping":76},{"user_id":259,"name":"Danilka","steam_id":76561199222725839,"connected_time":87000000000,"state":"active","ping":126},{"user_id":229,"name":"Kuksa","steam_id":76561199487581915,"connected_time":1956000000000,"state":"active","ping":159},{"user_id":213,"name":"fischman","steam_id":76561199064142670,"connected_time":2695000000000,"state":"active","ping":63},{"user_id":214,"name":"mountainkug","steam_id":76561199491802535,"connected_time":2680000000000,"state":"active","ping":135},{"user_id":258,"name":"Cosmetic brain","steam_id":76561198055936410,"connected_time":131000000000,"state":"active","ping":75},{"user_id":244,"name":"dumb idiot moron","steam_id":76561198053929269,"connected_time":966000000000,"state":"active","ping":92},{"user_id":237,"name":"xXx Rexxie Rose xXx","steam_id":76561198087993931,"connected_time":1350000000000,"state":"active","ping":44},{"user_id":246,"name":"Mak≈Çowicz","steam_id":76561198281831506,"connected_time":943000000000,"state":"active","ping":99},{"user_id":257,"name":"Lassie","steam_id":76561198131924713,"connected_time":361000000000,"state":"active","ping":60},{"user_id":254,"name":"Lone Stranger","steam_id":76561198994639500,"connected_time":590000000000,"state":"active","ping":89},{"user_id":248,"name":"KaZa","steam_id":76561198106106803,"connected_time":820000000000,"state":"active","ping":77},{"user_id":250,"name":"dansal","steam_id":76561197997042510,"connected_time":694000000000,"state":"active","ping":155},{"user_id":181,"name":"Medical Approval","steam_id":76561198028354201,"connected_time":5067000000000,"state":"active","ping":55},{"user_id":131,"name":"wes","steam_id":76561198067000117,"connected_time":8171000000000,"state":"active","ping":70},{"user_id":255,"name":"SenitorD","steam_id":76561198088916978,"connected_time":511000000000,"state":"active","ping":54},{"user_id":252,"name":"Pirate duck","steam_id":76561198373484722,"connected_time":654000000000,"state":"active","ping":75},{"user_id":256,"name":"_Shkoot","steam_id":76561198318170398,"connected_time":509000000000,"state":"active","ping":66}]},{"server_id":41,"name":"Uncletopia | London | 8 | Community","name_short":"lon-8","host":"lon-1.uk.uncletopia.com","port":27085,"enabled":true,"region":"eu","cc":"gb","latitude":51.509865,"longitude":-0.118092,"reserved":0,"last_update":"0001-01-01T00:00:00Z","name_a2s":"Uncletopia | London | 8 | Community","protocol":17,"map":"workshop/koth_product_final.ugc454272353","folder":"tf","game":"Team Fortress","app_id":440,"player_count":0,"max_players":24,"Bots":0,"server_type":"Dedicated","server_os":"Linux","password":true,"vac":true,"version":"7961495","steam_id":85568392924964315,"keywords":["cp","nocrits","nodmgspread","uncletopia"],"game_id":440,"stv_port":27086,"stv_name":"Uncletopia | London | 8 | Community | STV","players":null},{"server_id":300,"name":"Uncletopia | Montr√©al | 1 | All Maps","name_short":"mtl-1","host":"mtl-1.ca.uncletopia.com","port":27015,"enabled":true,"region":"us-east","cc":"ca","latitude":45.50889,"longitude":-73.56167,"reserved":0,"last_update":"0001-01-01T00:00:00Z","name_a2s":"","protocol":0,"map":"","folder":"","game":"","app_id":0,"player_count":0,"max_players":0,"Bots":0,"server_type":"","server_os":"","password":false,"vac":false,"version":"","steam_id":0,"keywords":null,"game_id":0,"stv_port":0,"stv_name":"","players":null},{"server_id":301,"name":"Uncletopia | Montr√©al | 2 | All Maps","name_short":"mtl-2","host":"mtl-1.ca.uncletopia.com","port":27025,"enabled":true,"region":"us-east","cc":"ca","latitude":45.50889,"longitude":-73.56167,"reserved":0,"last_update":"0001-01-01T00:00:00Z","name_a2s":"","protocol":0,"map":"","folder":"","game":"","app_id":0,"player_count":0,"max_players":0,"Bots":0,"server_type":"","server_os":"","password":false,"vac":false,"version":"","steam_id":0,"keywords":null,"game_id":0,"stv_port":0,"stv_name":"","players":null},{"server_id":302,"name":"Uncletopia | Montr√©al | 3 | All Maps","name_short":"mtl-3","host":"mtl-1.ca.uncletopia.com","port":27035,"enabled":true,"region":"us-east","cc":"ca","latitude":45.50889,"longitude":-73.56167,"reserved":0,"last_update":"0001-01-01T00:00:00Z","name_a2s":"","protocol":0,"map":"","folder":"","game":"","app_id":0,"player_count":0,"max_players":0,"Bots":0,"server_type":"","server_os":"","password":false,"vac":false,"version":"","steam_id":0,"keywords":null,"game_id":0,"stv_port":0,"stv_name":"","players":null},{"server_id":303,"name":"Uncletopia | Montr√©al | 4 | No Payload","name_short":"mtl-4","host":"mtl-1.ca.uncletopia.com","port":27045,"enabled":true,"region":"us-east","cc":"ca","latitude":45.50889,"longitude":-73.56167,"reserved":0,"last_update":"0001-01-01T00:00:00Z","name_a2s":"","protocol":0,"map":"","folder":"","game":"","app_id":0,"player_count":0,"max_players":0,"Bots":0,"server_type":"","server_os":"","password":false,"vac":false,"version":"","steam_id":0,"keywords":null,"game_id":0,"stv_port":0,"stv_name":"","players":null},{"server_id":13,"name":"Uncletopia | New York City | 1 | All Maps","name_short":"nyc-1","host":"nyc-1.us.uncletopia.com","port":27015,"enabled":true,"region":"us-east","cc":"us","latitude":40.73061,"longitude":-73.93524,"reserved":0,"last_update":"0001-01-01T00:00:00Z","name_a2s":"Uncletopia | New York City | 1 | All Maps","protocol":17,"map":"cp_dustbowl","folder":"tf","game":"Team Fortress","app_id":440,"player_count":21,"max_players":24,"Bots":0,"server_type":"Dedicated","server_os":"Linux","password":true,"vac":true,"version":"7961495","steam_id":85568392924469993,"keywords":["cp","nocrits","nodmgspread","uncletopia"],"game_id":440,"stv_port":27016,"stv_name":"Uncletopia | New York City | 1 | All Maps | STV","players":[{"user_id":45,"name":"Bi Panic","steam_id":76561198426306122,"connected_time":9574000000000,"state":"active","ping":51},{"user_id":185,"name":"pabloramirez1998@gmail.com","steam_id":76561198969675306,"connected_time":82000000000,"state":"active","ping":48},{"user_id":174,"name":"TheKoolaidMan","steam_id":76561199013189727,"connected_time":943000000000,"state":"active","ping":69},{"user_id":141,"name":"epsilene","steam_id":76561198027468624,"connected_time":3182000000000,"state":"active","ping":33},{"user_id":176,"name":"Citron","steam_id":76561198278687374,"connected_time":906000000000,"state":"active","ping":59},{"user_id":167,"name":"googa","steam_id":76561198133130452,"connected_time":1176000000000,"state":"active","ping":33},{"user_id":136,"name":"Zeph","steam_id":76561198247377556,"connected_time":3543000000000,"state":"active","ping":86},{"user_id":175,"name":"Big Dundle","steam_id":76561198275625984,"connected_time":926000000000,"state":"active","ping":62},{"user_id":179,"name":"el wiwi","steam_id":76561198857304367,"connected_time":821000000000,"state":"active","ping":63},{"user_id":139,"name":"Mushmann","steam_id":76561199036634776,"connected_time":3265000000000,"state":"active","ping":110},{"user_id":155,"name":"Mr.Electric","steam_id":76561198142293291,"connected_time":1429000000000,"state":"active","ping":56},{"user_id":142,"name":"Poi","steam_id":76561198176914898,"connected_time":3164000000000,"state":"active","ping":88},{"user_id":138,"name":"SharpStabbyThing","steam_id":76561199059465912,"connected_time":3378000000000,"state":"active","ping":87},{"user_id":156,"name":"Xx_gam3rberg_xX","steam_id":76561199035781025,"connected_time":1424000000000,"state":"active","ping":68},{"user_id":181,"name":"BroBama","steam_id":76561198203732587,"connected_time":742000000000,"state":"active","ping":92},{"user_id":123,"name":"Chub","steam_id":76561198380637611,"connected_time":4473000000000,"state":"active","ping":91},{"user_id":130,"name":"Jonah Gaming","steam_id":76561198040969743,"connected_time":4024000000000,"state":"active","ping":61},{"user_id":160,"name":"Neacrock","steam_id":76561199178338856,"connected_time":1375000000000,"state":"active","ping":49},{"user_id":158,"name":"custodian","steam_id":76561198058793778,"connected_time":1423000000000,"state":"active","ping":51},{"user_id":132,"name":"lightduck","steam_id":76561197987768292,"connected_time":4002000000000,"state":"active","ping":114},{"user_id":153,"name":"Ronin","steam_id":76561198095441744,"connected_time":1803000000000,"state":"active","ping":77}]},{"server_id":14,"name":"Uncletopia | New York City | 2 | All Maps","name_short":"nyc-2","host":"nyc-1.us.uncletopia.com","port":27025,"enabled":true,"region":"us-east","cc":"us","latitude":40.73061,"longitude":-73.93524,"reserved":0,"last_update":"0001-01-01T00:00:00Z","name_a2s":"Uncletopia | New York City | 2 | All Maps","protocol":17,"map":"koth_lakeside_final","folder":"tf","game":"Team Fortress","app_id":440,"player_count":0,"max_players":24,"Bots":0,"server_type":"Dedicated","server_os":"Linux","password":true,"vac":true,"version":"7961495","steam_id":85568392924469994,"keywords":["cp","nocrits","nodmgspread","uncletopia"],"game_id":440,"stv_port":27026,"stv_name":"Uncletopia | New York City | 2 | All Maps | STV","players":null},{"server_id":15,"name":"Uncletopia | New York City | 3 | Stopwatch Beta","name_short":"nyc-3","host":"nyc-1.us.uncletopia.com","port":27035,"enabled":true,"region":"us-east","cc":"us","latitude":40.73061,"longitude":-73.93524,"reserved":0,"last_update":"0001-01-01T00:00:00Z","name_a2s":"Uncletopia | New York City | 3 | Stopwatch Beta","protocol":17,"map":"pl_borneo","folder":"tf","game":"Team Fortress","app_id":440,"player_count":0,"max_players":24,"Bots":0,"server_type":"Dedicated","server_os":"Linux","password":true,"vac":true,"version":"7961495","steam_id":85568392924742820,"keywords":["nocrits","nodmgspread","payload","uncletopia"],"game_id":440,"stv_port":27036,"stv_name":"Uncletopia | New York City | 3 | Stopwatch Beta | STV","players":null},{"server_id":16,"name":"Uncletopia | New York City | 4 | Community","name_short":"nyc-4","host":"nyc-1.us.uncletopia.com","port":27045,"enabled":true,"region":"us-east","cc":"us","latitude":40.73061,"longitude":-73.93524,"reserved":0,"last_update":"0001-01-01T00:00:00Z","name_a2s":"Uncletopia | New York City | 4 | Community","protocol":17,"map":"workshop/koth_slaughter_rc1.ugc1712845210","folder":"tf","game":"Team Fortress","app_id":440,"player_count":0,"max_players":24,"Bots":0,"server_type":"Dedicated","server_os":"Linux","password":true,"vac":true,"version":"7961495","steam_id":85568392924742821,"keywords":["cp","nocrits","nodmgspread","uncletopia"],"game_id":440,"stv_port":27046,"stv_name":"Uncletopia | New York City | 4 | Community | STV","players":null},{"server_id":142,"name":"Uncletopia | S√£o Paulo | 1 | All Maps","name_short":"sao-1","host":"sao-1.br.uncletopia.com","port":27015,"enabled":true,"region":"sa","cc":"br","latitude":-23.533773,"longitude":-46.62529,"reserved":0,"last_update":"0001-01-01T00:00:00Z","name_a2s":"Uncletopia | S√£o Paulo | 1 | All Maps","protocol":17,"map":"cp_mountainlab","folder":"tf","game":"Team Fortress","app_id":440,"player_count":0,"max_players":24,"Bots":0,"server_type":"Dedicated","server_os":"Linux","password":true,"vac":true,"version":"7961495","steam_id":85568392924469996,"keywords":["cp","nocrits","nodmgspread","uncletopia"],"game_id":440,"stv_port":27016,"stv_name":"Uncletopia | S√£o Paulo | 1 | All Maps | STV","players":null},{"server_id":143,"name":"Uncletopia | S√£o Paulo | 2 | Community","name_short":"sao-2","host":"sao-2.br.uncletopia.com","port":27015,"enabled":true,"region":"sa","cc":"br","latitude":-23.533773,"longitude":-46.62529,"reserved":0,"last_update":"0001-01-01T00:00:00Z","name_a2s":"Uncletopia | S√£o Paulo | 2 | Community","protocol":17,"map":"workshop/cp_glassworks_rc6a.ugc454118349","folder":"tf","game":"Team Fortress","app_id":440,"player_count":0,"max_players":24,"Bots":0,"server_type":"Dedicated","server_os":"Linux","password":true,"vac":true,"version":"7961495","steam_id":85568392924485349,"keywords":["cp","nocrits","nodmgspread","uncletopia"],"game_id":440,"stv_port":27016,"stv_name":"Uncletopia | S√£o Paulo | 2 | Community | STV","players":null},{"server_id":7,"name":"Uncletopia | Seattle | 1 | All Maps","name_short":"sea-1","host":"sea-1.us.uncletopia.com","port":27015,"enabled":true,"region":"us-west","cc":"us","latitude":47.608013,"longitude":-122.33517,"reserved":0,"last_update":"0001-01-01T00:00:00Z","name_a2s":"Uncletopia | Seattle | 1 | All Maps","protocol":17,"map":"cp_dustbowl","folder":"tf","game":"Team Fortress","app_id":440,"player_count":2,"max_players":24,"Bots":0,"server_type":"Dedicated","server_os":"Linux","password":true,"vac":true,"version":"7961495","steam_id":85568392924469997,"keywords":["cp","nocrits","nodmgspread","uncletopia"],"game_id":440,"stv_port":27016,"stv_name":"Uncletopia | Seattle | 1 | All Maps | STV","players":[{"user_id":14,"name":"Impadop","steam_id":76561198964240347,"connected_time":219000000000,"state":"active","ping":92},{"user_id":15,"name":"BlazedBunny","steam_id":76561198243610560,"connected_time":146000000000,"state":"active","ping":69}]},{"server_id":119,"name":"Uncletopia | Seattle | 2 | All Maps","name_short":"sea-2","host":"sea-1.us.uncletopia.com","port":27025,"enabled":true,"region":"us-west","cc":"us","latitude":47.608013,"longitude":-122.33517,"reserved":0,"last_update":"0001-01-01T00:00:00Z","name_a2s":"Uncletopia | Seattle | 2 | All Maps","protocol":17,"map":"pl_badwater","folder":"tf","game":"Team Fortress","app_id":440,"player_count":2,"max_players":24,"Bots":0,"server_type":"Dedicated","server_os":"Linux","password":true,"vac":true,"version":"7961495","steam_id":85568392924469998,"keywords":["nocrits","nodmgspread","payload","uncletopia"],"game_id":440,"stv_port":27026,"stv_name":"Uncletopia | Seattle | 2 | All Maps | STV","players":[{"user_id":5,"name":"summit4","steam_id":76561198162791346,"connected_time":73000000000,"state":"active","ping":109},{"user_id":6,"name":"Coach McFish","steam_id":76561198210456405,"connected_time":32000000000,"state":"active","ping":136}]},{"server_id":406,"name":"Uncletopia | Seattle | 3 | Stopwatch Beta","name_short":"sea-3","host":"sea-1.us.uncletopia.com","port":27035,"enabled":true,"region":"us-west","cc":"us","latitude":47.608013,"longitude":-122.33517,"reserved":0,"last_update":"0001-01-01T00:00:00Z","name_a2s":"Uncletopia | Seattle | 3 | Stopwatch Beta","protocol":17,"map":"cp_mountainlab","folder":"tf","game":"Team Fortress","app_id":440,"player_count":0,"max_players":24,"Bots":0,"server_type":"Dedicated","server_os":"Linux","password":true,"vac":true,"version":"7961495","steam_id":85568392924515217,"keywords":["cp","nocrits","nodmgspread","uncletopia"],"game_id":440,"stv_port":27036,"stv_name":"Uncletopia | Seattle | 3 | Stopwatch Beta | STV","players":null},{"server_id":17,"name":"Uncletopia | San Francisco | 1 | All Maps","name_short":"sfo-1","host":"sfo-1.us.uncletopia.com","port":27015,"enabled":true,"region":"us-west","cc":"us","latitude":37.77397,"longitude":-122.4313,"reserved":0,"last_update":"0001-01-01T00:00:00Z","name_a2s":"Uncletopia | San Francisco | 1 | All Maps","protocol":17,"map":"koth_highpass","folder":"tf","game":"Team Fortress","app_id":440,"player_count":1,"max_players":24,"Bots":0,"server_type":"Dedicated","server_os":"Linux","password":true,"vac":true,"version":"7961495","steam_id":85568392924469999,"keywords":["cp","nocrits","nodmgspread","uncletopia"],"game_id":440,"stv_port":27016,"stv_name":"Uncletopia | San Francisco | 1 | All Maps | STV","players":[{"user_id":98,"name":"I_AM_A_LIQUID","steam_id":76561199156072345,"connected_time":549000000000,"state":"active","ping":96}]},{"server_id":18,"name":"Uncletopia | San Francisco | 2 | All Maps","name_short":"sfo-2","host":"sfo-1.us.uncletopia.com","port":27025,"enabled":true,"region":"us-west","cc":"us","latitude":37.77397,"longitude":-122.4313,"reserved":0,"last_update":"0001-01-01T00:00:00Z","name_a2s":"Uncletopia | San Francisco | 2 | All Maps","protocol":17,"map":"cp_snakewater_final1","folder":"tf","game":"Team Fortress","app_id":440,"player_count":0,"max_players":24,"Bots":0,"server_type":"Dedicated","server_os":"Linux","password":true,"vac":true,"version":"7961495","steam_id":85568392924470000,"keywords":["cp","nocrits","nodmgspread","uncletopia"],"game_id":440,"stv_port":27026,"stv_name":"Uncletopia | San Francisco | 2 | All Maps | STV","players":null},{"server_id":19,"name":"Uncletopia | San Francisco | 3 | Stopwatch Beta","name_short":"sfo-3","host":"sfo-1.us.uncletopia.com","port":27035,"enabled":true,"region":"us-west","cc":"us","latitude":37.77397,"longitude":-122.4313,"reserved":0,"last_update":"0001-01-01T00:00:00Z","name_a2s":"Uncletopia | San Francisco | 3 | Stopwatch Beta","protocol":17,"map":"pl_upward","folder":"tf","game":"Team Fortress","app_id":440,"player_count":0,"max_players":24,"Bots":0,"server_type":"Dedicated","server_os":"Linux","password":true,"vac":true,"version":"7961495","steam_id":85568392924742824,"keywords":["nocrits","nodmgspread","payload","uncletopia"],"game_id":440,"stv_port":27036,"stv_name":"Uncletopia | San Francisco | 3 | Stopwatch Beta | STV","players":null},{"server_id":20,"name":"Uncletopia | San Francisco | 4 | Community","name_short":"sfo-4","host":"sfo-1.us.uncletopia.com","port":27045,"enabled":true,"region":"us-west","cc":"us","latitude":37.77397,"longitude":-122.4313,"reserved":0,"last_update":"0001-01-01T00:00:00Z","name_a2s":"Uncletopia | San Francisco | 4 | Community","protocol":17,"map":"pl_snowycoast","folder":"tf","game":"Team Fortress","app_id":440,"player_count":0,"max_players":24,"Bots":0,"server_type":"Dedicated","server_os":"Linux","password":true,"vac":true,"version":"7961495","steam_id":85568392924742826,"keywords":["nocrits","nodmgspread","payload","uncletopia"],"game_id":440,"stv_port":27046,"stv_name":"Uncletopia | San Francisco | 4 | Community | STV","players":null},{"server_id":141,"name":"Uncletopia | Sydney | 1 | All Maps","name_short":"syd-1","host":"syd-1.au.uncletopia.com","port":27015,"enabled":true,"region":"au","cc":"au","latitude":-33.865143,"longitude":151.2099,"reserved":0,"last_update":"0001-01-01T00:00:00Z","name_a2s":"Uncletopia | Sydney | 1 | All Maps","protocol":17,"map":"cp_mountainlab","folder":"tf","game":"Team Fortress","app_id":440,"player_count":0,"max_players":24,"Bots":0,"server_type":"Dedicated","server_os":"Linux","password":true,"vac":true,"version":"7961495","steam_id":85568392924470001,"keywords":["cp","nocrits","nodmgspread","uncletopia"],"game_id":440,"stv_port":27016,"stv_name":"Uncletopia | Sydney | 1 | All Maps | STV","players":null},{"server_id":123,"name":"Uncletopia | Sydney | 2 | All Maps","name_short":"syd-2","host":"syd-1.au.uncletopia.com","port":27025,"enabled":true,"region":"au","cc":"au","latitude":-33.865143,"longitude":151.2099,"reserved":0,"last_update":"0001-01-01T00:00:00Z","name_a2s":"Uncletopia | Sydney | 2 | All Maps","protocol":17,"map":"koth_highpass","folder":"tf","game":"Team Fortress","app_id":440,"player_count":0,"max_players":24,"Bots":0,"server_type":"Dedicated","server_os":"Linux","password":true,"vac":true,"version":"7961495","steam_id":85568392924470002,"keywords":["cp","nocrits","nodmgspread","uncletopia"],"game_id":440,"stv_port":27026,"stv_name":"Uncletopia | Sydney | 2 | All Maps | STV","players":null},{"server_id":395,"name":"Uncletopia | Sydney | 3 | All Maps","name_short":"syd-3","host":"syd-1.au.uncletopia.com","port":27035,"enabled":true,"region":"au","cc":"au","latitude":-33.865143,"longitude":151.2099,"reserved":0,"last_update":"0001-01-01T00:00:00Z","name_a2s":"Uncletopia | Sydney | 3 | All Maps","protocol":17,"map":"koth_cascade","folder":"tf","game":"Team Fortress","app_id":440,"player_count":0,"max_players":24,"Bots":0,"server_type":"Dedicated","server_os":"Linux","password":true,"vac":true,"version":"7961495","steam_id":85568392925194467,"keywords":["cp","nocrits","nodmgspread","uncletopia"],"game_id":440,"stv_port":27036,"stv_name":"Uncletopia | Sydney | 3 | All Maps | STV","players":null},{"server_id":396,"name":"Uncletopia | Sydney | 4 | All Maps","name_short":"syd-4","host":"syd-1.au.uncletopia.com","port":27045,"enabled":true,"region":"au","cc":"au","latitude":-33.865143,"longitude":151.2099,"reserved":0,"last_update":"0001-01-01T00:00:00Z","name_a2s":"Uncletopia | Sydney | 4 | All Maps","protocol":17,"map":"koth_viaduct","folder":"tf","game":"Team Fortress","app_id":440,"player_count":0,"max_players":24,"Bots":0,"server_type":"Dedicated","server_os":"Linux","password":true,"vac":true,"version":"7961495","steam_id":85568392925397958,"keywords":["cp","nocrits","nodmgspread","uncletopia"],"game_id":440,"stv_port":27046,"stv_name":"Uncletopia | Sydney | 4 | All Maps | STV","players":null},{"server_id":58,"name":"Uncletopia | Sydney | 5 | Stopwatch Beta","name_short":"syd-5","host":"syd-1.au.uncletopia.com","port":27055,"enabled":true,"region":"au","cc":"au","latitude":-33.865143,"longitude":151.2099,"reserved":0,"last_update":"0001-01-01T00:00:00Z","name_a2s":"Uncletopia | Sydney | 5 | Stopwatch Beta","protocol":17,"map":"workshop/koth_bagel_rc6.ugc2514036946","folder":"tf","game":"Team Fortress","app_id":440,"player_count":0,"max_players":24,"Bots":0,"server_type":"Dedicated","server_os":"Linux","password":true,"vac":true,"version":"7961495","steam_id":85568392925397959,"keywords":["cp","nocrits","nodmgspread","uncletopia"],"game_id":440,"stv_port":27056,"stv_name":"Uncletopia | Sydney | 5 | Stopwatch Beta | STV","players":null},{"server_id":59,"name":"Uncletopia | Sydney | 6 | Community","name_short":"syd-6","host":"syd-1.au.uncletopia.com","port":27065,"enabled":true,"region":"au","cc":"au","latitude":-33.865143,"longitude":151.2099,"reserved":0,"last_update":"0001-01-01T00:00:00Z","name_a2s":"Uncletopia | Sydney | 6 | Community","protocol":17,"map":"workshop/koth_synthetic_rc6a.ugc1549817316","folder":"tf","game":"Team Fortress","app_id":440,"player_count":0,"max_players":24,"Bots":0,"server_type":"Dedicated","server_os":"Linux","password":true,"vac":true,"version":"7961495","steam_id":85568392925397960,"keywords":["cp","nocrits","nodmgspread","uncletopia"],"game_id":440,"stv_port":27066,"stv_name":"Uncletopia | Sydney | 6 | Community | STV","players":null},{"server_id":49,"name":"Uncletopia | Warsaw | 1 | All Maps","name_short":"waw-1","host":"waw-1.pl.uncletopia.com","port":27015,"enabled":true,"region":"eu","cc":"pl","latitude":52.2297,"longitude":21.017532,"reserved":0,"last_update":"0001-01-01T00:00:00Z","name_a2s":"Uncletopia | Warsaw | 1 | All Maps","protocol":17,"map":"pl_borneo","folder":"tf","game":"Team Fortress","app_id":440,"player_count":23,"max_players":24,"Bots":0,"server_type":"Dedicated","server_os":"Linux","password":true,"vac":true,"version":"7961495","steam_id":85568392925397850,"keywords":["nocrits","nodmgspread","payload","uncletopia"],"game_id":440,"stv_port":27016,"stv_name":"Uncletopia | Warsaw | 1 | All Maps | STV","players":[{"user_id":457,"name":"Nick","steam_id":76561198036109469,"connected_time":5917000000000,"state":"active","ping":68},{"user_id":527,"name":"ASAP","steam_id":76561198322078500,"connected_time":339000000000,"state":"active","ping":65},{"user_id":529,"name":"Dolcelatte","steam_id":76561198038501770,"connected_time":240000000000,"state":"active","ping":74},{"user_id":494,"name":"Mekko","steam_id":76561198880989086,"connected_time":3087000000000,"state":"active","ping":76},{"user_id":481,"name":"jabar7","steam_id":76561198055137986,"connected_time":4427000000000,"state":"active","ping":43},{"user_id":524,"name":"LOBZIK","steam_id":76561198114830120,"connected_time":826000000000,"state":"active","ping":55},{"user_id":530,"name":"femboy enjoyer","steam_id":76561198372077936,"connected_time":192000000000,"state":"active","ping":87},{"user_id":477,"name":"Hexagon","steam_id":76561198151205758,"connected_time":4846000000000,"state":"active","ping":61},{"user_id":518,"name":"cucu","steam_id":76561198140399610,"connected_time":1811000000000,"state":"active","ping":86},{"user_id":519,"name":"kelm","steam_id":76561198027166144,"connected_time":1618000000000,"state":"active","ping":78},{"user_id":493,"name":"h0ster","steam_id":76561198183949987,"connected_time":3427000000000,"state":"active","ping":76},{"user_id":528,"name":"Matael","steam_id":76561198452200894,"connected_time":338000000000,"state":"active","ping":43},{"user_id":517,"name":"[SQ UA] MartianDill","steam_id":76561198405382822,"connected_time":1888000000000,"state":"active","ping":55},{"user_id":526,"name":"Umbro","steam_id":76561198087930438,"connected_time":673000000000,"state":"active","ping":89},{"user_id":469,"name":"overman","steam_id":76561198038348301,"connected_time":5132000000000,"state":"active","ping":44},{"user_id":520,"name":"–∏–≥–ª–∞","steam_id":76561198120760515,"connected_time":1518000000000,"state":"active","ping":90},{"user_id":450,"name":"Philosophos_Alpha","steam_id":76561198951264580,"connected_time":6106000000000,"state":"active","ping":125},{"user_id":512,"name":"phonovsky","steam_id":76561198114647822,"connected_time":2295000000000,"state":"active","ping":42},{"user_id":531,"name":"RADARI","steam_id":76561198163028791,"connected_time":187000000000,"state":"active","ping":117},{"user_id":467,"name":"Mr. Mundy","steam_id":76561198132008918,"connected_time":5302000000000,"state":"active","ping":91},{"user_id":454,"name":"Na z√°chodƒõ","steam_id":76561198383952144,"connected_time":5988000000000,"state":"active","ping":106},{"user_id":455,"name":"cobblestone","steam_id":76561198079123043,"connected_time":5974000000000,"state":"active","ping":78},{"user_id":497,"name":"Pryzmat","steam_id":76561198839775440,"connected_time":2807000000000,"state":"active","ping":58}]},{"server_id":50,"name":"Uncletopia | Warsaw | 2 | All Maps","name_short":"waw-2","host":"waw-1.pl.uncletopia.com","port":27025,"enabled":true,"region":"eu","cc":"pl","latitude":52.2297,"longitude":21.017532,"reserved":0,"last_update":"0001-01-01T00:00:00Z","name_a2s":"Uncletopia | Warsaw | 2 | All Maps","protocol":17,"map":"pl_snowycoast","folder":"tf","game":"Team Fortress","app_id":440,"player_count":0,"max_players":24,"Bots":0,"server_type":"Dedicated","server_os":"Linux","password":true,"vac":true,"version":"7961495","steam_id":85568392925397851,"keywords":["nocrits","nodmgspread","payload","uncletopia"],"game_id":440,"stv_port":27026,"stv_name":"Uncletopia | Warsaw | 2 | All Maps | STV","players":null},{"server_id":51,"name":"Uncletopia | Warsaw | 3 | All Maps","name_short":"waw-3","host":"waw-1.pl.uncletopia.com","port":27035,"enabled":true,"region":"eu","cc":"pl","latitude":52.2297,"longitude":21.017532,"reserved":0,"last_update":"0001-01-01T00:00:00Z","name_a2s":"Uncletopia | Warsaw | 3 | All Maps","protocol":17,"map":"koth_highpass","folder":"tf","game":"Team Fortress","app_id":440,"player_count":0,"max_players":24,"Bots":0,"server_type":"Dedicated","server_os":"Linux","password":true,"vac":true,"version":"7961495","steam_id":85568392925397852,"keywords":["cp","nocrits","nodmgspread","uncletopia"],"game_id":440,"stv_port":27036,"stv_name":"Uncletopia | Warsaw | 3 | All Maps | STV","players":null},{"server_id":52,"name":"Uncletopia | Warsaw | 4 | All Maps","name_short":"waw-4","host":"waw-1.pl.uncletopia.com","port":27045,"enabled":true,"region":"eu","cc":"pl","latitude":52.2297,"longitude":21.017532,"reserved":0,"last_update":"0001-01-01T00:00:00Z","name_a2s":"Uncletopia | Warsaw | 4 | All Maps","protocol":17,"map":"koth_lakeside_final","folder":"tf","game":"Team Fortress","app_id":440,"player_count":5,"max_players":24,"Bots":0,"server_type":"Dedicated","server_os":"Linux","password":true,"vac":true,"version":"7961495","steam_id":85568392925397853,"keywords":["cp","nocrits","nodmgspread","uncletopia"],"game_id":440,"stv_port":27046,"stv_name":"Uncletopia | Warsaw | 4 | All Maps | STV","players":[{"user_id":10,"name":"BlankFedora","steam_id":76561198215486596,"connected_time":1419000000000,"state":"active","ping":58},{"user_id":11,"name":"bgnych","steam_id":76561199040182286,"connected_time":1408000000000,"state":"active","ping":103},{"user_id":12,"name":"dabomb gaming","steam_id":76561198350475019,"connected_time":544000000000,"state":"active","ping":60},{"user_id":14,"name":"average heavy main","steam_id":76561198993742816,"connected_time":495000000000,"state":"active","ping":109},{"user_id":15,"name":"nemelex","steam_id":76561198958005865,"connected_time":484000000000,"state":"active","ping":75}]},{"server_id":53,"name":"Uncletopia | Warsaw | 5 | Stopwatch Beta","name_short":"waw-5","host":"waw-1.pl.uncletopia.com","port":27055,"enabled":true,"region":"eu","cc":"pl","latitude":52.2297,"longitude":21.017532,"reserved":0,"last_update":"0001-01-01T00:00:00Z","name_a2s":"Uncletopia | Warsaw | 5 | Stopwatch Beta","protocol":17,"map":"pl_borneo","folder":"tf","game":"Team Fortress","app_id":440,"player_count":3,"max_players":24,"Bots":0,"server_type":"Dedicated","server_os":"Linux","password":true,"vac":true,"version":"7961495","steam_id":85568392925397854,"keywords":["nocrits","nodmgspread","payload","uncletopia"],"game_id":440,"stv_port":27056,"stv_name":"Uncletopia | Warsaw | 5 | Stopwatch Beta | STV","players":[{"user_id":6,"name":"Placuszek3367","steam_id":76561199134128498,"connected_time":74000000000,"state":"active","ping":42},{"user_id":7,"name":"bogumilcie","steam_id":76561199033110188,"connected_time":11000000000,"state":"spawning","ping":29},{"user_id":8,"name":"wiksdik","steam_id":76561199192116172,"connected_time":4000000000,"state":"spawning","ping":228}]},{"server_id":54,"name":"Uncletopia | Warsaw | 6 | Community","name_short":"waw-6","host":"waw-1.pl.uncletopia.com","port":27065,"enabled":true,"region":"eu","cc":"pl","latitude":52.2297,"longitude":21.017532,"reserved":0,"last_update":"0001-01-01T00:00:00Z","name_a2s":"Uncletopia | Warsaw | 6 | Community","protocol":17,"map":"workshop/koth_product_final.ugc454272353","folder":"tf","game":"Team Fortress","app_id":440,"player_count":0,"max_players":24,"Bots":0,"server_type":"Dedicated","server_os":"Linux","password":true,"vac":true,"version":"7961495","steam_id":85568392925397856,"keywords":["cp","nocrits","nodmgspread","uncletopia"],"game_id":440,"stv_port":27066,"stv_name":"Uncletopia | Warsaw | 6 | Community | STV","players":null}]}