{"status":true,"message":"","result":[{"server_id":9,"name":"Uncletopia | Atlanta | 1 | All Maps","name_short":"atl-1","host":"atl-1.us.uncletopia.com","port":27015,"enabled":true,"region":"us-east","cc":"us","latitude":33.753746,"longitude":-84.38633,"reserved":0,"last_update":"0001-01-01T00:00:00Z","name_a2s":"Uncletopia | Atlanta | 1 | All Maps","protocol":17,"map":"pl_thundermountain","folder":"tf","game":"Team Fortress","app_id":440,"player_count":24,"max_players":24,"Bots":0,"server_type":"Dedicated","server_os":"Linux","password":true,"vac":true,"version":"7757534","steam_id":85568392924469982,"keywords":["nocrits","nodmgspread","payload","uncletopia"],"game_id":440,"stv_port":27016,"stv_name":"Uncletopia | Atlanta | 1 | All Maps | STV","players":[{"user_id":189,"name":"Little Linguine","steam_id":76561198816986370,"connected_time":9864000000000,"state":"active","ping":114},{"user_id":256,"name":"Mr. Klauk","steam_id":76561199085666301,"connected_time":4065000000000,"state":"active","ping":53},{"user_id":273,"name":"Ramadan Steve","steam_id":76561198138568488,"connected_time":2219000000000,"state":"active","ping":65},{"user_id":274,"name":"STEVE","steam_id":76561198063475894,"connected_time":2184000000000,"state":"active","ping":54},{"user_id":298,"name":"Towns","steam_id":76561198984662863,"connected_time":280000000000,"state":"active","ping":56},{"user_id":284,"name":"Broken Cereal‚àö","steam_id":76561198087489795,"connected_time":1508000000000,"state":"active","ping":62},{"user_id":276,"name":"the last granberia fan","steam_id":76561198172101254,"connected_time":2165000000000,"state":"active","ping":148},{"user_id":296,"name":"b4b4fa","steam_id":76561198822069026,"connected_time":688000000000,"state":"active","ping":93},{"user_id":282,"name":"Some Dumb Werewolf","steam_id":76561198114146739,"connected_time":1787000000000,"state":"active","ping":72},{"user_id":288,"name":"LordMuffins033","steam_id":76561198046026414,"connected_time":1176000000000,"state":"active","ping":60},{"user_id":292,"name":"unreal_Era","steam_id":76561198401640406,"connected_time":927000000000,"state":"active","ping":99},{"user_id":207,"name":"Dirtbomb","steam_id":76561198002403301,"connected_time":8273000000000,"state":"active","ping":98},{"user_id":230,"name":"Jin Gulilo","steam_id":76561198065151242,"connected_time":6234000000000,"state":"active","ping":74},{"user_id":239,"name":"Snowy Squill","steam_id":76561198073504207,"connected_time":5281000000000,"state":"active","ping":178},{"user_id":58,"name":"twitch.tv/frimpimy","steam_id":76561198142605675,"connected_time":20707000000000,"state":"active","ping":89},{"user_id":215,"name":"Sorrow","steam_id":76561198146782344,"connected_time":7089000000000,"state":"active","ping":116},{"user_id":291,"name":"Sous-Chef","steam_id":76561198075705827,"connected_time":1007000000000,"state":"active","ping":62},{"user_id":257,"name":"De_pressed","steam_id":76561198154619174,"connected_time":4058000000000,"state":"active","ping":85},{"user_id":297,"name":"CJAIME01345","steam_id":76561199091599141,"connected_time":630000000000,"state":"active","ping":146},{"user_id":278,"name":"Duncle Frazzle","steam_id":76561198145596626,"connected_time":2119000000000,"state":"active","ping":115},{"user_id":286,"name":"Satan-2","steam_id":76561199231742764,"connected_time":1317000000000,"state":"active","ping":89},{"user_id":271,"name":"ATL1 | LuckyZero-_-","steam_id":76561198139891051,"connected_time":2707000000000,"state":"active","ping":69},{"user_id":228,"name":"Tommy da bird","steam_id":76561198136340711,"connected_time":6249000000000,"state":"active","ping":118},{"user_id":294,"name":"TheDieeg","steam_id":76561199443116996,"connected_time":889000000000,"state":"active","ping":108}]},{"server_id":400,"name":"Uncletopia | Atlanta | 3 | Community","name_short":"atl-3","host":"atl-1.us.uncletopia.com","port":27035,"enabled":true,"region":"us-east","cc":"us","latitude":33.753746,"longitude":-84.38633,"reserved":0,"last_update":"0001-01-01T00:00:00Z","name_a2s":"Uncletopia | Atlanta | 3 | Community","protocol":17,"map":"cp_mountainlab","folder":"tf","game":"Team Fortress","app_id":440,"player_count":0,"max_players":24,"Bots":0,"server_type":"Dedicated","server_os":"Linux","password":true,"vac":true,"version":"7757534","steam_id":85568392924515187,"keywords":["cp","nocrits","nodmgspread","uncletopia"],"game_id":440,"stv_port":27036,"stv_name":"Uncletopia | Atlanta | 3 | Community | STV","players":null},{"server_id":401,"name":"Uncletopia | Atlanta | 4 | No Payload","name_short":"atl-4","host":"atl-1.us.uncletopia.com","port":27045,"enabled":true,"region":"us-east","cc":"us","latitude":33.753746,"longitude":-84.38633,"reserved":0,"last_update":"0001-01-01T00:00:00Z","name_a2s":"","protocol":0,"map":"","folder":"","game":"","app_id":0,"player_count":0,"max_players":0,"Bots":0,"server_type":"","server_os":"","password":false,"vac":false,"version":"","steam_id":0,"keywords":null,"game_id":0,"stv_port":0,"stv_name":"","players":null},{"server_id":2,"name":"Uncletopia | Chicago | 1 | All Maps","name_short":"chi-1","host":"chi-1.us.uncletopia.com","port":27015,"enabled":true,"region":"us-central","cc":"us","latitude":41.881832,"longitude":-87.62318,"reserved":0,"last_update":"0001-01-01T00:00:00Z","name_a2s":"Uncletopia | Chicago | 1 | All Maps","protocol":17,"map":"koth_harvest_final","folder":"tf","game":"Team Fortress","app_id":440,"player_count":23,"max_players":24,"Bots":0,"server_type":"Dedicated","server_os":"Linux","password":true,"vac":true,"version":"7757534","steam_id":85568392924469984,"keywords":["cp","nocrits","nodmgspread","uncletopia"],"game_id":440,"stv_port":27016,"stv_name":"Uncletopia | Chicago | 1 | All Maps | STV","players":[{"user_id":61,"name":"nao","steam_id":76561199067925855,"connected_time":178000000000,"state":"active","ping":66},{"user_id":54,"name":"Atlas","steam_id":76561198127975050,"connected_time":352000000000,"state":"active","ping":65},{"user_id":43,"name":"SuperShyWolfFemboy","steam_id":76561199122685055,"connected_time":1498000000000,"state":"active","ping":78},{"user_id":30,"name":"Elflocky","steam_id":76561199096852639,"connected_time":2115000000000,"state":"active","ping":75},{"user_id":64,"name":"‡ºò ‚ãÜÀöüéßCaffeine‚òï*Àñ¬∞","steam_id":76561199259309294,"connected_time":51000000000,"state":"spawning","ping":71},{"user_id":16,"name":"Lucky","steam_id":76561198302286875,"connected_time":2446000000000,"state":"active","ping":88},{"user_id":55,"name":"ted twenty-two ( Triple T )","steam_id":76561198121316868,"connected_time":351000000000,"state":"active","ping":101},{"user_id":63,"name":"What The Hell Fried Chicken","steam_id":76561198117434605,"connected_time":121000000000,"state":"active","ping":119},{"user_id":47,"name":"TeeTree","steam_id":76561198862307874,"connected_time":843000000000,"state":"active","ping":56},{"user_id":21,"name":"laszlo","steam_id":76561198141198352,"connected_time":2352000000000,"state":"active","ping":42},{"user_id":62,"name":"man of the hour","steam_id":76561198264601809,"connected_time":158000000000,"state":"active","ping":74},{"user_id":50,"name":"Padre Pat","steam_id":76561198392985381,"connected_time":819000000000,"state":"active","ping":128},{"user_id":65,"name":"Belmore","steam_id":76561198009355231,"connected_time":25000000000,"state":"active","ping":110},{"user_id":36,"name":"LerN","steam_id":76561198083463877,"connected_time":2017000000000,"state":"active","ping":46},{"user_id":57,"name":"amazing","steam_id":76561198386233160,"connected_time":268000000000,"state":"active","ping":94},{"user_id":31,"name":"Mr. Mane T.S.H.A.","steam_id":76561198056728986,"connected_time":2055000000000,"state":"active","ping":59},{"user_id":58,"name":"trobin120","steam_id":76561199122420273,"connected_time":238000000000,"state":"active","ping":61},{"user_id":60,"name":"SomeScuffedKid","steam_id":76561198086113234,"connected_time":233000000000,"state":"active","ping":57},{"user_id":52,"name":"Rein","steam_id":76561198300340427,"connected_time":368000000000,"state":"active","ping":63},{"user_id":53,"name":"Brokayo","steam_id":76561198053802723,"connected_time":368000000000,"state":"active","ping":90},{"user_id":39,"name":"Apollite","steam_id":76561198071669801,"connected_time":1994000000000,"state":"active","ping":62},{"user_id":41,"name":"Veir≈´ Viseris","steam_id":76561197989857176,"connected_time":1935000000000,"state":"active","ping":166},{"user_id":46,"name":"snileaf","steam_id":76561198817098263,"connected_time":1411000000000,"state":"active","ping":76}]},{"server_id":106,"name":"Uncletopia | Chicago | 2 | All Maps","name_short":"chi-2","host":"chi-1.us.uncletopia.com","port":27025,"enabled":true,"region":"us-central","cc":"us","latitude":41.881832,"longitude":-87.62318,"reserved":0,"last_update":"0001-01-01T00:00:00Z","name_a2s":"Uncletopia | Chicago | 2 | All Maps","protocol":17,"map":"pl_upward","folder":"tf","game":"Team Fortress","app_id":440,"player_count":3,"max_players":24,"Bots":0,"server_type":"Dedicated","server_os":"Linux","password":true,"vac":true,"version":"7757534","steam_id":85568392924469985,"keywords":["nocrits","nodmgspread","payload","uncletopia"],"game_id":440,"stv_port":27026,"stv_name":"Uncletopia | Chicago | 2 | All Maps | STV","players":[{"user_id":6,"name":"Real Llama Mental (psychosis)","steam_id":76561198081971317,"connected_time":733000000000,"state":"active","ping":51},{"user_id":7,"name":"bagelbillnacho","steam_id":76561198174342389,"connected_time":240000000000,"state":"active","ping":68},{"user_id":8,"name":"GGG","steam_id":76561198308315479,"connected_time":108000000000,"state":"active","ping":97}]},{"server_id":402,"name":"Uncletopia | Chicago | 3 | All Maps","name_short":"chi-3","host":"chi-1.us.uncletopia.com","port":27035,"enabled":true,"region":"us-central","cc":"us","latitude":41.881832,"longitude":-87.62318,"reserved":0,"last_update":"0001-01-01T00:00:00Z","name_a2s":"Uncletopia | Chicago | 3 | All Maps","protocol":17,"map":"koth_cascade","folder":"tf","game":"Team Fortress","app_id":440,"player_count":0,"max_players":24,"Bots":0,"server_type":"Dedicated","server_os":"Linux","password":true,"vac":true,"version":"7757534","steam_id":85568392924515191,"keywords":["cp","nocrits","nodmgspread","uncletopia"],"game_id":440,"stv_port":27036,"stv_name":"Uncletopia | Chicago | 3 | All Maps | STV","players":null},{"server_id":403,"name":"Uncletopia | Chicago | 4 | All Maps","name_short":"chi-4","host":"chi-1.us.uncletopia.com","port":27045,"enabled":true,"region":"us-central","cc":"us","latitude":41.881832,"longitude":-87.62318,"reserved":0,"last_update":"0001-01-01T00:00:00Z","name_a2s":"Uncletopia | Chicago | 4 | All Maps","protocol":17,"map":"koth_cascade","folder":"tf","game":"Team Fortress","app_id":440,"player_count":0,"max_players":24,"Bots":0,"server_type":"Dedicated","server_os":"Linux","password":true,"vac":true,"version":"7757534","steam_id":85568392924515193,"keywords":["cp","nocrits","nodmgspread","uncletopia"],"game_id":440,"stv_port":27046,"stv_name":"Uncletopia | Chicago | 4 | All Maps | STV","players":null},{"server_id":36,"name":"Uncletopia | Chicago | 5 | All Maps","name_short":"chi-5","host":"chi-2.us.uncletopia.com","port":27015,"enabled":true,"region":"us-central","cc":"us","latitude":41.881832,"longitude":-87.62318,"reserved":0,"last_update":"0001-01-01T00:00:00Z","name_a2s":"Uncletopia | Chicago | 5 | All Maps","protocol":17,"map":"koth_lakeside_final","folder":"tf","game":"Team Fortress","app_id":440,"player_count":0,"max_players":24,"Bots":0,"server_type":"Dedicated","server_os":"Linux","password":true,"vac":true,"version":"7757534","steam_id":85568392924866362,"keywords":["cp","nocrits","nodmgspread","uncletopia"],"game_id":440,"stv_port":27016,"stv_name":"Uncletopia | Chicago | 5 | All Maps | STV","players":null},{"server_id":37,"name":"Uncletopia | Chicago | 6 | All Maps","name_short":"chi-6","host":"chi-2.us.uncletopia.com","port":27025,"enabled":true,"region":"us-central","cc":"us","latitude":41.881832,"longitude":-87.62318,"reserved":0,"last_update":"0001-01-01T00:00:00Z","name_a2s":"Uncletopia | Chicago | 6 | All Maps","protocol":17,"map":"cp_snakewater_final1","folder":"tf","game":"Team Fortress","app_id":440,"player_count":0,"max_players":24,"Bots":0,"server_type":"Dedicated","server_os":"Linux","password":true,"vac":true,"version":"7757534","steam_id":85568392924866363,"keywords":["cp","nocrits","nodmgspread","uncletopia"],"game_id":440,"stv_port":27026,"stv_name":"Uncletopia | Chicago | 6 | All Maps | STV","players":null},{"server_id":38,"name":"Uncletopia | Chicago | 7 | Stopwatch Beta","name_short":"chi-7","host":"chi-2.us.uncletopia.com","port":27035,"enabled":true,"region":"us-central","cc":"us","latitude":41.881832,"longitude":-87.62318,"reserved":0,"last_update":"0001-01-01T00:00:00Z","name_a2s":"Uncletopia | Chicago | 7 | Stopwatch Beta","protocol":17,"map":"koth_viaduct","folder":"tf","game":"Team Fortress","app_id":440,"player_count":0,"max_players":24,"Bots":0,"server_type":"Dedicated","server_os":"Linux","password":true,"vac":true,"version":"7757534","steam_id":85568392924866364,"keywords":["cp","nocrits","nodmgspread","uncletopia"],"game_id":440,"stv_port":27036,"stv_name":"Uncletopia | Chicago | 7 | Stopwatch Beta | STV","players":null},{"server_id":39,"name":"Uncletopia | Chicago | 8 | Community","name_short":"chi-8","host":"chi-2.us.uncletopia.com","port":27045,"enabled":true,"region":"us-central","cc":"us","latitude":41.881832,"longitude":-87.62318,"reserved":0,"last_update":"0001-01-01T00:00:00Z","name_a2s":"Uncletopia | Chicago | 8 | Community","protocol":17,"map":"koth_lakeside_final","folder":"tf","game":"Team Fortress","app_id":440,"player_count":0,"max_players":24,"Bots":0,"server_type":"Dedicated","server_os":"Linux","password":true,"vac":true,"version":"7757534","steam_id":85568392924866365,"keywords":["cp","nocrits","nodmgspread","uncletopia"],"game_id":440,"stv_port":27046,"stv_name":"Uncletopia | Chicago | 8 | Community | STV","players":null},{"server_id":8,"name":"Uncletopia | Dallas | 1 | All Maps","name_short":"dal-1","host":"dal-1.us.uncletopia.com","port":27015,"enabled":true,"region":"us-central","cc":"us","latitude":32.779167,"longitude":-96.80889,"reserved":0,"last_update":"0001-01-01T00:00:00Z","name_a2s":"Uncletopia | Dallas | 1 | All Maps","protocol":17,"map":"pl_snowycoast","folder":"tf","game":"Team Fortress","app_id":440,"player_count":24,"max_players":24,"Bots":0,"server_type":"Dedicated","server_os":"Linux","password":true,"vac":true,"version":"7757534","steam_id":85568392924469986,"keywords":["nocrits","nodmgspread","payload","uncletopia"],"game_id":440,"stv_port":27016,"stv_name":"Uncletopia | Dallas | 1 | All Maps | STV","players":[{"user_id":119,"name":"Sqiddwr","steam_id":76561197998071622,"connected_time":2350000000000,"state":"active","ping":109},{"user_id":123,"name":"‚úø PoutyBun ‚úø","steam_id":76561197965762847,"connected_time":2168000000000,"state":"active","ping":93},{"user_id":136,"name":"Buswolley","steam_id":76561197995205571,"connected_time":1276000000000,"state":"active","ping":85},{"user_id":134,"name":"Peter","steam_id":76561198007253310,"connected_time":1489000000000,"state":"active","ping":162},{"user_id":137,"name":"Derply","steam_id":76561198871211642,"connected_time":1274000000000,"state":"active","ping":78},{"user_id":152,"name":"CopperBox","steam_id":76561198068217248,"connected_time":411000000000,"state":"active","ping":72},{"user_id":145,"name":"TATARA","steam_id":76561199098759517,"connected_time":939000000000,"state":"active","ping":124},{"user_id":146,"name":"SORPER","steam_id":76561198425503395,"connected_time":915000000000,"state":"active","ping":45},{"user_id":127,"name":"CFG Ponder","steam_id":76561198127039453,"connected_time":1957000000000,"state":"active","ping":71},{"user_id":84,"name":"Fuegan Ra","steam_id":76561198287923849,"connected_time":5437000000000,"state":"active","ping":72},{"user_id":117,"name":"PoopSock","steam_id":76561198166713255,"connected_time":2391000000000,"state":"active","ping":80},{"user_id":148,"name":"Fox","steam_id":76561198063507627,"connected_time":740000000000,"state":"active","ping":41},{"user_id":125,"name":"oxygen thief","steam_id":76561198841082777,"connected_time":2082000000000,"state":"active","ping":90},{"user_id":144,"name":"Aspiring E-Boy","steam_id":76561198120710871,"connected_time":983000000000,"state":"active","ping":66},{"user_id":80,"name":"your obscenely fat schnoz","steam_id":76561198322956099,"connected_time":6154000000000,"state":"active","ping":72},{"user_id":131,"name":"NOT Susie Deltarune (not real)","steam_id":76561199007365488,"connected_time":1692000000000,"state":"active","ping":72},{"user_id":153,"name":"LesserAce","steam_id":76561198153258132,"connected_time":383000000000,"state":"active","ping":127},{"user_id":149,"name":"Wedgelord0‚Ñ¢","steam_id":76561198307648112,"connected_time":544000000000,"state":"active","ping":76},{"user_id":53,"name":"Michiru Kagemori","steam_id":76561198257241799,"connected_time":7173000000000,"state":"active","ping":49},{"user_id":95,"name":"the lazy gamer","steam_id":76561199070127039,"connected_time":4352000000000,"state":"active","ping":124},{"user_id":151,"name":"Take the L","steam_id":76561198379223875,"connected_time":418000000000,"state":"active","ping":101},{"user_id":135,"name":"sexypringle","steam_id":76561198401282091,"connected_time":1299000000000,"state":"active","ping":70},{"user_id":154,"name":"a fuddruckers","steam_id":76561198092656099,"connected_time":318000000000,"state":"active","ping":62},{"user_id":129,"name":"life","steam_id":76561198142254567,"connected_time":1943000000000,"state":"active","ping":87}]},{"server_id":108,"name":"Uncletopia | Dallas | 2 | All Maps","name_short":"dal-2","host":"dal-1.us.uncletopia.com","port":27025,"enabled":true,"region":"us-central","cc":"us","latitude":32.779167,"longitude":-96.80889,"reserved":0,"last_update":"0001-01-01T00:00:00Z","name_a2s":"Uncletopia | Dallas | 2 | All Maps","protocol":17,"map":"pl_badwater","folder":"tf","game":"Team Fortress","app_id":440,"player_count":1,"max_players":24,"Bots":0,"server_type":"Dedicated","server_os":"Linux","password":true,"vac":true,"version":"7757534","steam_id":85568392924469988,"keywords":["nocrits","nodmgspread","payload","uncletopia"],"game_id":440,"stv_port":27026,"stv_name":"Uncletopia | Dallas | 2 | All Maps | STV","players":[{"user_id":5,"name":"bloxino","steam_id":76561199181762195,"connected_time":216000000000,"state":"active","ping":379}]},{"server_id":5,"name":"Uncletopia | Frankfurt | 1 | All Maps","name_short":"frk-1","host":"frk-1.de.uncletopia.com","port":27015,"enabled":true,"region":"eu","cc":"de","latitude":50.110924,"longitude":8.682127,"reserved":0,"last_update":"0001-01-01T00:00:00Z","name_a2s":"Uncletopia | Frankfurt | 1 | All Maps","protocol":17,"map":"koth_viaduct","folder":"tf","game":"Team Fortress","app_id":440,"player_count":0,"max_players":24,"Bots":0,"server_type":"Dedicated","server_os":"Linux","password":true,"vac":true,"version":"7757534","steam_id":85568392924469989,"keywords":["cp","nocrits","nodmgspread","uncletopia"],"game_id":440,"stv_port":27016,"stv_name":"Uncletopia | Frankfurt | 1 | All Maps | STV","players":null},{"server_id":110,"name":"Uncletopia | Frankfurt | 2 | All Maps","name_short":"frk-2","host":"frk-1.de.uncletopia.com","port":27025,"enabled":true,"region":"eu","cc":"de","latitude":50.110924,"longitude":8.682127,"reserved":0,"last_update":"0001-01-01T00:00:00Z","name_a2s":"Uncletopia | Frankfurt | 2 | All Maps","protocol":17,"map":"pl_frontier_final","folder":"tf","game":"Team Fortress","app_id":440,"player_count":24,"max_players":24,"Bots":0,"server_type":"Dedicated","server_os":"Linux","password":true,"vac":true,"version":"7757534","steam_id":85568392924469990,"keywords":["nocrits","nodmgspread","payload","uncletopia"],"game_id":440,"stv_port":27026,"stv_name":"Uncletopia | Frankfurt | 2 | All Maps | STV","players":[{"user_id":340,"name":"–¢—Ä—É–ø –í–æ–ª–æ–¥—è","steam_id":76561198035718457,"connected_time":1152000000000,"state":"active","ping":80},{"user_id":343,"name":"PixelHyde","steam_id":76561198040878617,"connected_time":1077000000000,"state":"active","ping":70},{"user_id":371,"name":"p!ke","steam_id":76561198416081952,"connected_time":107000000000,"state":"active","ping":59},{"user_id":332,"name":"Kira","steam_id":76561198204168909,"connected_time":2310000000000,"state":"active","ping":100},{"user_id":354,"name":"December 2034","steam_id":76561198011749653,"connected_time":763000000000,"state":"active","ping":60},{"user_id":367,"name":"Emails","steam_id":76561198836919458,"connected_time":377000000000,"state":"active","ping":169},{"user_id":368,"name":"Sploogal","steam_id":76561198112789615,"connected_time":335000000000,"state":"active","ping":68},{"user_id":360,"name":"X45Y","steam_id":76561198112534025,"connected_time":583000000000,"state":"active","ping":48},{"user_id":334,"name":"Rodia","steam_id":76561197968293161,"connected_time":2217000000000,"state":"active","ping":73},{"user_id":362,"name":"Plop_","steam_id":76561198112567921,"connected_time":504000000000,"state":"active","ping":45},{"user_id":372,"name":"CarBombEnthusiast","steam_id":76561199448185434,"connected_time":75000000000,"state":"active","ping":56},{"user_id":355,"name":"alphawarrior999","steam_id":76561199001580062,"connected_time":753000000000,"state":"active","ping":189},{"user_id":347,"name":"The Classic","steam_id":76561198295868113,"connected_time":1031000000000,"state":"active","ping":60},{"user_id":295,"name":"klsz","steam_id":76561198125010818,"connected_time":4581000000000,"state":"active","ping":104},{"user_id":357,"name":"makarov","steam_id":76561198363892870,"connected_time":632000000000,"state":"active","ping":66},{"user_id":328,"name":"Soldiernom [CATBOY GANG]","steam_id":76561198199555114,"connected_time":2856000000000,"state":"active","ping":94},{"user_id":298,"name":"dya","steam_id":76561198167283985,"connected_time":4518000000000,"state":"active","ping":75},{"user_id":364,"name":"Áîü„Åç„Åå„ÅÑ","steam_id":76561198450705493,"connected_time":466000000000,"state":"active","ping":88},{"user_id":310,"name":"Vitamin Weee","steam_id":76561199183937747,"connected_time":3649000000000,"state":"active","ping":85},{"user_id":350,"name":"Rune","steam_id":76561198012822726,"connected_time":950000000000,"state":"active","ping":86},{"user_id":370,"name":"shinji crank that soulja boy","steam_id":76561198099696876,"connected_time":212000000000,"state":"active","ping":60},{"user_id":369,"name":"zazuza","steam_id":76561198049820905,"connected_time":328000000000,"state":"active","ping":74},{"user_id":365,"name":"Liza–Ødl–ß","steam_id":76561198176750238,"connected_time":460000000000,"state":"active","ping":74},{"user_id":352,"name":"Gromov","steam_id":76561198407644131,"connected_time":935000000000,"state":"active","ping":111}]},{"server_id":308,"name":"Uncletopia | Frankfurt | 3 | All Maps","name_short":"frk-3","host":"frk-1.de.uncletopia.com","port":27035,"enabled":true,"region":"eu","cc":"de","latitude":50.110924,"longitude":8.682127,"reserved":0,"last_update":"0001-01-01T00:00:00Z","name_a2s":"Uncletopia | Frankfurt | 3 | All Maps","protocol":17,"map":"pl_pier","folder":"tf","game":"Team Fortress","app_id":440,"player_count":23,"max_players":24,"Bots":0,"server_type":"Dedicated","server_os":"Linux","password":true,"vac":true,"version":"7757534","steam_id":85568392924504274,"keywords":["nocrits","nodmgspread","payload","uncletopia"],"game_id":440,"stv_port":27036,"stv_name":"Uncletopia | Frankfurt | 3 | All Maps | STV","players":[{"user_id":240,"name":"Old Hat","steam_id":76561197994673297,"connected_time":983000000000,"state":"active","ping":60},{"user_id":256,"name":"SaltyCupcakes","steam_id":76561198256386417,"connected_time":233000000000,"state":"active","ping":57},{"user_id":238,"name":"lelecobi324","steam_id":76561198878030367,"connected_time":1054000000000,"state":"active","ping":104},{"user_id":235,"name":"(wm) Das Fleisch","steam_id":76561198001250715,"connected_time":1350000000000,"state":"active","ping":52},{"user_id":241,"name":"Cosmic Gamer","steam_id":76561198027357981,"connected_time":977000000000,"state":"active","ping":95},{"user_id":239,"name":"CarbonPan","steam_id":76561198072169983,"connected_time":1041000000000,"state":"active","ping":90},{"user_id":236,"name":"GardenFungus","steam_id":76561198054894337,"connected_time":1207000000000,"state":"active","ping":52},{"user_id":254,"name":"kotamine","steam_id":76561198068907991,"connected_time":537000000000,"state":"active","ping":72},{"user_id":226,"name":"skittish maiden","steam_id":76561198096856475,"connected_time":1542000000000,"state":"active","ping":46},{"user_id":242,"name":"EGirlGang","steam_id":76561198257435792,"connected_time":889000000000,"state":"active","ping":70},{"user_id":225,"name":"burger","steam_id":76561198071674964,"connected_time":1564000000000,"state":"active","ping":67},{"user_id":228,"name":"CRAZY VIKING","steam_id":76561198061440669,"connected_time":1512000000000,"state":"active","ping":65},{"user_id":244,"name":"Boki","steam_id":76561198044553351,"connected_time":876000000000,"state":"active","ping":75},{"user_id":232,"name":"crazyredhead yt","steam_id":76561198297679010,"connected_time":1475000000000,"state":"active","ping":66},{"user_id":245,"name":"ricky pee pee","steam_id":76561198152620745,"connected_time":867000000000,"state":"active","ping":68},{"user_id":237,"name":"benifis163","steam_id":76561198420973492,"connected_time":1186000000000,"state":"active","ping":101},{"user_id":246,"name":"tb","steam_id":76561198326153524,"connected_time":826000000000,"state":"active","ping":68},{"user_id":247,"name":"W","steam_id":76561198273623211,"connected_time":823000000000,"state":"active","ping":88},{"user_id":255,"name":"Rezkey","steam_id":76561198206079048,"connected_time":443000000000,"state":"active","ping":61},{"user_id":250,"name":"Spajro","steam_id":76561198257383813,"connected_time":607000000000,"state":"active","ping":45},{"user_id":257,"name":"Big Trader","steam_id":76561197992364667,"connected_time":179000000000,"state":"active","ping":73},{"user_id":252,"name":"Luuk","steam_id":76561198088266026,"connected_time":602000000000,"state":"active","ping":51},{"user_id":253,"name":"player","steam_id":76561198054474684,"connected_time":586000000000,"state":"active","ping":74}]},{"server_id":309,"name":"Uncletopia | Frankfurt | 4 | All Maps","name_short":"frk-4","host":"frk-1.de.uncletopia.com","port":27045,"enabled":true,"region":"eu","cc":"de","latitude":50.110924,"longitude":8.682127,"reserved":0,"last_update":"0001-01-01T00:00:00Z","name_a2s":"Uncletopia | Frankfurt | 4 | All Maps","protocol":17,"map":"koth_highpass","folder":"tf","game":"Team Fortress","app_id":440,"player_count":0,"max_players":24,"Bots":0,"server_type":"Dedicated","server_os":"Linux","password":true,"vac":true,"version":"7757534","steam_id":85568392924504275,"keywords":["cp","nocrits","nodmgspread","uncletopia"],"game_id":440,"stv_port":27046,"stv_name":"Uncletopia | Frankfurt | 4 | All Maps | STV","players":null},{"server_id":310,"name":"Uncletopia | Frankfurt | 5 | All Maps","name_short":"frk-5","host":"frk-1.de.uncletopia.com","port":27055,"enabled":true,"region":"eu","cc":"de","latitude":50.110924,"longitude":8.682127,"reserved":0,"last_update":"0001-01-01T00:00:00Z","name_a2s":"Uncletopia | Frankfurt | 5 | All Maps","protocol":17,"map":"pl_barnblitz","folder":"tf","game":"Team Fortress","app_id":440,"player_count":24,"max_players":24,"Bots":0,"server_type":"Dedicated","server_os":"Linux","password":true,"vac":true,"version":"7757534","steam_id":85568392924504277,"keywords":["nocrits","nodmgspread","payload","uncletopia"],"game_id":440,"stv_port":27056,"stv_name":"Uncletopia | Frankfurt | 5 | All Maps | STV","players":[{"user_id":199,"name":"Bastard'Nick","steam_id":76561198044044651,"connected_time":771000000000,"state":"active","ping":71},{"user_id":168,"name":"ax","steam_id":76561199216923710,"connected_time":2640000000000,"state":"active","ping":141},{"user_id":190,"name":"banetoid","steam_id":76561198024878279,"connected_time":1757000000000,"state":"active","ping":91},{"user_id":154,"name":"Femboypawnguy","steam_id":76561198274894771,"connected_time":3835000000000,"state":"active","ping":57},{"user_id":208,"name":"System","steam_id":76561199442503973,"connected_time":53000000000,"state":"active","ping":34},{"user_id":205,"name":"Dolcelatte","steam_id":76561198038501770,"connected_time":296000000000,"state":"active","ping":49},{"user_id":184,"name":"Pico","steam_id":76561198063552545,"connected_time":2079000000000,"state":"active","ping":99},{"user_id":166,"name":"–ø—É—Ç—å —à–µ–ª–ª–∏","steam_id":76561198003653977,"connected_time":2656000000000,"state":"active","ping":86},{"user_id":204,"name":"i brought a fart to poop fight","steam_id":76561198097507847,"connected_time":333000000000,"state":"active","ping":78},{"user_id":179,"name":"Caliban","steam_id":76561197999696839,"connected_time":2311000000000,"state":"active","ping":98},{"user_id":164,"name":"—Å—ã–Ω_—Ö–∞—á–µ–π256","steam_id":76561198188886021,"connected_time":2678000000000,"state":"active","ping":168},{"user_id":188,"name":"Gulaschkanone","steam_id":76561198157689006,"connected_time":1940000000000,"state":"active","ping":69},{"user_id":197,"name":"Loading... #SaveTF2","steam_id":76561199187994779,"connected_time":1013000000000,"state":"active","ping":73},{"user_id":191,"name":"lettuce at 58p","steam_id":76561199401283123,"connected_time":1738000000000,"state":"active","ping":65},{"user_id":203,"name":"poshtoo @_@","steam_id":76561198106182078,"connected_time":353000000000,"state":"active","ping":103},{"user_id":149,"name":"K√§sidesi Mika","steam_id":76561198029973191,"connected_time":4077000000000,"state":"active","ping":107},{"user_id":193,"name":"Nydra","steam_id":76561198063916730,"connected_time":1439000000000,"state":"active","ping":45},{"user_id":177,"name":"LOBZIK","steam_id":76561198114830120,"connected_time":2345000000000,"state":"active","ping":76},{"user_id":189,"name":"omony","steam_id":76561197983750025,"connected_time":1762000000000,"state":"active","ping":87},{"user_id":162,"name":"hora","steam_id":76561198404470526,"connected_time":2968000000000,"state":"active","ping":99},{"user_id":194,"name":"Hey, I¬¥m Andy!","steam_id":76561198060337777,"connected_time":1438000000000,"state":"active","ping":77},{"user_id":198,"name":"C0d3s","steam_id":76561198093907544,"connected_time":943000000000,"state":"active","ping":100},{"user_id":207,"name":"Mr.Fosty","steam_id":76561198045212783,"connected_time":270000000000,"state":"active","ping":81},{"user_id":183,"name":"MAKENTAKEN","steam_id":76561199127359587,"connected_time":2122000000000,"state":"active","ping":86}]},{"server_id":311,"name":"Uncletopia | Frankfurt | 6 | All Maps","name_short":"frk-6","host":"frk-1.de.uncletopia.com","port":27065,"enabled":true,"region":"eu","cc":"de","latitude":50.110924,"longitude":8.682127,"reserved":0,"last_update":"0001-01-01T00:00:00Z","name_a2s":"Uncletopia | Frankfurt | 6 | All Maps","protocol":17,"map":"ctf_2fort","folder":"tf","game":"Team Fortress","app_id":440,"player_count":18,"max_players":24,"Bots":0,"server_type":"Dedicated","server_os":"Linux","password":true,"vac":true,"version":"7757534","steam_id":85568392924504278,"keywords":["ctf","nocrits","nodmgspread","uncletopia"],"game_id":440,"stv_port":27066,"stv_name":"Uncletopia | Frankfurt | 6 | All Maps | STV","players":[{"user_id":182,"name":"Truegr","steam_id":76561198811912339,"connected_time":1007000000000,"state":"active","ping":64},{"user_id":194,"name":"doodad","steam_id":76561198010323493,"connected_time":250000000000,"state":"active","ping":54},{"user_id":183,"name":"fried","steam_id":76561198307522022,"connected_time":973000000000,"state":"active","ping":53},{"user_id":180,"name":"Frank","steam_id":76561198086672774,"connected_time":1350000000000,"state":"active","ping":58},{"user_id":175,"name":"Extinction Is Forever","steam_id":76561198114257665,"connected_time":1630000000000,"state":"active","ping":126},{"user_id":195,"name":"Spraxinator","steam_id":76561199083563607,"connected_time":226000000000,"state":"active","ping":203},{"user_id":196,"name":"Dachowiec","steam_id":76561198195408281,"connected_time":225000000000,"state":"active","ping":60},{"user_id":197,"name":"no capybara?","steam_id":76561198830637623,"connected_time":200000000000,"state":"active","ping":138},{"user_id":198,"name":"tqla","steam_id":76561198073092585,"connected_time":199000000000,"state":"active","ping":89},{"user_id":192,"name":"swag messiah","steam_id":76561199235555106,"connected_time":467000000000,"state":"active","ping":64},{"user_id":189,"name":"Sky","steam_id":76561198087415698,"connected_time":607000000000,"state":"active","ping":60},{"user_id":199,"name":"Medical mann gaming","steam_id":76561198388750592,"connected_time":127000000000,"state":"active","ping":63},{"user_id":200,"name":"lore","steam_id":76561198120984188,"connected_time":43000000000,"state":"active","ping":68},{"user_id":113,"name":"sharkmax12312","steam_id":76561198996008569,"connected_time":6968000000000,"state":"active","ping":67},{"user_id":141,"name":"‚ôÇ Necronomico ‚ôÇ","steam_id":76561198079272212,"connected_time":5250000000000,"state":"active","ping":95},{"user_id":201,"name":"The Original Aboriginal","steam_id":76561198341886313,"connected_time":40000000000,"state":"active","ping":72},{"user_id":202,"name":"Newax","steam_id":76561198020758511,"connected_time":30000000000,"state":"active","ping":60},{"user_id":121,"name":"Cheers Mate!","steam_id":76561198265192382,"connected_time":6661000000000,"state":"active","ping":59}]},{"server_id":23,"name":"Uncletopia | Frankfurt | 7 | Stopwatch Beta","name_short":"frk-7","host":"frk-1.de.uncletopia.com","port":27075,"enabled":true,"region":"eu","cc":"de","latitude":50.110924,"longitude":8.682127,"reserved":0,"last_update":"0001-01-01T00:00:00Z","name_a2s":"Uncletopia | Frankfurt | 7 | Stopwatch Beta","protocol":17,"map":"pl_borneo","folder":"tf","game":"Team Fortress","app_id":440,"player_count":0,"max_players":24,"Bots":0,"server_type":"Dedicated","server_os":"Linux","password":true,"vac":true,"version":"7757534","steam_id":85568392924742827,"keywords":["nocrits","nodmgspread","payload","uncletopia"],"game_id":440,"stv_port":27076,"stv_name":"Uncletopia | Frankfurt | 7 | Stopwatch Beta | STV","players":null},{"server_id":24,"name":"Uncletopia | Frankfurt | 8 | Community","name_short":"frk-8","host":"frk-1.de.uncletopia.com","port":27085,"enabled":true,"region":"eu","cc":"de","latitude":50.110924,"longitude":8.682127,"reserved":0,"last_update":"0001-01-01T00:00:00Z","name_a2s":"Uncletopia | Frankfurt | 8 | Community","protocol":17,"map":"workshop/cp_propaganda_b18.ugc1603743849","folder":"tf","game":"Team Fortress","app_id":440,"player_count":1,"max_players":24,"Bots":0,"server_type":"Dedicated","server_os":"Linux","password":true,"vac":true,"version":"7757534","steam_id":85568392924742828,"keywords":["cp","nocrits","nodmgspread","uncletopia"],"game_id":440,"stv_port":27086,"stv_name":"Uncletopia | Frankfurt | 8 | Community | STV","players":[{"user_id":11,"name":"Denialman (Muted)","steam_id":76561198309182092,"connected_time":547000000000,"state":"active","ping":56}]},{"server_id":202,"name":"Uncletopia | Hong Kong | 1 | All Maps","name_short":"hgk-1","host":"hgk-1.hk.uncletopia.com","port":27015,"enabled":true,"region":"asia","cc":"hk","latitude":22.302711,"longitude":114.177216,"reserved":0,"last_update":"0001-01-01T00:00:00Z","name_a2s":"Uncletopia | Hong Kong | 1 | All Maps","protocol":17,"map":"koth_lakeside_final","folder":"tf","game":"Team Fortress","app_id":440,"player_count":0,"max_players":24,"Bots":0,"server_type":"Dedicated","server_os":"Linux","password":true,"vac":true,"version":"7757534","steam_id":85568392924494504,"keywords":["cp","nocrits","nodmgspread","uncletopia"],"game_id":440,"stv_port":27016,"stv_name":"Uncletopia | Hong Kong | 1 | All Maps | STV","players":null},{"server_id":1,"name":"Uncletopia | Los Angeles | 1 | All Maps","name_short":"lax-1","host":"lax-1.us.uncletopia.com","port":27015,"enabled":true,"region":"us-west","cc":"us","latitude":33.94279,"longitude":-118.41004,"reserved":0,"last_update":"0001-01-01T00:00:00Z","name_a2s":"Uncletopia | Los Angeles | 1 | All Maps","protocol":17,"map":"pl_borneo","folder":"tf","game":"Team Fortress","app_id":440,"player_count":0,"max_players":24,"Bots":0,"server_type":"Dedicated","server_os":"Linux","password":true,"vac":true,"version":"7757534","steam_id":85568392924469991,"keywords":["nocrits","nodmgspread","payload","uncletopia"],"game_id":440,"stv_port":27016,"stv_name":"Uncletopia | Los Angeles | 1 | All Maps | STV","players":null},{"server_id":112,"name":"Uncletopia | Los Angeles | 2 | All Maps","name_short":"lax-2","host":"lax-1.us.uncletopia.com","port":27025,"enabled":true,"region":"us-west","cc":"us","latitude":33.94279,"longitude":-118.41004,"reserved":0,"last_update":"0001-01-01T00:00:00Z","name_a2s":"Uncletopia | Los Angeles | 2 | All Maps","protocol":17,"map":"koth_viaduct","folder":"tf","game":"Team Fortress","app_id":440,"player_count":0,"max_players":24,"Bots":0,"server_type":"Dedicated","server_os":"Linux","password":true,"vac":true,"version":"7757534","steam_id":85568392924469992,"keywords":["cp","nocrits","nodmgspread","uncletopia"],"game_id":440,"stv_port":27026,"stv_name":"Uncletopia | Los Angeles | 2 | All Maps | STV","players":null},{"server_id":324,"name":"Uncletopia | Los Angeles | 3 | All Maps","name_short":"lax-3","host":"lax-1.us.uncletopia.com","port":27035,"enabled":true,"region":"us-west","cc":"us","latitude":33.94279,"longitude":-118.41004,"reserved":0,"last_update":"0001-01-01T00:00:00Z","name_a2s":"Uncletopia | Los Angeles | 3 | All Maps","protocol":17,"map":"cp_altitude","folder":"tf","game":"Team Fortress","app_id":440,"player_count":0,"max_players":24,"Bots":0,"server_type":"Dedicated","server_os":"Linux","password":true,"vac":true,"version":"7757534","steam_id":85568392924510198,"keywords":["cp","nocrits","nodmgspread","uncletopia"],"game_id":440,"stv_port":27036,"stv_name":"Uncletopia | Los Angeles | 3 | All Maps | STV","players":null},{"server_id":25,"name":"Uncletopia | Los Angeles | 4 | Stopwatch Beta","name_short":"lax-4","host":"lax-1.us.uncletopia.com","port":27045,"enabled":true,"region":"us-west","cc":"us","latitude":33.94279,"longitude":-118.41004,"reserved":0,"last_update":"0001-01-01T00:00:00Z","name_a2s":"Uncletopia | Los Angeles | 4 | Stopwatch Beta","protocol":17,"map":"cp_dustbowl","folder":"tf","game":"Team Fortress","app_id":440,"player_count":0,"max_players":24,"Bots":0,"server_type":"Dedicated","server_os":"Linux","password":true,"vac":true,"version":"7757534","steam_id":85568392924510199,"keywords":["cp","nocrits","nodmgspread","uncletopia"],"game_id":440,"stv_port":27046,"stv_name":"Uncletopia | Los Angeles | 4 | Stopwatch Beta | STV","players":null},{"server_id":11,"name":"Uncletopia | London | 1 | All Maps","name_short":"lon-1","host":"lon-1.uk.uncletopia.com","port":27015,"enabled":true,"region":"eu","cc":"gb","latitude":51.509865,"longitude":-0.118092,"reserved":0,"last_update":"0001-01-01T00:00:00Z","name_a2s":"Uncletopia | London | 1 | All Maps","protocol":17,"map":"koth_harvest_final","folder":"tf","game":"Team Fortress","app_id":440,"player_count":24,"max_players":24,"Bots":0,"server_type":"Dedicated","server_os":"Linux","password":true,"vac":true,"version":"7757534","steam_id":85568392924367362,"keywords":["cp","nocrits","nodmgspread","uncletopia"],"game_id":440,"stv_port":27016,"stv_name":"Uncletopia | London | 1 | All Maps | STV","players":[{"user_id":454,"name":"Cheese pizza connoisseur","steam_id":76561199062160061,"connected_time":2017000000000,"state":"active","ping":50},{"user_id":486,"name":"Stragnov‚òÜ","steam_id":76561198074702465,"connected_time":597000000000,"state":"active","ping":65},{"user_id":496,"name":"Sm√∂rh√•lan","steam_id":76561198026512755,"connected_time":160000000000,"state":"active","ping":70},{"user_id":363,"name":"‚®Ç","steam_id":76561198087800030,"connected_time":6623000000000,"state":"active","ping":75},{"user_id":458,"name":"waffle toaster","steam_id":76561198799089628,"connected_time":1772000000000,"state":"active","ping":39},{"user_id":364,"name":"Meow","steam_id":76561198349648942,"connected_time":6620000000000,"state":"active","ping":77},{"user_id":490,"name":"Glushy","steam_id":76561198436817109,"connected_time":445000000000,"state":"active","ping":46},{"user_id":433,"name":"peruna","steam_id":76561198000721196,"connected_time":3290000000000,"state":"active","ping":94},{"user_id":444,"name":"Jughead","steam_id":76561198000355410,"connected_time":2809000000000,"state":"active","ping":43},{"user_id":459,"name":"fume.","steam_id":76561197960476801,"connected_time":1761000000000,"state":"active","ping":54},{"user_id":495,"name":"James","steam_id":76561198138558005,"connected_time":178000000000,"state":"active","ping":45},{"user_id":492,"name":"Ptahotep","steam_id":76561198008708645,"connected_time":429000000000,"state":"active","ping":66},{"user_id":482,"name":"reipatti","steam_id":76561198084705148,"connected_time":718000000000,"state":"active","ping":81},{"user_id":480,"name":"scarfweather","steam_id":76561198121331836,"connected_time":898000000000,"state":"active","ping":54},{"user_id":485,"name":"Alexandre","steam_id":76561198121784446,"connected_time":629000000000,"state":"active","ping":38},{"user_id":438,"name":"yeatfan_2008","steam_id":76561198289343488,"connected_time":2985000000000,"state":"active","ping":57},{"user_id":497,"name":"Yamabushi","steam_id":76561198077423574,"connected_time":50000000000,"state":"active","ping":101},{"user_id":479,"name":"CRITRAWKET","steam_id":76561198256755222,"connected_time":903000000000,"state":"active","ping":43},{"user_id":466,"name":"yeh","steam_id":76561198061197114,"connected_time":1627000000000,"state":"active","ping":71},{"user_id":493,"name":"The Masterplan","steam_id":76561198158631465,"connected_time":338000000000,"state":"active","ping":72},{"user_id":468,"name":"sareena","steam_id":76561198810194062,"connected_time":1615000000000,"state":"active","ping":70},{"user_id":483,"name":"Mikeal (very tired)","steam_id":76561198241759034,"connected_time":711000000000,"state":"active","ping":106},{"user_id":494,"name":"hide on bush","steam_id":76561198149967445,"connected_time":268000000000,"state":"active","ping":45},{"user_id":471,"name":"Bo","steam_id":76561198023975550,"connected_time":1610000000000,"state":"active","ping":72}]},{"server_id":114,"name":"Uncletopia | London | 2 | All Maps","name_short":"lon-2","host":"lon-1.uk.uncletopia.com","port":27025,"enabled":true,"region":"eu","cc":"gb","latitude":51.509865,"longitude":-0.118092,"reserved":0,"last_update":"0001-01-01T00:00:00Z","name_a2s":"Uncletopia | London | 2 | All Maps","protocol":17,"map":"pl_pier","folder":"tf","game":"Team Fortress","app_id":440,"player_count":0,"max_players":24,"Bots":0,"server_type":"Dedicated","server_os":"Linux","password":true,"vac":true,"version":"7757534","steam_id":85568392924470941,"keywords":["nocrits","nodmgspread","payload","uncletopia"],"game_id":440,"stv_port":27026,"stv_name":"Uncletopia | London | 2 | All Maps | STV","players":null},{"server_id":320,"name":"Uncletopia | London | 3 | All Maps","name_short":"lon-3","host":"lon-1.uk.uncletopia.com","port":27035,"enabled":true,"region":"eu","cc":"gb","latitude":51.509865,"longitude":-0.118092,"reserved":0,"last_update":"0001-01-01T00:00:00Z","name_a2s":"Uncletopia | London | 3 | All Maps","protocol":17,"map":"pl_pier","folder":"tf","game":"Team Fortress","app_id":440,"player_count":17,"max_players":24,"Bots":0,"server_type":"Dedicated","server_os":"Linux","password":true,"vac":true,"version":"7757534","steam_id":85568392924510192,"keywords":["nocrits","nodmgspread","payload","uncletopia"],"game_id":440,"stv_port":27036,"stv_name":"Uncletopia | London | 3 | All Maps | STV","players":[{"user_id":53,"name":"Rubi","steam_id":76561198139410003,"connected_time":2101000000000,"state":"active","ping":81},{"user_id":74,"name":"Washburne","steam_id":76561198032810579,"connected_time":1522000000000,"state":"active","ping":45},{"user_id":40,"name":"halcyon","steam_id":76561198169859157,"connected_time":2465000000000,"state":"active","ping":41},{"user_id":35,"name":"hedon/","steam_id":76561198249832770,"connected_time":2630000000000,"state":"active","ping":47},{"user_id":92,"name":"lm","steam_id":76561198836754631,"connected_time":140000000000,"state":"active","ping":44},{"user_id":34,"name":"Cosmetic brain","steam_id":76561198055936410,"connected_time":2791000000000,"state":"active","ping":77},{"user_id":91,"name":"BRICK TOP","steam_id":76561198014366715,"connected_time":174000000000,"state":"active","ping":46},{"user_id":63,"name":"fl1p","steam_id":76561198148565659,"connected_time":1913000000000,"state":"active","ping":62},{"user_id":72,"name":"Topia","steam_id":76561198163571788,"connected_time":1565000000000,"state":"active","ping":93},{"user_id":88,"name":"Zarden","steam_id":76561198080638451,"connected_time":350000000000,"state":"active","ping":53},{"user_id":44,"name":"After8","steam_id":76561198090750865,"connected_time":2195000000000,"state":"active","ping":66},{"user_id":64,"name":"magiluli","steam_id":76561199126600639,"connected_time":1900000000000,"state":"active","ping":108},{"user_id":46,"name":"jovi_","steam_id":76561198449280552,"connected_time":2185000000000,"state":"active","ping":49},{"user_id":65,"name":"Milosz52","steam_id":76561199060940204,"connected_time":1856000000000,"state":"active","ping":91},{"user_id":89,"name":"static","steam_id":76561198836825741,"connected_time":301000000000,"state":"active","ping":42},{"user_id":54,"name":"Grillem Dafoe","steam_id":76561198306874574,"connected_time":2091000000000,"state":"active","ping":58},{"user_id":82,"name":"mei ‚ô•","steam_id":76561198028078806,"connected_time":949000000000,"state":"active","ping":45}]},{"server_id":321,"name":"Uncletopia | London | 4 | All Maps","name_short":"lon-4","host":"lon-1.uk.uncletopia.com","port":27045,"enabled":true,"region":"eu","cc":"gb","latitude":51.509865,"longitude":-0.118092,"reserved":0,"last_update":"0001-01-01T00:00:00Z","name_a2s":"Uncletopia | London | 4 | All Maps","protocol":17,"map":"pl_snowycoast","folder":"tf","game":"Team Fortress","app_id":440,"player_count":0,"max_players":24,"Bots":0,"server_type":"Dedicated","server_os":"Linux","password":true,"vac":true,"version":"7757534","steam_id":85568392924510193,"keywords":["nocrits","nodmgspread","payload","uncletopia"],"game_id":440,"stv_port":27046,"stv_name":"Uncletopia | London | 4 | All Maps | STV","players":null},{"server_id":21,"name":"Uncletopia | London | 5 | All Maps","name_short":"lon-5","host":"lon-1.uk.uncletopia.com","port":27055,"enabled":true,"region":"eu","cc":"gb","latitude":51.509865,"longitude":-0.118092,"reserved":0,"last_update":"0001-01-01T00:00:00Z","name_a2s":"Uncletopia | London | 5 | All Maps","protocol":17,"map":"pl_goldrush","folder":"tf","game":"Team Fortress","app_id":440,"player_count":23,"max_players":24,"Bots":0,"server_type":"Dedicated","server_os":"Linux","password":true,"vac":true,"version":"7757534","steam_id":85568392924742829,"keywords":["nocrits","nodmgspread","payload","uncletopia"],"game_id":440,"stv_port":27056,"stv_name":"Uncletopia | London | 5 | All Maps | STV","players":[{"user_id":454,"name":"A DD ICTI ON","steam_id":76561198050973207,"connected_time":3021000000000,"state":"active","ping":76},{"user_id":478,"name":"Charon","steam_id":76561198061714753,"connected_time":1473000000000,"state":"active","ping":76},{"user_id":473,"name":"on1on (pickled)","steam_id":76561197995304137,"connected_time":1939000000000,"state":"active","ping":74},{"user_id":479,"name":"HERISSON","steam_id":76561199062194778,"connected_time":1448000000000,"state":"active","ping":59},{"user_id":448,"name":"Regan","steam_id":76561198100631086,"connected_time":3443000000000,"state":"active","ping":52},{"user_id":501,"name":"lumiukko","steam_id":76561199103891073,"connected_time":43000000000,"state":"active","ping":113},{"user_id":492,"name":"Oak","steam_id":76561198067315672,"connected_time":815000000000,"state":"active","ping":43},{"user_id":437,"name":"Na'vi Misato (by popular demand","steam_id":76561198130860698,"connected_time":3862000000000,"state":"active","ping":58},{"user_id":425,"name":"Bat in a thousand","steam_id":76561198320506848,"connected_time":4900000000000,"state":"active","ping":39},{"user_id":500,"name":"quake 2 hater","steam_id":76561198101451654,"connected_time":199000000000,"state":"active","ping":47},{"user_id":495,"name":"Fancy","steam_id":76561198350658462,"connected_time":745000000000,"state":"active","ping":77},{"user_id":498,"name":"–∏–≤–∞–Ω","steam_id":76561198072730591,"connected_time":533000000000,"state":"active","ping":63},{"user_id":484,"name":"Gnarville","steam_id":76561198006373329,"connected_time":1360000000000,"state":"active","ping":45},{"user_id":432,"name":"Firevell","steam_id":76561198154813359,"connected_time":4302000000000,"state":"active","ping":66},{"user_id":288,"name":"Houlles","steam_id":76561198095277383,"connected_time":15885000000000,"state":"active","ping":45},{"user_id":471,"name":"Xx_„Åà„Å™„Å™„ÇìxX69","steam_id":76561199427679148,"connected_time":1995000000000,"state":"active","ping":68},{"user_id":485,"name":"VolcanicArts","steam_id":76561198063453246,"connected_time":1277000000000,"state":"active","ping":50},{"user_id":496,"name":"Archer","steam_id":76561198132860299,"connected_time":722000000000,"state":"active","ping":53},{"user_id":487,"name":"socaramel","steam_id":76561197984480336,"connected_time":1111000000000,"state":"active","ping":77},{"user_id":489,"name":"tob:ias","steam_id":76561198832146626,"connected_time":887000000000,"state":"active","ping":58},{"user_id":497,"name":"Baki ‡∂û","steam_id":76561198193615529,"connected_time":661000000000,"state":"active","ping":61},{"user_id":436,"name":"Pong Lenis","steam_id":76561199050054470,"connected_time":4158000000000,"state":"active","ping":106},{"user_id":499,"name":"CousinCarL","steam_id":76561198028421250,"connected_time":532000000000,"state":"active","ping":114}]},{"server_id":22,"name":"Uncletopia | London | 6 | All Maps","name_short":"lon-6","host":"lon-1.uk.uncletopia.com","port":27065,"enabled":true,"region":"eu","cc":"gb","latitude":51.509865,"longitude":-0.118092,"reserved":0,"last_update":"0001-01-01T00:00:00Z","name_a2s":"Uncletopia | London | 6 | All Maps","protocol":17,"map":"koth_highpass","folder":"tf","game":"Team Fortress","app_id":440,"player_count":0,"max_players":24,"Bots":0,"server_type":"Dedicated","server_os":"Linux","password":true,"vac":true,"version":"7757534","steam_id":85568392924742830,"keywords":["cp","nocrits","nodmgspread","uncletopia"],"game_id":440,"stv_port":27066,"stv_name":"Uncletopia | London | 6 | All Maps | STV","players":null},{"server_id":40,"name":"Uncletopia | London | 7 | No Payload","name_short":"lon-7","host":"lon-1.uk.uncletopia.com","port":27075,"enabled":true,"region":"eu","cc":"gb","latitude":51.509865,"longitude":-0.118092,"reserved":0,"last_update":"0001-01-01T00:00:00Z","name_a2s":"Uncletopia | London | 7 | No Payload","protocol":17,"map":"koth_highpass","folder":"tf","game":"Team Fortress","app_id":440,"player_count":0,"max_players":24,"Bots":0,"server_type":"Dedicated","server_os":"Linux","password":true,"vac":true,"version":"7757534","steam_id":85568392924964314,"keywords":["cp","nocrits","nodmgspread","uncletopia"],"game_id":440,"stv_port":27076,"stv_name":"Uncletopia | London | 7 | No Payload | STV","players":null},{"server_id":41,"name":"Uncletopia | London | 8 | Community","name_short":"lon-8","host":"lon-1.uk.uncletopia.com","port":27085,"enabled":true,"region":"eu","cc":"gb","latitude":51.509865,"longitude":-0.118092,"reserved":0,"last_update":"0001-01-01T00:00:00Z","name_a2s":"Uncletopia | London | 8 | Community","protocol":17,"map":"workshop/cp_snowbase_b18.ugc2081770490","folder":"tf","game":"Team Fortress","app_id":440,"player_count":21,"max_players":24,"Bots":0,"server_type":"Dedicated","server_os":"Linux","password":true,"vac":true,"version":"7757534","steam_id":85568392924964315,"keywords":["cp","nocrits","nodmgspread","uncletopia"],"game_id":440,"stv_port":27086,"stv_name":"Uncletopia | London | 8 | Community | STV","players":[{"user_id":327,"name":"TylowStar","steam_id":76561198357107806,"connected_time":1840000000000,"state":"active","ping":62},{"user_id":348,"name":"luka","steam_id":76561198127739769,"connected_time":109000000000,"state":"active","ping":89},{"user_id":344,"name":"ScarredPixel123","steam_id":76561199165112703,"connected_time":338000000000,"state":"active","ping":88},{"user_id":313,"name":"Solu","steam_id":76561198054652468,"connected_time":2506000000000,"state":"active","ping":53},{"user_id":9,"name":"Fat Pigeon","steam_id":76561198817940142,"connected_time":22526000000000,"state":"active","ping":59},{"user_id":299,"name":"Raid Leader","steam_id":76561198840449030,"connected_time":3053000000000,"state":"active","ping":57},{"user_id":343,"name":"Joseph Stalin","steam_id":76561198033199746,"connected_time":466000000000,"state":"active","ping":45},{"user_id":132,"name":"PizzaPete123","steam_id":76561198089478290,"connected_time":14181000000000,"state":"active","ping":38},{"user_id":346,"name":"Chivler","steam_id":76561198097655395,"connected_time":190000000000,"state":"active","ping":54},{"user_id":314,"name":"T K","steam_id":76561198134256917,"connected_time":2358000000000,"state":"active","ping":70},{"user_id":325,"name":"ikeaworst","steam_id":76561198936990378,"connected_time":1889000000000,"state":"active","ping":67},{"user_id":326,"name":"gagalak","steam_id":76561198089979108,"connected_time":1845000000000,"state":"active","ping":102},{"user_id":345,"name":"TheFallenFox","steam_id":76561199074190919,"connected_time":272000000000,"state":"active","ping":71},{"user_id":315,"name":"AYE","steam_id":76561198181368101,"connected_time":2332000000000,"state":"active","ping":60},{"user_id":341,"name":"Dunxle","steam_id":76561198236630276,"connected_time":617000000000,"state":"active","ping":38},{"user_id":305,"name":"Purps","steam_id":76561198053886680,"connected_time":2701000000000,"state":"active","ping":38},{"user_id":336,"name":"Gormbrain","steam_id":76561198020079511,"connected_time":934000000000,"state":"active","ping":30},{"user_id":335,"name":"spooks","steam_id":76561198048205059,"connected_time":1279000000000,"state":"active","ping":90},{"user_id":317,"name":"Yanniki","steam_id":76561197986058110,"connected_time":2277000000000,"state":"active","ping":119},{"user_id":333,"name":"Dr.Sees [F2P]","steam_id":76561199219233587,"connected_time":1474000000000,"state":"active","ping":75},{"user_id":322,"name":"An Unhappy Clown","steam_id":76561198175516514,"connected_time":2177000000000,"state":"active","ping":145}]},{"server_id":300,"name":"Uncletopia | Montr√©al | 1 | All Maps","name_short":"mtl-1","host":"mtl-1.ca.uncletopia.com","port":27015,"enabled":true,"region":"us-east","cc":"ca","latitude":45.50889,"longitude":-73.56167,"reserved":0,"last_update":"0001-01-01T00:00:00Z","name_a2s":"Uncletopia | Montr√©al | 1 | All Maps","protocol":17,"map":"pl_pier","folder":"tf","game":"Team Fortress","app_id":440,"player_count":0,"max_players":24,"Bots":0,"server_type":"Dedicated","server_os":"Linux","password":true,"vac":true,"version":"7757534","steam_id":85568392924500087,"keywords":["nocrits","nodmgspread","payload","uncletopia"],"game_id":440,"stv_port":27016,"stv_name":"Uncletopia | Montr√©al | 1 | All Maps | STV","players":null},{"server_id":301,"name":"Uncletopia | Montr√©al | 2 | All Maps","name_short":"mtl-2","host":"mtl-1.ca.uncletopia.com","port":27025,"enabled":true,"region":"us-east","cc":"ca","latitude":45.50889,"longitude":-73.56167,"reserved":0,"last_update":"0001-01-01T00:00:00Z","name_a2s":"Uncletopia | Montr√©al | 2 | All Maps","protocol":17,"map":"cp_sunshine","folder":"tf","game":"Team Fortress","app_id":440,"player_count":0,"max_players":24,"Bots":0,"server_type":"Dedicated","server_os":"Linux","password":true,"vac":true,"version":"7757534","steam_id":85568392924500088,"keywords":["cp","nocrits","nodmgspread","uncletopia"],"game_id":440,"stv_port":27026,"stv_name":"Uncletopia | Montr√©al | 2 | All Maps | STV","players":null},{"server_id":302,"name":"Uncletopia | Montr√©al | 3 | All Maps","name_short":"mtl-3","host":"mtl-1.ca.uncletopia.com","port":27035,"enabled":true,"region":"us-east","cc":"ca","latitude":45.50889,"longitude":-73.56167,"reserved":0,"last_update":"0001-01-01T00:00:00Z","name_a2s":"Uncletopia | Montr√©al | 3 | All Maps","protocol":17,"map":"pl_frontier_final","folder":"tf","game":"Team Fortress","app_id":440,"player_count":0,"max_players":24,"Bots":0,"server_type":"Dedicated","server_os":"Linux","password":true,"vac":true,"version":"7757534","steam_id":85568392924500089,"keywords":["nocrits","nodmgspread","payload","uncletopia"],"game_id":440,"stv_port":27036,"stv_name":"Uncletopia | Montr√©al | 3 | All Maps | STV","players":null},{"server_id":303,"name":"Uncletopia | Montr√©al | 4 | No Payload","name_short":"mtl-4","host":"mtl-1.ca.uncletopia.com","port":27045,"enabled":true,"region":"us-east","cc":"ca","latitude":45.50889,"longitude":-73.56167,"reserved":0,"last_update":"0001-01-01T00:00:00Z","name_a2s":"Uncletopia | Montr√©al | 4 | No Payload","protocol":17,"map":"pl_pier","folder":"tf","game":"Team Fortress","app_id":440,"player_count":0,"max_players":24,"Bots":0,"server_type":"Dedicated","server_os":"Linux","password":true,"vac":true,"version":"7757534","steam_id":85568392924500090,"keywords":["nocrits","nodmgspread","payload","uncletopia"],"game_id":440,"stv_port":27046,"stv_name":"Uncletopia | Montr√©al | 4 | No Payload | STV","players":null},{"server_id":13,"name":"Uncletopia | New York City | 1 | All Maps","name_short":"nyc-1","host":"nyc-1.us.uncletopia.com","port":27015,"enabled":true,"region":"us-east","cc":"us","latitude":40.73061,"longitude":-73.93524,"reserved":0,"last_update":"0001-01-01T00:00:00Z","name_a2s":"Uncletopia | New York City | 1 | All Maps","protocol":17,"map":"cp_sunshine","folder":"tf","game":"Team Fortress","app_id":440,"player_count":21,"max_players":24,"Bots":0,"server_type":"Dedicated","server_os":"Linux","password":true,"vac":true,"version":"7757534","steam_id":85568392924469993,"keywords":["cp","nocrits","nodmgspread","uncletopia"],"game_id":440,"stv_port":27016,"stv_name":"Uncletopia | New York City | 1 | All Maps | STV","players":[{"user_id":149,"name":"Pennis the Menace","steam_id":76561198254878037,"connected_time":1452000000000,"state":"active","ping":243},{"user_id":179,"name":"PhatBoi","steam_id":76561198055859578,"connected_time":136000000000,"state":"active","ping":94},{"user_id":144,"name":"yavin IV","steam_id":76561198061135335,"connected_time":2147000000000,"state":"active","ping":51},{"user_id":180,"name":"barbara","steam_id":76561198072417792,"connected_time":22000000000,"state":"active","ping":108},{"user_id":152,"name":"Gamer Eye","steam_id":76561199163397015,"connected_time":1405000000000,"state":"active","ping":74},{"user_id":170,"name":"Doost44","steam_id":76561198115785902,"connected_time":917000000000,"state":"active","ping":71},{"user_id":142,"name":"_Catastor","steam_id":76561199074881663,"connected_time":2361000000000,"state":"active","ping":112},{"user_id":171,"name":"street baller","steam_id":76561198918417253,"connected_time":876000000000,"state":"active","ping":76},{"user_id":175,"name":"Rornir","steam_id":76561198081829615,"connected_time":204000000000,"state":"active","ping":53},{"user_id":135,"name":"Speedy","steam_id":76561198080761661,"connected_time":2667000000000,"state":"active","ping":63},{"user_id":147,"name":"Violet42","steam_id":76561198072927887,"connected_time":1751000000000,"state":"active","ping":44},{"user_id":114,"name":"Romo","steam_id":76561198243101572,"connected_time":3936000000000,"state":"active","ping":83},{"user_id":160,"name":"UEK","steam_id":76561198132903869,"connected_time":1317000000000,"state":"active","ping":76},{"user_id":155,"name":"lean against the wind","steam_id":76561197995620232,"connected_time":1374000000000,"state":"active","ping":34},{"user_id":173,"name":"Reverie","steam_id":76561198987005784,"connected_time":764000000000,"state":"active","ping":77},{"user_id":157,"name":"AverageRundownJoe","steam_id":76561198059359620,"connected_time":1369000000000,"state":"active","ping":70},{"user_id":174,"name":"PapaCheungus","steam_id":76561198052262520,"connected_time":538000000000,"state":"active","ping":68},{"user_id":177,"name":"walterhwhite","steam_id":76561199433675789,"connected_time":158000000000,"state":"active","ping":128},{"user_id":178,"name":"Scum!","steam_id":76561198051805219,"connected_time":156000000000,"state":"active","ping":69},{"user_id":169,"name":"Gandalf Gaming","steam_id":76561198368151490,"connected_time":998000000000,"state":"active","ping":45},{"user_id":159,"name":"[Tar] Peoh","steam_id":76561198065693037,"connected_time":1352000000000,"state":"active","ping":124}]},{"server_id":14,"name":"Uncletopia | New York City | 2 | All Maps","name_short":"nyc-2","host":"nyc-1.us.uncletopia.com","port":27025,"enabled":true,"region":"us-east","cc":"us","latitude":40.73061,"longitude":-73.93524,"reserved":0,"last_update":"0001-01-01T00:00:00Z","name_a2s":"Uncletopia | New York City | 2 | All Maps","protocol":17,"map":"cp_dustbowl","folder":"tf","game":"Team Fortress","app_id":440,"player_count":1,"max_players":24,"Bots":0,"server_type":"Dedicated","server_os":"Linux","password":true,"vac":true,"version":"7757534","steam_id":85568392924469994,"keywords":["cp","nocrits","nodmgspread","uncletopia"],"game_id":440,"stv_port":27026,"stv_name":"Uncletopia | New York City | 2 | All Maps | STV","players":[{"user_id":3,"name":"IggyYT","steam_id":76561198317980567,"connected_time":790000000000,"state":"active","ping":74}]},{"server_id":15,"name":"Uncletopia | New York City | 3 | Stopwatch Beta","name_short":"nyc-3","host":"nyc-1.us.uncletopia.com","port":27035,"enabled":true,"region":"us-east","cc":"us","latitude":40.73061,"longitude":-73.93524,"reserved":0,"last_update":"0001-01-01T00:00:00Z","name_a2s":"Uncletopia | New York City | 3 | Stopwatch Beta","protocol":17,"map":"koth_cascade","folder":"tf","game":"Team Fortress","app_id":440,"player_count":0,"max_players":24,"Bots":0,"server_type":"Dedicated","server_os":"Linux","password":true,"vac":true,"version":"7757534","steam_id":85568392924742820,"keywords":["cp","nocrits","nodmgspread","uncletopia"],"game_id":440,"stv_port":27036,"stv_name":"Uncletopia | New York City | 3 | Stopwatch Beta | STV","players":null},{"server_id":16,"name":"Uncletopia | New York City | 4 | Community","name_short":"nyc-4","host":"nyc-1.us.uncletopia.com","port":27045,"enabled":true,"region":"us-east","cc":"us","latitude":40.73061,"longitude":-73.93524,"reserved":0,"last_update":"0001-01-01T00:00:00Z","name_a2s":"Uncletopia | New York City | 4 | Community","protocol":17,"map":"pl_frontier_final","folder":"tf","game":"Team Fortress","app_id":440,"player_count":0,"max_players":24,"Bots":0,"server_type":"Dedicated","server_os":"Linux","password":true,"vac":true,"version":"7757534","steam_id":85568392924742821,"keywords":["nocrits","nodmgspread","payload","uncletopia"],"game_id":440,"stv_port":27046,"stv_name":"Uncletopia | New York City | 4 | Community | STV","players":null},{"server_id":142,"name":"Uncletopia | S√£o Paulo | 1 | All Maps","name_short":"sao-1","host":"sao-1.br.uncletopia.com","port":27015,"enabled":true,"region":"sa","cc":"br","latitude":-23.533773,"longitude":-46.62529,"reserved":0,"last_update":"0001-01-01T00:00:00Z","name_a2s":"Uncletopia | S√£o Paulo | 1 | All Maps","protocol":17,"map":"koth_viaduct","folder":"tf","game":"Team Fortress","app_id":440,"player_count":2,"max_players":24,"Bots":0,"server_type":"Dedicated","server_os":"Linux","password":true,"vac":true,"version":"7757534","steam_id":85568392924469996,"keywords":["cp","nocrits","nodmgspread","uncletopia"],"game_id":440,"stv_port":27016,"stv_name":"Uncletopia | S√£o Paulo | 1 | All Maps | STV","players":[{"user_id":5,"name":"guarda-chuva","steam_id":76561198078694330,"connected_time":1071000000000,"state":"active","ping":258},{"user_id":6,"name":"Tert_14","steam_id":76561198185952289,"connected_time":1062000000000,"state":"active","ping":60}]},{"server_id":143,"name":"Uncletopia | S√£o Paulo | 2 | All Maps","name_short":"sao-2","host":"sao-2.br.uncletopia.com","port":27015,"enabled":true,"region":"sa","cc":"br","latitude":-23.533773,"longitude":-46.62529,"reserved":0,"last_update":"0001-01-01T00:00:00Z","name_a2s":"Uncletopia | S√£o Paulo | 2 | All Maps","protocol":17,"map":"koth_cascade","folder":"tf","game":"Team Fortress","app_id":440,"player_count":0,"max_players":24,"Bots":0,"server_type":"Dedicated","server_os":"Linux","password":true,"vac":true,"version":"7757534","steam_id":85568392924485349,"keywords":["cp","nocrits","nodmgspread","uncletopia"],"game_id":440,"stv_port":27016,"stv_name":"Uncletopia | S√£o Paulo | 2 | All Maps | STV","players":null},{"server_id":7,"name":"Uncletopia | Seattle | 1 | All Maps","name_short":"sea-1","host":"sea-1.us.uncletopia.com","port":27015,"enabled":true,"region":"us-west","cc":"us","latitude":47.608013,"longitude":-122.33517,"reserved":0,"last_update":"0001-01-01T00:00:00Z","name_a2s":"Uncletopia | Seattle | 1 | All Maps","protocol":17,"map":"koth_harvest_final","folder":"tf","game":"Team Fortress","app_id":440,"player_count":24,"max_players":24,"Bots":0,"server_type":"Dedicated","server_os":"Linux","password":true,"vac":true,"version":"7757534","steam_id":85568392924469997,"keywords":["cp","nocrits","nodmgspread","uncletopia"],"game_id":440,"stv_port":27016,"stv_name":"Uncletopia | Seattle | 1 | All Maps | STV","players":[{"user_id":107,"name":"DiscoTraveler","steam_id":76561199240168088,"connected_time":1626000000000,"state":"active","ping":123},{"user_id":129,"name":"Tinyangel124","steam_id":76561199387234901,"connected_time":670000000000,"state":"active","ping":95},{"user_id":124,"name":"TTV/ArcticFlesh","steam_id":76561198099678868,"connected_time":793000000000,"state":"active","ping":120},{"user_id":96,"name":"Latte_doggo","steam_id":76561199106878457,"connected_time":2113000000000,"state":"active","ping":44},{"user_id":121,"name":"pt","steam_id":76561198143023330,"connected_time":885000000000,"state":"active","ping":75},{"user_id":136,"name":"bobletoob","steam_id":76561199184464900,"connected_time":305000000000,"state":"active","ping":88},{"user_id":130,"name":"jacix3 [gay wolfgirl]{she/it}","steam_id":76561198205004165,"connected_time":670000000000,"state":"active","ping":52},{"user_id":131,"name":"theeyeofsauronmc","steam_id":76561199157250663,"connected_time":663000000000,"state":"active","ping":112},{"user_id":100,"name":"CashBin","steam_id":76561199382865598,"connected_time":2051000000000,"state":"active","ping":98},{"user_id":141,"name":"copium addict","steam_id":76561199401665282,"connected_time":22000000000,"state":"active","ping":241},{"user_id":102,"name":"doomshroom","steam_id":76561198092827250,"connected_time":1823000000000,"state":"active","ping":51},{"user_id":103,"name":"Oktayey","steam_id":76561198143213426,"connected_time":1755000000000,"state":"active","ping":60},{"user_id":105,"name":"Steven Ultrakill","steam_id":76561199090937341,"connected_time":1717000000000,"state":"active","ping":85},{"user_id":132,"name":"Ramix","steam_id":76561198120419206,"connected_time":600000000000,"state":"active","ping":103},{"user_id":134,"name":"rustyorion","steam_id":76561198439186347,"connected_time":495000000000,"state":"active","ping":52},{"user_id":108,"name":"Ginger Jesus","steam_id":76561198052386458,"connected_time":1605000000000,"state":"active","ping":111},{"user_id":143,"name":"Skabbety","steam_id":76561198168044257,"connected_time":0,"state":"connecting","ping":0},{"user_id":88,"name":"my monitor is off","steam_id":76561198074499537,"connected_time":2589000000000,"state":"active","ping":86},{"user_id":135,"name":"ICE SPICE ENTHUSIAST","steam_id":76561199086931196,"connected_time":398000000000,"state":"active","ping":69},{"user_id":112,"name":"o o o o o o o o o","steam_id":76561197993757506,"connected_time":1519000000000,"state":"active","ping":74},{"user_id":140,"name":"Schaephyr","steam_id":76561199153886364,"connected_time":99000000000,"state":"active","ping":58},{"user_id":80,"name":"ItsDifficultttt","steam_id":76561199402730529,"connected_time":3260000000000,"state":"active","ping":127},{"user_id":115,"name":"DerpyFlapjack31","steam_id":76561198386322393,"connected_time":1462000000000,"state":"active","ping":92},{"user_id":116,"name":"TheMagicMrWaffle","steam_id":76561198104357256,"connected_time":1452000000000,"state":"active","ping":66}]},{"server_id":119,"name":"Uncletopia | Seattle | 2 | All Maps","name_short":"sea-2","host":"sea-1.us.uncletopia.com","port":27025,"enabled":true,"region":"us-west","cc":"us","latitude":47.608013,"longitude":-122.33517,"reserved":0,"last_update":"0001-01-01T00:00:00Z","name_a2s":"Uncletopia | Seattle | 2 | All Maps","protocol":17,"map":"pl_barnblitz","folder":"tf","game":"Team Fortress","app_id":440,"player_count":0,"max_players":24,"Bots":0,"server_type":"Dedicated","server_os":"Linux","password":true,"vac":true,"version":"7757534","steam_id":85568392924469998,"keywords":["nocrits","nodmgspread","payload","uncletopia"],"game_id":440,"stv_port":27026,"stv_name":"Uncletopia | Seattle | 2 | All Maps | STV","players":null},{"server_id":406,"name":"Uncletopia | Seattle | 3 | Stopwatch Beta","name_short":"sea-3","host":"sea-1.us.uncletopia.com","port":27035,"enabled":true,"region":"us-west","cc":"us","latitude":47.608013,"longitude":-122.33517,"reserved":0,"last_update":"0001-01-01T00:00:00Z","name_a2s":"Uncletopia | Seattle | 3 | Stopwatch Beta","protocol":17,"map":"cp_process_final","folder":"tf","game":"Team Fortress","app_id":440,"player_count":0,"max_players":24,"Bots":0,"server_type":"Dedicated","server_os":"Linux","password":true,"vac":true,"version":"7757534","steam_id":85568392924515217,"keywords":["cp","nocrits","nodmgspread","uncletopia"],"game_id":440,"stv_port":27036,"stv_name":"Uncletopia | Seattle | 3 | Stopwatch Beta | STV","players":null},{"server_id":17,"name":"Uncletopia | San Francisco | 1 | All Maps","name_short":"sfo-1","host":"sfo-1.us.uncletopia.com","port":27015,"enabled":true,"region":"us-west","cc":"us","latitude":37.77397,"longitude":-122.4313,"reserved":0,"last_update":"0001-01-01T00:00:00Z","name_a2s":"Uncletopia | San Francisco | 1 | All Maps","protocol":17,"map":"pl_badwater","folder":"tf","game":"Team Fortress","app_id":440,"player_count":0,"max_players":24,"Bots":0,"server_type":"Dedicated","server_os":"Linux","password":true,"vac":true,"version":"7757534","steam_id":85568392924469999,"keywords":["nocrits","nodmgspread","payload","uncletopia"],"game_id":440,"stv_port":27016,"stv_name":"Uncletopia | San Francisco | 1 | All Maps | STV","players":null},{"server_id":18,"name":"Uncletopia | San Francisco | 2 | All Maps","name_short":"sfo-2","host":"sfo-1.us.uncletopia.com","port":27025,"enabled":true,"region":"us-west","cc":"us","latitude":37.77397,"longitude":-122.4313,"reserved":0,"last_update":"0001-01-01T00:00:00Z","name_a2s":"Uncletopia | San Francisco | 2 | All Maps","protocol":17,"map":"koth_viaduct","folder":"tf","game":"Team Fortress","app_id":440,"player_count":0,"max_players":24,"Bots":0,"server_type":"Dedicated","server_os":"Linux","password":true,"vac":true,"version":"7757534","steam_id":85568392924470000,"keywords":["cp","nocrits","nodmgspread","uncletopia"],"game_id":440,"stv_port":27026,"stv_name":"Uncletopia | San Francisco | 2 | All Maps | STV","players":null},{"server_id":19,"name":"Uncletopia | San Francisco | 3 | Stopwatch Beta","name_short":"sfo-3","host":"sfo-1.us.uncletopia.com","port":27035,"enabled":true,"region":"us-west","cc":"us","latitude":37.77397,"longitude":-122.4313,"reserved":0,"last_update":"0001-01-01T00:00:00Z","name_a2s":"Uncletopia | San Francisco | 3 | Stopwatch Beta","protocol":17,"map":"cp_snakewater_final1","folder":"tf","game":"Team Fortress","app_id":440,"player_count":0,"max_players":24,"Bots":0,"server_type":"Dedicated","server_os":"Linux","password":true,"vac":true,"version":"7757534","steam_id":85568392924742824,"keywords":["cp","nocrits","nodmgspread","uncletopia"],"game_id":440,"stv_port":27036,"stv_name":"Uncletopia | San Francisco | 3 | Stopwatch Beta | STV","players":null},{"server_id":20,"name":"Uncletopia | San Francisco | 4 | Community","name_short":"sfo-4","host":"sfo-1.us.uncletopia.com","port":27045,"enabled":true,"region":"us-west","cc":"us","latitude":37.77397,"longitude":-122.4313,"reserved":0,"last_update":"0001-01-01T00:00:00Z","name_a2s":"Uncletopia | San Francisco | 4 | Community","protocol":17,"map":"pl_frontier_final","folder":"tf","game":"Team Fortress","app_id":440,"player_count":0,"max_players":24,"Bots":0,"server_type":"Dedicated","server_os":"Linux","password":true,"vac":true,"version":"7757534","steam_id":85568392924742826,"keywords":["nocrits","nodmgspread","payload","uncletopia"],"game_id":440,"stv_port":27046,"stv_name":"Uncletopia | San Francisco | 4 | Community | STV","players":null},{"server_id":141,"name":"Uncletopia | Sydney | 1 | All Maps","name_short":"syd-1","host":"syd-1.au.uncletopia.com","port":27015,"enabled":true,"region":"au","cc":"au","latitude":-33.865143,"longitude":151.2099,"reserved":0,"last_update":"0001-01-01T00:00:00Z","name_a2s":"Uncletopia | Sydney | 1 | All Maps","protocol":17,"map":"cp_sunshine","folder":"tf","game":"Team Fortress","app_id":440,"player_count":0,"max_players":24,"Bots":0,"server_type":"Dedicated","server_os":"Linux","password":true,"vac":true,"version":"7757534","steam_id":85568392924470001,"keywords":["cp","nocrits","nodmgspread","uncletopia"],"game_id":440,"stv_port":27016,"stv_name":"Uncletopia | Sydney | 1 | All Maps | STV","players":null},{"server_id":123,"name":"Uncletopia | Sydney | 2 | All Maps","name_short":"syd-2","host":"syd-1.au.uncletopia.com","port":27025,"enabled":true,"region":"au","cc":"au","latitude":-33.865143,"longitude":151.2099,"reserved":0,"last_update":"0001-01-01T00:00:00Z","name_a2s":"Uncletopia | Sydney | 2 | All Maps","protocol":17,"map":"koth_lakeside_final","folder":"tf","game":"Team Fortress","app_id":440,"player_count":0,"max_players":24,"Bots":0,"server_type":"Dedicated","server_os":"Linux","password":true,"vac":true,"version":"7757534","steam_id":85568392924470002,"keywords":["cp","nocrits","nodmgspread","uncletopia"],"game_id":440,"stv_port":27026,"stv_name":"Uncletopia | Sydney | 2 | All Maps | STV","players":null},{"server_id":395,"name":"Uncletopia | Sydney | 3 | All Maps","name_short":"syd-3","host":"syd-1.au.uncletopia.com","port":27035,"enabled":true,"region":"au","cc":"au","latitude":-33.865143,"longitude":151.2099,"reserved":0,"last_update":"0001-01-01T00:00:00Z","name_a2s":"Uncletopia | Sydney | 3 | All Maps","protocol":17,"map":"pl_snowycoast","folder":"tf","game":"Team Fortress","app_id":440,"player_count":0,"max_players":24,"Bots":0,"server_type":"Dedicated","server_os":"Linux","password":true,"vac":true,"version":"7757534","steam_id":85568392925194467,"keywords":["nocrits","nodmgspread","payload","uncletopia"],"game_id":440,"stv_port":27036,"stv_name":"Uncletopia | Sydney | 3 | All Maps | STV","players":null},{"server_id":396,"name":"Uncletopia | Sydney | 4 | All Maps","name_short":"syd-4","host":"syd-1.au.uncletopia.com","port":27045,"enabled":true,"region":"au","cc":"au","latitude":-33.865143,"longitude":151.2099,"reserved":0,"last_update":"0001-01-01T00:00:00Z","name_a2s":"Uncletopia | Sydney | 4 | All Maps","protocol":17,"map":"koth_lakeside_final","folder":"tf","game":"Team Fortress","app_id":440,"player_count":0,"max_players":24,"Bots":0,"server_type":"Dedicated","server_os":"Linux","password":true,"vac":true,"version":"7757534","steam_id":85568392925397958,"keywords":["cp","nocrits","nodmgspread","uncletopia"],"game_id":440,"stv_port":27046,"stv_name":"Uncletopia | Sydney | 4 | All Maps | STV","players":null},{"server_id":58,"name":"Uncletopia | Sydney | 5 | Stopwatch Beta","name_short":"syd-5","host":"syd-1.au.uncletopia.com","port":27055,"enabled":true,"region":"au","cc":"au","latitude":-33.865143,"longitude":151.2099,"reserved":0,"last_update":"0001-01-01T00:00:00Z","name_a2s":"Uncletopia | Sydney | 5 | Stopwatch Beta","protocol":17,"map":"workshop/pl_barnblitz_pro7.ugc582280235","folder":"tf","game":"Team Fortress","app_id":440,"player_count":0,"max_players":24,"Bots":0,"server_type":"Dedicated","server_os":"Linux","password":true,"vac":true,"version":"7757534","steam_id":85568392925397959,"keywords":["nocrits","nodmgspread","payload","uncletopia"],"game_id":440,"stv_port":27056,"stv_name":"Uncletopia | Sydney | 5 | Stopwatch Beta | STV","players":null},{"server_id":59,"name":"Uncletopia | Sydney | 6 | Community","name_short":"syd-6","host":"syd-1.au.uncletopia.com","port":27065,"enabled":true,"region":"au","cc":"au","latitude":-33.865143,"longitude":151.2099,"reserved":0,"last_update":"0001-01-01T00:00:00Z","name_a2s":"Uncletopia | Sydney | 6 | Community","protocol":17,"map":"workshop/pl_boundary_final1.ugc456799153","folder":"tf","game":"Team Fortress","app_id":440,"player_count":0,"max_players":24,"Bots":0,"server_type":"Dedicated","server_os":"Linux","password":true,"vac":true,"version":"7757534","steam_id":85568392925397960,"keywords":["nocrits","nodmgspread","payload","uncletopia"],"game_id":440,"stv_port":27066,"stv_name":"Uncletopia | Sydney | 6 | Community | STV","players":null},{"server_id":49,"name":"Uncletopia | Warsaw | 1 | All Maps","name_short":"waw-1","host":"waw-1.pl.uncletopia.com","port":27015,"enabled":true,"region":"eu","cc":"pl","latitude":52.2297,"longitude":21.017532,"reserved":0,"last_update":"0001-01-01T00:00:00Z","name_a2s":"","protocol":0,"map":"","folder":"","game":"","app_id":0,"player_count":0,"max_players":0,"Bots":0,"server_type":"","server_os":"","password":false,"vac":false,"version":"","steam_id":0,"keywords":null,"game_id":0,"stv_port":0,"stv_name":"","players":null},{"server_id":50,"name":"Uncletopia | Warsaw | 2 | All Maps","name_short":"waw-2","host":"waw-1.pl.uncletopia.com","port":27025,"enabled":true,"region":"eu","cc":"pl","latitude":52.2297,"longitude":21.017532,"reserved":0,"last_update":"0001-01-01T00:00:00Z","name_a2s":"Uncletopia | Warsaw | 2 | All Maps","protocol":17,"map":"koth_lakeside_final","folder":"tf","game":"Team Fortress","app_id":440,"player_count":0,"max_players":24,"Bots":0,"server_type":"Dedicated","server_os":"Linux","password":true,"vac":true,"version":"7757534","steam_id":85568392925397851,"keywords":["cp","nocrits","nodmgspread","uncletopia"],"game_id":440,"stv_port":27026,"stv_name":"Uncletopia | Warsaw | 2 | All Maps | STV","players":null},{"server_id":51,"name":"Uncletopia | Warsaw | 3 | All Maps","name_short":"waw-3","host":"waw-1.pl.uncletopia.com","port":27035,"enabled":true,"region":"eu","cc":"pl","latitude":52.2297,"longitude":21.017532,"reserved":0,"last_update":"0001-01-01T00:00:00Z","name_a2s":"Uncletopia | Warsaw | 3 | All Maps","protocol":17,"map":"cp_altitude","folder":"tf","game":"Team Fortress","app_id":440,"player_count":0,"max_players":24,"Bots":0,"server_type":"Dedicated","server_os":"Linux","password":true,"vac":true,"version":"7757534","steam_id":85568392925397852,"keywords":["cp","nocrits","nodmgspread","uncletopia"],"game_id":440,"stv_port":27036,"stv_name":"Uncletopia | Warsaw | 3 | All Maps | STV","players":null},{"server_id":52,"name":"Uncletopia | Warsaw | 4 | All Maps","name_short":"waw-4","host":"waw-1.pl.uncletopia.com","port":27045,"enabled":true,"region":"eu","cc":"pl","latitude":52.2297,"longitude":21.017532,"reserved":0,"last_update":"0001-01-01T00:00:00Z","name_a2s":"Uncletopia | Warsaw | 4 | All Maps","protocol":17,"map":"pl_upward","folder":"tf","game":"Team Fortress","app_id":440,"player_count":0,"max_players":24,"Bots":0,"server_type":"Dedicated","server_os":"Linux","password":true,"vac":true,"version":"7757534","steam_id":85568392925397853,"keywords":["nocrits","nodmgspread","payload","uncletopia"],"game_id":440,"stv_port":27046,"stv_name":"Uncletopia | Warsaw | 4 | All Maps | STV","players":null},{"server_id":53,"name":"Uncletopia | Warsaw | 5 | Stopwatch Beta","name_short":"waw-5","host":"waw-1.pl.uncletopia.com","port":27055,"enabled":true,"region":"eu","cc":"pl","latitude":52.2297,"longitude":21.017532,"reserved":0,"last_update":"0001-01-01T00:00:00Z","name_a2s":"Uncletopia | Warsaw | 5 | Stopwatch Beta","protocol":17,"map":"pl_pier","folder":"tf","game":"Team Fortress","app_id":440,"player_count":0,"max_players":24,"Bots":0,"server_type":"Dedicated","server_os":"Linux","password":true,"vac":true,"version":"7757534","steam_id":85568392925397854,"keywords":["nocrits","nodmgspread","payload","uncletopia"],"game_id":440,"stv_port":27056,"stv_name":"Uncletopia | Warsaw | 5 | Stopwatch Beta | STV","players":null},{"server_id":54,"name":"Uncletopia | Warsaw | 6 | Community","name_short":"waw-6","host":"waw-1.pl.uncletopia.com","port":27065,"enabled":true,"region":"eu","cc":"pl","latitude":52.2297,"longitude":21.017532,"reserved":0,"last_update":"0001-01-01T00:00:00Z","name_a2s":"Uncletopia | Warsaw | 6 | Community","protocol":17,"map":"koth_highpass","folder":"tf","game":"Team Fortress","app_id":440,"player_count":0,"max_players":24,"Bots":0,"server_type":"Dedicated","server_os":"Linux","password":true,"vac":true,"version":"7757534","steam_id":85568392925397856,"keywords":["cp","nocrits","nodmgspread","uncletopia"],"game_id":440,"stv_port":27066,"stv_name":"Uncletopia | Warsaw | 6 | Community | STV","players":null}]}