{"status":true,"message":"","result":[{"server_id":9,"name":"Uncletopia | Atlanta | 1 | All Maps","name_short":"atl-1","host":"atl-1.us.uncletopia.com","port":27015,"enabled":true,"region":"us-east","cc":"us","latitude":33.753746,"longitude":-84.38633,"reserved":0,"last_update":"0001-01-01T00:00:00Z","name_a2s":"Uncletopia | Atlanta | 1 | All Maps","protocol":17,"map":"cp_process_final","folder":"tf","game":"Team Fortress","app_id":440,"player_count":24,"max_players":24,"Bots":0,"server_type":"Dedicated","server_os":"Linux","password":true,"vac":true,"version":"7742253","steam_id":85568392924469982,"keywords":["cp","nocrits","nodmgspread","uncletopia"],"game_id":440,"stv_port":27016,"stv_name":"Uncletopia | Atlanta | 1 | All Maps | STV","players":[{"user_id":197,"name":"Caberknight TF2 (real)","steam_id":76561198038832034,"connected_time":3354000000000,"state":"active","ping":109},{"user_id":82,"name":"noelle","steam_id":76561198386344068,"connected_time":12764000000000,"state":"active","ping":74},{"user_id":191,"name":"Pixler544","steam_id":76561198240575132,"connected_time":3979000000000,"state":"active","ping":71},{"user_id":225,"name":"CyberZayne","steam_id":76561198002351356,"connected_time":43000000000,"state":"active","ping":195},{"user_id":220,"name":"leonardo doujinshi","steam_id":76561198025810326,"connected_time":274000000000,"state":"active","ping":65},{"user_id":214,"name":"Obelisk","steam_id":76561198049416866,"connected_time":820000000000,"state":"active","ping":66},{"user_id":222,"name":"MamaLuigi","steam_id":76561199054368008,"connected_time":244000000000,"state":"active","ping":76},{"user_id":152,"name":"Coup de Grass","steam_id":76561198011643226,"connected_time":7178000000000,"state":"active","ping":63},{"user_id":210,"name":"SHADOWBURN","steam_id":76561199245670274,"connected_time":1366000000000,"state":"active","ping":115},{"user_id":209,"name":"caberknight tf2","steam_id":76561199273882768,"connected_time":1372000000000,"state":"active","ping":63},{"user_id":174,"name":"Rin \"Hindwing\" Redtail","steam_id":76561199074865638,"connected_time":5608000000000,"state":"active","ping":60},{"user_id":212,"name":"C O M F Y","steam_id":76561198072101210,"connected_time":1197000000000,"state":"active","ping":68},{"user_id":199,"name":"austinsmith","steam_id":76561198167838540,"connected_time":3255000000000,"state":"active","ping":82},{"user_id":223,"name":"Nephs","steam_id":76561198136763403,"connected_time":244000000000,"state":"active","ping":80},{"user_id":221,"name":"Fantastibad","steam_id":76561199087329262,"connected_time":268000000000,"state":"active","ping":82},{"user_id":219,"name":"e0e0","steam_id":76561198293839750,"connected_time":326000000000,"state":"active","ping":54},{"user_id":205,"name":"garfield","steam_id":76561198114119308,"connected_time":2625000000000,"state":"active","ping":45},{"user_id":224,"name":"_Captain Medic_","steam_id":76561198156576122,"connected_time":173000000000,"state":"active","ping":165},{"user_id":206,"name":"Cat_Soldier","steam_id":76561198799974610,"connected_time":2624000000000,"state":"active","ping":66},{"user_id":179,"name":"ATL1 | Lancer Fan Club","steam_id":76561198355495948,"connected_time":4665000000000,"state":"active","ping":83},{"user_id":185,"name":"Thurricane","steam_id":76561198410724666,"connected_time":4364000000000,"state":"active","ping":70},{"user_id":208,"name":"Fishstall","steam_id":76561198038126034,"connected_time":2571000000000,"state":"active","ping":88},{"user_id":194,"name":"goober","steam_id":76561198943598378,"connected_time":3803000000000,"state":"active","ping":50},{"user_id":226,"name":"floofy","steam_id":76561198389769098,"connected_time":42000000000,"state":"active","ping":85}]},{"server_id":400,"name":"Uncletopia | Atlanta | 3 | Stopwatch Beta","name_short":"atl-3","host":"atl-1.us.uncletopia.com","port":27035,"enabled":true,"region":"us-east","cc":"us","latitude":33.753746,"longitude":-84.38633,"reserved":0,"last_update":"0001-01-01T00:00:00Z","name_a2s":"Uncletopia | Atlanta | 3 | Stopwatch Beta","protocol":17,"map":"pl_upward","folder":"tf","game":"Team Fortress","app_id":440,"player_count":6,"max_players":24,"Bots":0,"server_type":"Dedicated","server_os":"Linux","password":true,"vac":true,"version":"7742253","steam_id":85568392924515187,"keywords":["nocrits","nodmgspread","payload","uncletopia"],"game_id":440,"stv_port":27036,"stv_name":"Uncletopia | Atlanta | 3 | Stopwatch Beta | STV","players":[{"user_id":23,"name":"Snoopster ツ","steam_id":76561198040170542,"connected_time":355000000000,"state":"active","ping":86},{"user_id":18,"name":"kemalekmen96","steam_id":76561199442614203,"connected_time":606000000000,"state":"active","ping":181},{"user_id":19,"name":"raiden","steam_id":76561199215654943,"connected_time":572000000000,"state":"active","ping":187},{"user_id":24,"name":"Scorched","steam_id":76561199000244081,"connected_time":342000000000,"state":"active","ping":85},{"user_id":27,"name":"vinny6","steam_id":76561198386735728,"connected_time":107000000000,"state":"active","ping":56},{"user_id":26,"name":"tjisconfused","steam_id":76561199231962798,"connected_time":180000000000,"state":"active","ping":70}]},{"server_id":401,"name":"Uncletopia | Atlanta | 4 | No Payload","name_short":"atl-4","host":"atl-1.us.uncletopia.com","port":27045,"enabled":true,"region":"us-east","cc":"us","latitude":33.753746,"longitude":-84.38633,"reserved":0,"last_update":"0001-01-01T00:00:00Z","name_a2s":"Uncletopia | Atlanta | 4 | No Payload","protocol":17,"map":"pl_pier","folder":"tf","game":"Team Fortress","app_id":440,"player_count":0,"max_players":24,"Bots":0,"server_type":"Dedicated","server_os":"Linux","password":true,"vac":true,"version":"7723704","steam_id":85568392924515188,"keywords":["nocrits","nodmgspread","payload","uncletopia"],"game_id":440,"stv_port":27046,"stv_name":"Uncletopia | Atlanta | 4 | No Payload | STV","players":null},{"server_id":2,"name":"Uncletopia | Chicago | 1 | All Maps","name_short":"chi-1","host":"chi-1.us.uncletopia.com","port":27015,"enabled":true,"region":"us-central","cc":"us","latitude":41.881832,"longitude":-87.62318,"reserved":0,"last_update":"0001-01-01T00:00:00Z","name_a2s":"Uncletopia | Chicago | 1 | All Maps","protocol":17,"map":"pl_upward","folder":"tf","game":"Team Fortress","app_id":440,"player_count":24,"max_players":24,"Bots":0,"server_type":"Dedicated","server_os":"Linux","password":true,"vac":true,"version":"7742253","steam_id":85568392924469984,"keywords":["nocrits","nodmgspread","payload","uncletopia"],"game_id":440,"stv_port":27016,"stv_name":"Uncletopia | Chicago | 1 | All Maps | STV","players":[{"user_id":205,"name":"CoconutRice","steam_id":76561198114909164,"connected_time":1757000000000,"state":"active","ping":46},{"user_id":229,"name":"Shturman","steam_id":76561198165437987,"connected_time":15000000000,"state":"spawning","ping":99},{"user_id":224,"name":"Ch4rl33","steam_id":76561198037008621,"connected_time":347000000000,"state":"active","ping":45},{"user_id":214,"name":"PuzzlePuddles","steam_id":76561198856494882,"connected_time":869000000000,"state":"active","ping":69},{"user_id":188,"name":"musicwilldie","steam_id":76561198395833764,"connected_time":3246000000000,"state":"active","ping":60},{"user_id":203,"name":"StonedGiant","steam_id":76561197984386932,"connected_time":1790000000000,"state":"active","ping":54},{"user_id":231,"name":"Irontothecore","steam_id":76561198387384844,"connected_time":7000000000,"state":"spawning","ping":59},{"user_id":207,"name":"Mr. Sandman","steam_id":76561198065870487,"connected_time":1747000000000,"state":"active","ping":36},{"user_id":223,"name":"da.epic.dante.2005","steam_id":76561198069580305,"connected_time":369000000000,"state":"active","ping":46},{"user_id":201,"name":"Rornir","steam_id":76561198081829615,"connected_time":1803000000000,"state":"active","ping":38},{"user_id":225,"name":"Haunting","steam_id":76561198088529360,"connected_time":340000000000,"state":"active","ping":68},{"user_id":230,"name":"Big Smoke","steam_id":76561198278375987,"connected_time":10000000000,"state":"active","ping":93},{"user_id":218,"name":"Le","steam_id":76561198817754233,"connected_time":672000000000,"state":"active","ping":56},{"user_id":232,"name":"Fraglin","steam_id":76561198124964000,"connected_time":0,"state":"spawning","ping":26},{"user_id":219,"name":"2EggsScrambled","steam_id":76561198052364159,"connected_time":639000000000,"state":"active","ping":85},{"user_id":216,"name":"kirby7","steam_id":76561199167006749,"connected_time":754000000000,"state":"active","ping":148},{"user_id":209,"name":"conscripted monk","steam_id":76561199029246232,"connected_time":1728000000000,"state":"active","ping":65},{"user_id":228,"name":"Jo_","steam_id":76561198142135469,"connected_time":32000000000,"state":"active","ping":59},{"user_id":195,"name":"Soda_black","steam_id":76561198921541055,"connected_time":2971000000000,"state":"active","ping":104},{"user_id":210,"name":"Canaan ❤","steam_id":76561198044337051,"connected_time":1703000000000,"state":"active","ping":89},{"user_id":213,"name":"kosova numer 1","steam_id":76561198114713240,"connected_time":1060000000000,"state":"active","ping":62},{"user_id":220,"name":"Pisser12434","steam_id":76561198835144780,"connected_time":632000000000,"state":"active","ping":64},{"user_id":199,"name":"[TrC] Dackstrus","steam_id":76561197973518509,"connected_time":2453000000000,"state":"active","ping":105},{"user_id":222,"name":"Sully","steam_id":76561198310784589,"connected_time":415000000000,"state":"active","ping":62}]},{"server_id":106,"name":"Uncletopia | Chicago | 2 | All Maps","name_short":"chi-2","host":"chi-1.us.uncletopia.com","port":27025,"enabled":true,"region":"us-central","cc":"us","latitude":41.881832,"longitude":-87.62318,"reserved":0,"last_update":"0001-01-01T00:00:00Z","name_a2s":"Uncletopia | Chicago | 2 | All Maps","protocol":17,"map":"pl_upward","folder":"tf","game":"Team Fortress","app_id":440,"player_count":24,"max_players":24,"Bots":0,"server_type":"Dedicated","server_os":"Linux","password":true,"vac":true,"version":"7742253","steam_id":85568392924469985,"keywords":["nocrits","nodmgspread","payload","uncletopia"],"game_id":440,"stv_port":27026,"stv_name":"Uncletopia | Chicago | 2 | All Maps | STV","players":[{"user_id":338,"name":"The Best Healer","steam_id":76561198079452621,"connected_time":76000000000,"state":"active","ping":95},{"user_id":323,"name":"Final_MarioXD","steam_id":76561199184862419,"connected_time":796000000000,"state":"active","ping":83},{"user_id":335,"name":"A Pizza Already","steam_id":76561198064918401,"connected_time":662000000000,"state":"active","ping":101},{"user_id":63,"name":"-flagellum","steam_id":76561198006297974,"connected_time":9802000000000,"state":"active","ping":77},{"user_id":137,"name":"christmas  moment","steam_id":76561199217063673,"connected_time":4805000000000,"state":"active","ping":80},{"user_id":324,"name":"scrapmetal.crafter.2009","steam_id":76561198138221795,"connected_time":781000000000,"state":"active","ping":74},{"user_id":252,"name":"ctap2lean","steam_id":76561198068538473,"connected_time":2161000000000,"state":"active","ping":75},{"user_id":253,"name":"Fluffeline","steam_id":76561198352909489,"connected_time":2152000000000,"state":"active","ping":140},{"user_id":321,"name":"ṽ⧉ cookie | newlobbysite.co","steam_id":76561197998884823,"connected_time":824000000000,"state":"active","ping":60},{"user_id":320,"name":"James","steam_id":76561198041578404,"connected_time":876000000000,"state":"active","ping":82},{"user_id":224,"name":"no","steam_id":76561198248853140,"connected_time":2821000000000,"state":"active","ping":52},{"user_id":250,"name":"KEEN","steam_id":76561197988436984,"connected_time":2191000000000,"state":"active","ping":63},{"user_id":331,"name":"Princekouhai","steam_id":76561198029417435,"connected_time":718000000000,"state":"active","ping":78},{"user_id":149,"name":"sheesh","steam_id":76561198855376206,"connected_time":4406000000000,"state":"active","ping":63},{"user_id":143,"name":"ddr king","steam_id":76561198061768122,"connected_time":4695000000000,"state":"active","ping":71},{"user_id":239,"name":"Mycelion","steam_id":76561198024999530,"connected_time":2380000000000,"state":"active","ping":80},{"user_id":232,"name":"carrion goat","steam_id":76561198262064871,"connected_time":2452000000000,"state":"active","ping":65},{"user_id":336,"name":"JustSomeInternetGuy","steam_id":76561199066037843,"connected_time":344000000000,"state":"active","ping":73},{"user_id":337,"name":"Rollo Tomasi","steam_id":76561198078798799,"connected_time":305000000000,"state":"active","ping":147},{"user_id":235,"name":"nhbiker","steam_id":76561198081277675,"connected_time":2443000000000,"state":"active","ping":59},{"user_id":328,"name":"misterjozo","steam_id":76561198012300755,"connected_time":740000000000,"state":"active","ping":109},{"user_id":102,"name":"ScreamCram","steam_id":76561199114068524,"connected_time":7567000000000,"state":"active","ping":54},{"user_id":291,"name":"Oh, it's Zach","steam_id":76561198103309672,"connected_time":1561000000000,"state":"active","ping":55},{"user_id":251,"name":"Looneymunkey","steam_id":76561198414675183,"connected_time":2190000000000,"state":"active","ping":80}]},{"server_id":402,"name":"Uncletopia | Chicago | 3 | All Maps","name_short":"chi-3","host":"chi-1.us.uncletopia.com","port":27035,"enabled":true,"region":"us-central","cc":"us","latitude":41.881832,"longitude":-87.62318,"reserved":0,"last_update":"0001-01-01T00:00:00Z","name_a2s":"Uncletopia | Chicago | 3 | All Maps","protocol":17,"map":"koth_harvest_final","folder":"tf","game":"Team Fortress","app_id":440,"player_count":24,"max_players":24,"Bots":0,"server_type":"Dedicated","server_os":"Linux","password":true,"vac":true,"version":"7742253","steam_id":85568392924515191,"keywords":["cp","nocrits","nodmgspread","uncletopia"],"game_id":440,"stv_port":27036,"stv_name":"Uncletopia | Chicago | 3 | All Maps | STV","players":[{"user_id":74,"name":"SKULL GOODMAN","steam_id":76561198062560907,"connected_time":4998000000000,"state":"active","ping":55},{"user_id":113,"name":"derz","steam_id":76561198010742216,"connected_time":1027000000000,"state":"active","ping":48},{"user_id":122,"name":"∀ɐ","steam_id":76561198139718219,"connected_time":474000000000,"state":"active","ping":65},{"user_id":127,"name":"rammy","steam_id":76561198130621234,"connected_time":217000000000,"state":"active","ping":53},{"user_id":107,"name":"gromit mug","steam_id":76561198806443221,"connected_time":1237000000000,"state":"active","ping":74},{"user_id":120,"name":"lutican","steam_id":76561198215383452,"connected_time":722000000000,"state":"active","ping":60},{"user_id":112,"name":"TYL☁R","steam_id":76561198082995812,"connected_time":1050000000000,"state":"active","ping":64},{"user_id":119,"name":"teamspeakisbeter","steam_id":76561198994349483,"connected_time":900000000000,"state":"active","ping":89},{"user_id":94,"name":"courtham","steam_id":76561198092023855,"connected_time":3576000000000,"state":"active","ping":51},{"user_id":102,"name":"Bitkrin","steam_id":76561198995819530,"connected_time":2149000000000,"state":"active","ping":312},{"user_id":123,"name":"sweatman","steam_id":76561199223050380,"connected_time":359000000000,"state":"active","ping":82},{"user_id":100,"name":"Snhack","steam_id":76561198052332293,"connected_time":2495000000000,"state":"active","ping":69},{"user_id":101,"name":"Motreir","steam_id":76561198151717946,"connected_time":2242000000000,"state":"active","ping":80},{"user_id":72,"name":"xSwiftblade","steam_id":76561198100635749,"connected_time":5452000000000,"state":"active","ping":61},{"user_id":124,"name":"Scromch","steam_id":76561198045211728,"connected_time":352000000000,"state":"active","ping":92},{"user_id":103,"name":"donti","steam_id":76561197977223197,"connected_time":1268000000000,"state":"active","ping":45},{"user_id":62,"name":"Red","steam_id":76561197998285162,"connected_time":6245000000000,"state":"active","ping":83},{"user_id":125,"name":"odifin","steam_id":76561198081699142,"connected_time":342000000000,"state":"active","ping":64},{"user_id":121,"name":"cheese","steam_id":76561199059631433,"connected_time":691000000000,"state":"active","ping":57},{"user_id":118,"name":"king of bogers","steam_id":76561198045731295,"connected_time":946000000000,"state":"active","ping":65},{"user_id":126,"name":"The Gremlin","steam_id":76561198419066993,"connected_time":318000000000,"state":"active","ping":114},{"user_id":70,"name":"The Great Eagle Scourge of 1822","steam_id":76561198325086209,"connected_time":5667000000000,"state":"active","ping":110},{"user_id":95,"name":"des","steam_id":76561198079226634,"connected_time":3265000000000,"state":"active","ping":72},{"user_id":128,"name":"your xmas forecast","steam_id":76561198042243083,"connected_time":145000000000,"state":"active","ping":60}]},{"server_id":403,"name":"Uncletopia | Chicago | 4 | All Maps","name_short":"chi-4","host":"chi-1.us.uncletopia.com","port":27045,"enabled":true,"region":"us-central","cc":"us","latitude":41.881832,"longitude":-87.62318,"reserved":0,"last_update":"0001-01-01T00:00:00Z","name_a2s":"Uncletopia | Chicago | 4 | All Maps","protocol":17,"map":"koth_lakeside_final","folder":"tf","game":"Team Fortress","app_id":440,"player_count":0,"max_players":24,"Bots":0,"server_type":"Dedicated","server_os":"Linux","password":true,"vac":true,"version":"7742253","steam_id":85568392924515193,"keywords":["cp","nocrits","nodmgspread","uncletopia"],"game_id":440,"stv_port":27046,"stv_name":"Uncletopia | Chicago | 4 | All Maps | STV","players":null},{"server_id":36,"name":"Uncletopia | Chicago | 5 | All Maps","name_short":"chi-5","host":"chi-2.us.uncletopia.com","port":27015,"enabled":true,"region":"us-central","cc":"us","latitude":41.881832,"longitude":-87.62318,"reserved":0,"last_update":"0001-01-01T00:00:00Z","name_a2s":"Uncletopia | Chicago | 5 | All Maps","protocol":17,"map":"koth_highpass","folder":"tf","game":"Team Fortress","app_id":440,"player_count":0,"max_players":24,"Bots":0,"server_type":"Dedicated","server_os":"Linux","password":true,"vac":true,"version":"7742253","steam_id":85568392924866362,"keywords":["cp","nocrits","nodmgspread","uncletopia"],"game_id":440,"stv_port":27016,"stv_name":"Uncletopia | Chicago | 5 | All Maps | STV","players":null},{"server_id":37,"name":"Uncletopia | Chicago | 6 | All Maps","name_short":"chi-6","host":"chi-2.us.uncletopia.com","port":27025,"enabled":true,"region":"us-central","cc":"us","latitude":41.881832,"longitude":-87.62318,"reserved":0,"last_update":"0001-01-01T00:00:00Z","name_a2s":"Uncletopia | Chicago | 6 | All Maps","protocol":17,"map":"koth_cascade","folder":"tf","game":"Team Fortress","app_id":440,"player_count":0,"max_players":24,"Bots":0,"server_type":"Dedicated","server_os":"Linux","password":true,"vac":true,"version":"7742253","steam_id":85568392924866363,"keywords":["cp","nocrits","nodmgspread","uncletopia"],"game_id":440,"stv_port":27026,"stv_name":"Uncletopia | Chicago | 6 | All Maps | STV","players":null},{"server_id":38,"name":"Uncletopia | Chicago | 7 | Stopwatch Beta","name_short":"chi-7","host":"chi-2.us.uncletopia.com","port":27035,"enabled":true,"region":"us-central","cc":"us","latitude":41.881832,"longitude":-87.62318,"reserved":0,"last_update":"0001-01-01T00:00:00Z","name_a2s":"Uncletopia | Chicago | 7 | Stopwatch Beta","protocol":17,"map":"cp_altitude","folder":"tf","game":"Team Fortress","app_id":440,"player_count":0,"max_players":24,"Bots":0,"server_type":"Dedicated","server_os":"Linux","password":true,"vac":true,"version":"7742253","steam_id":85568392924866364,"keywords":["cp","nocrits","nodmgspread","uncletopia"],"game_id":440,"stv_port":27036,"stv_name":"Uncletopia | Chicago | 7 | Stopwatch Beta | STV","players":null},{"server_id":39,"name":"Uncletopia | Chicago | 8 | Community","name_short":"chi-8","host":"chi-2.us.uncletopia.com","port":27045,"enabled":true,"region":"us-central","cc":"us","latitude":41.881832,"longitude":-87.62318,"reserved":0,"last_update":"0001-01-01T00:00:00Z","name_a2s":"Uncletopia | Chicago | 8 | Community","protocol":17,"map":"koth_cascade","folder":"tf","game":"Team Fortress","app_id":440,"player_count":0,"max_players":24,"Bots":0,"server_type":"Dedicated","server_os":"Linux","password":true,"vac":true,"version":"7742253","steam_id":85568392924866365,"keywords":["cp","nocrits","nodmgspread","uncletopia"],"game_id":440,"stv_port":27046,"stv_name":"Uncletopia | Chicago | 8 | Community | STV","players":null},{"server_id":8,"name":"Uncletopia | Dallas | 1 | All Maps","name_short":"dal-1","host":"dal-1.us.uncletopia.com","port":27015,"enabled":true,"region":"us-central","cc":"us","latitude":32.779167,"longitude":-96.80889,"reserved":0,"last_update":"0001-01-01T00:00:00Z","name_a2s":"Uncletopia | Dallas | 1 | All Maps","protocol":17,"map":"koth_viaduct","folder":"tf","game":"Team Fortress","app_id":440,"player_count":0,"max_players":24,"Bots":0,"server_type":"Dedicated","server_os":"Linux","password":true,"vac":true,"version":"7742253","steam_id":85568392924469986,"keywords":["cp","nocrits","nodmgspread","uncletopia"],"game_id":440,"stv_port":27016,"stv_name":"Uncletopia | Dallas | 1 | All Maps | STV","players":null},{"server_id":108,"name":"Uncletopia | Dallas | 2 | All Maps","name_short":"dal-2","host":"dal-1.us.uncletopia.com","port":27025,"enabled":true,"region":"us-central","cc":"us","latitude":32.779167,"longitude":-96.80889,"reserved":0,"last_update":"0001-01-01T00:00:00Z","name_a2s":"Uncletopia | Dallas | 2 | All Maps","protocol":17,"map":"koth_lakeside_final","folder":"tf","game":"Team Fortress","app_id":440,"player_count":0,"max_players":24,"Bots":0,"server_type":"Dedicated","server_os":"Linux","password":true,"vac":true,"version":"7742253","steam_id":85568392924469988,"keywords":["cp","nocrits","nodmgspread","uncletopia"],"game_id":440,"stv_port":27026,"stv_name":"Uncletopia | Dallas | 2 | All Maps | STV","players":null},{"server_id":5,"name":"Uncletopia | Frankfurt | 1 | All Maps","name_short":"frk-1","host":"frk-1.de.uncletopia.com","port":27015,"enabled":true,"region":"eu","cc":"de","latitude":50.110924,"longitude":8.682127,"reserved":0,"last_update":"0001-01-01T00:00:00Z","name_a2s":"Uncletopia | Frankfurt | 1 | All Maps","protocol":17,"map":"pl_frontier_final","folder":"tf","game":"Team Fortress","app_id":440,"player_count":22,"max_players":24,"Bots":0,"server_type":"Dedicated","server_os":"Linux","password":true,"vac":true,"version":"7742253","steam_id":85568392924469989,"keywords":["nocrits","nodmgspread","payload","uncletopia"],"game_id":440,"stv_port":27016,"stv_name":"Uncletopia | Frankfurt | 1 | All Maps | STV","players":[{"user_id":312,"name":"FWDTRKR","steam_id":76561198060369427,"connected_time":943000000000,"state":"active","ping":142},{"user_id":325,"name":"Mor'du","steam_id":76561198274105878,"connected_time":360000000000,"state":"active","ping":88},{"user_id":322,"name":"The Wolf Leader","steam_id":76561198038007462,"connected_time":484000000000,"state":"active","ping":63},{"user_id":317,"name":"Seargant Snagge","steam_id":76561198055227276,"connected_time":793000000000,"state":"active","ping":83},{"user_id":313,"name":"VioBeeyo","steam_id":76561198066258544,"connected_time":898000000000,"state":"active","ping":53},{"user_id":327,"name":"Vollys","steam_id":76561198018077773,"connected_time":75000000000,"state":"active","ping":48},{"user_id":319,"name":"citronous","steam_id":76561198093290934,"connected_time":647000000000,"state":"active","ping":53},{"user_id":328,"name":"the joy of recycling","steam_id":76561198415564349,"connected_time":58000000000,"state":"active","ping":60},{"user_id":323,"name":"Doriian","steam_id":76561198071438810,"connected_time":448000000000,"state":"active","ping":74},{"user_id":301,"name":"adolf rizzler","steam_id":76561198015876799,"connected_time":1432000000000,"state":"active","ping":65},{"user_id":310,"name":"Buddy","steam_id":76561198050185582,"connected_time":994000000000,"state":"active","ping":74},{"user_id":271,"name":"Zateske","steam_id":76561198047446276,"connected_time":4306000000000,"state":"active","ping":65},{"user_id":288,"name":"masatin","steam_id":76561198044967818,"connected_time":3288000000000,"state":"active","ping":60},{"user_id":321,"name":"Piox","steam_id":76561198125689157,"connected_time":519000000000,"state":"active","ping":78},{"user_id":283,"name":"breaking bow","steam_id":76561198076219289,"connected_time":3360000000000,"state":"active","ping":51},{"user_id":292,"name":"YMC agent_richi","steam_id":76561199218542987,"connected_time":3057000000000,"state":"active","ping":61},{"user_id":285,"name":"DespawnedDiamond","steam_id":76561198841944417,"connected_time":3350000000000,"state":"active","ping":70},{"user_id":295,"name":"Chocofrolik","steam_id":76561198454779847,"connected_time":2112000000000,"state":"active","ping":73},{"user_id":316,"name":"CRWND","steam_id":76561198329810027,"connected_time":807000000000,"state":"active","ping":54},{"user_id":318,"name":"Salad's Warband","steam_id":76561198214089583,"connected_time":741000000000,"state":"active","ping":69},{"user_id":299,"name":"AWP Bodyshot :) ❤","steam_id":76561198029928533,"connected_time":1746000000000,"state":"active","ping":44}]},{"server_id":110,"name":"Uncletopia | Frankfurt | 2 | All Maps","name_short":"frk-2","host":"frk-1.de.uncletopia.com","port":27025,"enabled":true,"region":"eu","cc":"de","latitude":50.110924,"longitude":8.682127,"reserved":0,"last_update":"0001-01-01T00:00:00Z","name_a2s":"Uncletopia | Frankfurt | 2 | All Maps","protocol":17,"map":"koth_lakeside_final","folder":"tf","game":"Team Fortress","app_id":440,"player_count":0,"max_players":24,"Bots":0,"server_type":"Dedicated","server_os":"Linux","password":true,"vac":true,"version":"7742253","steam_id":85568392924469990,"keywords":["cp","nocrits","nodmgspread","uncletopia"],"game_id":440,"stv_port":27026,"stv_name":"Uncletopia | Frankfurt | 2 | All Maps | STV","players":null},{"server_id":308,"name":"Uncletopia | Frankfurt | 3 | All Maps","name_short":"frk-3","host":"frk-1.de.uncletopia.com","port":27035,"enabled":true,"region":"eu","cc":"de","latitude":50.110924,"longitude":8.682127,"reserved":0,"last_update":"0001-01-01T00:00:00Z","name_a2s":"Uncletopia | Frankfurt | 3 | All Maps","protocol":17,"map":"koth_nucleus","folder":"tf","game":"Team Fortress","app_id":440,"player_count":21,"max_players":24,"Bots":0,"server_type":"Dedicated","server_os":"Linux","password":true,"vac":true,"version":"7742253","steam_id":85568392924504274,"keywords":["cp","nocrits","nodmgspread","uncletopia"],"game_id":440,"stv_port":27036,"stv_name":"Uncletopia | Frankfurt | 3 | All Maps | STV","players":[{"user_id":435,"name":"Graceful Jabberwocky","steam_id":76561199013504849,"connected_time":689000000000,"state":"active","ping":59},{"user_id":444,"name":"BoomerTheZoomer","steam_id":76561199153724130,"connected_time":321000000000,"state":"active","ping":68},{"user_id":451,"name":"Gencay","steam_id":76561198973232202,"connected_time":40000000000,"state":"active","ping":82},{"user_id":437,"name":"Luke SpyWalker","steam_id":76561198008643276,"connected_time":564000000000,"state":"active","ping":49},{"user_id":419,"name":"Olgha","steam_id":76561198055312047,"connected_time":1528000000000,"state":"active","ping":49},{"user_id":452,"name":"GOUD","steam_id":76561198071823072,"connected_time":12000000000,"state":"spawning","ping":87},{"user_id":432,"name":"TylowStar","steam_id":76561198357107806,"connected_time":960000000000,"state":"active","ping":62},{"user_id":424,"name":"Martial Autist","steam_id":76561198392067162,"connected_time":1207000000000,"state":"active","ping":60},{"user_id":367,"name":"Irbynx","steam_id":76561197980421195,"connected_time":4349000000000,"state":"active","ping":79},{"user_id":446,"name":"Fiddlah","steam_id":76561198077916925,"connected_time":243000000000,"state":"active","ping":52},{"user_id":440,"name":"Amon Gus","steam_id":76561199094540960,"connected_time":485000000000,"state":"active","ping":50},{"user_id":368,"name":"Fran","steam_id":76561199070516960,"connected_time":4340000000000,"state":"active","ping":50},{"user_id":431,"name":"freemantel30","steam_id":76561198065669800,"connected_time":1028000000000,"state":"active","ping":48},{"user_id":441,"name":"Guru","steam_id":76561198093853069,"connected_time":417000000000,"state":"active","ping":60},{"user_id":428,"name":"Shlyk","steam_id":76561198333387103,"connected_time":1132000000000,"state":"active","ping":99},{"user_id":429,"name":"Flint","steam_id":76561197995920776,"connected_time":1102000000000,"state":"active","ping":46},{"user_id":442,"name":"w + m1","steam_id":76561198830637623,"connected_time":407000000000,"state":"active","ping":137},{"user_id":447,"name":"manKe","steam_id":76561198008564860,"connected_time":180000000000,"state":"active","ping":54},{"user_id":448,"name":"+4900h kona main","steam_id":76561198035655270,"connected_time":173000000000,"state":"active","ping":91},{"user_id":449,"name":"john club","steam_id":76561198312058142,"connected_time":165000000000,"state":"active","ping":173},{"user_id":450,"name":"beanie_snail","steam_id":76561199111476299,"connected_time":143000000000,"state":"active","ping":60}]},{"server_id":309,"name":"Uncletopia | Frankfurt | 4 | All Maps","name_short":"frk-4","host":"frk-1.de.uncletopia.com","port":27045,"enabled":true,"region":"eu","cc":"de","latitude":50.110924,"longitude":8.682127,"reserved":0,"last_update":"0001-01-01T00:00:00Z","name_a2s":"Uncletopia | Frankfurt | 4 | All Maps","protocol":17,"map":"pl_badwater","folder":"tf","game":"Team Fortress","app_id":440,"player_count":1,"max_players":24,"Bots":0,"server_type":"Dedicated","server_os":"Linux","password":true,"vac":true,"version":"7742253","steam_id":85568392924504275,"keywords":["nocrits","nodmgspread","payload","uncletopia"],"game_id":440,"stv_port":27046,"stv_name":"Uncletopia | Frankfurt | 4 | All Maps | STV","players":[{"user_id":473,"name":"Kompot","steam_id":76561198281613592,"connected_time":85000000000,"state":"active","ping":60}]},{"server_id":310,"name":"Uncletopia | Frankfurt | 5 | All Maps","name_short":"frk-5","host":"frk-1.de.uncletopia.com","port":27055,"enabled":true,"region":"eu","cc":"de","latitude":50.110924,"longitude":8.682127,"reserved":0,"last_update":"0001-01-01T00:00:00Z","name_a2s":"Uncletopia | Frankfurt | 5 | All Maps","protocol":17,"map":"pl_badwater","folder":"tf","game":"Team Fortress","app_id":440,"player_count":24,"max_players":24,"Bots":0,"server_type":"Dedicated","server_os":"Linux","password":true,"vac":true,"version":"7742253","steam_id":85568392924504277,"keywords":["nocrits","nodmgspread","payload","uncletopia"],"game_id":440,"stv_port":27056,"stv_name":"Uncletopia | Frankfurt | 5 | All Maps | STV","players":[{"user_id":58,"name":"BookKouy","steam_id":76561199446431633,"connected_time":2221000000000,"state":"active","ping":70},{"user_id":99,"name":"MrPOW","steam_id":76561197978597654,"connected_time":534000000000,"state":"active","ping":59},{"user_id":60,"name":"Y js","steam_id":76561198207179037,"connected_time":2186000000000,"state":"active","ping":78},{"user_id":40,"name":"Frog","steam_id":76561198043981067,"connected_time":4735000000000,"state":"active","ping":74},{"user_id":105,"name":"HanımSever23","steam_id":76561198142124751,"connected_time":166000000000,"state":"active","ping":96},{"user_id":87,"name":"Virgil","steam_id":76561198248786778,"connected_time":1064000000000,"state":"active","ping":118},{"user_id":98,"name":"ok","steam_id":76561198044451693,"connected_time":559000000000,"state":"active","ping":106},{"user_id":55,"name":"[P-roc] Cmm Bert","steam_id":76561198016658674,"connected_time":2596000000000,"state":"active","ping":70},{"user_id":102,"name":"simn","steam_id":76561198159182269,"connected_time":267000000000,"state":"active","ping":61},{"user_id":86,"name":"Emxx52","steam_id":76561198059374194,"connected_time":1109000000000,"state":"active","ping":71},{"user_id":75,"name":"fundo","steam_id":76561198063910174,"connected_time":1503000000000,"state":"active","ping":74},{"user_id":100,"name":"ŽgræÐek113","steam_id":76561198306883632,"connected_time":503000000000,"state":"active","ping":65},{"user_id":106,"name":"malebranch","steam_id":76561198171177823,"connected_time":83000000000,"state":"active","ping":84},{"user_id":103,"name":"Ascendary","steam_id":76561198036267241,"connected_time":234000000000,"state":"active","ping":74},{"user_id":69,"name":"VK2124 :D","steam_id":76561198111130688,"connected_time":1855000000000,"state":"active","ping":52},{"user_id":70,"name":"Goliath","steam_id":76561198088583638,"connected_time":1813000000000,"state":"active","ping":47},{"user_id":101,"name":"Slooshie","steam_id":76561198008749909,"connected_time":503000000000,"state":"active","ping":61},{"user_id":92,"name":"Alibi","steam_id":76561198061845595,"connected_time":921000000000,"state":"active","ping":59},{"user_id":78,"name":"drip drip from the tap","steam_id":76561199064350902,"connected_time":1447000000000,"state":"active","ping":105},{"user_id":93,"name":"hbivnm","steam_id":76561197996468677,"connected_time":853000000000,"state":"active","ping":55},{"user_id":80,"name":"mismatch","steam_id":76561198041993514,"connected_time":1440000000000,"state":"active","ping":71},{"user_id":81,"name":"online orca","steam_id":76561197990442043,"connected_time":1434000000000,"state":"active","ping":90},{"user_id":94,"name":"goodguy","steam_id":76561199048167724,"connected_time":851000000000,"state":"active","ping":103},{"user_id":97,"name":"Umbro","steam_id":76561198087930438,"connected_time":583000000000,"state":"active","ping":74}]},{"server_id":311,"name":"Uncletopia | Frankfurt | 6 | All Maps","name_short":"frk-6","host":"frk-1.de.uncletopia.com","port":27065,"enabled":true,"region":"eu","cc":"de","latitude":50.110924,"longitude":8.682127,"reserved":0,"last_update":"0001-01-01T00:00:00Z","name_a2s":"Uncletopia | Frankfurt | 6 | All Maps","protocol":17,"map":"koth_viaduct","folder":"tf","game":"Team Fortress","app_id":440,"player_count":22,"max_players":24,"Bots":0,"server_type":"Dedicated","server_os":"Linux","password":true,"vac":true,"version":"7742253","steam_id":85568392924504278,"keywords":["cp","nocrits","nodmgspread","uncletopia"],"game_id":440,"stv_port":27066,"stv_name":"Uncletopia | Frankfurt | 6 | All Maps | STV","players":[{"user_id":392,"name":"Mr.Pink","steam_id":76561198434042064,"connected_time":1836000000000,"state":"active","ping":65},{"user_id":415,"name":"Doughy","steam_id":76561198044084210,"connected_time":847000000000,"state":"active","ping":80},{"user_id":371,"name":"Uncle Owen","steam_id":76561198157999291,"connected_time":3176000000000,"state":"active","ping":80},{"user_id":398,"name":"razor73","steam_id":76561198448661685,"connected_time":1453000000000,"state":"active","ping":71},{"user_id":422,"name":"Ming the mundane","steam_id":76561199030100348,"connected_time":352000000000,"state":"active","ping":76},{"user_id":397,"name":"Dr. Mario","steam_id":76561199125182282,"connected_time":1466000000000,"state":"active","ping":54},{"user_id":386,"name":"Grunf","steam_id":76561199006140585,"connected_time":2029000000000,"state":"active","ping":77},{"user_id":385,"name":"Saihtama","steam_id":76561198067497192,"connected_time":2066000000000,"state":"active","ping":58},{"user_id":435,"name":"Silverowl","steam_id":76561198045773877,"connected_time":76000000000,"state":"active","ping":48},{"user_id":425,"name":"Aydin Channel","steam_id":76561198138031624,"connected_time":329000000000,"state":"active","ping":115},{"user_id":382,"name":"GAJtheSPY","steam_id":76561198256080023,"connected_time":2142000000000,"state":"active","ping":64},{"user_id":426,"name":"mumbler","steam_id":76561197970641239,"connected_time":303000000000,"state":"active","ping":49},{"user_id":436,"name":"average f2p","steam_id":76561199136308055,"connected_time":19000000000,"state":"active","ping":51},{"user_id":427,"name":"muza♥","steam_id":76561198220183377,"connected_time":302000000000,"state":"active","ping":95},{"user_id":393,"name":"Miss.Pink","steam_id":76561198344666389,"connected_time":1781000000000,"state":"active","ping":72},{"user_id":405,"name":"Raeews","steam_id":76561198254646517,"connected_time":1293000000000,"state":"active","ping":59},{"user_id":323,"name":"yuh","steam_id":76561199005555839,"connected_time":7502000000000,"state":"active","ping":62},{"user_id":429,"name":"PingouinPoilu","steam_id":76561198025089253,"connected_time":242000000000,"state":"active","ping":62},{"user_id":300,"name":"NO end to POOTIS","steam_id":76561198144879361,"connected_time":8973000000000,"state":"active","ping":114},{"user_id":430,"name":"jaMie","steam_id":76561198170148783,"connected_time":226000000000,"state":"active","ping":53},{"user_id":434,"name":"MAJAX","steam_id":76561198254828632,"connected_time":156000000000,"state":"active","ping":73},{"user_id":419,"name":"varnu (enhanced)","steam_id":76561198104896547,"connected_time":570000000000,"state":"active","ping":71}]},{"server_id":23,"name":"Uncletopia | Frankfurt | 7 | Stopwatch Beta","name_short":"frk-7","host":"frk-1.de.uncletopia.com","port":27075,"enabled":true,"region":"eu","cc":"de","latitude":50.110924,"longitude":8.682127,"reserved":0,"last_update":"0001-01-01T00:00:00Z","name_a2s":"Uncletopia | Frankfurt | 7 | Stopwatch Beta","protocol":17,"map":"koth_lakeside_final","folder":"tf","game":"Team Fortress","app_id":440,"player_count":0,"max_players":24,"Bots":0,"server_type":"Dedicated","server_os":"Linux","password":true,"vac":true,"version":"7742253","steam_id":85568392924742827,"keywords":["cp","nocrits","nodmgspread","uncletopia"],"game_id":440,"stv_port":27076,"stv_name":"Uncletopia | Frankfurt | 7 | Stopwatch Beta | STV","players":null},{"server_id":24,"name":"Uncletopia | Frankfurt | 8 | Community","name_short":"frk-8","host":"frk-1.de.uncletopia.com","port":27085,"enabled":true,"region":"eu","cc":"de","latitude":50.110924,"longitude":8.682127,"reserved":0,"last_update":"0001-01-01T00:00:00Z","name_a2s":"Uncletopia | Frankfurt | 8 | Community","protocol":17,"map":"workshop/koth_ramjam_v2_b2.ugc2865676487","folder":"tf","game":"Team Fortress","app_id":440,"player_count":0,"max_players":24,"Bots":0,"server_type":"Dedicated","server_os":"Linux","password":true,"vac":true,"version":"7742253","steam_id":85568392924742828,"keywords":["cp","nocrits","nodmgspread","uncletopia"],"game_id":440,"stv_port":27086,"stv_name":"Uncletopia | Frankfurt | 8 | Community | STV","players":null},{"server_id":202,"name":"Uncletopia | Hong Kong | 1 | All Maps","name_short":"hgk-1","host":"hgk-1.hk.uncletopia.com","port":27015,"enabled":true,"region":"asia","cc":"hk","latitude":22.302711,"longitude":114.177216,"reserved":0,"last_update":"0001-01-01T00:00:00Z","name_a2s":"Uncletopia | Hong Kong | 1 | All Maps","protocol":17,"map":"pl_upward","folder":"tf","game":"Team Fortress","app_id":440,"player_count":6,"max_players":24,"Bots":0,"server_type":"Dedicated","server_os":"Linux","password":true,"vac":true,"version":"7742253","steam_id":85568392924494504,"keywords":["nocrits","nodmgspread","payload","uncletopia"],"game_id":440,"stv_port":27016,"stv_name":"Uncletopia | Hong Kong | 1 | All Maps | STV","players":[{"user_id":828,"name":"Waltuh (CEO of Chicanery)","steam_id":76561199257300024,"connected_time":8410000000000,"state":"active","ping":61},{"user_id":876,"name":"K K U M A A","steam_id":76561198038343202,"connected_time":582000000000,"state":"active","ping":50},{"user_id":867,"name":"konnie031","steam_id":76561198815939590,"connected_time":3772000000000,"state":"active","ping":67},{"user_id":875,"name":"Tomokami","steam_id":76561198271795685,"connected_time":813000000000,"state":"active","ping":73},{"user_id":877,"name":"ikhwanzafranroydin","steam_id":76561199210334663,"connected_time":325000000000,"state":"active","ping":114},{"user_id":643,"name":"Kurtie","steam_id":76561198144737876,"connected_time":26377000000000,"state":"active","ping":56}]},{"server_id":1,"name":"Uncletopia | Los Angeles | 1 | All Maps","name_short":"lax-1","host":"lax-1.us.uncletopia.com","port":27015,"enabled":true,"region":"us-west","cc":"us","latitude":33.94279,"longitude":-118.41004,"reserved":0,"last_update":"0001-01-01T00:00:00Z","name_a2s":"Uncletopia | Los Angeles | 1 | All Maps","protocol":17,"map":"cp_dustbowl","folder":"tf","game":"Team Fortress","app_id":440,"player_count":0,"max_players":24,"Bots":0,"server_type":"Dedicated","server_os":"Linux","password":true,"vac":true,"version":"7742253","steam_id":85568392924469991,"keywords":["cp","nocrits","nodmgspread","uncletopia"],"game_id":440,"stv_port":27016,"stv_name":"Uncletopia | Los Angeles | 1 | All Maps | STV","players":null},{"server_id":112,"name":"Uncletopia | Los Angeles | 2 | All Maps","name_short":"lax-2","host":"lax-1.us.uncletopia.com","port":27025,"enabled":true,"region":"us-west","cc":"us","latitude":33.94279,"longitude":-118.41004,"reserved":0,"last_update":"0001-01-01T00:00:00Z","name_a2s":"Uncletopia | Los Angeles | 2 | All Maps","protocol":17,"map":"pl_upward","folder":"tf","game":"Team Fortress","app_id":440,"player_count":0,"max_players":24,"Bots":0,"server_type":"Dedicated","server_os":"Linux","password":true,"vac":true,"version":"7742253","steam_id":85568392924469992,"keywords":["nocrits","nodmgspread","payload","uncletopia"],"game_id":440,"stv_port":27026,"stv_name":"Uncletopia | Los Angeles | 2 | All Maps | STV","players":null},{"server_id":324,"name":"Uncletopia | Los Angeles | 3 | All Maps","name_short":"lax-3","host":"lax-1.us.uncletopia.com","port":27035,"enabled":true,"region":"us-west","cc":"us","latitude":33.94279,"longitude":-118.41004,"reserved":0,"last_update":"0001-01-01T00:00:00Z","name_a2s":"Uncletopia | Los Angeles | 3 | All Maps","protocol":17,"map":"pl_borneo","folder":"tf","game":"Team Fortress","app_id":440,"player_count":0,"max_players":24,"Bots":0,"server_type":"Dedicated","server_os":"Linux","password":true,"vac":true,"version":"7742253","steam_id":85568392924510198,"keywords":["nocrits","nodmgspread","payload","uncletopia"],"game_id":440,"stv_port":27036,"stv_name":"Uncletopia | Los Angeles | 3 | All Maps | STV","players":null},{"server_id":25,"name":"Uncletopia | Los Angeles | 4 | Stopwatch Beta","name_short":"lax-4","host":"lax-1.us.uncletopia.com","port":27045,"enabled":true,"region":"us-west","cc":"us","latitude":33.94279,"longitude":-118.41004,"reserved":0,"last_update":"0001-01-01T00:00:00Z","name_a2s":"Uncletopia | Los Angeles | 4 | Stopwatch Beta","protocol":17,"map":"cp_process_final","folder":"tf","game":"Team Fortress","app_id":440,"player_count":0,"max_players":24,"Bots":0,"server_type":"Dedicated","server_os":"Linux","password":true,"vac":true,"version":"7742253","steam_id":85568392924510199,"keywords":["cp","nocrits","nodmgspread","uncletopia"],"game_id":440,"stv_port":27046,"stv_name":"Uncletopia | Los Angeles | 4 | Stopwatch Beta | STV","players":null},{"server_id":11,"name":"Uncletopia | London | 1 | All Maps","name_short":"lon-1","host":"lon-1.uk.uncletopia.com","port":27015,"enabled":true,"region":"eu","cc":"gb","latitude":51.509865,"longitude":-0.118092,"reserved":0,"last_update":"0001-01-01T00:00:00Z","name_a2s":"Uncletopia | London | 1 | All Maps","protocol":17,"map":"pl_pier","folder":"tf","game":"Team Fortress","app_id":440,"player_count":24,"max_players":24,"Bots":0,"server_type":"Dedicated","server_os":"Linux","password":true,"vac":true,"version":"7742253","steam_id":85568392924367362,"keywords":["nocrits","nodmgspread","payload","uncletopia"],"game_id":440,"stv_port":27016,"stv_name":"Uncletopia | London | 1 | All Maps | STV","players":[{"user_id":472,"name":"ciliorkun18","steam_id":76561198228942500,"connected_time":2151000000000,"state":"active","ping":98},{"user_id":493,"name":"Dr. Funkenstein","steam_id":76561197977816210,"connected_time":825000000000,"state":"active","ping":50},{"user_id":495,"name":"Lightbulb Monkey","steam_id":76561198045033173,"connected_time":552000000000,"state":"active","ping":66},{"user_id":483,"name":"JimmySquid","steam_id":76561198254242530,"connected_time":1198000000000,"state":"active","ping":156},{"user_id":494,"name":"BlueAnimated","steam_id":76561199227588613,"connected_time":797000000000,"state":"active","ping":129},{"user_id":492,"name":"Calmedy","steam_id":76561198295310457,"connected_time":941000000000,"state":"active","ping":56},{"user_id":484,"name":"Open Mailbox","steam_id":76561198051933580,"connected_time":1184000000000,"state":"active","ping":128},{"user_id":485,"name":"AviSheepie","steam_id":76561198154361272,"connected_time":1133000000000,"state":"active","ping":106},{"user_id":486,"name":"Talent","steam_id":76561198153880354,"connected_time":1108000000000,"state":"active","ping":47},{"user_id":462,"name":"robbob","steam_id":76561198137375391,"connected_time":2688000000000,"state":"active","ping":82},{"user_id":471,"name":"Aaron","steam_id":76561197990046953,"connected_time":2236000000000,"state":"active","ping":71},{"user_id":427,"name":"Borat","steam_id":76561198122226417,"connected_time":5530000000000,"state":"active","ping":41},{"user_id":475,"name":"tralalaOuiOui","steam_id":76561197963471507,"connected_time":2065000000000,"state":"active","ping":50},{"user_id":487,"name":"antondi","steam_id":76561198123140065,"connected_time":1096000000000,"state":"active","ping":69},{"user_id":425,"name":"dec","steam_id":76561198009660168,"connected_time":5548000000000,"state":"active","ping":59},{"user_id":435,"name":"Kahvi","steam_id":76561198723244199,"connected_time":5044000000000,"state":"active","ping":78},{"user_id":441,"name":"One armed fiddle enthusiast","steam_id":76561198045847051,"connected_time":4379000000000,"state":"active","ping":60},{"user_id":452,"name":"Twin Fantasy (Mirror To Mirror)","steam_id":76561198397024973,"connected_time":3805000000000,"state":"active","ping":44},{"user_id":468,"name":"profi248","steam_id":76561198144795505,"connected_time":2583000000000,"state":"active","ping":60},{"user_id":491,"name":"Solymr ibn Wali Barad","steam_id":76561198044008976,"connected_time":1011000000000,"state":"active","ping":60},{"user_id":489,"name":"gorrian","steam_id":76561198278199225,"connected_time":1051000000000,"state":"active","ping":69},{"user_id":448,"name":"gracfulldove","steam_id":76561199109120198,"connected_time":4040000000000,"state":"active","ping":163},{"user_id":490,"name":"dafydd","steam_id":76561198052200325,"connected_time":1048000000000,"state":"active","ping":91},{"user_id":480,"name":"Bait","steam_id":76561198335188568,"connected_time":1893000000000,"state":"active","ping":48}]},{"server_id":114,"name":"Uncletopia | London | 2 | All Maps","name_short":"lon-2","host":"lon-1.uk.uncletopia.com","port":27025,"enabled":true,"region":"eu","cc":"gb","latitude":51.509865,"longitude":-0.118092,"reserved":0,"last_update":"0001-01-01T00:00:00Z","name_a2s":"Uncletopia | London | 2 | All Maps","protocol":17,"map":"cp_mossrock","folder":"tf","game":"Team Fortress","app_id":440,"player_count":23,"max_players":24,"Bots":0,"server_type":"Dedicated","server_os":"Linux","password":true,"vac":true,"version":"7742253","steam_id":85568392924470941,"keywords":["cp","nocrits","nodmgspread","uncletopia"],"game_id":440,"stv_port":27026,"stv_name":"Uncletopia | London | 2 | All Maps | STV","players":[{"user_id":259,"name":"Mob","steam_id":76561198194678951,"connected_time":1548000000000,"state":"active","ping":77},{"user_id":288,"name":"Dictatorial Karelian","steam_id":76561198196736457,"connected_time":428000000000,"state":"active","ping":105},{"user_id":295,"name":"Alfred Schroom","steam_id":76561198117990411,"connected_time":58000000000,"state":"active","ping":99},{"user_id":273,"name":"Parigonicalus","steam_id":76561198044637492,"connected_time":744000000000,"state":"active","ping":76},{"user_id":274,"name":"bANji","steam_id":76561198108898161,"connected_time":698000000000,"state":"active","ping":54},{"user_id":276,"name":"ShadowMuffin","steam_id":76561198273912587,"connected_time":625000000000,"state":"active","ping":48},{"user_id":281,"name":"the high amby spy","steam_id":76561198212488780,"connected_time":564000000000,"state":"active","ping":65},{"user_id":219,"name":"KarlRanzeier","steam_id":76561198066281337,"connected_time":4769000000000,"state":"active","ping":60},{"user_id":278,"name":"Sweetcheesus","steam_id":76561198022299033,"connected_time":613000000000,"state":"active","ping":60},{"user_id":244,"name":"bob","steam_id":76561199444516825,"connected_time":2470000000000,"state":"active","ping":83},{"user_id":283,"name":"Bob Salami","steam_id":76561198150681340,"connected_time":529000000000,"state":"active","ping":89},{"user_id":291,"name":"Tomfool","steam_id":76561197993256481,"connected_time":265000000000,"state":"active","ping":87},{"user_id":265,"name":"Splarvis","steam_id":76561198007792525,"connected_time":1417000000000,"state":"active","ping":39},{"user_id":246,"name":"Aquatical","steam_id":76561198097333170,"connected_time":2456000000000,"state":"active","ping":92},{"user_id":292,"name":"sigma female","steam_id":76561198298576765,"connected_time":224000000000,"state":"active","ping":70},{"user_id":284,"name":".quickfast.","steam_id":76561199438900919,"connected_time":505000000000,"state":"active","ping":51},{"user_id":253,"name":"if u spam ur gay","steam_id":76561198869951554,"connected_time":2224000000000,"state":"active","ping":155},{"user_id":285,"name":"kiewass","steam_id":76561198870729709,"connected_time":498000000000,"state":"active","ping":65},{"user_id":232,"name":"Zembis","steam_id":76561198008017918,"connected_time":3097000000000,"state":"active","ping":103},{"user_id":286,"name":"The Funny Cat-Heaby","steam_id":76561198439978112,"connected_time":476000000000,"state":"active","ping":103},{"user_id":289,"name":"|==[шприц]\u003e--- RAMA","steam_id":76561198040423618,"connected_time":424000000000,"state":"active","ping":90},{"user_id":290,"name":"Mr.Schnittlauch","steam_id":76561198295868113,"connected_time":422000000000,"state":"active","ping":64},{"user_id":264,"name":"beef estrogenoff","steam_id":76561198106455841,"connected_time":1464000000000,"state":"active","ping":69}]},{"server_id":320,"name":"Uncletopia | London | 3 | All Maps","name_short":"lon-3","host":"lon-1.uk.uncletopia.com","port":27035,"enabled":true,"region":"eu","cc":"gb","latitude":51.509865,"longitude":-0.118092,"reserved":0,"last_update":"0001-01-01T00:00:00Z","name_a2s":"Uncletopia | London | 3 | All Maps","protocol":17,"map":"pl_barnblitz","folder":"tf","game":"Team Fortress","app_id":440,"player_count":21,"max_players":24,"Bots":0,"server_type":"Dedicated","server_os":"Linux","password":true,"vac":true,"version":"7742253","steam_id":85568392924510192,"keywords":["nocrits","nodmgspread","payload","uncletopia"],"game_id":440,"stv_port":27036,"stv_name":"Uncletopia | London | 3 | All Maps | STV","players":[{"user_id":373,"name":"Insanitybomb","steam_id":76561198048707708,"connected_time":2878000000000,"state":"active","ping":52},{"user_id":403,"name":"Luke","steam_id":76561197993517025,"connected_time":18000000000,"state":"active","ping":47},{"user_id":378,"name":"hushhx","steam_id":76561198216200092,"connected_time":2405000000000,"state":"active","ping":51},{"user_id":307,"name":"kbbq","steam_id":76561198346638308,"connected_time":7229000000000,"state":"active","ping":60},{"user_id":393,"name":"Españaa","steam_id":76561198879587832,"connected_time":463000000000,"state":"active","ping":80},{"user_id":349,"name":"Tmpod","steam_id":76561198069210431,"connected_time":4266000000000,"state":"active","ping":61},{"user_id":387,"name":"YEEET","steam_id":76561198914938199,"connected_time":1319000000000,"state":"active","ping":97},{"user_id":384,"name":"bollocks","steam_id":76561197971010483,"connected_time":1457000000000,"state":"active","ping":47},{"user_id":392,"name":"grandpa engineer","steam_id":76561199218074926,"connected_time":600000000000,"state":"active","ping":62},{"user_id":339,"name":"Lyra","steam_id":76561198043601838,"connected_time":4878000000000,"state":"active","ping":61},{"user_id":397,"name":"Lessoz","steam_id":76561199211572036,"connected_time":256000000000,"state":"active","ping":90},{"user_id":343,"name":"the Black Hunter","steam_id":76561198106049954,"connected_time":4476000000000,"state":"active","ping":92},{"user_id":381,"name":"emacs kitty","steam_id":76561199057953617,"connected_time":1561000000000,"state":"active","ping":61},{"user_id":401,"name":"FackaYou","steam_id":76561198193036090,"connected_time":189000000000,"state":"active","ping":61},{"user_id":324,"name":"lugi","steam_id":76561199020785925,"connected_time":6189000000000,"state":"active","ping":61},{"user_id":377,"name":"mr teleports","steam_id":76561197980736364,"connected_time":2663000000000,"state":"active","ping":79},{"user_id":376,"name":"Andreus","steam_id":76561199403926001,"connected_time":2815000000000,"state":"active","ping":76},{"user_id":357,"name":"Lukas","steam_id":76561198009118452,"connected_time":4073000000000,"state":"active","ping":61},{"user_id":390,"name":"jwesa","steam_id":76561198018330092,"connected_time":833000000000,"state":"active","ping":90},{"user_id":359,"name":"WinRAR™","steam_id":76561198056522270,"connected_time":4036000000000,"state":"active","ping":61}]},{"server_id":321,"name":"Uncletopia | London | 4 | All Maps","name_short":"lon-4","host":"lon-1.uk.uncletopia.com","port":27045,"enabled":true,"region":"eu","cc":"gb","latitude":51.509865,"longitude":-0.118092,"reserved":0,"last_update":"0001-01-01T00:00:00Z","name_a2s":"Uncletopia | London | 4 | All Maps","protocol":17,"map":"ctf_2fort","folder":"tf","game":"Team Fortress","app_id":440,"player_count":22,"max_players":24,"Bots":0,"server_type":"Dedicated","server_os":"Linux","password":true,"vac":true,"version":"7742253","steam_id":85568392924510193,"keywords":["ctf","nocrits","nodmgspread","uncletopia"],"game_id":440,"stv_port":27046,"stv_name":"Uncletopia | London | 4 | All Maps | STV","players":[{"user_id":375,"name":"Penis Contortionist","steam_id":76561198073663784,"connected_time":479000000000,"state":"active","ping":48},{"user_id":356,"name":"Z-Tfu","steam_id":76561198450036507,"connected_time":906000000000,"state":"active","ping":86},{"user_id":367,"name":"ZOMBINΣ","steam_id":76561198151057964,"connected_time":700000000000,"state":"active","ping":88},{"user_id":326,"name":"Entropy VT","steam_id":76561199039628923,"connected_time":2456000000000,"state":"active","ping":58},{"user_id":386,"name":"silicon based life form","steam_id":76561199127121346,"connected_time":126000000000,"state":"active","ping":46},{"user_id":342,"name":"PicklesTRT","steam_id":76561198053440288,"connected_time":1544000000000,"state":"active","ping":152},{"user_id":355,"name":"your dads bald spot","steam_id":76561199383437138,"connected_time":1136000000000,"state":"active","ping":128},{"user_id":311,"name":"goprit","steam_id":76561198072518761,"connected_time":3822000000000,"state":"active","ping":76},{"user_id":327,"name":"bad 2 za bona","steam_id":76561199065919134,"connected_time":2392000000000,"state":"active","ping":61},{"user_id":310,"name":"i am bread","steam_id":76561199180277321,"connected_time":3831000000000,"state":"active","ping":40},{"user_id":385,"name":"AforeKingDwarf","steam_id":76561198043562926,"connected_time":186000000000,"state":"active","ping":44},{"user_id":362,"name":"Number 1 Wutville enjoyer","steam_id":76561198037361321,"connected_time":746000000000,"state":"active","ping":66},{"user_id":377,"name":"Bargon","steam_id":76561198964641940,"connected_time":436000000000,"state":"active","ping":75},{"user_id":359,"name":"Milk","steam_id":76561198125876588,"connected_time":765000000000,"state":"active","ping":38},{"user_id":387,"name":"Bing Soy (Europe Edition)","steam_id":76561198970762992,"connected_time":3000000000,"state":"spawning","ping":88},{"user_id":365,"name":"Ord","steam_id":76561199058793029,"connected_time":707000000000,"state":"active","ping":148},{"user_id":378,"name":"stop","steam_id":76561198268686419,"connected_time":405000000000,"state":"active","ping":152},{"user_id":383,"name":"Lola bunny","steam_id":76561198214149431,"connected_time":221000000000,"state":"active","ping":50},{"user_id":352,"name":"lvl. 50 honkler","steam_id":76561198061688660,"connected_time":1225000000000,"state":"active","ping":107},{"user_id":353,"name":"DoraTheExplora","steam_id":76561198059319529,"connected_time":1222000000000,"state":"active","ping":85},{"user_id":279,"name":"Nobaddy","steam_id":76561198037871007,"connected_time":5371000000000,"state":"active","ping":74},{"user_id":371,"name":"ref","steam_id":76561198186865138,"connected_time":670000000000,"state":"active","ping":78}]},{"server_id":21,"name":"Uncletopia | London | 5 | All Maps","name_short":"lon-5","host":"lon-1.uk.uncletopia.com","port":27055,"enabled":true,"region":"eu","cc":"gb","latitude":51.509865,"longitude":-0.118092,"reserved":0,"last_update":"0001-01-01T00:00:00Z","name_a2s":"Uncletopia | London | 5 | All Maps","protocol":17,"map":"pl_badwater","folder":"tf","game":"Team Fortress","app_id":440,"player_count":0,"max_players":24,"Bots":0,"server_type":"Dedicated","server_os":"Linux","password":true,"vac":true,"version":"7742253","steam_id":85568392924742829,"keywords":["nocrits","nodmgspread","payload","uncletopia"],"game_id":440,"stv_port":27056,"stv_name":"Uncletopia | London | 5 | All Maps | STV","players":null},{"server_id":22,"name":"Uncletopia | London | 6 | All Maps","name_short":"lon-6","host":"lon-1.uk.uncletopia.com","port":27065,"enabled":true,"region":"eu","cc":"gb","latitude":51.509865,"longitude":-0.118092,"reserved":0,"last_update":"0001-01-01T00:00:00Z","name_a2s":"Uncletopia | London | 6 | All Maps","protocol":17,"map":"koth_cascade","folder":"tf","game":"Team Fortress","app_id":440,"player_count":0,"max_players":24,"Bots":0,"server_type":"Dedicated","server_os":"Linux","password":true,"vac":true,"version":"7742253","steam_id":85568392924742830,"keywords":["cp","nocrits","nodmgspread","uncletopia"],"game_id":440,"stv_port":27066,"stv_name":"Uncletopia | London | 6 | All Maps | STV","players":null},{"server_id":40,"name":"Uncletopia | London | 7 | No Payload","name_short":"lon-7","host":"lon-1.uk.uncletopia.com","port":27075,"enabled":true,"region":"eu","cc":"gb","latitude":51.509865,"longitude":-0.118092,"reserved":0,"last_update":"0001-01-01T00:00:00Z","name_a2s":"Uncletopia | London | 7 | No Payload","protocol":17,"map":"koth_harvest_final","folder":"tf","game":"Team Fortress","app_id":440,"player_count":0,"max_players":24,"Bots":0,"server_type":"Dedicated","server_os":"Linux","password":true,"vac":true,"version":"7742253","steam_id":85568392924964314,"keywords":["cp","nocrits","nodmgspread","uncletopia"],"game_id":440,"stv_port":27076,"stv_name":"Uncletopia | London | 7 | No Payload | STV","players":null},{"server_id":41,"name":"Uncletopia | London | 8 | Community","name_short":"lon-8","host":"lon-1.uk.uncletopia.com","port":27085,"enabled":true,"region":"eu","cc":"gb","latitude":51.509865,"longitude":-0.118092,"reserved":0,"last_update":"0001-01-01T00:00:00Z","name_a2s":"Uncletopia | London | 8 | Community","protocol":17,"map":"workshop/cp_villa_b19.ugc2113052569","folder":"tf","game":"Team Fortress","app_id":440,"player_count":0,"max_players":24,"Bots":0,"server_type":"Dedicated","server_os":"Linux","password":true,"vac":true,"version":"7742253","steam_id":85568392924964315,"keywords":["cp","nocrits","nodmgspread","uncletopia"],"game_id":440,"stv_port":27086,"stv_name":"Uncletopia | London | 8 | Community | STV","players":null},{"server_id":300,"name":"Uncletopia | Montréal | 1 | All Maps","name_short":"mtl-1","host":"mtl-1.ca.uncletopia.com","port":27015,"enabled":true,"region":"us-east","cc":"ca","latitude":45.50889,"longitude":-73.56167,"reserved":0,"last_update":"0001-01-01T00:00:00Z","name_a2s":"Uncletopia | Montréal | 1 | All Maps","protocol":17,"map":"koth_lakeside_final","folder":"tf","game":"Team Fortress","app_id":440,"player_count":0,"max_players":24,"Bots":0,"server_type":"Dedicated","server_os":"Linux","password":true,"vac":true,"version":"7742253","steam_id":85568392924500087,"keywords":["cp","nocrits","nodmgspread","uncletopia"],"game_id":440,"stv_port":27016,"stv_name":"Uncletopia | Montréal | 1 | All Maps | STV","players":null},{"server_id":301,"name":"Uncletopia | Montréal | 2 | All Maps","name_short":"mtl-2","host":"mtl-1.ca.uncletopia.com","port":27025,"enabled":true,"region":"us-east","cc":"ca","latitude":45.50889,"longitude":-73.56167,"reserved":0,"last_update":"0001-01-01T00:00:00Z","name_a2s":"Uncletopia | Montréal | 2 | All Maps","protocol":17,"map":"koth_lakeside_final","folder":"tf","game":"Team Fortress","app_id":440,"player_count":0,"max_players":24,"Bots":0,"server_type":"Dedicated","server_os":"Linux","password":true,"vac":true,"version":"7742253","steam_id":85568392924500088,"keywords":["cp","nocrits","nodmgspread","uncletopia"],"game_id":440,"stv_port":27026,"stv_name":"Uncletopia | Montréal | 2 | All Maps | STV","players":null},{"server_id":302,"name":"Uncletopia | Montréal | 3 | All Maps","name_short":"mtl-3","host":"mtl-1.ca.uncletopia.com","port":27035,"enabled":true,"region":"us-east","cc":"ca","latitude":45.50889,"longitude":-73.56167,"reserved":0,"last_update":"0001-01-01T00:00:00Z","name_a2s":"Uncletopia | Montréal | 3 | All Maps","protocol":17,"map":"cp_altitude","folder":"tf","game":"Team Fortress","app_id":440,"player_count":0,"max_players":24,"Bots":0,"server_type":"Dedicated","server_os":"Linux","password":true,"vac":true,"version":"7742253","steam_id":85568392924500089,"keywords":["cp","nocrits","nodmgspread","uncletopia"],"game_id":440,"stv_port":27036,"stv_name":"Uncletopia | Montréal | 3 | All Maps | STV","players":null},{"server_id":303,"name":"Uncletopia | Montréal | 4 | No Payload","name_short":"mtl-4","host":"mtl-1.ca.uncletopia.com","port":27045,"enabled":true,"region":"us-east","cc":"ca","latitude":45.50889,"longitude":-73.56167,"reserved":0,"last_update":"0001-01-01T00:00:00Z","name_a2s":"Uncletopia | Montréal | 4 | No Payload","protocol":17,"map":"koth_highpass","folder":"tf","game":"Team Fortress","app_id":440,"player_count":0,"max_players":24,"Bots":0,"server_type":"Dedicated","server_os":"Linux","password":true,"vac":true,"version":"7742253","steam_id":85568392924500090,"keywords":["cp","nocrits","nodmgspread","uncletopia"],"game_id":440,"stv_port":27046,"stv_name":"Uncletopia | Montréal | 4 | No Payload | STV","players":null},{"server_id":13,"name":"Uncletopia | New York City | 1 | All Maps","name_short":"nyc-1","host":"nyc-1.us.uncletopia.com","port":27015,"enabled":true,"region":"us-east","cc":"us","latitude":40.73061,"longitude":-73.93524,"reserved":0,"last_update":"0001-01-01T00:00:00Z","name_a2s":"Uncletopia | New York City | 1 | All Maps","protocol":17,"map":"plr_pipeline","folder":"tf","game":"Team Fortress","app_id":440,"player_count":23,"max_players":24,"Bots":0,"server_type":"Dedicated","server_os":"Linux","password":true,"vac":true,"version":"7742253","steam_id":85568392924469993,"keywords":["nocrits","nodmgspread","payload","uncletopia"],"game_id":440,"stv_port":27016,"stv_name":"Uncletopia | New York City | 1 | All Maps | STV","players":[{"user_id":99,"name":"Raincool","steam_id":76561198042953645,"connected_time":237000000000,"state":"active","ping":47},{"user_id":70,"name":"Spiral Mountain","steam_id":76561198058683715,"connected_time":1941000000000,"state":"active","ping":65},{"user_id":84,"name":"Cuttle's Fish","steam_id":76561198280483257,"connected_time":1297000000000,"state":"active","ping":78},{"user_id":98,"name":"Oh my PKCells...","steam_id":76561198008577961,"connected_time":494000000000,"state":"active","ping":76},{"user_id":95,"name":"lost in spaaaaace","steam_id":76561199085974120,"connected_time":767000000000,"state":"active","ping":48},{"user_id":91,"name":"plastiquemonk","steam_id":76561198126035719,"connected_time":942000000000,"state":"active","ping":113},{"user_id":27,"name":"average catgirl","steam_id":76561198124028045,"connected_time":4921000000000,"state":"active","ping":53},{"user_id":93,"name":"Equalizer Time","steam_id":76561199153253208,"connected_time":852000000000,"state":"active","ping":100},{"user_id":101,"name":"floppy muppet","steam_id":76561198003076261,"connected_time":23000000000,"state":"active","ping":91},{"user_id":66,"name":"Mao Zedoge","steam_id":76561198141939154,"connected_time":2537000000000,"state":"spawning","ping":85},{"user_id":30,"name":"chompsky honk","steam_id":76561198056742506,"connected_time":4807000000000,"state":"active","ping":45},{"user_id":102,"name":"Exalted Finalist","steam_id":76561198192021295,"connected_time":21000000000,"state":"spawning","ping":151},{"user_id":69,"name":"Wilhelmktx","steam_id":76561198158102295,"connected_time":1960000000000,"state":"active","ping":75},{"user_id":103,"name":"Bell_Boy","steam_id":76561198397512046,"connected_time":6000000000,"state":"spawning","ping":99},{"user_id":88,"name":"All 24 Pokémon movies at once","steam_id":76561198164738311,"connected_time":991000000000,"state":"active","ping":79},{"user_id":86,"name":"HorseCooker","steam_id":76561198076588370,"connected_time":1060000000000,"state":"active","ping":62},{"user_id":100,"name":"basil","steam_id":76561198075758026,"connected_time":66000000000,"state":"active","ping":78},{"user_id":83,"name":"Big McThankies From McSpankies","steam_id":76561198020516880,"connected_time":1386000000000,"state":"active","ping":103},{"user_id":67,"name":"catgirl giantess in heat","steam_id":76561198439042583,"connected_time":2532000000000,"state":"active","ping":104},{"user_id":41,"name":"Fudgely","steam_id":76561198039425862,"connected_time":4432000000000,"state":"active","ping":62},{"user_id":79,"name":"Pills","steam_id":76561198799440163,"connected_time":1614000000000,"state":"active","ping":102},{"user_id":43,"name":"nalezinik","steam_id":76561198030026119,"connected_time":4391000000000,"state":"active","ping":67}]},{"server_id":14,"name":"Uncletopia | New York City | 2 | All Maps","name_short":"nyc-2","host":"nyc-1.us.uncletopia.com","port":27025,"enabled":true,"region":"us-east","cc":"us","latitude":40.73061,"longitude":-73.93524,"reserved":0,"last_update":"0001-01-01T00:00:00Z","name_a2s":"Uncletopia | New York City | 2 | All Maps","protocol":17,"map":"pl_borneo","folder":"tf","game":"Team Fortress","app_id":440,"player_count":24,"max_players":24,"Bots":0,"server_type":"Dedicated","server_os":"Linux","password":true,"vac":true,"version":"7742253","steam_id":85568392924469994,"keywords":["nocrits","nodmgspread","payload","uncletopia"],"game_id":440,"stv_port":27026,"stv_name":"Uncletopia | New York City | 2 | All Maps | STV","players":[{"user_id":146,"name":"6t26j","steam_id":76561198278282836,"connected_time":942000000000,"state":"active","ping":52},{"user_id":151,"name":"tingle shitmouth","steam_id":76561198055109192,"connected_time":160000000000,"state":"active","ping":86},{"user_id":117,"name":"PunchGhost","steam_id":76561198041668043,"connected_time":3330000000000,"state":"active","ping":69},{"user_id":150,"name":"Nico","steam_id":76561198125701869,"connected_time":176000000000,"state":"active","ping":39},{"user_id":130,"name":"SuperJagops","steam_id":76561198034689716,"connected_time":2117000000000,"state":"active","ping":50},{"user_id":136,"name":"the secret sauce","steam_id":76561199144640325,"connected_time":1583000000000,"state":"active","ping":82},{"user_id":152,"name":"Hubba","steam_id":76561199447163942,"connected_time":149000000000,"state":"active","ping":171},{"user_id":113,"name":"Nespreco","steam_id":76561198252035336,"connected_time":3564000000000,"state":"active","ping":119},{"user_id":149,"name":"OrangeShoes","steam_id":76561197971249940,"connected_time":415000000000,"state":"active","ping":80},{"user_id":147,"name":"M.L.JEW","steam_id":76561198997375055,"connected_time":526000000000,"state":"active","ping":76},{"user_id":141,"name":"THRILLHO","steam_id":76561198371663047,"connected_time":1527000000000,"state":"active","ping":55},{"user_id":131,"name":"sasharudzik","steam_id":76561199126617781,"connected_time":1990000000000,"state":"active","ping":69},{"user_id":143,"name":"Skadewsh","steam_id":76561198102772209,"connected_time":1181000000000,"state":"active","ping":61},{"user_id":137,"name":"JPSS","steam_id":76561199239530493,"connected_time":1579000000000,"state":"active","ping":62},{"user_id":156,"name":"super99coolman","steam_id":76561199249081889,"connected_time":80000000000,"state":"active","ping":78},{"user_id":153,"name":"Sprucelass","steam_id":76561197998391724,"connected_time":138000000000,"state":"active","ping":62},{"user_id":134,"name":"Bother","steam_id":76561198336750909,"connected_time":1762000000000,"state":"active","ping":38},{"user_id":138,"name":"Midas","steam_id":76561198045647141,"connected_time":1572000000000,"state":"active","ping":78},{"user_id":135,"name":"[PROFILE REDACTED]","steam_id":76561198817953928,"connected_time":1736000000000,"state":"active","ping":97},{"user_id":154,"name":"Blueraspberry","steam_id":76561198040876601,"connected_time":119000000000,"state":"active","ping":69},{"user_id":142,"name":"Psychosis","steam_id":76561198078659070,"connected_time":1386000000000,"state":"active","ping":66},{"user_id":70,"name":"Nic0","steam_id":76561198305690218,"connected_time":7125000000000,"state":"active","ping":71},{"user_id":145,"name":"beats beats","steam_id":76561199245717718,"connected_time":1045000000000,"state":"active","ping":60},{"user_id":155,"name":"J. Cash","steam_id":76561198078626283,"connected_time":109000000000,"state":"active","ping":105}]},{"server_id":15,"name":"Uncletopia | New York City | 3 | Stopwatch Beta","name_short":"nyc-3","host":"nyc-1.us.uncletopia.com","port":27035,"enabled":true,"region":"us-east","cc":"us","latitude":40.73061,"longitude":-73.93524,"reserved":0,"last_update":"0001-01-01T00:00:00Z","name_a2s":"Uncletopia | New York City | 3 | Stopwatch Beta","protocol":17,"map":"koth_lakeside_final","folder":"tf","game":"Team Fortress","app_id":440,"player_count":0,"max_players":24,"Bots":0,"server_type":"Dedicated","server_os":"Linux","password":true,"vac":true,"version":"7742253","steam_id":85568392924742820,"keywords":["cp","nocrits","nodmgspread","uncletopia"],"game_id":440,"stv_port":27036,"stv_name":"Uncletopia | New York City | 3 | Stopwatch Beta | STV","players":null},{"server_id":16,"name":"Uncletopia | New York City | 4 | Community","name_short":"nyc-4","host":"nyc-1.us.uncletopia.com","port":27045,"enabled":true,"region":"us-east","cc":"us","latitude":40.73061,"longitude":-73.93524,"reserved":0,"last_update":"0001-01-01T00:00:00Z","name_a2s":"Uncletopia | New York City | 4 | Community","protocol":17,"map":"pl_barnblitz","folder":"tf","game":"Team Fortress","app_id":440,"player_count":0,"max_players":24,"Bots":0,"server_type":"Dedicated","server_os":"Linux","password":true,"vac":true,"version":"7742253","steam_id":85568392924742821,"keywords":["nocrits","nodmgspread","payload","uncletopia"],"game_id":440,"stv_port":27046,"stv_name":"Uncletopia | New York City | 4 | Community | STV","players":null},{"server_id":142,"name":"Uncletopia | São Paulo | 1 | All Maps","name_short":"sao-1","host":"sao-1.br.uncletopia.com","port":27015,"enabled":true,"region":"sa","cc":"br","latitude":-23.533773,"longitude":-46.62529,"reserved":0,"last_update":"0001-01-01T00:00:00Z","name_a2s":"Uncletopia | São Paulo | 1 | All Maps","protocol":17,"map":"koth_viaduct","folder":"tf","game":"Team Fortress","app_id":440,"player_count":0,"max_players":24,"Bots":0,"server_type":"Dedicated","server_os":"Linux","password":true,"vac":true,"version":"7742253","steam_id":85568392924469996,"keywords":["cp","nocrits","nodmgspread","uncletopia"],"game_id":440,"stv_port":27016,"stv_name":"Uncletopia | São Paulo | 1 | All Maps | STV","players":null},{"server_id":143,"name":"Uncletopia | São Paulo | 2 | All Maps","name_short":"sao-2","host":"sao-2.br.uncletopia.com","port":27015,"enabled":true,"region":"sa","cc":"br","latitude":-23.533773,"longitude":-46.62529,"reserved":0,"last_update":"0001-01-01T00:00:00Z","name_a2s":"Uncletopia | São Paulo | 2 | All Maps","protocol":17,"map":"koth_lakeside_final","folder":"tf","game":"Team Fortress","app_id":440,"player_count":0,"max_players":24,"Bots":0,"server_type":"Dedicated","server_os":"Linux","password":true,"vac":true,"version":"7742253","steam_id":85568392924485349,"keywords":["cp","nocrits","nodmgspread","uncletopia"],"game_id":440,"stv_port":27016,"stv_name":"Uncletopia | São Paulo | 2 | All Maps | STV","players":null},{"server_id":7,"name":"Uncletopia | Seattle | 1 | All Maps","name_short":"sea-1","host":"sea-1.us.uncletopia.com","port":27015,"enabled":true,"region":"us-west","cc":"us","latitude":47.608013,"longitude":-122.33517,"reserved":0,"last_update":"0001-01-01T00:00:00Z","name_a2s":"Uncletopia | Seattle | 1 | All Maps","protocol":17,"map":"cp_dustbowl","folder":"tf","game":"Team Fortress","app_id":440,"player_count":0,"max_players":24,"Bots":0,"server_type":"Dedicated","server_os":"Linux","password":true,"vac":true,"version":"7742253","steam_id":85568392924469997,"keywords":["cp","nocrits","nodmgspread","uncletopia"],"game_id":440,"stv_port":27016,"stv_name":"Uncletopia | Seattle | 1 | All Maps | STV","players":null},{"server_id":119,"name":"Uncletopia | Seattle | 2 | All Maps","name_short":"sea-2","host":"sea-1.us.uncletopia.com","port":27025,"enabled":true,"region":"us-west","cc":"us","latitude":47.608013,"longitude":-122.33517,"reserved":0,"last_update":"0001-01-01T00:00:00Z","name_a2s":"Uncletopia | Seattle | 2 | All Maps","protocol":17,"map":"cp_sunshine","folder":"tf","game":"Team Fortress","app_id":440,"player_count":0,"max_players":24,"Bots":0,"server_type":"Dedicated","server_os":"Linux","password":true,"vac":true,"version":"7742253","steam_id":85568392924469998,"keywords":["cp","nocrits","nodmgspread","uncletopia"],"game_id":440,"stv_port":27026,"stv_name":"Uncletopia | Seattle | 2 | All Maps | STV","players":null},{"server_id":406,"name":"Uncletopia | Seattle | 3 | Stopwatch Beta","name_short":"sea-3","host":"sea-1.us.uncletopia.com","port":27035,"enabled":true,"region":"us-west","cc":"us","latitude":47.608013,"longitude":-122.33517,"reserved":0,"last_update":"0001-01-01T00:00:00Z","name_a2s":"Uncletopia | Seattle | 3 | Stopwatch Beta","protocol":17,"map":"pl_upward","folder":"tf","game":"Team Fortress","app_id":440,"player_count":0,"max_players":24,"Bots":0,"server_type":"Dedicated","server_os":"Linux","password":true,"vac":false,"version":"7742253","steam_id":0,"keywords":["nocrits","nodmgspread","payload","uncletopia"],"game_id":440,"stv_port":27036,"stv_name":"Uncletopia | Seattle | 3 | Stopwatch Beta | STV","players":null},{"server_id":17,"name":"Uncletopia | San Francisco | 1 | All Maps","name_short":"sfo-1","host":"sfo-1.us.uncletopia.com","port":27015,"enabled":true,"region":"us-west","cc":"us","latitude":37.77397,"longitude":-122.4313,"reserved":0,"last_update":"0001-01-01T00:00:00Z","name_a2s":"Uncletopia | San Francisco | 1 | All Maps","protocol":17,"map":"koth_cascade","folder":"tf","game":"Team Fortress","app_id":440,"player_count":0,"max_players":24,"Bots":0,"server_type":"Dedicated","server_os":"Linux","password":true,"vac":true,"version":"7742253","steam_id":85568392924469999,"keywords":["cp","nocrits","nodmgspread","uncletopia"],"game_id":440,"stv_port":27016,"stv_name":"Uncletopia | San Francisco | 1 | All Maps | STV","players":null},{"server_id":18,"name":"Uncletopia | San Francisco | 2 | All Maps","name_short":"sfo-2","host":"sfo-1.us.uncletopia.com","port":27025,"enabled":true,"region":"us-west","cc":"us","latitude":37.77397,"longitude":-122.4313,"reserved":0,"last_update":"0001-01-01T00:00:00Z","name_a2s":"Uncletopia | San Francisco | 2 | All Maps","protocol":17,"map":"pl_frontier_final","folder":"tf","game":"Team Fortress","app_id":440,"player_count":24,"max_players":24,"Bots":0,"server_type":"Dedicated","server_os":"Linux","password":true,"vac":true,"version":"7742253","steam_id":85568392924470000,"keywords":["nocrits","nodmgspread","payload","uncletopia"],"game_id":440,"stv_port":27026,"stv_name":"Uncletopia | San Francisco | 2 | All Maps | STV","players":[{"user_id":4,"name":"IF I WIN, YOU ARE STINKY!","steam_id":76561198093368703,"connected_time":1837000000000,"state":"active","ping":53},{"user_id":32,"name":"AmirKhaan","steam_id":76561198992403254,"connected_time":783000000000,"state":"active","ping":118},{"user_id":48,"name":"KaiserArc","steam_id":76561198201702142,"connected_time":238000000000,"state":"active","ping":54},{"user_id":27,"name":"Retrowave","steam_id":76561198061921346,"connected_time":927000000000,"state":"active","ping":114},{"user_id":50,"name":"Cummunistisch heavymainer","steam_id":76561199000696391,"connected_time":58000000000,"state":"spawning","ping":242},{"user_id":47,"name":"Gooster","steam_id":76561198255311543,"connected_time":293000000000,"state":"active","ping":119},{"user_id":31,"name":"pack it up skittles squad","steam_id":76561199093863343,"connected_time":860000000000,"state":"active","ping":77},{"user_id":43,"name":"hoOmIN","steam_id":76561198334947079,"connected_time":393000000000,"state":"active","ping":50},{"user_id":12,"name":"For Whom The Taco Bell Tolls","steam_id":76561198418288939,"connected_time":1332000000000,"state":"active","ping":40},{"user_id":40,"name":"boxoh","steam_id":76561198153343031,"connected_time":485000000000,"state":"active","ping":97},{"user_id":14,"name":"forest ranger","steam_id":76561198203851303,"connected_time":1297000000000,"state":"active","ping":100},{"user_id":29,"name":"Xeno","steam_id":76561198089138085,"connected_time":912000000000,"state":"active","ping":60},{"user_id":16,"name":"Biosock Infiknit","steam_id":76561198072693794,"connected_time":1241000000000,"state":"active","ping":99},{"user_id":17,"name":"iphone 7 plus","steam_id":76561198335836405,"connected_time":1221000000000,"state":"active","ping":95},{"user_id":45,"name":"JustaTroll","steam_id":76561198351004116,"connected_time":330000000000,"state":"active","ping":60},{"user_id":34,"name":"BobBallin","steam_id":76561198355299724,"connected_time":714000000000,"state":"active","ping":51},{"user_id":46,"name":"corbenis","steam_id":76561199012442511,"connected_time":329000000000,"state":"active","ping":106},{"user_id":51,"name":"squash","steam_id":76561198150281353,"connected_time":14000000000,"state":"spawning","ping":80},{"user_id":30,"name":"hack fraud","steam_id":76561198015036066,"connected_time":910000000000,"state":"active","ping":68},{"user_id":35,"name":"sayad","steam_id":76561198080897870,"connected_time":691000000000,"state":"active","ping":104},{"user_id":36,"name":"supcupman","steam_id":76561198051513866,"connected_time":680000000000,"state":"active","ping":58},{"user_id":37,"name":"Christmas with Weezer (2008)","steam_id":76561198132803810,"connected_time":644000000000,"state":"active","ping":82},{"user_id":38,"name":"Tmiracle","steam_id":76561198052375275,"connected_time":606000000000,"state":"active","ping":53},{"user_id":39,"name":"luigiu739","steam_id":76561199097178350,"connected_time":559000000000,"state":"active","ping":109}]},{"server_id":19,"name":"Uncletopia | San Francisco | 3 | Stopwatch Beta","name_short":"sfo-3","host":"sfo-1.us.uncletopia.com","port":27035,"enabled":true,"region":"us-west","cc":"us","latitude":37.77397,"longitude":-122.4313,"reserved":0,"last_update":"0001-01-01T00:00:00Z","name_a2s":"Uncletopia | San Francisco | 3 | Stopwatch Beta","protocol":17,"map":"cp_snakewater_final1","folder":"tf","game":"Team Fortress","app_id":440,"player_count":0,"max_players":24,"Bots":0,"server_type":"Dedicated","server_os":"Linux","password":true,"vac":true,"version":"7742253","steam_id":85568392924742824,"keywords":["cp","nocrits","nodmgspread","uncletopia"],"game_id":440,"stv_port":27036,"stv_name":"Uncletopia | San Francisco | 3 | Stopwatch Beta | STV","players":null},{"server_id":20,"name":"Uncletopia | San Francisco | 4 | Community","name_short":"sfo-4","host":"sfo-1.us.uncletopia.com","port":27045,"enabled":true,"region":"us-west","cc":"us","latitude":37.77397,"longitude":-122.4313,"reserved":0,"last_update":"0001-01-01T00:00:00Z","name_a2s":"Uncletopia | San Francisco | 4 | Community","protocol":17,"map":"cp_altitude","folder":"tf","game":"Team Fortress","app_id":440,"player_count":0,"max_players":24,"Bots":0,"server_type":"Dedicated","server_os":"Linux","password":true,"vac":true,"version":"7742253","steam_id":85568392924742826,"keywords":["cp","nocrits","nodmgspread","uncletopia"],"game_id":440,"stv_port":27046,"stv_name":"Uncletopia | San Francisco | 4 | Community | STV","players":null},{"server_id":141,"name":"Uncletopia | Sydney | 1 | All Maps","name_short":"syd-1","host":"syd-1.au.uncletopia.com","port":27015,"enabled":true,"region":"au","cc":"au","latitude":-33.865143,"longitude":151.2099,"reserved":0,"last_update":"0001-01-01T00:00:00Z","name_a2s":"Uncletopia | Sydney | 1 | All Maps","protocol":17,"map":"koth_viaduct","folder":"tf","game":"Team Fortress","app_id":440,"player_count":0,"max_players":24,"Bots":0,"server_type":"Dedicated","server_os":"Linux","password":true,"vac":true,"version":"7742253","steam_id":85568392924470001,"keywords":["cp","nocrits","nodmgspread","uncletopia"],"game_id":440,"stv_port":27016,"stv_name":"Uncletopia | Sydney | 1 | All Maps | STV","players":null},{"server_id":123,"name":"Uncletopia | Sydney | 2 | All Maps","name_short":"syd-2","host":"syd-1.au.uncletopia.com","port":27025,"enabled":true,"region":"au","cc":"au","latitude":-33.865143,"longitude":151.2099,"reserved":0,"last_update":"0001-01-01T00:00:00Z","name_a2s":"Uncletopia | Sydney | 2 | All Maps","protocol":17,"map":"pl_frontier_final","folder":"tf","game":"Team Fortress","app_id":440,"player_count":0,"max_players":24,"Bots":0,"server_type":"Dedicated","server_os":"Linux","password":true,"vac":true,"version":"7742253","steam_id":85568392924470002,"keywords":["nocrits","nodmgspread","payload","uncletopia"],"game_id":440,"stv_port":27026,"stv_name":"Uncletopia | Sydney | 2 | All Maps | STV","players":null},{"server_id":395,"name":"Uncletopia | Sydney | 3 | All Maps","name_short":"syd-3","host":"syd-1.au.uncletopia.com","port":27035,"enabled":true,"region":"au","cc":"au","latitude":-33.865143,"longitude":151.2099,"reserved":0,"last_update":"0001-01-01T00:00:00Z","name_a2s":"Uncletopia | Sydney | 3 | All Maps","protocol":17,"map":"pl_snowycoast","folder":"tf","game":"Team Fortress","app_id":440,"player_count":0,"max_players":24,"Bots":0,"server_type":"Dedicated","server_os":"Linux","password":true,"vac":true,"version":"7742253","steam_id":85568392925194467,"keywords":["nocrits","nodmgspread","payload","uncletopia"],"game_id":440,"stv_port":27036,"stv_name":"Uncletopia | Sydney | 3 | All Maps | STV","players":null},{"server_id":396,"name":"Uncletopia | Sydney | 4 | All Maps","name_short":"syd-4","host":"syd-1.au.uncletopia.com","port":27045,"enabled":true,"region":"au","cc":"au","latitude":-33.865143,"longitude":151.2099,"reserved":0,"last_update":"0001-01-01T00:00:00Z","name_a2s":"Uncletopia | Sydney | 4 | All Maps","protocol":17,"map":"koth_viaduct","folder":"tf","game":"Team Fortress","app_id":440,"player_count":0,"max_players":24,"Bots":0,"server_type":"Dedicated","server_os":"Linux","password":true,"vac":true,"version":"7742253","steam_id":85568392925397958,"keywords":["cp","nocrits","nodmgspread","uncletopia"],"game_id":440,"stv_port":27046,"stv_name":"Uncletopia | Sydney | 4 | All Maps | STV","players":null},{"server_id":58,"name":"Uncletopia | Sydney | 5 | Stopwatch Beta","name_short":"syd-5","host":"syd-1.au.uncletopia.com","port":27055,"enabled":true,"region":"au","cc":"au","latitude":-33.865143,"longitude":151.2099,"reserved":0,"last_update":"0001-01-01T00:00:00Z","name_a2s":"Uncletopia | Sydney | 5 | Stopwatch Beta","protocol":17,"map":"cp_snakewater_final1","folder":"tf","game":"Team Fortress","app_id":440,"player_count":0,"max_players":24,"Bots":0,"server_type":"Dedicated","server_os":"Linux","password":true,"vac":true,"version":"7742253","steam_id":85568392925397959,"keywords":["cp","nocrits","nodmgspread","uncletopia"],"game_id":440,"stv_port":27056,"stv_name":"Uncletopia | Sydney | 5 | Stopwatch Beta | STV","players":null},{"server_id":59,"name":"Uncletopia | Sydney | 6 | Community","name_short":"syd-6","host":"syd-1.au.uncletopia.com","port":27065,"enabled":true,"region":"au","cc":"au","latitude":-33.865143,"longitude":151.2099,"reserved":0,"last_update":"0001-01-01T00:00:00Z","name_a2s":"Uncletopia | Sydney | 6 | Community","protocol":17,"map":"workshop/koth_product_final.ugc454272353","folder":"tf","game":"Team Fortress","app_id":440,"player_count":0,"max_players":24,"Bots":0,"server_type":"Dedicated","server_os":"Linux","password":true,"vac":true,"version":"7742253","steam_id":85568392925397960,"keywords":["cp","nocrits","nodmgspread","uncletopia"],"game_id":440,"stv_port":27066,"stv_name":"Uncletopia | Sydney | 6 | Community | STV","players":null},{"server_id":49,"name":"Uncletopia | Warsaw | 1 | All Maps","name_short":"waw-1","host":"waw-1.pl.uncletopia.com","port":27015,"enabled":true,"region":"eu","cc":"pl","latitude":52.2297,"longitude":21.017532,"reserved":0,"last_update":"0001-01-01T00:00:00Z","name_a2s":"Uncletopia | Warsaw | 1 | All Maps","protocol":17,"map":"koth_lakeside_final","folder":"tf","game":"Team Fortress","app_id":440,"player_count":0,"max_players":24,"Bots":0,"server_type":"Dedicated","server_os":"Linux","password":true,"vac":true,"version":"7723704","steam_id":85568392925397850,"keywords":["cp","nocrits","nodmgspread","uncletopia"],"game_id":440,"stv_port":27016,"stv_name":"Uncletopia | Warsaw | 1 | All Maps | STV","players":null},{"server_id":50,"name":"Uncletopia | Warsaw | 2 | All Maps","name_short":"waw-2","host":"waw-1.pl.uncletopia.com","port":27025,"enabled":true,"region":"eu","cc":"pl","latitude":52.2297,"longitude":21.017532,"reserved":0,"last_update":"0001-01-01T00:00:00Z","name_a2s":"Uncletopia | Warsaw | 2 | All Maps","protocol":17,"map":"koth_highpass","folder":"tf","game":"Team Fortress","app_id":440,"player_count":0,"max_players":24,"Bots":0,"server_type":"Dedicated","server_os":"Linux","password":true,"vac":true,"version":"7742253","steam_id":85568392925397851,"keywords":["cp","nocrits","nodmgspread","uncletopia"],"game_id":440,"stv_port":27026,"stv_name":"Uncletopia | Warsaw | 2 | All Maps | STV","players":null},{"server_id":51,"name":"Uncletopia | Warsaw | 3 | All Maps","name_short":"waw-3","host":"waw-1.pl.uncletopia.com","port":27035,"enabled":true,"region":"eu","cc":"pl","latitude":52.2297,"longitude":21.017532,"reserved":0,"last_update":"0001-01-01T00:00:00Z","name_a2s":"Uncletopia | Warsaw | 3 | All Maps","protocol":17,"map":"pl_frontier_final","folder":"tf","game":"Team Fortress","app_id":440,"player_count":0,"max_players":24,"Bots":0,"server_type":"Dedicated","server_os":"Linux","password":true,"vac":true,"version":"7742253","steam_id":85568392925397852,"keywords":["nocrits","nodmgspread","payload","uncletopia"],"game_id":440,"stv_port":27036,"stv_name":"Uncletopia | Warsaw | 3 | All Maps | STV","players":null},{"server_id":52,"name":"Uncletopia | Warsaw | 4 | All Maps","name_short":"waw-4","host":"waw-1.pl.uncletopia.com","port":27045,"enabled":true,"region":"eu","cc":"pl","latitude":52.2297,"longitude":21.017532,"reserved":0,"last_update":"0001-01-01T00:00:00Z","name_a2s":"Uncletopia | Warsaw | 4 | All Maps","protocol":17,"map":"pl_swiftwater_final1","folder":"tf","game":"Team Fortress","app_id":440,"player_count":0,"max_players":24,"Bots":0,"server_type":"Dedicated","server_os":"Linux","password":true,"vac":true,"version":"7742253","steam_id":85568392925397853,"keywords":["nocrits","nodmgspread","payload","uncletopia"],"game_id":440,"stv_port":27046,"stv_name":"Uncletopia | Warsaw | 4 | All Maps | STV","players":null},{"server_id":53,"name":"Uncletopia | Warsaw | 5 | Stopwatch Beta","name_short":"waw-5","host":"waw-1.pl.uncletopia.com","port":27055,"enabled":true,"region":"eu","cc":"pl","latitude":52.2297,"longitude":21.017532,"reserved":0,"last_update":"0001-01-01T00:00:00Z","name_a2s":"Uncletopia | Warsaw | 5 | Stopwatch Beta","protocol":17,"map":"pl_pier","folder":"tf","game":"Team Fortress","app_id":440,"player_count":0,"max_players":24,"Bots":0,"server_type":"Dedicated","server_os":"Linux","password":true,"vac":true,"version":"7742253","steam_id":85568392925397854,"keywords":["nocrits","nodmgspread","payload","uncletopia"],"game_id":440,"stv_port":27056,"stv_name":"Uncletopia | Warsaw | 5 | Stopwatch Beta | STV","players":null},{"server_id":54,"name":"Uncletopia | Warsaw | 6 | Community","name_short":"waw-6","host":"waw-1.pl.uncletopia.com","port":27065,"enabled":true,"region":"eu","cc":"pl","latitude":52.2297,"longitude":21.017532,"reserved":0,"last_update":"0001-01-01T00:00:00Z","name_a2s":"Uncletopia | Warsaw | 6 | Community","protocol":17,"map":"workshop/pl_cactuscanyon_redux_rc4b.ugc2579644293","folder":"tf","game":"Team Fortress","app_id":440,"player_count":0,"max_players":24,"Bots":0,"server_type":"Dedicated","server_os":"Linux","password":true,"vac":true,"version":"7742253","steam_id":85568392925397856,"keywords":["nocrits","nodmgspread","payload","uncletopia"],"game_id":440,"stv_port":27066,"stv_name":"Uncletopia | Warsaw | 6 | Community | STV","players":null}]}