{"status":true,"message":"","result":[{"server_id":9,"name":"Uncletopia | Atlanta | 1 | All Maps","name_short":"atl-1","host":"atl-1.us.uncletopia.com","port":27015,"enabled":true,"region":"us-east","cc":"us","latitude":33.753746,"longitude":-84.38633,"reserved":0,"last_update":"0001-01-01T00:00:00Z","name_a2s":"Uncletopia | Atlanta | 1 | All Maps","protocol":17,"map":"pl_enclosure_final","folder":"tf","game":"Team Fortress","app_id":440,"player_count":8,"max_players":24,"Bots":0,"server_type":"Dedicated","server_os":"Linux","password":true,"vac":true,"version":"7882260","steam_id":85568392924469982,"keywords":["nocrits","nodmgspread","payload","uncletopia"],"game_id":440,"stv_port":27016,"stv_name":"Uncletopia | Atlanta | 1 | All Maps | STV","players":[{"user_id":9,"name":"ATL1 | on my hunting trip","steam_id":76561198315341646,"connected_time":3190000000000,"state":"active","ping":69},{"user_id":32,"name":"FreonAddict9x19","steam_id":76561198060010824,"connected_time":454000000000,"state":"active","ping":61},{"user_id":21,"name":"Temujin","steam_id":76561198030936583,"connected_time":1377000000000,"state":"active","ping":40},{"user_id":33,"name":"GailusTerran","steam_id":76561198319509387,"connected_time":119000000000,"state":"active","ping":53},{"user_id":14,"name":"Chopin Ballade No. 1 Op. 23","steam_id":76561199081909979,"connected_time":2271000000000,"state":"active","ping":61},{"user_id":34,"name":"dingus","steam_id":76561198966767200,"connected_time":115000000000,"state":"active","ping":65},{"user_id":25,"name":"Horse","steam_id":76561198004583631,"connected_time":1105000000000,"state":"active","ping":85},{"user_id":30,"name":"coolfalcon168","steam_id":76561198948665710,"connected_time":547000000000,"state":"active","ping":68}]},{"server_id":104,"name":"Uncletopia | Atlanta | 2 | All Maps","name_short":"atl-2","host":"atl-1.us.uncletopia.com","port":27025,"enabled":true,"region":"us-east","cc":"us","latitude":33.753746,"longitude":-84.38633,"reserved":0,"last_update":"0001-01-01T00:00:00Z","name_a2s":"Uncletopia | Atlanta | 2 | All Maps","protocol":17,"map":"pl_badwater","folder":"tf","game":"Team Fortress","app_id":440,"player_count":0,"max_players":24,"Bots":0,"server_type":"Dedicated","server_os":"Linux","password":true,"vac":true,"version":"7882260","steam_id":85568392924469983,"keywords":["nocrits","nodmgspread","payload","uncletopia"],"game_id":440,"stv_port":27026,"stv_name":"Uncletopia | Atlanta | 2 | All Maps | STV","players":null},{"server_id":400,"name":"Uncletopia | Atlanta | 3 | Community","name_short":"atl-3","host":"atl-1.us.uncletopia.com","port":27035,"enabled":true,"region":"us-east","cc":"us","latitude":33.753746,"longitude":-84.38633,"reserved":0,"last_update":"0001-01-01T00:00:00Z","name_a2s":"Uncletopia | Atlanta | 3 | Community","protocol":17,"map":"cp_sunshine","folder":"tf","game":"Team Fortress","app_id":440,"player_count":0,"max_players":24,"Bots":0,"server_type":"Dedicated","server_os":"Linux","password":true,"vac":true,"version":"7882260","steam_id":85568392924515187,"keywords":["cp","nocrits","nodmgspread","uncletopia"],"game_id":440,"stv_port":27036,"stv_name":"Uncletopia | Atlanta | 3 | Community | STV","players":null},{"server_id":401,"name":"Uncletopia | Atlanta | 4 | No Payload","name_short":"atl-4","host":"atl-1.us.uncletopia.com","port":27045,"enabled":true,"region":"us-east","cc":"us","latitude":33.753746,"longitude":-84.38633,"reserved":0,"last_update":"0001-01-01T00:00:00Z","name_a2s":"","protocol":0,"map":"","folder":"","game":"","app_id":0,"player_count":0,"max_players":0,"Bots":0,"server_type":"","server_os":"","password":false,"vac":false,"version":"","steam_id":0,"keywords":null,"game_id":0,"stv_port":0,"stv_name":"","players":null},{"server_id":2,"name":"Uncletopia | Chicago | 1 | All Maps","name_short":"chi-1","host":"chi-1.us.uncletopia.com","port":27015,"enabled":true,"region":"us-central","cc":"us","latitude":41.881832,"longitude":-87.62318,"reserved":0,"last_update":"0001-01-01T00:00:00Z","name_a2s":"Uncletopia | Chicago | 1 | All Maps","protocol":17,"map":"pl_swiftwater_final1","folder":"tf","game":"Team Fortress","app_id":440,"player_count":24,"max_players":24,"Bots":0,"server_type":"Dedicated","server_os":"Linux","password":true,"vac":true,"version":"7882260","steam_id":85568392924469984,"keywords":["nocrits","nodmgspread","payload","uncletopia"],"game_id":440,"stv_port":27016,"stv_name":"Uncletopia | Chicago | 1 | All Maps | STV","players":[{"user_id":193,"name":"richarven","steam_id":76561198189429665,"connected_time":2075000000000,"state":"active","ping":71},{"user_id":217,"name":"PageBoiSkull","steam_id":76561198237353578,"connected_time":73000000000,"state":"active","ping":146},{"user_id":205,"name":"Charlie","steam_id":76561198145659230,"connected_time":1154000000000,"state":"active","ping":75},{"user_id":214,"name":"uncool","steam_id":76561198025885992,"connected_time":148000000000,"state":"active","ping":56},{"user_id":194,"name":"kite","steam_id":76561198346516392,"connected_time":1912000000000,"state":"active","ping":70},{"user_id":195,"name":"PorkTheChop","steam_id":76561198008883658,"connected_time":1894000000000,"state":"active","ping":59},{"user_id":141,"name":"0","steam_id":76561198046055673,"connected_time":5063000000000,"state":"active","ping":74},{"user_id":206,"name":"3xtr3m3rWbyFan2901025","steam_id":76561198042286766,"connected_time":901000000000,"state":"active","ping":68},{"user_id":198,"name":"Luke","steam_id":76561198090671431,"connected_time":1857000000000,"state":"active","ping":75},{"user_id":215,"name":"Nassu","steam_id":76561198147367577,"connected_time":119000000000,"state":"active","ping":68},{"user_id":172,"name":"paetho YT","steam_id":76561198152690003,"connected_time":3244000000000,"state":"active","ping":59},{"user_id":210,"name":"troutsupply.net punks","steam_id":76561199140940650,"connected_time":255000000000,"state":"active","ping":57},{"user_id":211,"name":"no.","steam_id":76561198988350454,"connected_time":251000000000,"state":"active","ping":156},{"user_id":212,"name":"Sheriff Monkey","steam_id":76561198053556583,"connected_time":247000000000,"state":"active","ping":85},{"user_id":213,"name":"DragonSpinach","steam_id":76561198407033936,"connected_time":222000000000,"state":"active","ping":53},{"user_id":216,"name":"ShnozBerry","steam_id":76561198011917278,"connected_time":99000000000,"state":"active","ping":73},{"user_id":218,"name":"spider_murphy","steam_id":76561198079057101,"connected_time":46000000000,"state":"active","ping":65},{"user_id":201,"name":"triangleman","steam_id":76561198972733542,"connected_time":1765000000000,"state":"active","ping":61},{"user_id":150,"name":"Obelisk","steam_id":76561198049416866,"connected_time":4759000000000,"state":"active","ping":78},{"user_id":219,"name":"Dabbledornk","steam_id":76561198065241300,"connected_time":43000000000,"state":"active","ping":59},{"user_id":161,"name":"sassy loli","steam_id":76561198402316065,"connected_time":3923000000000,"state":"active","ping":90},{"user_id":204,"name":"feliser","steam_id":76561198084336096,"connected_time":1637000000000,"state":"active","ping":52},{"user_id":180,"name":"kingjeffry2012@hotmail.com","steam_id":76561198314104415,"connected_time":2592000000000,"state":"active","ping":73},{"user_id":208,"name":"[Atomic] Tahurocks 23™","steam_id":76561198237462962,"connected_time":623000000000,"state":"active","ping":43}]},{"server_id":106,"name":"Uncletopia | Chicago | 2 | All Maps","name_short":"chi-2","host":"chi-1.us.uncletopia.com","port":27025,"enabled":true,"region":"us-central","cc":"us","latitude":41.881832,"longitude":-87.62318,"reserved":0,"last_update":"0001-01-01T00:00:00Z","name_a2s":"Uncletopia | Chicago | 2 | All Maps","protocol":17,"map":"pl_upward","folder":"tf","game":"Team Fortress","app_id":440,"player_count":24,"max_players":24,"Bots":0,"server_type":"Dedicated","server_os":"Linux","password":true,"vac":true,"version":"7882260","steam_id":85568392924469985,"keywords":["nocrits","nodmgspread","payload","uncletopia"],"game_id":440,"stv_port":27026,"stv_name":"Uncletopia | Chicago | 2 | All Maps | STV","players":[{"user_id":126,"name":"rivera","steam_id":76561198051058706,"connected_time":955000000000,"state":"active","ping":58},{"user_id":94,"name":"organic kale","steam_id":76561198101506575,"connected_time":2867000000000,"state":"active","ping":66},{"user_id":117,"name":"AquaPhoenix","steam_id":76561198157474924,"connected_time":1740000000000,"state":"active","ping":52},{"user_id":129,"name":"dr peppah chug!","steam_id":76561198068835693,"connected_time":789000000000,"state":"active","ping":87},{"user_id":96,"name":"Torrensz64(But weezer)","steam_id":76561198239036482,"connected_time":2829000000000,"state":"active","ping":52},{"user_id":131,"name":"sylvyy","steam_id":76561198976976583,"connected_time":730000000000,"state":"active","ping":76},{"user_id":100,"name":"fishy butters ♠","steam_id":76561198147453405,"connected_time":2390000000000,"state":"active","ping":80},{"user_id":121,"name":"Far_Koz","steam_id":76561199442337929,"connected_time":1236000000000,"state":"active","ping":184},{"user_id":128,"name":"captain Damien","steam_id":76561198813245551,"connected_time":883000000000,"state":"active","ping":76},{"user_id":67,"name":"CFGU || RAWRWAFL","steam_id":76561198032118386,"connected_time":4179000000000,"state":"active","ping":93},{"user_id":102,"name":"rat","steam_id":76561198313364985,"connected_time":2291000000000,"state":"active","ping":69},{"user_id":108,"name":"puffy","steam_id":76561198411347037,"connected_time":2076000000000,"state":"active","ping":67},{"user_id":71,"name":"pigfarmer.gov","steam_id":76561199071167548,"connected_time":4037000000000,"state":"active","ping":66},{"user_id":133,"name":"Malikar (fake)","steam_id":76561199037497493,"connected_time":669000000000,"state":"active","ping":55},{"user_id":110,"name":"Marshmallow","steam_id":76561198001131064,"connected_time":2045000000000,"state":"active","ping":60},{"user_id":98,"name":"Chimpish","steam_id":76561199263493270,"connected_time":2574000000000,"state":"active","ping":91},{"user_id":77,"name":"TrashMann","steam_id":76561198040969743,"connected_time":3876000000000,"state":"active","ping":76},{"user_id":104,"name":"JonBoy","steam_id":76561198082052480,"connected_time":2194000000000,"state":"active","ping":100},{"user_id":130,"name":"moint pan","steam_id":76561198968773067,"connected_time":743000000000,"state":"active","ping":99},{"user_id":132,"name":"Legit_Jaxer","steam_id":76561198172234053,"connected_time":726000000000,"state":"active","ping":129},{"user_id":114,"name":"Avena 3 ursitas","steam_id":76561198151256410,"connected_time":1906000000000,"state":"active","ping":144},{"user_id":137,"name":"LocaKola","steam_id":76561198173435430,"connected_time":157000000000,"state":"active","ping":79},{"user_id":134,"name":"Gremmy","steam_id":76561198226526104,"connected_time":635000000000,"state":"active","ping":67},{"user_id":124,"name":"Smiley Face","steam_id":76561198008710622,"connected_time":1156000000000,"state":"active","ping":93}]},{"server_id":402,"name":"Uncletopia | Chicago | 3 | All Maps","name_short":"chi-3","host":"chi-1.us.uncletopia.com","port":27035,"enabled":true,"region":"us-central","cc":"us","latitude":41.881832,"longitude":-87.62318,"reserved":0,"last_update":"0001-01-01T00:00:00Z","name_a2s":"Uncletopia | Chicago | 3 | All Maps","protocol":17,"map":"pl_borneo","folder":"tf","game":"Team Fortress","app_id":440,"player_count":21,"max_players":24,"Bots":0,"server_type":"Dedicated","server_os":"Linux","password":true,"vac":true,"version":"7882260","steam_id":85568392924515191,"keywords":["nocrits","nodmgspread","payload","uncletopia"],"game_id":440,"stv_port":27036,"stv_name":"Uncletopia | Chicago | 3 | All Maps | STV","players":[{"user_id":270,"name":"Chin, Bruce Lee's Relative","steam_id":76561198240105522,"connected_time":2648000000000,"state":"active","ping":87},{"user_id":142,"name":"Tannerdino","steam_id":76561198238169678,"connected_time":12392000000000,"state":"active","ping":71},{"user_id":290,"name":"ඞ","steam_id":76561198275101482,"connected_time":27000000000,"state":"active","ping":467},{"user_id":274,"name":"Dev","steam_id":76561198388276870,"connected_time":2206000000000,"state":"active","ping":88},{"user_id":245,"name":"How my blood boils","steam_id":76561199195104977,"connected_time":4409000000000,"state":"active","ping":67},{"user_id":228,"name":"Charles","steam_id":76561199031612530,"connected_time":5135000000000,"state":"active","ping":93},{"user_id":258,"name":"Mehman","steam_id":76561199020244051,"connected_time":3696000000000,"state":"active","ping":86},{"user_id":197,"name":"Nefy","steam_id":76561198030017316,"connected_time":7856000000000,"state":"active","ping":86},{"user_id":268,"name":"HarryjusttHarry","steam_id":76561198982810452,"connected_time":2669000000000,"state":"active","ping":83},{"user_id":286,"name":"fuckwit","steam_id":76561198342160837,"connected_time":359000000000,"state":"active","ping":60},{"user_id":279,"name":"Rornir","steam_id":76561198081829615,"connected_time":1921000000000,"state":"active","ping":30},{"user_id":284,"name":"sxl","steam_id":76561198150627999,"connected_time":1522000000000,"state":"active","ping":80},{"user_id":261,"name":"BIG HOG","steam_id":76561198079923652,"connected_time":3167000000000,"state":"active","ping":76},{"user_id":136,"name":"lil hog","steam_id":76561199230929836,"connected_time":12633000000000,"state":"active","ping":80},{"user_id":179,"name":"Salty","steam_id":76561198019195732,"connected_time":9950000000000,"state":"active","ping":62},{"user_id":257,"name":"V!CT!M","steam_id":76561198962721502,"connected_time":3801000000000,"state":"active","ping":74},{"user_id":272,"name":"It's Over!","steam_id":76561198104086771,"connected_time":2365000000000,"state":"active","ping":92},{"user_id":281,"name":"30-50 feral hogs","steam_id":76561198073587145,"connected_time":1872000000000,"state":"active","ping":117},{"user_id":288,"name":"the_bassmann3","steam_id":76561199214008710,"connected_time":175000000000,"state":"active","ping":55},{"user_id":160,"name":"Wahooka","steam_id":76561197962240925,"connected_time":11556000000000,"state":"active","ping":57},{"user_id":282,"name":"DoubleX2000","steam_id":76561198164134387,"connected_time":1848000000000,"state":"active","ping":108}]},{"server_id":403,"name":"Uncletopia | Chicago | 4 | All Maps","name_short":"chi-4","host":"chi-1.us.uncletopia.com","port":27045,"enabled":true,"region":"us-central","cc":"us","latitude":41.881832,"longitude":-87.62318,"reserved":0,"last_update":"0001-01-01T00:00:00Z","name_a2s":"Uncletopia | Chicago | 4 | All Maps","protocol":17,"map":"pl_barnblitz","folder":"tf","game":"Team Fortress","app_id":440,"player_count":24,"max_players":24,"Bots":0,"server_type":"Dedicated","server_os":"Linux","password":true,"vac":true,"version":"7882260","steam_id":85568392924515193,"keywords":["nocrits","nodmgspread","payload","uncletopia"],"game_id":440,"stv_port":27046,"stv_name":"Uncletopia | Chicago | 4 | All Maps | STV","players":[{"user_id":176,"name":"Cornflakes","steam_id":76561199151899684,"connected_time":2031000000000,"state":"active","ping":80},{"user_id":184,"name":"quakeguy","steam_id":76561198063170079,"connected_time":1272000000000,"state":"active","ping":62},{"user_id":168,"name":"「Daws_Dudeguy」","steam_id":76561198205838645,"connected_time":2197000000000,"state":"active","ping":71},{"user_id":197,"name":"thanksgiving turkey","steam_id":76561198976876859,"connected_time":547000000000,"state":"active","ping":86},{"user_id":166,"name":"Happy 100 Gaming","steam_id":76561199066576538,"connected_time":2469000000000,"state":"active","ping":91},{"user_id":183,"name":"james may","steam_id":76561198043857339,"connected_time":1417000000000,"state":"active","ping":101},{"user_id":185,"name":"Deathpill","steam_id":76561197994404793,"connected_time":1272000000000,"state":"active","ping":71},{"user_id":146,"name":"Frosty Nug","steam_id":76561198070187464,"connected_time":3702000000000,"state":"active","ping":65},{"user_id":149,"name":"sheep in da slipgate","steam_id":76561198076781979,"connected_time":3378000000000,"state":"active","ping":86},{"user_id":150,"name":"Winter the Witchie | B-DAY","steam_id":76561198151971178,"connected_time":3360000000000,"state":"active","ping":60},{"user_id":201,"name":"Passion","steam_id":76561198818233217,"connected_time":365000000000,"state":"active","ping":91},{"user_id":198,"name":"KnockBoots69","steam_id":76561198057528868,"connected_time":512000000000,"state":"active","ping":94},{"user_id":187,"name":"Cooksandcleans™","steam_id":76561198049696128,"connected_time":1149000000000,"state":"active","ping":70},{"user_id":202,"name":"tasty","steam_id":76561198083839061,"connected_time":352000000000,"state":"active","ping":68},{"user_id":190,"name":"FriedYogurt","steam_id":76561198280667376,"connected_time":850000000000,"state":"active","ping":85},{"user_id":203,"name":"Challenger Charles","steam_id":76561198005576553,"connected_time":335000000000,"state":"active","ping":81},{"user_id":177,"name":"Zay2Wavy","steam_id":76561199350023011,"connected_time":1914000000000,"state":"active","ping":72},{"user_id":192,"name":"WaterTiddiMan","steam_id":76561198957418948,"connected_time":770000000000,"state":"active","ping":70},{"user_id":186,"name":"Flavortown","steam_id":76561198071168991,"connected_time":1193000000000,"state":"active","ping":84},{"user_id":193,"name":"Not Guztaf","steam_id":76561198334924763,"connected_time":765000000000,"state":"active","ping":72},{"user_id":200,"name":"Zillers","steam_id":76561198095248744,"connected_time":390000000000,"state":"active","ping":95},{"user_id":199,"name":"Yimi","steam_id":76561198097984345,"connected_time":495000000000,"state":"active","ping":90},{"user_id":125,"name":"Twitch University","steam_id":76561198120758046,"connected_time":4969000000000,"state":"active","ping":69},{"user_id":175,"name":".#2 pooper southeast usa","steam_id":76561198057076267,"connected_time":2094000000000,"state":"active","ping":75}]},{"server_id":36,"name":"Uncletopia | Chicago | 5 | All Maps","name_short":"chi-5","host":"chi-2.us.uncletopia.com","port":27015,"enabled":true,"region":"us-central","cc":"us","latitude":41.881832,"longitude":-87.62318,"reserved":0,"last_update":"0001-01-01T00:00:00Z","name_a2s":"Uncletopia | Chicago | 5 | All Maps","protocol":17,"map":"pl_pier","folder":"tf","game":"Team Fortress","app_id":440,"player_count":24,"max_players":24,"Bots":0,"server_type":"Dedicated","server_os":"Linux","password":true,"vac":true,"version":"7882260","steam_id":85568392924866362,"keywords":["nocrits","nodmgspread","payload","uncletopia"],"game_id":440,"stv_port":27016,"stv_name":"Uncletopia | Chicago | 5 | All Maps | STV","players":[{"user_id":4,"name":"Shield12","steam_id":76561198857193675,"connected_time":3672000000000,"state":"active","ping":57},{"user_id":58,"name":"Petrivus","steam_id":76561198202152453,"connected_time":118000000000,"state":"active","ping":113},{"user_id":45,"name":"Unreliable Narrator","steam_id":76561198021303959,"connected_time":630000000000,"state":"active","ping":95},{"user_id":29,"name":"goldfish","steam_id":76561198117825609,"connected_time":1507000000000,"state":"active","ping":99},{"user_id":10,"name":"frizzle fried","steam_id":76561198062991744,"connected_time":2315000000000,"state":"active","ping":61},{"user_id":47,"name":"AkimboAoki","steam_id":76561198158323058,"connected_time":584000000000,"state":"active","ping":96},{"user_id":56,"name":"I am negan","steam_id":76561198319992602,"connected_time":194000000000,"state":"active","ping":75},{"user_id":54,"name":"19037189","steam_id":76561198053960810,"connected_time":333000000000,"state":"active","ping":83},{"user_id":37,"name":"bachphong760","steam_id":76561199433780443,"connected_time":1127000000000,"state":"active","ping":86},{"user_id":40,"name":"ZeroPC","steam_id":76561198002492237,"connected_time":1031000000000,"state":"active","ping":80},{"user_id":30,"name":"Big Chumby","steam_id":76561198139786713,"connected_time":1496000000000,"state":"active","ping":65},{"user_id":48,"name":"Stonewaffle","steam_id":76561198276154561,"connected_time":570000000000,"state":"active","ping":92},{"user_id":49,"name":"PurpleRed","steam_id":76561199076811957,"connected_time":561000000000,"state":"active","ping":187},{"user_id":52,"name":"garfield","steam_id":76561198114119308,"connected_time":388000000000,"state":"active","ping":63},{"user_id":55,"name":"The Doc K","steam_id":76561198035695029,"connected_time":263000000000,"state":"active","ping":94},{"user_id":46,"name":"PadrePockets","steam_id":76561197993251606,"connected_time":613000000000,"state":"active","ping":75},{"user_id":25,"name":"Local","steam_id":76561198069537437,"connected_time":1537000000000,"state":"active","ping":105},{"user_id":26,"name":"Uncle Dane isn't real","steam_id":76561199012895452,"connected_time":1536000000000,"state":"active","ping":59},{"user_id":41,"name":"krum","steam_id":76561198158910518,"connected_time":1027000000000,"state":"active","ping":90},{"user_id":57,"name":"the piss boiling machine","steam_id":76561198113716047,"connected_time":173000000000,"state":"active","ping":75},{"user_id":42,"name":"Sartupial","steam_id":76561198443169940,"connected_time":1024000000000,"state":"active","ping":81},{"user_id":33,"name":"FHC | Nyle","steam_id":76561198045652639,"connected_time":1470000000000,"state":"active","ping":133},{"user_id":43,"name":"BigGrenade","steam_id":76561199212842110,"connected_time":999000000000,"state":"active","ping":63},{"user_id":53,"name":"Willem Dafoe","steam_id":76561198037453253,"connected_time":368000000000,"state":"active","ping":70}]},{"server_id":37,"name":"Uncletopia | Chicago | 6 | All Maps","name_short":"chi-6","host":"chi-2.us.uncletopia.com","port":27025,"enabled":true,"region":"us-central","cc":"us","latitude":41.881832,"longitude":-87.62318,"reserved":0,"last_update":"0001-01-01T00:00:00Z","name_a2s":"Uncletopia | Chicago | 6 | All Maps","protocol":17,"map":"koth_cascade","folder":"tf","game":"Team Fortress","app_id":440,"player_count":0,"max_players":24,"Bots":0,"server_type":"Dedicated","server_os":"Linux","password":true,"vac":true,"version":"7882260","steam_id":85568392924866363,"keywords":["cp","nocrits","nodmgspread","uncletopia"],"game_id":440,"stv_port":27026,"stv_name":"Uncletopia | Chicago | 6 | All Maps | STV","players":null},{"server_id":38,"name":"Uncletopia | Chicago | 7 | Stopwatch Beta","name_short":"chi-7","host":"chi-2.us.uncletopia.com","port":27035,"enabled":true,"region":"us-central","cc":"us","latitude":41.881832,"longitude":-87.62318,"reserved":0,"last_update":"0001-01-01T00:00:00Z","name_a2s":"Uncletopia | Chicago | 7 | Stopwatch Beta","protocol":17,"map":"pl_borneo","folder":"tf","game":"Team Fortress","app_id":440,"player_count":0,"max_players":24,"Bots":0,"server_type":"Dedicated","server_os":"Linux","password":true,"vac":true,"version":"7882260","steam_id":85568392924866364,"keywords":["nocrits","nodmgspread","payload","uncletopia"],"game_id":440,"stv_port":27036,"stv_name":"Uncletopia | Chicago | 7 | Stopwatch Beta | STV","players":null},{"server_id":39,"name":"Uncletopia | Chicago | 8 | Community","name_short":"chi-8","host":"chi-2.us.uncletopia.com","port":27045,"enabled":true,"region":"us-central","cc":"us","latitude":41.881832,"longitude":-87.62318,"reserved":0,"last_update":"0001-01-01T00:00:00Z","name_a2s":"Uncletopia | Chicago | 8 | Community","protocol":17,"map":"workshop/cp_indulge.ugc528106646","folder":"tf","game":"Team Fortress","app_id":440,"player_count":0,"max_players":24,"Bots":0,"server_type":"Dedicated","server_os":"Linux","password":true,"vac":true,"version":"7882260","steam_id":85568392924866365,"keywords":["cp","nocrits","nodmgspread","uncletopia"],"game_id":440,"stv_port":27046,"stv_name":"Uncletopia | Chicago | 8 | Community | STV","players":null},{"server_id":8,"name":"Uncletopia | Dallas | 1 | All Maps","name_short":"dal-1","host":"dal-1.us.uncletopia.com","port":27015,"enabled":true,"region":"us-central","cc":"us","latitude":32.779167,"longitude":-96.80889,"reserved":0,"last_update":"0001-01-01T00:00:00Z","name_a2s":"Uncletopia | Dallas | 1 | All Maps","protocol":17,"map":"koth_viaduct","folder":"tf","game":"Team Fortress","app_id":440,"player_count":0,"max_players":24,"Bots":0,"server_type":"Dedicated","server_os":"Linux","password":true,"vac":true,"version":"7882260","steam_id":85568392924469986,"keywords":["cp","nocrits","nodmgspread","uncletopia"],"game_id":440,"stv_port":27016,"stv_name":"Uncletopia | Dallas | 1 | All Maps | STV","players":null},{"server_id":108,"name":"Uncletopia | Dallas | 2 | All Maps","name_short":"dal-2","host":"dal-1.us.uncletopia.com","port":27025,"enabled":true,"region":"us-central","cc":"us","latitude":32.779167,"longitude":-96.80889,"reserved":0,"last_update":"0001-01-01T00:00:00Z","name_a2s":"Uncletopia | Dallas | 2 | All Maps","protocol":17,"map":"cp_snakewater_final1","folder":"tf","game":"Team Fortress","app_id":440,"player_count":0,"max_players":24,"Bots":0,"server_type":"Dedicated","server_os":"Linux","password":true,"vac":true,"version":"7882260","steam_id":85568392924469988,"keywords":["cp","nocrits","nodmgspread","uncletopia"],"game_id":440,"stv_port":27026,"stv_name":"Uncletopia | Dallas | 2 | All Maps | STV","players":null},{"server_id":5,"name":"Uncletopia | Frankfurt | 1 | All Maps","name_short":"frk-1","host":"frk-1.de.uncletopia.com","port":27015,"enabled":true,"region":"eu","cc":"de","latitude":50.110924,"longitude":8.682127,"reserved":0,"last_update":"0001-01-01T00:00:00Z","name_a2s":"Uncletopia | Frankfurt | 1 | All Maps","protocol":17,"map":"cp_dustbowl","folder":"tf","game":"Team Fortress","app_id":440,"player_count":24,"max_players":24,"Bots":0,"server_type":"Dedicated","server_os":"Linux","password":true,"vac":true,"version":"7882260","steam_id":85568392924469989,"keywords":["cp","nocrits","nodmgspread","uncletopia"],"game_id":440,"stv_port":27016,"stv_name":"Uncletopia | Frankfurt | 1 | All Maps | STV","players":[{"user_id":159,"name":"I am the one who donks","steam_id":76561198419583460,"connected_time":696000000000,"state":"active","ping":54},{"user_id":121,"name":"Žilet","steam_id":76561198189553021,"connected_time":3868000000000,"state":"active","ping":63},{"user_id":162,"name":"Dzan50","steam_id":76561198059758591,"connected_time":628000000000,"state":"active","ping":95},{"user_id":143,"name":"Musicano","steam_id":76561198114541088,"connected_time":1950000000000,"state":"active","ping":95},{"user_id":68,"name":"-rikeOo-","steam_id":76561198303995379,"connected_time":8539000000000,"state":"active","ping":71},{"user_id":161,"name":"elsuedi","steam_id":76561198074722832,"connected_time":633000000000,"state":"active","ping":48},{"user_id":131,"name":"G.R.E","steam_id":76561197979806514,"connected_time":2836000000000,"state":"active","ping":47},{"user_id":155,"name":"hud_saytext_time 0","steam_id":76561198010327228,"connected_time":803000000000,"state":"active","ping":58},{"user_id":147,"name":"LarsInABox","steam_id":76561198028329262,"connected_time":1024000000000,"state":"active","ping":74},{"user_id":164,"name":"foreskin thief","steam_id":76561198388750592,"connected_time":414000000000,"state":"active","ping":58},{"user_id":133,"name":"Spooky","steam_id":76561198296063143,"connected_time":2722000000000,"state":"active","ping":94},{"user_id":165,"name":"xopow","steam_id":76561198435829093,"connected_time":274000000000,"state":"active","ping":79},{"user_id":163,"name":"TheShadowScribe","steam_id":76561199037525945,"connected_time":625000000000,"state":"active","ping":96},{"user_id":138,"name":"LordTrap.exe","steam_id":76561198318089716,"connected_time":2177000000000,"state":"active","ping":59},{"user_id":144,"name":"Ketich","steam_id":76561198021772703,"connected_time":1659000000000,"state":"active","ping":74},{"user_id":156,"name":"XxSuperPenisxX","steam_id":76561199089532056,"connected_time":800000000000,"state":"active","ping":55},{"user_id":150,"name":"Snd","steam_id":76561198010816408,"connected_time":1019000000000,"state":"active","ping":101},{"user_id":123,"name":"Popop","steam_id":76561198004793795,"connected_time":3665000000000,"state":"active","ping":49},{"user_id":157,"name":"Cuthbert","steam_id":76561198204649481,"connected_time":799000000000,"state":"active","ping":101},{"user_id":151,"name":"Serton♝","steam_id":76561198011061126,"connected_time":1018000000000,"state":"active","ping":88},{"user_id":125,"name":"maršal","steam_id":76561198179392402,"connected_time":3528000000000,"state":"active","ping":57},{"user_id":115,"name":"Pain in a Box","steam_id":76561197990777173,"connected_time":4624000000000,"state":"active","ping":95},{"user_id":152,"name":"leminsc8","steam_id":76561198825084995,"connected_time":1009000000000,"state":"active","ping":39},{"user_id":153,"name":"Vidrox #savetf2","steam_id":76561199217854983,"connected_time":995000000000,"state":"active","ping":84}]},{"server_id":110,"name":"Uncletopia | Frankfurt | 2 | All Maps","name_short":"frk-2","host":"frk-1.de.uncletopia.com","port":27025,"enabled":true,"region":"eu","cc":"de","latitude":50.110924,"longitude":8.682127,"reserved":0,"last_update":"0001-01-01T00:00:00Z","name_a2s":"Uncletopia | Frankfurt | 2 | All Maps","protocol":17,"map":"cp_process_final","folder":"tf","game":"Team Fortress","app_id":440,"player_count":22,"max_players":24,"Bots":0,"server_type":"Dedicated","server_os":"Linux","password":true,"vac":true,"version":"7882260","steam_id":85568392924469990,"keywords":["cp","nocrits","nodmgspread","uncletopia"],"game_id":440,"stv_port":27026,"stv_name":"Uncletopia | Frankfurt | 2 | All Maps | STV","players":[{"user_id":46,"name":"Fish 'n' Chips","steam_id":76561198033476886,"connected_time":3546000000000,"state":"active","ping":45},{"user_id":105,"name":"WojStaGra","steam_id":76561198157277370,"connected_time":333000000000,"state":"active","ping":94},{"user_id":107,"name":"daniel balls","steam_id":76561199023050804,"connected_time":139000000000,"state":"active","ping":161},{"user_id":90,"name":"madijo","steam_id":76561198012617400,"connected_time":824000000000,"state":"active","ping":59},{"user_id":99,"name":"Bajas","steam_id":76561198179339326,"connected_time":500000000000,"state":"active","ping":74},{"user_id":77,"name":"eepy man","steam_id":76561199001657140,"connected_time":2255000000000,"state":"active","ping":80},{"user_id":104,"name":"PanPatrik","steam_id":76561198293331527,"connected_time":376000000000,"state":"active","ping":60},{"user_id":92,"name":"elyas","steam_id":76561198964639269,"connected_time":744000000000,"state":"active","ping":164},{"user_id":88,"name":"Salkè","steam_id":76561199216611062,"connected_time":974000000000,"state":"active","ping":60},{"user_id":68,"name":"local shower shitter","steam_id":76561198140627349,"connected_time":2791000000000,"state":"active","ping":156},{"user_id":101,"name":"cream gravy","steam_id":76561198973069177,"connected_time":463000000000,"state":"active","ping":45},{"user_id":102,"name":"帕皮拉2","steam_id":76561198884393695,"connected_time":419000000000,"state":"active","ping":68},{"user_id":94,"name":"JC","steam_id":76561198029213352,"connected_time":685000000000,"state":"active","ping":59},{"user_id":108,"name":"Caramelion","steam_id":76561198097429047,"connected_time":96000000000,"state":"active","ping":68},{"user_id":72,"name":"Adolf gayming","steam_id":76561198830058797,"connected_time":2466000000000,"state":"active","ping":76},{"user_id":83,"name":"hananamanna","steam_id":76561198006570285,"connected_time":1709000000000,"state":"active","ping":116},{"user_id":85,"name":"Thales gaming","steam_id":76561198154569703,"connected_time":1619000000000,"state":"active","ping":75},{"user_id":86,"name":"Ecin","steam_id":76561198816655769,"connected_time":1429000000000,"state":"active","ping":56},{"user_id":81,"name":"bot38","steam_id":76561198137580538,"connected_time":1873000000000,"state":"active","ping":99},{"user_id":97,"name":"schmick h_stt 0","steam_id":76561198039537958,"connected_time":606000000000,"state":"active","ping":54},{"user_id":53,"name":"Creature :3:3","steam_id":76561198869564327,"connected_time":3483000000000,"state":"active","ping":108},{"user_id":103,"name":"midlpsyzl47","steam_id":76561199475972637,"connected_time":417000000000,"state":"active","ping":58}]},{"server_id":308,"name":"Uncletopia | Frankfurt | 3 | All Maps","name_short":"frk-3","host":"frk-1.de.uncletopia.com","port":27035,"enabled":true,"region":"eu","cc":"de","latitude":50.110924,"longitude":8.682127,"reserved":0,"last_update":"0001-01-01T00:00:00Z","name_a2s":"Uncletopia | Frankfurt | 3 | All Maps","protocol":17,"map":"pl_upward","folder":"tf","game":"Team Fortress","app_id":440,"player_count":0,"max_players":24,"Bots":0,"server_type":"Dedicated","server_os":"Linux","password":true,"vac":true,"version":"7882260","steam_id":85568392924504274,"keywords":["nocrits","nodmgspread","payload","uncletopia"],"game_id":440,"stv_port":27036,"stv_name":"Uncletopia | Frankfurt | 3 | All Maps | STV","players":null},{"server_id":309,"name":"Uncletopia | Frankfurt | 4 | All Maps","name_short":"frk-4","host":"frk-1.de.uncletopia.com","port":27045,"enabled":true,"region":"eu","cc":"de","latitude":50.110924,"longitude":8.682127,"reserved":0,"last_update":"0001-01-01T00:00:00Z","name_a2s":"Uncletopia | Frankfurt | 4 | All Maps","protocol":17,"map":"cp_sunshine","folder":"tf","game":"Team Fortress","app_id":440,"player_count":23,"max_players":24,"Bots":0,"server_type":"Dedicated","server_os":"Linux","password":true,"vac":true,"version":"7882260","steam_id":85568392924504275,"keywords":["cp","nocrits","nodmgspread","uncletopia"],"game_id":440,"stv_port":27046,"stv_name":"Uncletopia | Frankfurt | 4 | All Maps | STV","players":[{"user_id":320,"name":"THE LAST BALLOONICORN","steam_id":76561198354549261,"connected_time":987000000000,"state":"active","ping":92},{"user_id":349,"name":"Zizman","steam_id":76561198446562910,"connected_time":4000000000,"state":"spawning","ping":126},{"user_id":321,"name":"WHUSSKEY","steam_id":76561198137827441,"connected_time":958000000000,"state":"active","ping":69},{"user_id":317,"name":"0xDEADBEEF","steam_id":76561199075416111,"connected_time":1299000000000,"state":"active","ping":84},{"user_id":322,"name":"dash.","steam_id":76561198084796149,"connected_time":938000000000,"state":"active","ping":47},{"user_id":292,"name":"G12","steam_id":76561197987024158,"connected_time":2848000000000,"state":"active","ping":99},{"user_id":323,"name":"monaskick","steam_id":76561198326190912,"connected_time":877000000000,"state":"active","ping":75},{"user_id":345,"name":"Orbit","steam_id":76561198242999878,"connected_time":186000000000,"state":"active","ping":70},{"user_id":274,"name":"ZophranTTV","steam_id":76561199275883765,"connected_time":3665000000000,"state":"active","ping":68},{"user_id":334,"name":"Poland Doge","steam_id":76561198280605135,"connected_time":405000000000,"state":"active","ping":63},{"user_id":285,"name":"Marukuso","steam_id":76561198154229845,"connected_time":3059000000000,"state":"active","ping":59},{"user_id":335,"name":"MKULTRAFGT","steam_id":76561198147383704,"connected_time":374000000000,"state":"active","ping":73},{"user_id":338,"name":"Mr.O #deletesniper","steam_id":76561198039567498,"connected_time":246000000000,"state":"active","ping":61},{"user_id":260,"name":"El_Kommadante","steam_id":76561198079551685,"connected_time":4997000000000,"state":"active","ping":75},{"user_id":330,"name":"Marky","steam_id":76561199474556920,"connected_time":595000000000,"state":"active","ping":118},{"user_id":332,"name":"Kokos","steam_id":76561198085501501,"connected_time":557000000000,"state":"active","ping":74},{"user_id":337,"name":"Maximus","steam_id":76561198032472655,"connected_time":290000000000,"state":"active","ping":44},{"user_id":314,"name":"Brinier","steam_id":76561199012604288,"connected_time":1413000000000,"state":"active","ping":58},{"user_id":344,"name":"herbal tea","steam_id":76561197980736364,"connected_time":197000000000,"state":"active","ping":73},{"user_id":346,"name":"Charged","steam_id":76561199127215130,"connected_time":184000000000,"state":"active","ping":82},{"user_id":257,"name":"Sham!","steam_id":76561198050434275,"connected_time":5143000000000,"state":"active","ping":45},{"user_id":343,"name":"traf","steam_id":76561199123021898,"connected_time":226000000000,"state":"active","ping":96},{"user_id":348,"name":"no weed","steam_id":76561199024279010,"connected_time":134000000000,"state":"active","ping":71}]},{"server_id":310,"name":"Uncletopia | Frankfurt | 5 | All Maps","name_short":"frk-5","host":"frk-1.de.uncletopia.com","port":27055,"enabled":true,"region":"eu","cc":"de","latitude":50.110924,"longitude":8.682127,"reserved":0,"last_update":"0001-01-01T00:00:00Z","name_a2s":"Uncletopia | Frankfurt | 5 | All Maps","protocol":17,"map":"pl_badwater","folder":"tf","game":"Team Fortress","app_id":440,"player_count":24,"max_players":24,"Bots":0,"server_type":"Dedicated","server_os":"Linux","password":true,"vac":true,"version":"7882260","steam_id":85568392924504277,"keywords":["nocrits","nodmgspread","payload","uncletopia"],"game_id":440,"stv_port":27056,"stv_name":"Uncletopia | Frankfurt | 5 | All Maps | STV","players":[{"user_id":114,"name":"Miloleopard","steam_id":76561199196616680,"connected_time":2187000000000,"state":"active","ping":74},{"user_id":111,"name":"rwota","steam_id":76561198385769722,"connected_time":2401000000000,"state":"active","ping":108},{"user_id":29,"name":"stefanbejenari","steam_id":76561199466718294,"connected_time":7112000000000,"state":"active","ping":74},{"user_id":135,"name":"Fiat Hitachi FH200 LC","steam_id":76561198014163912,"connected_time":1162000000000,"state":"active","ping":81},{"user_id":82,"name":"xavier","steam_id":76561198076494034,"connected_time":4189000000000,"state":"active","ping":58},{"user_id":116,"name":"Za Zombie","steam_id":76561198055545262,"connected_time":2158000000000,"state":"active","ping":168},{"user_id":137,"name":"peruna","steam_id":76561198000721196,"connected_time":736000000000,"state":"active","ping":100},{"user_id":113,"name":"truebosnianking","steam_id":76561199440060597,"connected_time":2230000000000,"state":"active","ping":86},{"user_id":83,"name":"Sarah Obama Michella","steam_id":76561198078996559,"connected_time":4184000000000,"state":"active","ping":64},{"user_id":138,"name":"Corpus Christi","steam_id":76561198417999443,"connected_time":664000000000,"state":"active","ping":104},{"user_id":95,"name":"Kahvi","steam_id":76561198723244199,"connected_time":3577000000000,"state":"active","ping":88},{"user_id":130,"name":"Bing Bong","steam_id":76561197972337404,"connected_time":1336000000000,"state":"active","ping":88},{"user_id":100,"name":"Joe","steam_id":76561198368758532,"connected_time":3172000000000,"state":"active","ping":102},{"user_id":131,"name":"PicklesTRT","steam_id":76561198053440288,"connected_time":1308000000000,"state":"active","ping":180},{"user_id":127,"name":"[★Sh4dowThem★]","steam_id":76561198090435179,"connected_time":1471000000000,"state":"active","ping":90},{"user_id":118,"name":"BΣNZOIC","steam_id":76561198875665995,"connected_time":2093000000000,"state":"active","ping":86},{"user_id":119,"name":"Deckard","steam_id":76561198004704647,"connected_time":2076000000000,"state":"active","ping":77},{"user_id":132,"name":"top 10 movement videos","steam_id":76561199195985387,"connected_time":1308000000000,"state":"active","ping":89},{"user_id":133,"name":"Litchi","steam_id":76561198012169666,"connected_time":1293000000000,"state":"active","ping":85},{"user_id":139,"name":"the babadook","steam_id":76561198040168682,"connected_time":649000000000,"state":"active","ping":60},{"user_id":136,"name":"romaingallo","steam_id":76561198268112907,"connected_time":1044000000000,"state":"active","ping":68},{"user_id":123,"name":"Chilchuck","steam_id":76561198432445254,"connected_time":1838000000000,"state":"active","ping":103},{"user_id":122,"name":"WillyDrengen","steam_id":76561197971902025,"connected_time":1860000000000,"state":"active","ping":66},{"user_id":126,"name":"Nobaddy","steam_id":76561198037871007,"connected_time":1513000000000,"state":"active","ping":77}]},{"server_id":311,"name":"Uncletopia | Frankfurt | 6 | All Maps","name_short":"frk-6","host":"frk-1.de.uncletopia.com","port":27065,"enabled":true,"region":"eu","cc":"de","latitude":50.110924,"longitude":8.682127,"reserved":0,"last_update":"0001-01-01T00:00:00Z","name_a2s":"Uncletopia | Frankfurt | 6 | All Maps","protocol":17,"map":"pl_swiftwater_final1","folder":"tf","game":"Team Fortress","app_id":440,"player_count":24,"max_players":24,"Bots":0,"server_type":"Dedicated","server_os":"Linux","password":true,"vac":true,"version":"7882260","steam_id":85568392924504278,"keywords":["nocrits","nodmgspread","payload","uncletopia"],"game_id":440,"stv_port":27066,"stv_name":"Uncletopia | Frankfurt | 6 | All Maps | STV","players":[{"user_id":192,"name":"Houdini","steam_id":76561198059030398,"connected_time":2877000000000,"state":"active","ping":131},{"user_id":242,"name":"Арабский DJ","steam_id":76561198448137360,"connected_time":641000000000,"state":"active","ping":100},{"user_id":255,"name":"илка паананен","steam_id":76561199149307190,"connected_time":193000000000,"state":"active","ping":63},{"user_id":244,"name":"Star in a pond","steam_id":76561198205501279,"connected_time":616000000000,"state":"active","ping":86},{"user_id":233,"name":"biohazard","steam_id":76561198162873354,"connected_time":1219000000000,"state":"active","ping":92},{"user_id":222,"name":"sunshine (he/him)","steam_id":76561198084597975,"connected_time":1725000000000,"state":"active","ping":66},{"user_id":257,"name":"Frylock","steam_id":76561198050292560,"connected_time":70000000000,"state":"active","ping":45},{"user_id":208,"name":"SlowMode","steam_id":76561198039631442,"connected_time":2228000000000,"state":"active","ping":88},{"user_id":223,"name":"Flafi #savetf2","steam_id":76561198309362591,"connected_time":1677000000000,"state":"active","ping":77},{"user_id":228,"name":"Ruby","steam_id":76561198120994559,"connected_time":1454000000000,"state":"active","ping":66},{"user_id":245,"name":"Fragirl #freehaze","steam_id":76561198323411853,"connected_time":597000000000,"state":"active","ping":124},{"user_id":246,"name":"tj","steam_id":76561198160466307,"connected_time":581000000000,"state":"active","ping":76},{"user_id":198,"name":"LivEssense","steam_id":76561198052476979,"connected_time":2829000000000,"state":"active","ping":75},{"user_id":240,"name":"Mega Man Legends 3","steam_id":76561198014110199,"connected_time":974000000000,"state":"active","ping":45},{"user_id":206,"name":"Haukka#7","steam_id":76561198867526505,"connected_time":2535000000000,"state":"active","ping":55},{"user_id":258,"name":"gabzaffari","steam_id":76561198029375086,"connected_time":8000000000,"state":"spawning","ping":48},{"user_id":248,"name":"Zlo","steam_id":76561199024739813,"connected_time":503000000000,"state":"active","ping":100},{"user_id":215,"name":"Behind you","steam_id":76561198102420849,"connected_time":1916000000000,"state":"active","ping":60},{"user_id":238,"name":"Uriziel","steam_id":76561198046950794,"connected_time":1145000000000,"state":"active","ping":110},{"user_id":249,"name":"TheWerelizard","steam_id":76561198060638325,"connected_time":464000000000,"state":"active","ping":35},{"user_id":241,"name":"Kacperos12","steam_id":76561198044168268,"connected_time":884000000000,"state":"active","ping":96},{"user_id":212,"name":"giclure :;","steam_id":76561197986362828,"connected_time":2193000000000,"state":"active","ping":60},{"user_id":254,"name":"gegit08","steam_id":76561199040010283,"connected_time":302000000000,"state":"active","ping":91},{"user_id":251,"name":"ShIpDI De Tartle","steam_id":76561198033099511,"connected_time":434000000000,"state":"active","ping":80}]},{"server_id":23,"name":"Uncletopia | Frankfurt | 7 | Stopwatch Beta","name_short":"frk-7","host":"frk-1.de.uncletopia.com","port":27075,"enabled":true,"region":"eu","cc":"de","latitude":50.110924,"longitude":8.682127,"reserved":0,"last_update":"0001-01-01T00:00:00Z","name_a2s":"Uncletopia | Frankfurt | 7 | Stopwatch Beta","protocol":17,"map":"workshop/koth_clearcut_b15.ugc2107050255","folder":"tf","game":"Team Fortress","app_id":440,"player_count":0,"max_players":24,"Bots":0,"server_type":"Dedicated","server_os":"Linux","password":true,"vac":true,"version":"7882260","steam_id":85568392924742827,"keywords":["cp","nocrits","nodmgspread","uncletopia"],"game_id":440,"stv_port":27076,"stv_name":"Uncletopia | Frankfurt | 7 | Stopwatch Beta | STV","players":null},{"server_id":24,"name":"Uncletopia | Frankfurt | 8 | Community","name_short":"frk-8","host":"frk-1.de.uncletopia.com","port":27085,"enabled":true,"region":"eu","cc":"de","latitude":50.110924,"longitude":8.682127,"reserved":0,"last_update":"0001-01-01T00:00:00Z","name_a2s":"Uncletopia | Frankfurt | 8 | Community","protocol":17,"map":"koth_cascade","folder":"tf","game":"Team Fortress","app_id":440,"player_count":0,"max_players":24,"Bots":0,"server_type":"Dedicated","server_os":"Linux","password":true,"vac":true,"version":"7882260","steam_id":85568392924742828,"keywords":["cp","nocrits","nodmgspread","uncletopia"],"game_id":440,"stv_port":27086,"stv_name":"Uncletopia | Frankfurt | 8 | Community | STV","players":null},{"server_id":202,"name":"Uncletopia | Hong Kong | 1 | All Maps","name_short":"hgk-1","host":"hgk-1.hk.uncletopia.com","port":27015,"enabled":true,"region":"asia","cc":"hk","latitude":22.302711,"longitude":114.177216,"reserved":0,"last_update":"0001-01-01T00:00:00Z","name_a2s":"Uncletopia | Hong Kong | 1 | All Maps","protocol":17,"map":"pl_pier","folder":"tf","game":"Team Fortress","app_id":440,"player_count":0,"max_players":24,"Bots":0,"server_type":"Dedicated","server_os":"Linux","password":true,"vac":true,"version":"7882260","steam_id":85568392924494504,"keywords":["nocrits","nodmgspread","payload","uncletopia"],"game_id":440,"stv_port":27016,"stv_name":"Uncletopia | Hong Kong | 1 | All Maps | STV","players":null},{"server_id":1,"name":"Uncletopia | Los Angeles | 1 | All Maps","name_short":"lax-1","host":"lax-1.us.uncletopia.com","port":27015,"enabled":true,"region":"us-west","cc":"us","latitude":33.94279,"longitude":-118.41004,"reserved":0,"last_update":"0001-01-01T00:00:00Z","name_a2s":"Uncletopia | Los Angeles | 1 | All Maps","protocol":17,"map":"cp_snakewater_final1","folder":"tf","game":"Team Fortress","app_id":440,"player_count":0,"max_players":24,"Bots":0,"server_type":"Dedicated","server_os":"Linux","password":true,"vac":true,"version":"7882260","steam_id":85568392924469991,"keywords":["cp","nocrits","nodmgspread","uncletopia"],"game_id":440,"stv_port":27016,"stv_name":"Uncletopia | Los Angeles | 1 | All Maps | STV","players":null},{"server_id":112,"name":"Uncletopia | Los Angeles | 2 | All Maps","name_short":"lax-2","host":"lax-1.us.uncletopia.com","port":27025,"enabled":true,"region":"us-west","cc":"us","latitude":33.94279,"longitude":-118.41004,"reserved":0,"last_update":"0001-01-01T00:00:00Z","name_a2s":"Uncletopia | Los Angeles | 2 | All Maps","protocol":17,"map":"koth_viaduct","folder":"tf","game":"Team Fortress","app_id":440,"player_count":0,"max_players":24,"Bots":0,"server_type":"Dedicated","server_os":"Linux","password":true,"vac":true,"version":"7882260","steam_id":85568392924469992,"keywords":["cp","nocrits","nodmgspread","uncletopia"],"game_id":440,"stv_port":27026,"stv_name":"Uncletopia | Los Angeles | 2 | All Maps | STV","players":null},{"server_id":324,"name":"Uncletopia | Los Angeles | 3 | All Maps","name_short":"lax-3","host":"lax-1.us.uncletopia.com","port":27035,"enabled":true,"region":"us-west","cc":"us","latitude":33.94279,"longitude":-118.41004,"reserved":0,"last_update":"0001-01-01T00:00:00Z","name_a2s":"Uncletopia | Los Angeles | 3 | All Maps","protocol":17,"map":"cp_sunshine","folder":"tf","game":"Team Fortress","app_id":440,"player_count":0,"max_players":24,"Bots":0,"server_type":"Dedicated","server_os":"Linux","password":true,"vac":true,"version":"7882260","steam_id":85568392924510198,"keywords":["cp","nocrits","nodmgspread","uncletopia"],"game_id":440,"stv_port":27036,"stv_name":"Uncletopia | Los Angeles | 3 | All Maps | STV","players":null},{"server_id":25,"name":"Uncletopia | Los Angeles | 4 | Stopwatch Beta","name_short":"lax-4","host":"lax-1.us.uncletopia.com","port":27045,"enabled":true,"region":"us-west","cc":"us","latitude":33.94279,"longitude":-118.41004,"reserved":0,"last_update":"0001-01-01T00:00:00Z","name_a2s":"Uncletopia | Los Angeles | 4 | Stopwatch Beta","protocol":17,"map":"workshop/koth_ramjam_rc1.ugc459778887","folder":"tf","game":"Team Fortress","app_id":440,"player_count":0,"max_players":24,"Bots":0,"server_type":"Dedicated","server_os":"Linux","password":true,"vac":true,"version":"7882260","steam_id":85568392924510199,"keywords":["cp","nocrits","nodmgspread","uncletopia"],"game_id":440,"stv_port":27046,"stv_name":"Uncletopia | Los Angeles | 4 | Stopwatch Beta | STV","players":null},{"server_id":11,"name":"Uncletopia | London | 1 | All Maps","name_short":"lon-1","host":"lon-1.uk.uncletopia.com","port":27015,"enabled":true,"region":"eu","cc":"gb","latitude":51.509865,"longitude":-0.118092,"reserved":0,"last_update":"0001-01-01T00:00:00Z","name_a2s":"Uncletopia | London | 1 | All Maps","protocol":17,"map":"pl_badwater","folder":"tf","game":"Team Fortress","app_id":440,"player_count":24,"max_players":24,"Bots":0,"server_type":"Dedicated","server_os":"Linux","password":true,"vac":true,"version":"7882260","steam_id":85568392924367362,"keywords":["nocrits","nodmgspread","payload","uncletopia"],"game_id":440,"stv_port":27016,"stv_name":"Uncletopia | London | 1 | All Maps | STV","players":[{"user_id":484,"name":"Slim3rs","steam_id":76561199088010585,"connected_time":552000000000,"state":"active","ping":171},{"user_id":423,"name":"Myrmodion","steam_id":76561198054746247,"connected_time":5589000000000,"state":"active","ping":70},{"user_id":457,"name":"Lyra","steam_id":76561198043601838,"connected_time":2728000000000,"state":"active","ping":60},{"user_id":446,"name":"Rizziologist","steam_id":76561198089003514,"connected_time":4252000000000,"state":"active","ping":59},{"user_id":464,"name":"MASK","steam_id":76561198800957591,"connected_time":2389000000000,"state":"active","ping":78},{"user_id":466,"name":"flr","steam_id":76561198249327786,"connected_time":2327000000000,"state":"active","ping":60},{"user_id":455,"name":"bachusa1657","steam_id":76561198202175911,"connected_time":2773000000000,"state":"active","ping":78},{"user_id":459,"name":"oh my science","steam_id":76561198190583242,"connected_time":2680000000000,"state":"active","ping":86},{"user_id":487,"name":":3","steam_id":76561199057953617,"connected_time":395000000000,"state":"active","ping":74},{"user_id":474,"name":"Real photograph of me","steam_id":76561198236015392,"connected_time":1977000000000,"state":"active","ping":120},{"user_id":407,"name":"MxQuiteGood","steam_id":76561198069780233,"connected_time":6325000000000,"state":"active","ping":51},{"user_id":468,"name":"rysieko","steam_id":76561199385228217,"connected_time":2298000000000,"state":"active","ping":78},{"user_id":485,"name":"BenteBent","steam_id":76561198297920637,"connected_time":515000000000,"state":"active","ping":34},{"user_id":456,"name":"boofing prozac","steam_id":76561198851157897,"connected_time":2739000000000,"state":"active","ping":68},{"user_id":480,"name":"sub class?","steam_id":76561199184873889,"connected_time":782000000000,"state":"active","ping":65},{"user_id":486,"name":"lanzer","steam_id":76561198049983016,"connected_time":470000000000,"state":"active","ping":91},{"user_id":469,"name":"Sandshee","steam_id":76561198088574666,"connected_time":2295000000000,"state":"active","ping":44},{"user_id":477,"name":"Quiet Kid","steam_id":76561199134800446,"connected_time":966000000000,"state":"active","ping":104},{"user_id":396,"name":"rets","steam_id":76561198061551392,"connected_time":6904000000000,"state":"active","ping":62},{"user_id":476,"name":"Son Goku","steam_id":76561199383437138,"connected_time":1337000000000,"state":"active","ping":132},{"user_id":449,"name":"putku09","steam_id":76561199132212075,"connected_time":3726000000000,"state":"active","ping":116},{"user_id":471,"name":"eva.","steam_id":76561198054474684,"connected_time":2242000000000,"state":"active","ping":84},{"user_id":482,"name":"astra","steam_id":76561198042980579,"connected_time":730000000000,"state":"active","ping":64},{"user_id":490,"name":"shooer! :D \u003e\u003c(((º\u003e","steam_id":76561198110531281,"connected_time":66000000000,"state":"active","ping":63}]},{"server_id":114,"name":"Uncletopia | London | 2 | All Maps","name_short":"lon-2","host":"lon-1.uk.uncletopia.com","port":27025,"enabled":true,"region":"eu","cc":"gb","latitude":51.509865,"longitude":-0.118092,"reserved":0,"last_update":"0001-01-01T00:00:00Z","name_a2s":"Uncletopia | London | 2 | All Maps","protocol":17,"map":"pl_barnblitz","folder":"tf","game":"Team Fortress","app_id":440,"player_count":23,"max_players":24,"Bots":0,"server_type":"Dedicated","server_os":"Linux","password":true,"vac":true,"version":"7882260","steam_id":85568392924470941,"keywords":["nocrits","nodmgspread","payload","uncletopia"],"game_id":440,"stv_port":27026,"stv_name":"Uncletopia | London | 2 | All Maps | STV","players":[{"user_id":432,"name":"Well, off to hang myself","steam_id":76561198053374944,"connected_time":1498000000000,"state":"active","ping":67},{"user_id":427,"name":"Joy","steam_id":76561198155314925,"connected_time":1739000000000,"state":"active","ping":53},{"user_id":446,"name":"laser","steam_id":76561198036030697,"connected_time":1365000000000,"state":"active","ping":73},{"user_id":425,"name":"Uncle Terry","steam_id":76561198396415736,"connected_time":1794000000000,"state":"active","ping":48},{"user_id":334,"name":"Acheron #evilsorcerergang","steam_id":76561198306593373,"connected_time":6447000000000,"state":"active","ping":75},{"user_id":397,"name":"Scikesr","steam_id":76561198105182357,"connected_time":3328000000000,"state":"active","ping":83},{"user_id":459,"name":"Sputnik","steam_id":76561198138660241,"connected_time":67000000000,"state":"active","ping":63},{"user_id":395,"name":"Sixie","steam_id":76561198251675360,"connected_time":3377000000000,"state":"active","ping":68},{"user_id":336,"name":"zapdos981","steam_id":76561198119674397,"connected_time":6400000000000,"state":"active","ping":83},{"user_id":460,"name":"omony","steam_id":76561197983750025,"connected_time":11000000000,"state":"spawning","ping":87},{"user_id":436,"name":"Agard (ated a lot dinner)","steam_id":76561198001688604,"connected_time":1461000000000,"state":"active","ping":61},{"user_id":449,"name":"Portal79","steam_id":76561198095499584,"connected_time":1018000000000,"state":"active","ping":80},{"user_id":447,"name":"a quirked up white boy with a l","steam_id":76561198001518201,"connected_time":1215000000000,"state":"active","ping":109},{"user_id":441,"name":"SkillFullNinja","steam_id":76561198376246441,"connected_time":1398000000000,"state":"active","ping":116},{"user_id":450,"name":"hot guy","steam_id":76561198083063005,"connected_time":992000000000,"state":"active","ping":36},{"user_id":407,"name":"bowchika wowa #SlavaUkraine","steam_id":76561198159564550,"connected_time":2676000000000,"state":"active","ping":72},{"user_id":354,"name":"Lotto","steam_id":76561198012295174,"connected_time":5721000000000,"state":"active","ping":75},{"user_id":390,"name":"HilldogGaming","steam_id":76561198082209322,"connected_time":3757000000000,"state":"active","ping":67},{"user_id":451,"name":"weaselmeister","steam_id":76561199059841173,"connected_time":979000000000,"state":"active","ping":47},{"user_id":448,"name":"Yuval","steam_id":76561198241802390,"connected_time":1200000000000,"state":"active","ping":112},{"user_id":445,"name":"Mitlai","steam_id":76561198022051766,"connected_time":1383000000000,"state":"active","ping":44},{"user_id":452,"name":"hybrid","steam_id":76561197996468677,"connected_time":869000000000,"state":"active","ping":60},{"user_id":458,"name":"dongus","steam_id":76561198042774930,"connected_time":248000000000,"state":"active","ping":70}]},{"server_id":320,"name":"Uncletopia | London | 3 | All Maps","name_short":"lon-3","host":"lon-1.uk.uncletopia.com","port":27035,"enabled":true,"region":"eu","cc":"gb","latitude":51.509865,"longitude":-0.118092,"reserved":0,"last_update":"0001-01-01T00:00:00Z","name_a2s":"Uncletopia | London | 3 | All Maps","protocol":17,"map":"pl_pier","folder":"tf","game":"Team Fortress","app_id":440,"player_count":24,"max_players":24,"Bots":0,"server_type":"Dedicated","server_os":"Linux","password":true,"vac":true,"version":"7882260","steam_id":85568392924510192,"keywords":["nocrits","nodmgspread","payload","uncletopia"],"game_id":440,"stv_port":27036,"stv_name":"Uncletopia | London | 3 | All Maps | STV","players":[{"user_id":352,"name":"wG auto","steam_id":76561198062247888,"connected_time":145000000000,"state":"active","ping":58},{"user_id":348,"name":"fristys","steam_id":76561198010229880,"connected_time":503000000000,"state":"active","ping":61},{"user_id":350,"name":"Krabs","steam_id":76561198161679477,"connected_time":440000000000,"state":"active","ping":43},{"user_id":329,"name":"tek-9","steam_id":76561198107220903,"connected_time":1184000000000,"state":"active","ping":59},{"user_id":336,"name":"Hedge Knight","steam_id":76561198989449047,"connected_time":899000000000,"state":"active","ping":132},{"user_id":309,"name":"tekas.","steam_id":76561198363841749,"connected_time":2770000000000,"state":"active","ping":84},{"user_id":337,"name":"Distinguished Gentlemann","steam_id":76561198064734905,"connected_time":884000000000,"state":"active","ping":104},{"user_id":351,"name":"Onk","steam_id":76561198084906775,"connected_time":422000000000,"state":"active","ping":108},{"user_id":342,"name":"Dictatorial Karelian","steam_id":76561198196736457,"connected_time":720000000000,"state":"active","ping":87},{"user_id":322,"name":"After8","steam_id":76561198090750865,"connected_time":1716000000000,"state":"active","ping":73},{"user_id":316,"name":"lenny","steam_id":76561198064545300,"connected_time":2602000000000,"state":"active","ping":84},{"user_id":320,"name":"BORGETENNISCLUB","steam_id":76561198049343723,"connected_time":1886000000000,"state":"active","ping":48},{"user_id":331,"name":"Mr. Frog","steam_id":76561198016568920,"connected_time":1123000000000,"state":"active","ping":54},{"user_id":334,"name":"Atonal","steam_id":76561198074790612,"connected_time":935000000000,"state":"active","ping":56},{"user_id":306,"name":"powej","steam_id":76561198056381418,"connected_time":2904000000000,"state":"active","ping":33},{"user_id":344,"name":"ufomaster1111111","steam_id":76561198837347666,"connected_time":652000000000,"state":"active","ping":44},{"user_id":349,"name":"Defecticon","steam_id":76561198394837863,"connected_time":500000000000,"state":"active","ping":97},{"user_id":312,"name":"The Collective","steam_id":76561198170423483,"connected_time":2760000000000,"state":"active","ping":150},{"user_id":343,"name":"Kaishakunin","steam_id":76561198028123874,"connected_time":682000000000,"state":"active","ping":89},{"user_id":268,"name":"hhhhhh","steam_id":76561198031982574,"connected_time":5720000000000,"state":"active","ping":60},{"user_id":289,"name":"-[FF]- EnglishB0t2.9","steam_id":76561199013600280,"connected_time":3788000000000,"state":"active","ping":59},{"user_id":345,"name":"twink","steam_id":76561198079669270,"connected_time":641000000000,"state":"active","ping":45},{"user_id":347,"name":"2BCD","steam_id":76561198178254946,"connected_time":612000000000,"state":"active","ping":67},{"user_id":327,"name":"Even Rüüd","steam_id":76561197981144291,"connected_time":1605000000000,"state":"active","ping":70}]},{"server_id":321,"name":"Uncletopia | London | 4 | All Maps","name_short":"lon-4","host":"lon-1.uk.uncletopia.com","port":27045,"enabled":true,"region":"eu","cc":"gb","latitude":51.509865,"longitude":-0.118092,"reserved":0,"last_update":"0001-01-01T00:00:00Z","name_a2s":"Uncletopia | London | 4 | All Maps","protocol":17,"map":"pl_upward","folder":"tf","game":"Team Fortress","app_id":440,"player_count":20,"max_players":24,"Bots":0,"server_type":"Dedicated","server_os":"Linux","password":true,"vac":true,"version":"7882260","steam_id":85568392924510193,"keywords":["nocrits","nodmgspread","payload","uncletopia"],"game_id":440,"stv_port":27046,"stv_name":"Uncletopia | London | 4 | All Maps | STV","players":[{"user_id":503,"name":"Noob","steam_id":76561199060468786,"connected_time":344000000000,"state":"active","ping":92},{"user_id":479,"name":"futer","steam_id":76561198059699043,"connected_time":1236000000000,"state":"active","ping":76},{"user_id":500,"name":"W","steam_id":76561199357934976,"connected_time":403000000000,"state":"active","ping":70},{"user_id":498,"name":"taivaltaja","steam_id":76561198093458326,"connected_time":623000000000,"state":"active","ping":69},{"user_id":408,"name":"and i'm javert!","steam_id":76561198117033273,"connected_time":7787000000000,"state":"active","ping":55},{"user_id":476,"name":"heavy has had enough","steam_id":76561199075718492,"connected_time":1403000000000,"state":"active","ping":99},{"user_id":499,"name":"Tainakoff","steam_id":76561198131126097,"connected_time":569000000000,"state":"active","ping":126},{"user_id":492,"name":"Sabour","steam_id":76561197963965445,"connected_time":879000000000,"state":"active","ping":71},{"user_id":501,"name":"YaG-10 (29-K)","steam_id":76561198112012468,"connected_time":385000000000,"state":"active","ping":68},{"user_id":483,"name":"clems17","steam_id":76561199420685482,"connected_time":1178000000000,"state":"active","ping":64},{"user_id":505,"name":"I want to be able to punch kids","steam_id":76561198274631806,"connected_time":180000000000,"state":"active","ping":47},{"user_id":506,"name":"Elix","steam_id":76561199072306920,"connected_time":131000000000,"state":"active","ping":99},{"user_id":493,"name":"KHEY","steam_id":76561198035380064,"connected_time":854000000000,"state":"active","ping":60},{"user_id":490,"name":"mercurial","steam_id":76561198046227550,"connected_time":952000000000,"state":"active","ping":43},{"user_id":504,"name":"SDCK! GardenFungus tf2easy.com","steam_id":76561198054894337,"connected_time":343000000000,"state":"active","ping":40},{"user_id":507,"name":"Zalthair","steam_id":76561198052698533,"connected_time":86000000000,"state":"active","ping":228},{"user_id":496,"name":"C.H.E.R.E.P.","steam_id":76561198026938595,"connected_time":702000000000,"state":"active","ping":76},{"user_id":508,"name":"fshfkr","steam_id":76561198095979282,"connected_time":62000000000,"state":"active","ping":43},{"user_id":494,"name":"dorthyhy","steam_id":76561198062578399,"connected_time":813000000000,"state":"active","ping":60},{"user_id":495,"name":"png.png","steam_id":76561198444446521,"connected_time":810000000000,"state":"active","ping":106}]},{"server_id":21,"name":"Uncletopia | London | 5 | All Maps","name_short":"lon-5","host":"lon-1.uk.uncletopia.com","port":27055,"enabled":true,"region":"eu","cc":"gb","latitude":51.509865,"longitude":-0.118092,"reserved":0,"last_update":"0001-01-01T00:00:00Z","name_a2s":"Uncletopia | London | 5 | All Maps","protocol":17,"map":"pl_upward","folder":"tf","game":"Team Fortress","app_id":440,"player_count":22,"max_players":24,"Bots":0,"server_type":"Dedicated","server_os":"Linux","password":true,"vac":true,"version":"7882260","steam_id":85568392924742829,"keywords":["nocrits","nodmgspread","payload","uncletopia"],"game_id":440,"stv_port":27056,"stv_name":"Uncletopia | London | 5 | All Maps | STV","players":[{"user_id":184,"name":"Mr. Mundy","steam_id":76561198132008918,"connected_time":750000000000,"state":"active","ping":90},{"user_id":136,"name":"JOL_MAX","steam_id":76561199196047539,"connected_time":3107000000000,"state":"active","ping":122},{"user_id":147,"name":"big poo","steam_id":76561199088284199,"connected_time":2802000000000,"state":"active","ping":71},{"user_id":168,"name":"Revo","steam_id":76561198046021202,"connected_time":2061000000000,"state":"active","ping":59},{"user_id":118,"name":"jona3838","steam_id":76561199097658195,"connected_time":4418000000000,"state":"active","ping":104},{"user_id":155,"name":"eugene","steam_id":76561198165806045,"connected_time":2451000000000,"state":"active","ping":92},{"user_id":187,"name":"TSx* {Demon-Angel}","steam_id":76561198151486463,"connected_time":411000000000,"state":"active","ping":87},{"user_id":193,"name":"leibhéalfaidh mé thú","steam_id":76561198078484073,"connected_time":266000000000,"state":"active","ping":83},{"user_id":188,"name":"protëin","steam_id":76561197998423616,"connected_time":390000000000,"state":"active","ping":71},{"user_id":189,"name":"Firenew","steam_id":76561199057241801,"connected_time":381000000000,"state":"active","ping":118},{"user_id":201,"name":"TSx* Bargal","steam_id":76561198040266872,"connected_time":58000000000,"state":"active","ping":176},{"user_id":191,"name":"ricky pee pee","steam_id":76561198152620745,"connected_time":307000000000,"state":"active","ping":58},{"user_id":192,"name":"Lord","steam_id":76561198241305816,"connected_time":282000000000,"state":"active","ping":137},{"user_id":195,"name":"skai","steam_id":76561198184881255,"connected_time":154000000000,"state":"active","ping":62},{"user_id":196,"name":"Metalizer","steam_id":76561198099595082,"connected_time":154000000000,"state":"active","ping":92},{"user_id":183,"name":"WABOT-2","steam_id":76561198003193507,"connected_time":946000000000,"state":"active","ping":66},{"user_id":199,"name":"ultralex","steam_id":76561198024910383,"connected_time":96000000000,"state":"active","ping":44},{"user_id":200,"name":"Wardruna96","steam_id":76561199057083828,"connected_time":85000000000,"state":"active","ping":74},{"user_id":181,"name":"Krefa12","steam_id":76561198268375393,"connected_time":1069000000000,"state":"active","ping":100},{"user_id":172,"name":"666sammy","steam_id":76561198016607625,"connected_time":1880000000000,"state":"active","ping":90},{"user_id":182,"name":"LeBalber","steam_id":76561198977063009,"connected_time":1062000000000,"state":"active","ping":84},{"user_id":175,"name":"salmon15","steam_id":76561198838807521,"connected_time":1753000000000,"state":"active","ping":117}]},{"server_id":22,"name":"Uncletopia | London | 6 | All Maps","name_short":"lon-6","host":"lon-1.uk.uncletopia.com","port":27065,"enabled":true,"region":"eu","cc":"gb","latitude":51.509865,"longitude":-0.118092,"reserved":0,"last_update":"0001-01-01T00:00:00Z","name_a2s":"Uncletopia | London | 6 | All Maps","protocol":17,"map":"cp_mountainlab","folder":"tf","game":"Team Fortress","app_id":440,"player_count":0,"max_players":24,"Bots":0,"server_type":"Dedicated","server_os":"Linux","password":true,"vac":true,"version":"7882260","steam_id":85568392924742830,"keywords":["cp","nocrits","nodmgspread","uncletopia"],"game_id":440,"stv_port":27066,"stv_name":"Uncletopia | London | 6 | All Maps | STV","players":null},{"server_id":40,"name":"Uncletopia | London | 7 | No Payload","name_short":"lon-7","host":"lon-1.uk.uncletopia.com","port":27075,"enabled":true,"region":"eu","cc":"gb","latitude":51.509865,"longitude":-0.118092,"reserved":0,"last_update":"0001-01-01T00:00:00Z","name_a2s":"Uncletopia | London | 7 | No Payload","protocol":17,"map":"cp_egypt_final","folder":"tf","game":"Team Fortress","app_id":440,"player_count":0,"max_players":24,"Bots":0,"server_type":"Dedicated","server_os":"Linux","password":true,"vac":true,"version":"7882260","steam_id":85568392924964314,"keywords":["cp","nocrits","nodmgspread","uncletopia"],"game_id":440,"stv_port":27076,"stv_name":"Uncletopia | London | 7 | No Payload | STV","players":null},{"server_id":41,"name":"Uncletopia | London | 8 | Community","name_short":"lon-8","host":"lon-1.uk.uncletopia.com","port":27085,"enabled":true,"region":"eu","cc":"gb","latitude":51.509865,"longitude":-0.118092,"reserved":0,"last_update":"0001-01-01T00:00:00Z","name_a2s":"Uncletopia | London | 8 | Community","protocol":17,"map":"workshop/koth_synthetic_rc6a.ugc1549817316","folder":"tf","game":"Team Fortress","app_id":440,"player_count":0,"max_players":24,"Bots":0,"server_type":"Dedicated","server_os":"Linux","password":true,"vac":true,"version":"7882260","steam_id":85568392924964315,"keywords":["cp","nocrits","nodmgspread","uncletopia"],"game_id":440,"stv_port":27086,"stv_name":"Uncletopia | London | 8 | Community | STV","players":null},{"server_id":300,"name":"Uncletopia | Montréal | 1 | All Maps","name_short":"mtl-1","host":"mtl-1.ca.uncletopia.com","port":27015,"enabled":true,"region":"us-east","cc":"ca","latitude":45.50889,"longitude":-73.56167,"reserved":0,"last_update":"0001-01-01T00:00:00Z","name_a2s":"Uncletopia | Montréal | 1 | All Maps","protocol":17,"map":"pl_snowycoast","folder":"tf","game":"Team Fortress","app_id":440,"player_count":0,"max_players":24,"Bots":0,"server_type":"Dedicated","server_os":"Linux","password":true,"vac":true,"version":"7882260","steam_id":85568392924500087,"keywords":["nocrits","nodmgspread","payload","uncletopia"],"game_id":440,"stv_port":27016,"stv_name":"Uncletopia | Montréal | 1 | All Maps | STV","players":null},{"server_id":301,"name":"Uncletopia | Montréal | 2 | All Maps","name_short":"mtl-2","host":"mtl-1.ca.uncletopia.com","port":27025,"enabled":true,"region":"us-east","cc":"ca","latitude":45.50889,"longitude":-73.56167,"reserved":0,"last_update":"0001-01-01T00:00:00Z","name_a2s":"Uncletopia | Montréal | 2 | All Maps","protocol":17,"map":"pl_barnblitz","folder":"tf","game":"Team Fortress","app_id":440,"player_count":0,"max_players":24,"Bots":0,"server_type":"Dedicated","server_os":"Linux","password":true,"vac":true,"version":"7882260","steam_id":85568392924500088,"keywords":["nocrits","nodmgspread","payload","uncletopia"],"game_id":440,"stv_port":27026,"stv_name":"Uncletopia | Montréal | 2 | All Maps | STV","players":null},{"server_id":302,"name":"Uncletopia | Montréal | 3 | All Maps","name_short":"mtl-3","host":"mtl-1.ca.uncletopia.com","port":27035,"enabled":true,"region":"us-east","cc":"ca","latitude":45.50889,"longitude":-73.56167,"reserved":0,"last_update":"0001-01-01T00:00:00Z","name_a2s":"Uncletopia | Montréal | 3 | All Maps","protocol":17,"map":"pl_borneo","folder":"tf","game":"Team Fortress","app_id":440,"player_count":0,"max_players":24,"Bots":0,"server_type":"Dedicated","server_os":"Linux","password":true,"vac":true,"version":"7882260","steam_id":85568392924500089,"keywords":["nocrits","nodmgspread","payload","uncletopia"],"game_id":440,"stv_port":27036,"stv_name":"Uncletopia | Montréal | 3 | All Maps | STV","players":null},{"server_id":303,"name":"Uncletopia | Montréal | 4 | No Payload","name_short":"mtl-4","host":"mtl-1.ca.uncletopia.com","port":27045,"enabled":true,"region":"us-east","cc":"ca","latitude":45.50889,"longitude":-73.56167,"reserved":0,"last_update":"0001-01-01T00:00:00Z","name_a2s":"Uncletopia | Montréal | 4 | No Payload","protocol":17,"map":"cp_altitude","folder":"tf","game":"Team Fortress","app_id":440,"player_count":0,"max_players":24,"Bots":0,"server_type":"Dedicated","server_os":"Linux","password":true,"vac":true,"version":"7882260","steam_id":85568392924500090,"keywords":["cp","nocrits","nodmgspread","uncletopia"],"game_id":440,"stv_port":27046,"stv_name":"Uncletopia | Montréal | 4 | No Payload | STV","players":null},{"server_id":13,"name":"Uncletopia | New York City | 1 | All Maps","name_short":"nyc-1","host":"nyc-1.us.uncletopia.com","port":27015,"enabled":true,"region":"us-east","cc":"us","latitude":40.73061,"longitude":-73.93524,"reserved":0,"last_update":"0001-01-01T00:00:00Z","name_a2s":"Uncletopia | New York City | 1 | All Maps","protocol":17,"map":"ctf_sawmill","folder":"tf","game":"Team Fortress","app_id":440,"player_count":24,"max_players":24,"Bots":0,"server_type":"Dedicated","server_os":"Linux","password":true,"vac":true,"version":"7882260","steam_id":85568392924469993,"keywords":["ctf","nocrits","nodmgspread","uncletopia"],"game_id":440,"stv_port":27016,"stv_name":"Uncletopia | New York City | 1 | All Maps | STV","players":[{"user_id":140,"name":"Bloo","steam_id":76561199015827567,"connected_time":214000000000,"state":"active","ping":75},{"user_id":131,"name":"boofcat","steam_id":76561198346054736,"connected_time":907000000000,"state":"active","ping":60},{"user_id":57,"name":"Gentoo Linux Gaming","steam_id":76561197999657118,"connected_time":6114000000000,"state":"active","ping":70},{"user_id":78,"name":"FlabberGhaster","steam_id":76561199479442146,"connected_time":4734000000000,"state":"active","ping":54},{"user_id":89,"name":"custodian","steam_id":76561198058793778,"connected_time":3919000000000,"state":"active","ping":46},{"user_id":132,"name":"Wan Shi Tong","steam_id":76561198076441225,"connected_time":866000000000,"state":"active","ping":45},{"user_id":136,"name":"BACK TIME!","steam_id":76561199062155197,"connected_time":486000000000,"state":"active","ping":66},{"user_id":96,"name":"The Great Eagle Scourge of 1822","steam_id":76561198325086209,"connected_time":3406000000000,"state":"active","ping":116},{"user_id":123,"name":"Meep_God","steam_id":76561199127667536,"connected_time":1789000000000,"state":"active","ping":71},{"user_id":134,"name":"the pest","steam_id":76561198826298849,"connected_time":675000000000,"state":"active","ping":90},{"user_id":117,"name":"Smug Pug","steam_id":76561198059423334,"connected_time":2089000000000,"state":"active","ping":70},{"user_id":139,"name":"正統派ラビ ビル・クリ","steam_id":76561198123475157,"connected_time":298000000000,"state":"active","ping":148},{"user_id":119,"name":"Mr. Crispy Lips","steam_id":76561198028157625,"connected_time":1996000000000,"state":"active","ping":90},{"user_id":120,"name":"Bee_Pirate","steam_id":76561199000599111,"connected_time":1983000000000,"state":"active","ping":67},{"user_id":115,"name":"BasicPeaches","steam_id":76561198190890150,"connected_time":2437000000000,"state":"active","ping":65},{"user_id":118,"name":"MasterAmongRust","steam_id":76561198010160233,"connected_time":2088000000000,"state":"active","ping":94},{"user_id":127,"name":"Surinferior","steam_id":76561198008953177,"connected_time":1148000000000,"state":"active","ping":71},{"user_id":142,"name":"Lovedaddy","steam_id":76561198006569710,"connected_time":27000000000,"state":"active","ping":73},{"user_id":129,"name":"kbsfnk","steam_id":76561198036884600,"connected_time":1131000000000,"state":"active","ping":56},{"user_id":107,"name":"g00bur","steam_id":76561197993622520,"connected_time":2851000000000,"state":"active","ping":55},{"user_id":121,"name":"ChickenShred","steam_id":76561198867897841,"connected_time":1967000000000,"state":"active","ping":98},{"user_id":130,"name":"scio","steam_id":76561199001930207,"connected_time":1109000000000,"state":"active","ping":73},{"user_id":86,"name":"Carl, Good to see you","steam_id":76561198070574075,"connected_time":4505000000000,"state":"active","ping":78},{"user_id":114,"name":"T4T488","steam_id":76561198242633220,"connected_time":2588000000000,"state":"active","ping":72}]},{"server_id":14,"name":"Uncletopia | New York City | 2 | All Maps","name_short":"nyc-2","host":"nyc-1.us.uncletopia.com","port":27025,"enabled":true,"region":"us-east","cc":"us","latitude":40.73061,"longitude":-73.93524,"reserved":0,"last_update":"0001-01-01T00:00:00Z","name_a2s":"Uncletopia | New York City | 2 | All Maps","protocol":17,"map":"pl_badwater","folder":"tf","game":"Team Fortress","app_id":440,"player_count":0,"max_players":24,"Bots":0,"server_type":"Dedicated","server_os":"Linux","password":true,"vac":true,"version":"7882260","steam_id":85568392924469994,"keywords":["nocrits","nodmgspread","payload","uncletopia"],"game_id":440,"stv_port":27026,"stv_name":"Uncletopia | New York City | 2 | All Maps | STV","players":null},{"server_id":15,"name":"Uncletopia | New York City | 3 | Stopwatch Beta","name_short":"nyc-3","host":"nyc-1.us.uncletopia.com","port":27035,"enabled":true,"region":"us-east","cc":"us","latitude":40.73061,"longitude":-73.93524,"reserved":0,"last_update":"0001-01-01T00:00:00Z","name_a2s":"Uncletopia | New York City | 3 | Stopwatch Beta","protocol":17,"map":"koth_lakeside_final","folder":"tf","game":"Team Fortress","app_id":440,"player_count":0,"max_players":24,"Bots":0,"server_type":"Dedicated","server_os":"Linux","password":true,"vac":true,"version":"7882260","steam_id":85568392924742820,"keywords":["cp","nocrits","nodmgspread","uncletopia"],"game_id":440,"stv_port":27036,"stv_name":"Uncletopia | New York City | 3 | Stopwatch Beta | STV","players":null},{"server_id":16,"name":"Uncletopia | New York City | 4 | Community","name_short":"nyc-4","host":"nyc-1.us.uncletopia.com","port":27045,"enabled":true,"region":"us-east","cc":"us","latitude":40.73061,"longitude":-73.93524,"reserved":0,"last_update":"0001-01-01T00:00:00Z","name_a2s":"Uncletopia | New York City | 4 | Community","protocol":17,"map":"pl_badwater","folder":"tf","game":"Team Fortress","app_id":440,"player_count":0,"max_players":24,"Bots":0,"server_type":"Dedicated","server_os":"Linux","password":true,"vac":true,"version":"7882260","steam_id":85568392924742821,"keywords":["nocrits","nodmgspread","payload","uncletopia"],"game_id":440,"stv_port":27046,"stv_name":"Uncletopia | New York City | 4 | Community | STV","players":null},{"server_id":142,"name":"Uncletopia | São Paulo | 1 | All Maps","name_short":"sao-1","host":"sao-1.br.uncletopia.com","port":27015,"enabled":true,"region":"sa","cc":"br","latitude":-23.533773,"longitude":-46.62529,"reserved":0,"last_update":"0001-01-01T00:00:00Z","name_a2s":"Uncletopia | São Paulo | 1 | All Maps","protocol":17,"map":"cp_process_final","folder":"tf","game":"Team Fortress","app_id":440,"player_count":0,"max_players":24,"Bots":0,"server_type":"Dedicated","server_os":"Linux","password":true,"vac":true,"version":"7882260","steam_id":85568392924469996,"keywords":["cp","nocrits","nodmgspread","uncletopia"],"game_id":440,"stv_port":27016,"stv_name":"Uncletopia | São Paulo | 1 | All Maps | STV","players":null},{"server_id":143,"name":"Uncletopia | São Paulo | 2 | All Maps","name_short":"sao-2","host":"sao-2.br.uncletopia.com","port":27015,"enabled":true,"region":"sa","cc":"br","latitude":-23.533773,"longitude":-46.62529,"reserved":0,"last_update":"0001-01-01T00:00:00Z","name_a2s":"Uncletopia | São Paulo | 2 | All Maps","protocol":17,"map":"cp_process_final","folder":"tf","game":"Team Fortress","app_id":440,"player_count":0,"max_players":24,"Bots":0,"server_type":"Dedicated","server_os":"Linux","password":true,"vac":true,"version":"7882260","steam_id":85568392924485349,"keywords":["cp","nocrits","nodmgspread","uncletopia"],"game_id":440,"stv_port":27016,"stv_name":"Uncletopia | São Paulo | 2 | All Maps | STV","players":null},{"server_id":7,"name":"Uncletopia | Seattle | 1 | All Maps","name_short":"sea-1","host":"sea-1.us.uncletopia.com","port":27015,"enabled":true,"region":"us-west","cc":"us","latitude":47.608013,"longitude":-122.33517,"reserved":0,"last_update":"0001-01-01T00:00:00Z","name_a2s":"Uncletopia | Seattle | 1 | All Maps","protocol":17,"map":"pl_barnblitz","folder":"tf","game":"Team Fortress","app_id":440,"player_count":24,"max_players":24,"Bots":0,"server_type":"Dedicated","server_os":"Linux","password":true,"vac":true,"version":"7882260","steam_id":85568392924469997,"keywords":["nocrits","nodmgspread","payload","uncletopia"],"game_id":440,"stv_port":27016,"stv_name":"Uncletopia | Seattle | 1 | All Maps | STV","players":[{"user_id":163,"name":"litroolay","steam_id":76561197995226856,"connected_time":937000000000,"state":"active","ping":31},{"user_id":57,"name":"Gold_S4 #saveTF2","steam_id":76561199082435571,"connected_time":11310000000000,"state":"active","ping":110},{"user_id":164,"name":"Training Arc","steam_id":76561198038832034,"connected_time":932000000000,"state":"active","ping":57},{"user_id":112,"name":"dust | she/it","steam_id":76561198045218909,"connected_time":7178000000000,"state":"active","ping":39},{"user_id":165,"name":"SYMBOL_YT","steam_id":76561198848655517,"connected_time":908000000000,"state":"active","ping":59},{"user_id":172,"name":"ふわふわ毛布","steam_id":76561198088403016,"connected_time":667000000000,"state":"active","ping":181},{"user_id":148,"name":"float","steam_id":76561198363371528,"connected_time":3605000000000,"state":"active","ping":50},{"user_id":167,"name":"scrapheap","steam_id":76561198202407087,"connected_time":880000000000,"state":"active","ping":113},{"user_id":154,"name":"Dimple #TF2Center","steam_id":76561198980324190,"connected_time":2953000000000,"state":"active","ping":47},{"user_id":168,"name":"Zom_Named_Zam","steam_id":76561198328066203,"connected_time":832000000000,"state":"active","ping":89},{"user_id":19,"name":"Dunkin' Ponuts","steam_id":76561198082382465,"connected_time":12424000000000,"state":"active","ping":59},{"user_id":17,"name":"RainboomCrash","steam_id":76561198065612273,"connected_time":12503000000000,"state":"active","ping":46},{"user_id":156,"name":"Frank","steam_id":76561198126681511,"connected_time":2751000000000,"state":"active","ping":80},{"user_id":145,"name":"Ass Blaster, Disaster Master","steam_id":76561197997774469,"connected_time":4098000000000,"state":"active","ping":75},{"user_id":137,"name":"El 7 de fontana","steam_id":76561198025668771,"connected_time":4159000000000,"state":"active","ping":117},{"user_id":174,"name":"SanitysEdge","steam_id":76561198130732813,"connected_time":204000000000,"state":"active","ping":72},{"user_id":155,"name":"old birb man","steam_id":76561199410269097,"connected_time":2844000000000,"state":"active","ping":90},{"user_id":170,"name":"♡_Grey_♡","steam_id":76561199084277545,"connected_time":733000000000,"state":"active","ping":107},{"user_id":171,"name":"I Can't Read","steam_id":76561198023424263,"connected_time":714000000000,"state":"active","ping":56},{"user_id":114,"name":"Underscore Paul","steam_id":76561198070300902,"connected_time":7036000000000,"state":"active","ping":71},{"user_id":90,"name":"Sunshine","steam_id":76561198885528098,"connected_time":9437000000000,"state":"active","ping":122},{"user_id":115,"name":"ghosttᗝ","steam_id":76561199214430703,"connected_time":6679000000000,"state":"active","ping":105},{"user_id":175,"name":"Brookba","steam_id":76561198078894756,"connected_time":0,"state":"connecting","ping":0},{"user_id":162,"name":"Warhead","steam_id":76561198067746049,"connected_time":968000000000,"state":"active","ping":57}]},{"server_id":119,"name":"Uncletopia | Seattle | 2 | All Maps","name_short":"sea-2","host":"sea-1.us.uncletopia.com","port":27025,"enabled":true,"region":"us-west","cc":"us","latitude":47.608013,"longitude":-122.33517,"reserved":0,"last_update":"0001-01-01T00:00:00Z","name_a2s":"Uncletopia | Seattle | 2 | All Maps","protocol":17,"map":"pl_upward","folder":"tf","game":"Team Fortress","app_id":440,"player_count":8,"max_players":24,"Bots":0,"server_type":"Dedicated","server_os":"Linux","password":true,"vac":true,"version":"7882260","steam_id":85568392924469998,"keywords":["nocrits","nodmgspread","payload","uncletopia"],"game_id":440,"stv_port":27026,"stv_name":"Uncletopia | Seattle | 2 | All Maps | STV","players":[{"user_id":8,"name":"Maid Emperer","steam_id":76561199007622652,"connected_time":1939000000000,"state":"active","ping":86},{"user_id":9,"name":"Lily Bottom","steam_id":76561198138315462,"connected_time":1936000000000,"state":"active","ping":38},{"user_id":16,"name":"SeraphimDonn","steam_id":76561198853794152,"connected_time":312000000000,"state":"active","ping":96},{"user_id":11,"name":"In The Balls","steam_id":76561198830756098,"connected_time":1536000000000,"state":"active","ping":203},{"user_id":17,"name":"NightmareTheCEO","steam_id":76561198349694120,"connected_time":229000000000,"state":"active","ping":44},{"user_id":14,"name":"Tarkeeh","steam_id":76561198381024967,"connected_time":1197000000000,"state":"active","ping":251},{"user_id":15,"name":"CashBin","steam_id":76561199382865598,"connected_time":1139000000000,"state":"active","ping":97},{"user_id":18,"name":"The Dinkle","steam_id":76561198098155041,"connected_time":115000000000,"state":"active","ping":72}]},{"server_id":406,"name":"Uncletopia | Seattle | 3 | Stopwatch Beta","name_short":"sea-3","host":"sea-1.us.uncletopia.com","port":27035,"enabled":true,"region":"us-west","cc":"us","latitude":47.608013,"longitude":-122.33517,"reserved":0,"last_update":"0001-01-01T00:00:00Z","name_a2s":"Uncletopia | Seattle | 3 | Stopwatch Beta","protocol":17,"map":"pl_swiftwater_final1","folder":"tf","game":"Team Fortress","app_id":440,"player_count":0,"max_players":24,"Bots":0,"server_type":"Dedicated","server_os":"Linux","password":true,"vac":true,"version":"7882260","steam_id":85568392924515217,"keywords":["nocrits","nodmgspread","payload","uncletopia"],"game_id":440,"stv_port":27036,"stv_name":"Uncletopia | Seattle | 3 | Stopwatch Beta | STV","players":null},{"server_id":17,"name":"Uncletopia | San Francisco | 1 | All Maps","name_short":"sfo-1","host":"sfo-1.us.uncletopia.com","port":27015,"enabled":true,"region":"us-west","cc":"us","latitude":37.77397,"longitude":-122.4313,"reserved":0,"last_update":"0001-01-01T00:00:00Z","name_a2s":"Uncletopia | San Francisco | 1 | All Maps","protocol":17,"map":"cp_process_final","folder":"tf","game":"Team Fortress","app_id":440,"player_count":0,"max_players":24,"Bots":0,"server_type":"Dedicated","server_os":"Linux","password":true,"vac":true,"version":"7757534","steam_id":85568392924469999,"keywords":["cp","nocrits","nodmgspread","uncletopia"],"game_id":440,"stv_port":27016,"stv_name":"Uncletopia | San Francisco | 1 | All Maps | STV","players":null},{"server_id":18,"name":"Uncletopia | San Francisco | 2 | All Maps","name_short":"sfo-2","host":"sfo-1.us.uncletopia.com","port":27025,"enabled":true,"region":"us-west","cc":"us","latitude":37.77397,"longitude":-122.4313,"reserved":0,"last_update":"0001-01-01T00:00:00Z","name_a2s":"Uncletopia | San Francisco | 2 | All Maps","protocol":17,"map":"koth_highpass","folder":"tf","game":"Team Fortress","app_id":440,"player_count":0,"max_players":24,"Bots":0,"server_type":"Dedicated","server_os":"Linux","password":true,"vac":true,"version":"7757534","steam_id":85568392924470000,"keywords":["cp","nocrits","nodmgspread","uncletopia"],"game_id":440,"stv_port":27026,"stv_name":"Uncletopia | San Francisco | 2 | All Maps | STV","players":null},{"server_id":19,"name":"Uncletopia | San Francisco | 3 | Stopwatch Beta","name_short":"sfo-3","host":"sfo-1.us.uncletopia.com","port":27035,"enabled":true,"region":"us-west","cc":"us","latitude":37.77397,"longitude":-122.4313,"reserved":0,"last_update":"0001-01-01T00:00:00Z","name_a2s":"Uncletopia | San Francisco | 3 | Stopwatch Beta","protocol":17,"map":"koth_lakeside_final","folder":"tf","game":"Team Fortress","app_id":440,"player_count":0,"max_players":24,"Bots":0,"server_type":"Dedicated","server_os":"Linux","password":true,"vac":true,"version":"7757534","steam_id":85568392924742824,"keywords":["cp","nocrits","nodmgspread","uncletopia"],"game_id":440,"stv_port":27036,"stv_name":"Uncletopia | San Francisco | 3 | Stopwatch Beta | STV","players":null},{"server_id":20,"name":"Uncletopia | San Francisco | 4 | Community","name_short":"sfo-4","host":"sfo-1.us.uncletopia.com","port":27045,"enabled":true,"region":"us-west","cc":"us","latitude":37.77397,"longitude":-122.4313,"reserved":0,"last_update":"0001-01-01T00:00:00Z","name_a2s":"Uncletopia | San Francisco | 4 | Community","protocol":17,"map":"cp_altitude","folder":"tf","game":"Team Fortress","app_id":440,"player_count":0,"max_players":24,"Bots":0,"server_type":"Dedicated","server_os":"Linux","password":true,"vac":true,"version":"7757534","steam_id":85568392924742826,"keywords":["cp","nocrits","nodmgspread","uncletopia"],"game_id":440,"stv_port":27046,"stv_name":"Uncletopia | San Francisco | 4 | Community | STV","players":null},{"server_id":141,"name":"Uncletopia | Sydney | 1 | All Maps","name_short":"syd-1","host":"syd-1.au.uncletopia.com","port":27015,"enabled":true,"region":"au","cc":"au","latitude":-33.865143,"longitude":151.2099,"reserved":0,"last_update":"0001-01-01T00:00:00Z","name_a2s":"Uncletopia | Sydney | 1 | All Maps","protocol":17,"map":"koth_lakeside_final","folder":"tf","game":"Team Fortress","app_id":440,"player_count":0,"max_players":24,"Bots":0,"server_type":"Dedicated","server_os":"Linux","password":true,"vac":true,"version":"7882260","steam_id":85568392924470001,"keywords":["cp","nocrits","nodmgspread","uncletopia"],"game_id":440,"stv_port":27016,"stv_name":"Uncletopia | Sydney | 1 | All Maps | STV","players":null},{"server_id":123,"name":"Uncletopia | Sydney | 2 | All Maps","name_short":"syd-2","host":"syd-1.au.uncletopia.com","port":27025,"enabled":true,"region":"au","cc":"au","latitude":-33.865143,"longitude":151.2099,"reserved":0,"last_update":"0001-01-01T00:00:00Z","name_a2s":"Uncletopia | Sydney | 2 | All Maps","protocol":17,"map":"pl_swiftwater_final1","folder":"tf","game":"Team Fortress","app_id":440,"player_count":0,"max_players":24,"Bots":0,"server_type":"Dedicated","server_os":"Linux","password":true,"vac":true,"version":"7882260","steam_id":85568392924470002,"keywords":["nocrits","nodmgspread","payload","uncletopia"],"game_id":440,"stv_port":27026,"stv_name":"Uncletopia | Sydney | 2 | All Maps | STV","players":null},{"server_id":395,"name":"Uncletopia | Sydney | 3 | All Maps","name_short":"syd-3","host":"syd-1.au.uncletopia.com","port":27035,"enabled":true,"region":"au","cc":"au","latitude":-33.865143,"longitude":151.2099,"reserved":0,"last_update":"0001-01-01T00:00:00Z","name_a2s":"Uncletopia | Sydney | 3 | All Maps","protocol":17,"map":"cp_dustbowl","folder":"tf","game":"Team Fortress","app_id":440,"player_count":0,"max_players":24,"Bots":0,"server_type":"Dedicated","server_os":"Linux","password":true,"vac":true,"version":"7882260","steam_id":85568392925194467,"keywords":["cp","nocrits","nodmgspread","uncletopia"],"game_id":440,"stv_port":27036,"stv_name":"Uncletopia | Sydney | 3 | All Maps | STV","players":null},{"server_id":396,"name":"Uncletopia | Sydney | 4 | All Maps","name_short":"syd-4","host":"syd-1.au.uncletopia.com","port":27045,"enabled":true,"region":"au","cc":"au","latitude":-33.865143,"longitude":151.2099,"reserved":0,"last_update":"0001-01-01T00:00:00Z","name_a2s":"Uncletopia | Sydney | 4 | All Maps","protocol":17,"map":"koth_cascade","folder":"tf","game":"Team Fortress","app_id":440,"player_count":0,"max_players":24,"Bots":0,"server_type":"Dedicated","server_os":"Linux","password":true,"vac":true,"version":"7882260","steam_id":85568392925397958,"keywords":["cp","nocrits","nodmgspread","uncletopia"],"game_id":440,"stv_port":27046,"stv_name":"Uncletopia | Sydney | 4 | All Maps | STV","players":null},{"server_id":58,"name":"Uncletopia | Sydney | 5 | Stopwatch Beta","name_short":"syd-5","host":"syd-1.au.uncletopia.com","port":27055,"enabled":true,"region":"au","cc":"au","latitude":-33.865143,"longitude":151.2099,"reserved":0,"last_update":"0001-01-01T00:00:00Z","name_a2s":"Uncletopia | Sydney | 5 | Stopwatch Beta","protocol":17,"map":"workshop/pl_barnblitz_pro7.ugc582280235","folder":"tf","game":"Team Fortress","app_id":440,"player_count":0,"max_players":24,"Bots":0,"server_type":"Dedicated","server_os":"Linux","password":true,"vac":true,"version":"7882260","steam_id":85568392925397959,"keywords":["nocrits","nodmgspread","payload","uncletopia"],"game_id":440,"stv_port":27056,"stv_name":"Uncletopia | Sydney | 5 | Stopwatch Beta | STV","players":null},{"server_id":59,"name":"Uncletopia | Sydney | 6 | Community","name_short":"syd-6","host":"syd-1.au.uncletopia.com","port":27065,"enabled":true,"region":"au","cc":"au","latitude":-33.865143,"longitude":151.2099,"reserved":0,"last_update":"0001-01-01T00:00:00Z","name_a2s":"Uncletopia | Sydney | 6 | Community","protocol":17,"map":"workshop/koth_ramjam_rc1.ugc459778887","folder":"tf","game":"Team Fortress","app_id":440,"player_count":0,"max_players":24,"Bots":0,"server_type":"Dedicated","server_os":"Linux","password":true,"vac":true,"version":"7882260","steam_id":85568392925397960,"keywords":["cp","nocrits","nodmgspread","uncletopia"],"game_id":440,"stv_port":27066,"stv_name":"Uncletopia | Sydney | 6 | Community | STV","players":null},{"server_id":49,"name":"Uncletopia | Warsaw | 1 | All Maps","name_short":"waw-1","host":"waw-1.pl.uncletopia.com","port":27015,"enabled":true,"region":"eu","cc":"pl","latitude":52.2297,"longitude":21.017532,"reserved":0,"last_update":"0001-01-01T00:00:00Z","name_a2s":"","protocol":0,"map":"","folder":"","game":"","app_id":0,"player_count":0,"max_players":0,"Bots":0,"server_type":"","server_os":"","password":false,"vac":false,"version":"","steam_id":0,"keywords":null,"game_id":0,"stv_port":0,"stv_name":"","players":null},{"server_id":50,"name":"Uncletopia | Warsaw | 2 | All Maps","name_short":"waw-2","host":"waw-1.pl.uncletopia.com","port":27025,"enabled":true,"region":"eu","cc":"pl","latitude":52.2297,"longitude":21.017532,"reserved":0,"last_update":"0001-01-01T00:00:00Z","name_a2s":"Uncletopia | Warsaw | 2 | All Maps","protocol":17,"map":"cp_mountainlab","folder":"tf","game":"Team Fortress","app_id":440,"player_count":0,"max_players":24,"Bots":0,"server_type":"Dedicated","server_os":"Linux","password":true,"vac":true,"version":"7882260","steam_id":85568392925397851,"keywords":["cp","nocrits","nodmgspread","uncletopia"],"game_id":440,"stv_port":27026,"stv_name":"Uncletopia | Warsaw | 2 | All Maps | STV","players":null},{"server_id":51,"name":"Uncletopia | Warsaw | 3 | All Maps","name_short":"waw-3","host":"waw-1.pl.uncletopia.com","port":27035,"enabled":true,"region":"eu","cc":"pl","latitude":52.2297,"longitude":21.017532,"reserved":0,"last_update":"0001-01-01T00:00:00Z","name_a2s":"Uncletopia | Warsaw | 3 | All Maps","protocol":17,"map":"koth_viaduct","folder":"tf","game":"Team Fortress","app_id":440,"player_count":0,"max_players":24,"Bots":0,"server_type":"Dedicated","server_os":"Linux","password":true,"vac":true,"version":"7882260","steam_id":85568392925397852,"keywords":["cp","nocrits","nodmgspread","uncletopia"],"game_id":440,"stv_port":27036,"stv_name":"Uncletopia | Warsaw | 3 | All Maps | STV","players":null},{"server_id":52,"name":"Uncletopia | Warsaw | 4 | All Maps","name_short":"waw-4","host":"waw-1.pl.uncletopia.com","port":27045,"enabled":true,"region":"eu","cc":"pl","latitude":52.2297,"longitude":21.017532,"reserved":0,"last_update":"0001-01-01T00:00:00Z","name_a2s":"Uncletopia | Warsaw | 4 | All Maps","protocol":17,"map":"koth_highpass","folder":"tf","game":"Team Fortress","app_id":440,"player_count":0,"max_players":24,"Bots":0,"server_type":"Dedicated","server_os":"Linux","password":true,"vac":true,"version":"7882260","steam_id":85568392925397853,"keywords":["cp","nocrits","nodmgspread","uncletopia"],"game_id":440,"stv_port":27046,"stv_name":"Uncletopia | Warsaw | 4 | All Maps | STV","players":null},{"server_id":53,"name":"Uncletopia | Warsaw | 5 | Stopwatch Beta","name_short":"waw-5","host":"waw-1.pl.uncletopia.com","port":27055,"enabled":true,"region":"eu","cc":"pl","latitude":52.2297,"longitude":21.017532,"reserved":0,"last_update":"0001-01-01T00:00:00Z","name_a2s":"Uncletopia | Warsaw | 5 | Stopwatch Beta","protocol":17,"map":"cp_mountainlab","folder":"tf","game":"Team Fortress","app_id":440,"player_count":0,"max_players":24,"Bots":0,"server_type":"Dedicated","server_os":"Linux","password":true,"vac":true,"version":"7882260","steam_id":85568392925397854,"keywords":["cp","nocrits","nodmgspread","uncletopia"],"game_id":440,"stv_port":27056,"stv_name":"Uncletopia | Warsaw | 5 | Stopwatch Beta | STV","players":null},{"server_id":54,"name":"Uncletopia | Warsaw | 6 | Community","name_short":"waw-6","host":"waw-1.pl.uncletopia.com","port":27065,"enabled":true,"region":"eu","cc":"pl","latitude":52.2297,"longitude":21.017532,"reserved":0,"last_update":"0001-01-01T00:00:00Z","name_a2s":"Uncletopia | Warsaw | 6 | Community","protocol":17,"map":"koth_viaduct","folder":"tf","game":"Team Fortress","app_id":440,"player_count":0,"max_players":24,"Bots":0,"server_type":"Dedicated","server_os":"Linux","password":true,"vac":true,"version":"7882260","steam_id":85568392925397856,"keywords":["cp","nocrits","nodmgspread","uncletopia"],"game_id":440,"stv_port":27066,"stv_name":"Uncletopia | Warsaw | 6 | Community | STV","players":null}]}