{"status":true,"message":"","result":[{"server_id":9,"name":"Uncletopia | Atlanta | 1 | All Maps","name_short":"atl-1","host":"atl-1.us.uncletopia.com","port":27015,"enabled":true,"region":"us-east","cc":"us","latitude":33.753746,"longitude":-84.38633,"reserved":0,"last_update":"0001-01-01T00:00:00Z","name_a2s":"Uncletopia | Atlanta | 1 | All Maps","protocol":17,"map":"pl_upward","folder":"tf","game":"Team Fortress","app_id":440,"player_count":24,"max_players":24,"Bots":0,"server_type":"Dedicated","server_os":"Linux","password":true,"vac":true,"version":"7882260","steam_id":85568392924469982,"keywords":["nocrits","nodmgspread","payload","uncletopia"],"game_id":440,"stv_port":27016,"stv_name":"Uncletopia | Atlanta | 1 | All Maps | STV","players":[{"user_id":93,"name":"HadesTheKing","steam_id":76561198071731749,"connected_time":992000000000,"state":"active","ping":58},{"user_id":80,"name":"Goofball","steam_id":76561198061211537,"connected_time":2333000000000,"state":"active","ping":62},{"user_id":109,"name":"Epifiny","steam_id":76561198027958086,"connected_time":492000000000,"state":"active","ping":84},{"user_id":97,"name":"RectalExam","steam_id":76561197970502312,"connected_time":868000000000,"state":"active","ping":89},{"user_id":94,"name":"GailusTerran","steam_id":76561198319509387,"connected_time":951000000000,"state":"active","ping":63},{"user_id":40,"name":"Obelisk","steam_id":76561198049416866,"connected_time":5126000000000,"state":"active","ping":47},{"user_id":116,"name":"tasty","steam_id":76561198083839061,"connected_time":30000000000,"state":"active","ping":75},{"user_id":113,"name":"lil hog","steam_id":76561199230929836,"connected_time":303000000000,"state":"active","ping":73},{"user_id":31,"name":"lucky","steam_id":76561198323426623,"connected_time":5633000000000,"state":"active","ping":84},{"user_id":42,"name":"OG glIzzy","steam_id":76561198268654031,"connected_time":4961000000000,"state":"active","ping":80},{"user_id":91,"name":"VALENCE","steam_id":76561198118492031,"connected_time":1275000000000,"state":"active","ping":101},{"user_id":90,"name":"Zeetch","steam_id":76561198110579765,"connected_time":1377000000000,"state":"active","ping":75},{"user_id":101,"name":"Duckywinner","steam_id":76561198254828139,"connected_time":788000000000,"state":"active","ping":61},{"user_id":107,"name":"Season Veteran","steam_id":76561198088619665,"connected_time":530000000000,"state":"active","ping":94},{"user_id":102,"name":"wehNirate","steam_id":76561197999730721,"connected_time":727000000000,"state":"active","ping":86},{"user_id":114,"name":"SalzigesBaguette","steam_id":76561198147595101,"connected_time":130000000000,"state":"active","ping":147},{"user_id":65,"name":"SketchyStreet","steam_id":76561199003194680,"connected_time":3535000000000,"state":"active","ping":73},{"user_id":111,"name":"PyroManiac","steam_id":76561198005988491,"connected_time":402000000000,"state":"active","ping":123},{"user_id":117,"name":"keffers","steam_id":76561198202338796,"connected_time":26000000000,"state":"spawning","ping":94},{"user_id":108,"name":"Ekuseebia","steam_id":76561198037504112,"connected_time":523000000000,"state":"active","ping":86},{"user_id":104,"name":"Павло Паченко","steam_id":76561198314446564,"connected_time":661000000000,"state":"active","ping":100},{"user_id":78,"name":"AdmiralCrunch","steam_id":76561198117444710,"connected_time":2482000000000,"state":"active","ping":48},{"user_id":112,"name":"CORGI.EXE","steam_id":76561198077093432,"connected_time":372000000000,"state":"active","ping":70},{"user_id":106,"name":"firstlastmcgee","steam_id":76561198170187989,"connected_time":620000000000,"state":"active","ping":64}]},{"server_id":104,"name":"Uncletopia | Atlanta | 2 | All Maps","name_short":"atl-2","host":"atl-1.us.uncletopia.com","port":27025,"enabled":true,"region":"us-east","cc":"us","latitude":33.753746,"longitude":-84.38633,"reserved":0,"last_update":"0001-01-01T00:00:00Z","name_a2s":"Uncletopia | Atlanta | 2 | All Maps","protocol":17,"map":"koth_highpass","folder":"tf","game":"Team Fortress","app_id":440,"player_count":0,"max_players":24,"Bots":0,"server_type":"Dedicated","server_os":"Linux","password":true,"vac":true,"version":"7882260","steam_id":85568392924469983,"keywords":["cp","nocrits","nodmgspread","uncletopia"],"game_id":440,"stv_port":27026,"stv_name":"Uncletopia | Atlanta | 2 | All Maps | STV","players":null},{"server_id":400,"name":"Uncletopia | Atlanta | 3 | Community","name_short":"atl-3","host":"atl-1.us.uncletopia.com","port":27035,"enabled":true,"region":"us-east","cc":"us","latitude":33.753746,"longitude":-84.38633,"reserved":0,"last_update":"0001-01-01T00:00:00Z","name_a2s":"Uncletopia | Atlanta | 3 | Community","protocol":17,"map":"workshop/cp_propaganda_b18.ugc1603743849","folder":"tf","game":"Team Fortress","app_id":440,"player_count":0,"max_players":24,"Bots":0,"server_type":"Dedicated","server_os":"Linux","password":true,"vac":true,"version":"7882260","steam_id":85568392924515187,"keywords":["cp","nocrits","nodmgspread","uncletopia"],"game_id":440,"stv_port":27036,"stv_name":"Uncletopia | Atlanta | 3 | Community | STV","players":null},{"server_id":401,"name":"Uncletopia | Atlanta | 4 | No Payload","name_short":"atl-4","host":"atl-1.us.uncletopia.com","port":27045,"enabled":true,"region":"us-east","cc":"us","latitude":33.753746,"longitude":-84.38633,"reserved":0,"last_update":"0001-01-01T00:00:00Z","name_a2s":"","protocol":0,"map":"","folder":"","game":"","app_id":0,"player_count":0,"max_players":0,"Bots":0,"server_type":"","server_os":"","password":false,"vac":false,"version":"","steam_id":0,"keywords":null,"game_id":0,"stv_port":0,"stv_name":"","players":null},{"server_id":2,"name":"Uncletopia | Chicago | 1 | All Maps","name_short":"chi-1","host":"chi-1.us.uncletopia.com","port":27015,"enabled":true,"region":"us-central","cc":"us","latitude":41.881832,"longitude":-87.62318,"reserved":0,"last_update":"0001-01-01T00:00:00Z","name_a2s":"Uncletopia | Chicago | 1 | All Maps","protocol":17,"map":"koth_nucleus","folder":"tf","game":"Team Fortress","app_id":440,"player_count":24,"max_players":24,"Bots":0,"server_type":"Dedicated","server_os":"Linux","password":true,"vac":true,"version":"7882260","steam_id":85568392924469984,"keywords":["cp","nocrits","nodmgspread","uncletopia"],"game_id":440,"stv_port":27016,"stv_name":"Uncletopia | Chicago | 1 | All Maps | STV","players":[{"user_id":193,"name":"Vzlæd","steam_id":76561198044192839,"connected_time":1221000000000,"state":"active","ping":52},{"user_id":180,"name":"Mixomin","steam_id":76561198295061570,"connected_time":2808000000000,"state":"active","ping":47},{"user_id":197,"name":"TransWomanGaming","steam_id":76561198809645656,"connected_time":1148000000000,"state":"active","ping":77},{"user_id":195,"name":"Enron Hubbard","steam_id":76561198012951411,"connected_time":1181000000000,"state":"active","ping":53},{"user_id":113,"name":"[TSG] Turner's Chocolate Milk","steam_id":76561198058963288,"connected_time":7572000000000,"state":"active","ping":63},{"user_id":172,"name":"Nude Taco","steam_id":76561198078282861,"connected_time":3144000000000,"state":"active","ping":52},{"user_id":154,"name":"Tok Hakaay","steam_id":76561199311828303,"connected_time":5024000000000,"state":"active","ping":84},{"user_id":181,"name":"(no monitor) ayylien","steam_id":76561198042127970,"connected_time":2404000000000,"state":"active","ping":74},{"user_id":196,"name":"rontu","steam_id":76561199072955534,"connected_time":1159000000000,"state":"active","ping":46},{"user_id":206,"name":"The","steam_id":76561199385827430,"connected_time":113000000000,"state":"active","ping":254},{"user_id":155,"name":"Ejaculation Zach","steam_id":76561198203765200,"connected_time":5023000000000,"state":"active","ping":57},{"user_id":188,"name":"IPlayGamez","steam_id":76561198041387508,"connected_time":1663000000000,"state":"active","ping":64},{"user_id":184,"name":"Mythical Lag","steam_id":76561198347031281,"connected_time":2212000000000,"state":"active","ping":72},{"user_id":203,"name":"wakeupbdot","steam_id":76561198160786631,"connected_time":275000000000,"state":"active","ping":76},{"user_id":204,"name":"kallerannar","steam_id":76561199095701143,"connected_time":214000000000,"state":"active","ping":160},{"user_id":162,"name":"Pheonix","steam_id":76561199470538309,"connected_time":4239000000000,"state":"active","ping":56},{"user_id":192,"name":"effete","steam_id":76561197994376499,"connected_time":1339000000000,"state":"active","ping":103},{"user_id":156,"name":"logg","steam_id":76561198179595013,"connected_time":4999000000000,"state":"active","ping":85},{"user_id":174,"name":"Soviet Waffles","steam_id":76561198101051526,"connected_time":3136000000000,"state":"active","ping":74},{"user_id":175,"name":"donkykong from wii sports","steam_id":76561198298684447,"connected_time":3134000000000,"state":"active","ping":64},{"user_id":179,"name":"hi","steam_id":76561198809577048,"connected_time":2853000000000,"state":"active","ping":103},{"user_id":45,"name":"vv","steam_id":76561198134813102,"connected_time":10142000000000,"state":"active","ping":55},{"user_id":198,"name":"Silico","steam_id":76561197993814144,"connected_time":774000000000,"state":"active","ping":60},{"user_id":205,"name":"Eve","steam_id":76561198052472822,"connected_time":201000000000,"state":"active","ping":71}]},{"server_id":106,"name":"Uncletopia | Chicago | 2 | All Maps","name_short":"chi-2","host":"chi-1.us.uncletopia.com","port":27025,"enabled":true,"region":"us-central","cc":"us","latitude":41.881832,"longitude":-87.62318,"reserved":0,"last_update":"0001-01-01T00:00:00Z","name_a2s":"Uncletopia | Chicago | 2 | All Maps","protocol":17,"map":"koth_highpass","folder":"tf","game":"Team Fortress","app_id":440,"player_count":23,"max_players":24,"Bots":0,"server_type":"Dedicated","server_os":"Linux","password":true,"vac":true,"version":"7882260","steam_id":85568392924469985,"keywords":["cp","nocrits","nodmgspread","uncletopia"],"game_id":440,"stv_port":27026,"stv_name":"Uncletopia | Chicago | 2 | All Maps | STV","players":[{"user_id":204,"name":"wickit","steam_id":76561199241555613,"connected_time":2937000000000,"state":"active","ping":74},{"user_id":222,"name":"redbrite","steam_id":76561198389370871,"connected_time":2034000000000,"state":"active","ping":122},{"user_id":226,"name":"blythe","steam_id":76561198254999149,"connected_time":1264000000000,"state":"active","ping":75},{"user_id":228,"name":"Mr.Oxiclean","steam_id":76561198144729009,"connected_time":1232000000000,"state":"active","ping":79},{"user_id":216,"name":"smino","steam_id":76561198937717599,"connected_time":2250000000000,"state":"active","ping":64},{"user_id":197,"name":"Periculosum PhD in Funny","steam_id":76561198123370914,"connected_time":3395000000000,"state":"active","ping":71},{"user_id":234,"name":"Mint Jelly","steam_id":76561197991286751,"connected_time":899000000000,"state":"active","ping":44},{"user_id":239,"name":"atv48","steam_id":76561197979154521,"connected_time":127000000000,"state":"active","ping":70},{"user_id":231,"name":"Cosmic Torgue","steam_id":76561198828724945,"connected_time":940000000000,"state":"active","ping":84},{"user_id":193,"name":"alandus","steam_id":76561198310789626,"connected_time":4180000000000,"state":"active","ping":70},{"user_id":230,"name":"Monsieur l'INGENIEUR","steam_id":76561198090504334,"connected_time":955000000000,"state":"active","ping":67},{"user_id":227,"name":"VioletSpecs","steam_id":76561198089366466,"connected_time":1256000000000,"state":"active","ping":71},{"user_id":240,"name":"log","steam_id":76561198977633937,"connected_time":79000000000,"state":"active","ping":58},{"user_id":241,"name":"lost in spaaaaace","steam_id":76561199085974120,"connected_time":48000000000,"state":"active","ping":71},{"user_id":233,"name":"VLC Media Player","steam_id":76561198103243847,"connected_time":912000000000,"state":"active","ping":83},{"user_id":157,"name":"JelloMotion","steam_id":76561198045892038,"connected_time":7533000000000,"state":"active","ping":60},{"user_id":190,"name":"TheScootGuy","steam_id":76561198847107866,"connected_time":4635000000000,"state":"active","ping":44},{"user_id":206,"name":"xen","steam_id":76561198048568188,"connected_time":2877000000000,"state":"active","ping":61},{"user_id":242,"name":"♥ PsychicCellar ♥","steam_id":76561198045923020,"connected_time":20000000000,"state":"active","ping":58},{"user_id":238,"name":"One Chill Daddio","steam_id":76561198074026282,"connected_time":321000000000,"state":"active","ping":94},{"user_id":138,"name":"Metapod","steam_id":76561198008725465,"connected_time":9453000000000,"state":"active","ping":82},{"user_id":223,"name":"average bison enjoyer","steam_id":76561199214713674,"connected_time":1980000000000,"state":"active","ping":94},{"user_id":143,"name":"katryna","steam_id":76561198023440304,"connected_time":8784000000000,"state":"active","ping":53}]},{"server_id":402,"name":"Uncletopia | Chicago | 3 | All Maps","name_short":"chi-3","host":"chi-1.us.uncletopia.com","port":27035,"enabled":true,"region":"us-central","cc":"us","latitude":41.881832,"longitude":-87.62318,"reserved":0,"last_update":"0001-01-01T00:00:00Z","name_a2s":"Uncletopia | Chicago | 3 | All Maps","protocol":17,"map":"pl_borneo","folder":"tf","game":"Team Fortress","app_id":440,"player_count":24,"max_players":24,"Bots":0,"server_type":"Dedicated","server_os":"Linux","password":true,"vac":true,"version":"7882260","steam_id":85568392924515191,"keywords":["nocrits","nodmgspread","payload","uncletopia"],"game_id":440,"stv_port":27036,"stv_name":"Uncletopia | Chicago | 3 | All Maps | STV","players":[{"user_id":65,"name":"Tom","steam_id":76561198070630154,"connected_time":5802000000000,"state":"active","ping":87},{"user_id":122,"name":"Ruben","steam_id":76561198048508642,"connected_time":586000000000,"state":"active","ping":92},{"user_id":112,"name":"LocaKola","steam_id":76561198173435430,"connected_time":1348000000000,"state":"active","ping":71},{"user_id":96,"name":"Epicmullen","steam_id":76561198259850795,"connected_time":2322000000000,"state":"active","ping":55},{"user_id":54,"name":"Level 99 Mudcrab","steam_id":76561198077452771,"connected_time":6232000000000,"state":"active","ping":104},{"user_id":102,"name":"MontellWilliams","steam_id":76561198172143015,"connected_time":1922000000000,"state":"active","ping":56},{"user_id":123,"name":"The Land Admiral","steam_id":76561198159356609,"connected_time":474000000000,"state":"active","ping":71},{"user_id":18,"name":"Bee_Pirate","steam_id":76561199000599111,"connected_time":7601000000000,"state":"active","ping":59},{"user_id":119,"name":"Cassini","steam_id":76561198318526294,"connected_time":682000000000,"state":"active","ping":63},{"user_id":91,"name":"Knuckles","steam_id":76561198000704259,"connected_time":2616000000000,"state":"active","ping":55},{"user_id":108,"name":"cow","steam_id":76561198117331762,"connected_time":1619000000000,"state":"active","ping":35},{"user_id":114,"name":"Cirtex","steam_id":76561197974285959,"connected_time":1299000000000,"state":"active","ping":88},{"user_id":100,"name":"e doctor","steam_id":76561198081851446,"connected_time":1944000000000,"state":"active","ping":45},{"user_id":40,"name":"B o o g","steam_id":76561199267535506,"connected_time":6659000000000,"state":"active","ping":64},{"user_id":106,"name":"-W3E- grim10465","steam_id":76561198045698581,"connected_time":1814000000000,"state":"active","ping":45},{"user_id":115,"name":"JOHNNY SEXLORD","steam_id":76561198074440236,"connected_time":1297000000000,"state":"active","ping":74},{"user_id":103,"name":"Wigl","steam_id":76561198019324464,"connected_time":1921000000000,"state":"active","ping":66},{"user_id":121,"name":"i ate a bee","steam_id":76561198138983695,"connected_time":640000000000,"state":"active","ping":71},{"user_id":124,"name":"|3lack","steam_id":76561198082632923,"connected_time":20000000000,"state":"spawning","ping":59},{"user_id":117,"name":"capeeKo","steam_id":76561197970346623,"connected_time":885000000000,"state":"active","ping":83},{"user_id":110,"name":"walrus","steam_id":76561198057853319,"connected_time":1404000000000,"state":"active","ping":75},{"user_id":118,"name":"Im totally a hacker","steam_id":76561198888005736,"connected_time":700000000000,"state":"active","ping":71},{"user_id":111,"name":"Mister36","steam_id":76561198019132100,"connected_time":1399000000000,"state":"active","ping":53},{"user_id":105,"name":"Lspan","steam_id":76561199002806208,"connected_time":1883000000000,"state":"active","ping":142}]},{"server_id":403,"name":"Uncletopia | Chicago | 4 | All Maps","name_short":"chi-4","host":"chi-1.us.uncletopia.com","port":27045,"enabled":true,"region":"us-central","cc":"us","latitude":41.881832,"longitude":-87.62318,"reserved":0,"last_update":"0001-01-01T00:00:00Z","name_a2s":"Uncletopia | Chicago | 4 | All Maps","protocol":17,"map":"koth_cascade","folder":"tf","game":"Team Fortress","app_id":440,"player_count":0,"max_players":24,"Bots":0,"server_type":"Dedicated","server_os":"Linux","password":true,"vac":true,"version":"7882260","steam_id":85568392924515193,"keywords":["cp","nocrits","nodmgspread","uncletopia"],"game_id":440,"stv_port":27046,"stv_name":"Uncletopia | Chicago | 4 | All Maps | STV","players":null},{"server_id":36,"name":"Uncletopia | Chicago | 5 | All Maps","name_short":"chi-5","host":"chi-2.us.uncletopia.com","port":27015,"enabled":true,"region":"us-central","cc":"us","latitude":41.881832,"longitude":-87.62318,"reserved":0,"last_update":"0001-01-01T00:00:00Z","name_a2s":"Uncletopia | Chicago | 5 | All Maps","protocol":17,"map":"cp_dustbowl","folder":"tf","game":"Team Fortress","app_id":440,"player_count":0,"max_players":24,"Bots":0,"server_type":"Dedicated","server_os":"Linux","password":true,"vac":true,"version":"7882260","steam_id":85568392924866362,"keywords":["cp","nocrits","nodmgspread","uncletopia"],"game_id":440,"stv_port":27016,"stv_name":"Uncletopia | Chicago | 5 | All Maps | STV","players":null},{"server_id":37,"name":"Uncletopia | Chicago | 6 | All Maps","name_short":"chi-6","host":"chi-2.us.uncletopia.com","port":27025,"enabled":true,"region":"us-central","cc":"us","latitude":41.881832,"longitude":-87.62318,"reserved":0,"last_update":"0001-01-01T00:00:00Z","name_a2s":"Uncletopia | Chicago | 6 | All Maps","protocol":17,"map":"koth_cascade","folder":"tf","game":"Team Fortress","app_id":440,"player_count":0,"max_players":24,"Bots":0,"server_type":"Dedicated","server_os":"Linux","password":true,"vac":true,"version":"7882260","steam_id":85568392924866363,"keywords":["cp","nocrits","nodmgspread","uncletopia"],"game_id":440,"stv_port":27026,"stv_name":"Uncletopia | Chicago | 6 | All Maps | STV","players":null},{"server_id":38,"name":"Uncletopia | Chicago | 7 | Stopwatch Beta","name_short":"chi-7","host":"chi-2.us.uncletopia.com","port":27035,"enabled":true,"region":"us-central","cc":"us","latitude":41.881832,"longitude":-87.62318,"reserved":0,"last_update":"0001-01-01T00:00:00Z","name_a2s":"Uncletopia | Chicago | 7 | Stopwatch Beta","protocol":17,"map":"pl_borneo","folder":"tf","game":"Team Fortress","app_id":440,"player_count":0,"max_players":24,"Bots":0,"server_type":"Dedicated","server_os":"Linux","password":true,"vac":true,"version":"7882260","steam_id":85568392924866364,"keywords":["nocrits","nodmgspread","payload","uncletopia"],"game_id":440,"stv_port":27036,"stv_name":"Uncletopia | Chicago | 7 | Stopwatch Beta | STV","players":null},{"server_id":39,"name":"Uncletopia | Chicago | 8 | Community","name_short":"chi-8","host":"chi-2.us.uncletopia.com","port":27045,"enabled":true,"region":"us-central","cc":"us","latitude":41.881832,"longitude":-87.62318,"reserved":0,"last_update":"0001-01-01T00:00:00Z","name_a2s":"Uncletopia | Chicago | 8 | Community","protocol":17,"map":"workshop/pl_eruption_b9a.ugc2807898013","folder":"tf","game":"Team Fortress","app_id":440,"player_count":0,"max_players":24,"Bots":0,"server_type":"Dedicated","server_os":"Linux","password":true,"vac":true,"version":"7882260","steam_id":85568392924866365,"keywords":["nocrits","nodmgspread","payload","uncletopia"],"game_id":440,"stv_port":27046,"stv_name":"Uncletopia | Chicago | 8 | Community | STV","players":null},{"server_id":8,"name":"Uncletopia | Dallas | 1 | All Maps","name_short":"dal-1","host":"dal-1.us.uncletopia.com","port":27015,"enabled":true,"region":"us-central","cc":"us","latitude":32.779167,"longitude":-96.80889,"reserved":0,"last_update":"0001-01-01T00:00:00Z","name_a2s":"Uncletopia | Dallas | 1 | All Maps","protocol":17,"map":"pl_barnblitz","folder":"tf","game":"Team Fortress","app_id":440,"player_count":24,"max_players":24,"Bots":0,"server_type":"Dedicated","server_os":"Linux","password":true,"vac":true,"version":"7882260","steam_id":85568392924469986,"keywords":["nocrits","nodmgspread","payload","uncletopia"],"game_id":440,"stv_port":27016,"stv_name":"Uncletopia | Dallas | 1 | All Maps | STV","players":[{"user_id":134,"name":"Minmit__","steam_id":76561198218417512,"connected_time":2047000000000,"state":"active","ping":71},{"user_id":111,"name":"deb","steam_id":76561198414336279,"connected_time":4625000000000,"state":"active","ping":57},{"user_id":152,"name":"t(._. t)","steam_id":76561198241034752,"connected_time":512000000000,"state":"active","ping":133},{"user_id":149,"name":"TurkeyJuice","steam_id":76561198193109422,"connected_time":723000000000,"state":"active","ping":61},{"user_id":119,"name":"Lunatic Kaguya H.","steam_id":76561198345276434,"connected_time":3693000000000,"state":"active","ping":61},{"user_id":148,"name":"Bomb Squirtle™","steam_id":76561197998931145,"connected_time":728000000000,"state":"active","ping":112},{"user_id":135,"name":"Ok then","steam_id":76561198891914787,"connected_time":1821000000000,"state":"active","ping":94},{"user_id":154,"name":"he/him whimper","steam_id":76561198097175164,"connected_time":61000000000,"state":"active","ping":116},{"user_id":150,"name":"Morpho76","steam_id":76561199013371837,"connected_time":622000000000,"state":"active","ping":183},{"user_id":113,"name":"Immortal_Squid","steam_id":76561198248255490,"connected_time":4566000000000,"state":"active","ping":182},{"user_id":136,"name":"sigma male grindset","steam_id":76561198086090527,"connected_time":1795000000000,"state":"active","ping":76},{"user_id":104,"name":"bobbymcbobington","steam_id":76561199089411172,"connected_time":4965000000000,"state":"active","ping":120},{"user_id":140,"name":"heritage","steam_id":76561198108685037,"connected_time":1684000000000,"state":"active","ping":66},{"user_id":100,"name":"floofy","steam_id":76561198389769098,"connected_time":5419000000000,"state":"active","ping":82},{"user_id":131,"name":"Furrtren","steam_id":76561198375864986,"connected_time":2499000000000,"state":"active","ping":82},{"user_id":137,"name":"Chad the Sex Haver","steam_id":76561198058236528,"connected_time":1768000000000,"state":"active","ping":69},{"user_id":94,"name":"Vytian","steam_id":76561198068799033,"connected_time":5703000000000,"state":"active","ping":60},{"user_id":153,"name":"--_Cook_--","steam_id":76561198080855748,"connected_time":395000000000,"state":"active","ping":54},{"user_id":115,"name":"Pissman","steam_id":76561198141233875,"connected_time":4189000000000,"state":"active","ping":59},{"user_id":146,"name":"leumas","steam_id":76561198240408540,"connected_time":1365000000000,"state":"active","ping":76},{"user_id":144,"name":"FemFem","steam_id":76561198100162199,"connected_time":1517000000000,"state":"active","ping":61},{"user_id":141,"name":"dopadream","steam_id":76561198068383694,"connected_time":1673000000000,"state":"active","ping":51},{"user_id":132,"name":"Prof. Eggnog","steam_id":76561198193389166,"connected_time":2361000000000,"state":"active","ping":88},{"user_id":142,"name":"ihave80hp","steam_id":76561199251621911,"connected_time":1673000000000,"state":"active","ping":81}]},{"server_id":108,"name":"Uncletopia | Dallas | 2 | All Maps","name_short":"dal-2","host":"dal-1.us.uncletopia.com","port":27025,"enabled":true,"region":"us-central","cc":"us","latitude":32.779167,"longitude":-96.80889,"reserved":0,"last_update":"0001-01-01T00:00:00Z","name_a2s":"Uncletopia | Dallas | 2 | All Maps","protocol":17,"map":"cp_mountainlab","folder":"tf","game":"Team Fortress","app_id":440,"player_count":23,"max_players":24,"Bots":0,"server_type":"Dedicated","server_os":"Linux","password":true,"vac":true,"version":"7882260","steam_id":85568392924469988,"keywords":["cp","nocrits","nodmgspread","uncletopia"],"game_id":440,"stv_port":27026,"stv_name":"Uncletopia | Dallas | 2 | All Maps | STV","players":[{"user_id":169,"name":"♥ Femboy Medic ♥","steam_id":76561199013129784,"connected_time":2342000000000,"state":"active","ping":52},{"user_id":170,"name":"♡a femboy♡","steam_id":76561199212971864,"connected_time":2168000000000,"state":"active","ping":87},{"user_id":189,"name":"Detective Donut","steam_id":76561198065003087,"connected_time":392000000000,"state":"active","ping":90},{"user_id":194,"name":"Jim Eagle","steam_id":76561197964961639,"connected_time":205000000000,"state":"active","ping":87},{"user_id":185,"name":"Mr. Fluffy Penguins","steam_id":76561198172538149,"connected_time":419000000000,"state":"active","ping":100},{"user_id":190,"name":"chief s.","steam_id":76561198011460632,"connected_time":358000000000,"state":"active","ping":83},{"user_id":180,"name":"portzebie","steam_id":76561197990658763,"connected_time":1924000000000,"state":"active","ping":81},{"user_id":162,"name":"abobobini","steam_id":76561198024307311,"connected_time":3577000000000,"state":"active","ping":74},{"user_id":171,"name":"Snivy64","steam_id":76561198423445376,"connected_time":2167000000000,"state":"active","ping":60},{"user_id":123,"name":"DiscoTraveler","steam_id":76561199240168088,"connected_time":7792000000000,"state":"active","ping":75},{"user_id":188,"name":"Pumped up kicks","steam_id":76561199165321544,"connected_time":401000000000,"state":"active","ping":47},{"user_id":197,"name":"THE CUMEST LORD","steam_id":76561198061412592,"connected_time":8000000000,"state":"spawning","ping":74},{"user_id":191,"name":"Specterbomb","steam_id":76561198224550712,"connected_time":299000000000,"state":"active","ping":118},{"user_id":156,"name":"Meow Skulls","steam_id":76561198312670159,"connected_time":4233000000000,"state":"active","ping":96},{"user_id":184,"name":"RAMPAGE","steam_id":76561199183495620,"connected_time":1213000000000,"state":"active","ping":75},{"user_id":195,"name":"Borealis","steam_id":76561198064937621,"connected_time":197000000000,"state":"active","ping":60},{"user_id":186,"name":"Mel","steam_id":76561198327775249,"connected_time":416000000000,"state":"active","ping":67},{"user_id":187,"name":"Doomagedden","steam_id":76561198272589475,"connected_time":415000000000,"state":"active","ping":96},{"user_id":130,"name":"Oopsie Daisy ❋","steam_id":76561198042144492,"connected_time":6893000000000,"state":"active","ping":73},{"user_id":159,"name":"Jattiti","steam_id":76561199214217870,"connected_time":4051000000000,"state":"active","ping":76},{"user_id":178,"name":"Fightin Cow","steam_id":76561198080941486,"connected_time":2053000000000,"state":"active","ping":54},{"user_id":196,"name":"Yunky","steam_id":76561197966495749,"connected_time":56000000000,"state":"active","ping":69},{"user_id":181,"name":"Gaiduk","steam_id":76561198112323877,"connected_time":1552000000000,"state":"active","ping":98}]},{"server_id":5,"name":"Uncletopia | Frankfurt | 1 | All Maps","name_short":"frk-1","host":"frk-1.de.uncletopia.com","port":27015,"enabled":true,"region":"eu","cc":"de","latitude":50.110924,"longitude":8.682127,"reserved":0,"last_update":"0001-01-01T00:00:00Z","name_a2s":"Uncletopia | Frankfurt | 1 | All Maps","protocol":17,"map":"koth_viaduct","folder":"tf","game":"Team Fortress","app_id":440,"player_count":9,"max_players":24,"Bots":0,"server_type":"Dedicated","server_os":"Linux","password":true,"vac":true,"version":"7882260","steam_id":85568392924469989,"keywords":["cp","nocrits","nodmgspread","uncletopia"],"game_id":440,"stv_port":27016,"stv_name":"Uncletopia | Frankfurt | 1 | All Maps | STV","players":[{"user_id":23,"name":"FanFish","steam_id":76561199389558024,"connected_time":1891000000000,"state":"active","ping":70},{"user_id":28,"name":"Hungeryan","steam_id":76561198887299930,"connected_time":453000000000,"state":"active","ping":80},{"user_id":29,"name":"barack obama tf2","steam_id":76561199375975842,"connected_time":365000000000,"state":"active","ping":66},{"user_id":26,"name":"Cubes","steam_id":76561198381676760,"connected_time":1429000000000,"state":"active","ping":62},{"user_id":30,"name":"bad at tf2 episode 2","steam_id":76561198002451113,"connected_time":258000000000,"state":"active","ping":90},{"user_id":35,"name":"EGirl | Klarra","steam_id":76561198077745407,"connected_time":40000000000,"state":"active","ping":57},{"user_id":32,"name":"Rob Rotten","steam_id":76561198170543542,"connected_time":155000000000,"state":"active","ping":138},{"user_id":33,"name":"TF2 players comunicate only wit","steam_id":76561198970762992,"connected_time":112000000000,"state":"active","ping":94},{"user_id":34,"name":"Xx_EpicGaymer_xX","steam_id":76561198846784757,"connected_time":95000000000,"state":"active","ping":87}]},{"server_id":110,"name":"Uncletopia | Frankfurt | 2 | All Maps","name_short":"frk-2","host":"frk-1.de.uncletopia.com","port":27025,"enabled":true,"region":"eu","cc":"de","latitude":50.110924,"longitude":8.682127,"reserved":0,"last_update":"0001-01-01T00:00:00Z","name_a2s":"Uncletopia | Frankfurt | 2 | All Maps","protocol":17,"map":"pl_upward","folder":"tf","game":"Team Fortress","app_id":440,"player_count":24,"max_players":24,"Bots":0,"server_type":"Dedicated","server_os":"Linux","password":true,"vac":true,"version":"7882260","steam_id":85568392924469990,"keywords":["nocrits","nodmgspread","payload","uncletopia"],"game_id":440,"stv_port":27026,"stv_name":"Uncletopia | Frankfurt | 2 | All Maps | STV","players":[{"user_id":87,"name":"Oxitocin","steam_id":76561198119542899,"connected_time":1721000000000,"state":"active","ping":76},{"user_id":92,"name":"TonTon","steam_id":76561198145468895,"connected_time":1055000000000,"state":"active","ping":48},{"user_id":96,"name":"Ratatatatatatouille","steam_id":76561198182267098,"connected_time":1027000000000,"state":"active","ping":86},{"user_id":97,"name":"DrExplosive 30fps gaming","steam_id":76561198063678579,"connected_time":890000000000,"state":"active","ping":63},{"user_id":118,"name":"MM Murda OFFICIAL","steam_id":76561198076871529,"connected_time":94000000000,"state":"active","ping":49},{"user_id":59,"name":"tek-9","steam_id":76561198107220903,"connected_time":3937000000000,"state":"active","ping":56},{"user_id":55,"name":"Kretur","steam_id":76561198161086266,"connected_time":4400000000000,"state":"active","ping":84},{"user_id":95,"name":"誰かが見ている","steam_id":76561198834913692,"connected_time":1047000000000,"state":"active","ping":66},{"user_id":79,"name":"Igames","steam_id":76561198414062544,"connected_time":2815000000000,"state":"active","ping":65},{"user_id":31,"name":"...","steam_id":76561198969234594,"connected_time":5335000000000,"state":"active","ping":66},{"user_id":109,"name":"Bumblebee","steam_id":76561198033551105,"connected_time":430000000000,"state":"active","ping":59},{"user_id":110,"name":"[P-roc] Cmm Bert","steam_id":76561198016658674,"connected_time":385000000000,"state":"active","ping":73},{"user_id":83,"name":"Wardruna96","steam_id":76561199057083828,"connected_time":2606000000000,"state":"active","ping":80},{"user_id":115,"name":"XPullaHiiri","steam_id":76561198031652375,"connected_time":224000000000,"state":"active","ping":104},{"user_id":101,"name":"david","steam_id":76561198843793834,"connected_time":785000000000,"state":"active","ping":77},{"user_id":91,"name":"Soerlssoelssöen","steam_id":76561197993060585,"connected_time":1170000000000,"state":"active","ping":71},{"user_id":88,"name":"dont dont it","steam_id":76561198346638308,"connected_time":1720000000000,"state":"active","ping":65},{"user_id":85,"name":"HwK!","steam_id":76561198287835588,"connected_time":2214000000000,"state":"active","ping":90},{"user_id":102,"name":"RyeRhino","steam_id":76561197984235062,"connected_time":751000000000,"state":"active","ping":134},{"user_id":103,"name":"band-aid copyright infringement","steam_id":76561199027095451,"connected_time":745000000000,"state":"active","ping":79},{"user_id":74,"name":"Mammut","steam_id":76561198056773933,"connected_time":3010000000000,"state":"active","ping":45},{"user_id":108,"name":"flr","steam_id":76561198249327786,"connected_time":596000000000,"state":"active","ping":60},{"user_id":106,"name":"Mr.J","steam_id":76561199127439080,"connected_time":665000000000,"state":"active","ping":75},{"user_id":116,"name":"Koli","steam_id":76561197992428783,"connected_time":224000000000,"state":"active","ping":49}]},{"server_id":308,"name":"Uncletopia | Frankfurt | 3 | All Maps","name_short":"frk-3","host":"frk-1.de.uncletopia.com","port":27035,"enabled":true,"region":"eu","cc":"de","latitude":50.110924,"longitude":8.682127,"reserved":0,"last_update":"0001-01-01T00:00:00Z","name_a2s":"Uncletopia | Frankfurt | 3 | All Maps","protocol":17,"map":"koth_highpass","folder":"tf","game":"Team Fortress","app_id":440,"player_count":0,"max_players":24,"Bots":0,"server_type":"Dedicated","server_os":"Linux","password":true,"vac":true,"version":"7882260","steam_id":85568392924504274,"keywords":["cp","nocrits","nodmgspread","uncletopia"],"game_id":440,"stv_port":27036,"stv_name":"Uncletopia | Frankfurt | 3 | All Maps | STV","players":null},{"server_id":309,"name":"Uncletopia | Frankfurt | 4 | All Maps","name_short":"frk-4","host":"frk-1.de.uncletopia.com","port":27045,"enabled":true,"region":"eu","cc":"de","latitude":50.110924,"longitude":8.682127,"reserved":0,"last_update":"0001-01-01T00:00:00Z","name_a2s":"Uncletopia | Frankfurt | 4 | All Maps","protocol":17,"map":"pl_upward","folder":"tf","game":"Team Fortress","app_id":440,"player_count":24,"max_players":24,"Bots":0,"server_type":"Dedicated","server_os":"Linux","password":true,"vac":true,"version":"7882260","steam_id":85568392924504275,"keywords":["nocrits","nodmgspread","payload","uncletopia"],"game_id":440,"stv_port":27046,"stv_name":"Uncletopia | Frankfurt | 4 | All Maps | STV","players":[{"user_id":304,"name":"LasagneMan","steam_id":76561198971904377,"connected_time":3758000000000,"state":"active","ping":64},{"user_id":311,"name":"Samplee","steam_id":76561198063406140,"connected_time":3104000000000,"state":"active","ping":76},{"user_id":279,"name":"Hussain_144","steam_id":76561198346029208,"connected_time":5847000000000,"state":"active","ping":180},{"user_id":358,"name":"LivEssense","steam_id":76561198052476979,"connected_time":676000000000,"state":"active","ping":75},{"user_id":254,"name":"The Mysterious Shadow Man","steam_id":76561198349648942,"connected_time":8005000000000,"state":"active","ping":90},{"user_id":346,"name":"Dark Wizart","steam_id":76561198377689439,"connected_time":1266000000000,"state":"active","ping":74},{"user_id":359,"name":"thussu","steam_id":76561198890409949,"connected_time":629000000000,"state":"active","ping":87},{"user_id":286,"name":"ana","steam_id":76561197994492154,"connected_time":5411000000000,"state":"active","ping":74},{"user_id":355,"name":"Adib al-asfar","steam_id":76561198095691592,"connected_time":1079000000000,"state":"active","ping":58},{"user_id":280,"name":"LordTrap.exe","steam_id":76561198318089716,"connected_time":5842000000000,"state":"active","ping":52},{"user_id":350,"name":"AproX","steam_id":76561198880652045,"connected_time":1258000000000,"state":"active","ping":73},{"user_id":360,"name":"OrwellianDungeon","steam_id":76561198402220078,"connected_time":596000000000,"state":"active","ping":74},{"user_id":319,"name":"YuraGreek","steam_id":76561198050182252,"connected_time":1958000000000,"state":"active","ping":74},{"user_id":361,"name":"Difficult_Bit2901","steam_id":76561199004250744,"connected_time":591000000000,"state":"active","ping":74},{"user_id":308,"name":"Captain Scrumpe","steam_id":76561198032206577,"connected_time":3150000000000,"state":"active","ping":80},{"user_id":339,"name":"Ixion","steam_id":76561198041660675,"connected_time":1423000000000,"state":"active","ping":74},{"user_id":352,"name":"dog","steam_id":76561198063919822,"connected_time":1218000000000,"state":"active","ping":46},{"user_id":364,"name":"Orbit","steam_id":76561198242999878,"connected_time":99000000000,"state":"active","ping":73},{"user_id":354,"name":"EagleDeath","steam_id":76561198282441198,"connected_time":1171000000000,"state":"active","ping":68},{"user_id":330,"name":"Osman0","steam_id":76561198851527212,"connected_time":1691000000000,"state":"active","ping":61},{"user_id":317,"name":"Rambi","steam_id":76561199058078505,"connected_time":2336000000000,"state":"active","ping":151},{"user_id":357,"name":"Valdis","steam_id":76561198057340489,"connected_time":753000000000,"state":"active","ping":59},{"user_id":343,"name":"Lord of the Cows","steam_id":76561198203140640,"connected_time":1385000000000,"state":"active","ping":67},{"user_id":329,"name":"Archsam","steam_id":76561198137828616,"connected_time":1822000000000,"state":"active","ping":59}]},{"server_id":310,"name":"Uncletopia | Frankfurt | 5 | All Maps","name_short":"frk-5","host":"frk-1.de.uncletopia.com","port":27055,"enabled":true,"region":"eu","cc":"de","latitude":50.110924,"longitude":8.682127,"reserved":0,"last_update":"0001-01-01T00:00:00Z","name_a2s":"Uncletopia | Frankfurt | 5 | All Maps","protocol":17,"map":"cp_mountainlab","folder":"tf","game":"Team Fortress","app_id":440,"player_count":0,"max_players":24,"Bots":0,"server_type":"Dedicated","server_os":"Linux","password":true,"vac":true,"version":"7882260","steam_id":85568392924504277,"keywords":["cp","nocrits","nodmgspread","uncletopia"],"game_id":440,"stv_port":27056,"stv_name":"Uncletopia | Frankfurt | 5 | All Maps | STV","players":null},{"server_id":311,"name":"Uncletopia | Frankfurt | 6 | All Maps","name_short":"frk-6","host":"frk-1.de.uncletopia.com","port":27065,"enabled":true,"region":"eu","cc":"de","latitude":50.110924,"longitude":8.682127,"reserved":0,"last_update":"0001-01-01T00:00:00Z","name_a2s":"Uncletopia | Frankfurt | 6 | All Maps","protocol":17,"map":"pl_swiftwater_final1","folder":"tf","game":"Team Fortress","app_id":440,"player_count":24,"max_players":24,"Bots":0,"server_type":"Dedicated","server_os":"Linux","password":true,"vac":true,"version":"7882260","steam_id":85568392924504278,"keywords":["nocrits","nodmgspread","payload","uncletopia"],"game_id":440,"stv_port":27066,"stv_name":"Uncletopia | Frankfurt | 6 | All Maps | STV","players":[{"user_id":385,"name":"CalzoneCarl456","steam_id":76561198846982793,"connected_time":1284000000000,"state":"active","ping":61},{"user_id":388,"name":"bibib17","steam_id":76561198143319217,"connected_time":1274000000000,"state":"active","ping":76},{"user_id":338,"name":"dochris.2","steam_id":76561198026478625,"connected_time":5536000000000,"state":"active","ping":45},{"user_id":343,"name":"G.R.E","steam_id":76561197979806514,"connected_time":5300000000000,"state":"active","ping":40},{"user_id":397,"name":"Lopat","steam_id":76561198820264239,"connected_time":728000000000,"state":"active","ping":82},{"user_id":399,"name":"Kahvi","steam_id":76561198723244199,"connected_time":91000000000,"state":"active","ping":89},{"user_id":346,"name":"Solymr ibn Wali Barad","steam_id":76561198044008976,"connected_time":4761000000000,"state":"active","ping":73},{"user_id":345,"name":"call of duty player","steam_id":76561198235814492,"connected_time":4813000000000,"state":"active","ping":80},{"user_id":389,"name":"PashaVerti","steam_id":76561199013963024,"connected_time":1269000000000,"state":"active","ping":77},{"user_id":371,"name":"JeanCorben","steam_id":76561197965133561,"connected_time":2455000000000,"state":"active","ping":47},{"user_id":390,"name":"united chunk","steam_id":76561199017850298,"connected_time":1258000000000,"state":"active","ping":68},{"user_id":365,"name":"gort","steam_id":76561198060339391,"connected_time":3258000000000,"state":"active","ping":44},{"user_id":342,"name":"ZingyBot_","steam_id":76561198284732624,"connected_time":5406000000000,"state":"active","ping":73},{"user_id":348,"name":"righteous bison enjoyer","steam_id":76561198102063164,"connected_time":4744000000000,"state":"active","ping":54},{"user_id":391,"name":"Popop","steam_id":76561198004793795,"connected_time":1234000000000,"state":"active","ping":53},{"user_id":379,"name":"neJ","steam_id":76561198003397488,"connected_time":2086000000000,"state":"active","ping":76},{"user_id":380,"name":"Chambersite","steam_id":76561198197022399,"connected_time":2058000000000,"state":"active","ping":76},{"user_id":373,"name":"Neco-arc Astolfo","steam_id":76561198989682540,"connected_time":2281000000000,"state":"active","ping":45},{"user_id":394,"name":"vdl","steam_id":76561198044583116,"connected_time":1127000000000,"state":"active","ping":91},{"user_id":341,"name":"sareena","steam_id":76561198810194062,"connected_time":5500000000000,"state":"active","ping":75},{"user_id":398,"name":"WHUSSKEY","steam_id":76561198137827441,"connected_time":702000000000,"state":"active","ping":69},{"user_id":395,"name":"Fibl","steam_id":76561198018480851,"connected_time":871000000000,"state":"active","ping":60},{"user_id":352,"name":"Cosmetic brain","steam_id":76561198055936410,"connected_time":4567000000000,"state":"active","ping":81},{"user_id":369,"name":"B@yka","steam_id":76561198986736592,"connected_time":2957000000000,"state":"active","ping":86}]},{"server_id":23,"name":"Uncletopia | Frankfurt | 7 | Stopwatch Beta","name_short":"frk-7","host":"frk-1.de.uncletopia.com","port":27075,"enabled":true,"region":"eu","cc":"de","latitude":50.110924,"longitude":8.682127,"reserved":0,"last_update":"0001-01-01T00:00:00Z","name_a2s":"Uncletopia | Frankfurt | 7 | Stopwatch Beta","protocol":17,"map":"workshop/pl_badwater_pro_v12.ugc2142942074","folder":"tf","game":"Team Fortress","app_id":440,"player_count":0,"max_players":24,"Bots":0,"server_type":"Dedicated","server_os":"Linux","password":true,"vac":true,"version":"7882260","steam_id":85568392924742827,"keywords":["nocrits","nodmgspread","payload","uncletopia"],"game_id":440,"stv_port":27076,"stv_name":"Uncletopia | Frankfurt | 7 | Stopwatch Beta | STV","players":null},{"server_id":24,"name":"Uncletopia | Frankfurt | 8 | Community","name_short":"frk-8","host":"frk-1.de.uncletopia.com","port":27085,"enabled":true,"region":"eu","cc":"de","latitude":50.110924,"longitude":8.682127,"reserved":0,"last_update":"0001-01-01T00:00:00Z","name_a2s":"Uncletopia | Frankfurt | 8 | Community","protocol":17,"map":"workshop/pl_corrode_rc2.ugc546577989","folder":"tf","game":"Team Fortress","app_id":440,"player_count":24,"max_players":24,"Bots":0,"server_type":"Dedicated","server_os":"Linux","password":true,"vac":true,"version":"7882260","steam_id":85568392924742828,"keywords":["nocrits","nodmgspread","payload","uncletopia"],"game_id":440,"stv_port":27086,"stv_name":"Uncletopia | Frankfurt | 8 | Community | STV","players":[{"user_id":195,"name":"Elkabat","steam_id":76561198150017277,"connected_time":1030000000000,"state":"active","ping":60},{"user_id":196,"name":"Luppi van Puppi","steam_id":76561198055986745,"connected_time":1009000000000,"state":"spawning","ping":192},{"user_id":181,"name":"MrDachu","steam_id":76561198865485758,"connected_time":2126000000000,"state":"spawning","ping":196},{"user_id":201,"name":"twitch.tv/red_naxela","steam_id":76561197998803950,"connected_time":420000000000,"state":"active","ping":53},{"user_id":216,"name":"Maximus","steam_id":76561198032472655,"connected_time":14000000000,"state":"active","ping":71},{"user_id":142,"name":"elsuedi","steam_id":76561198074722832,"connected_time":4075000000000,"state":"active","ping":59},{"user_id":210,"name":"Stayprone","steam_id":76561197963491785,"connected_time":180000000000,"state":"active","ping":71},{"user_id":211,"name":"pijacka","steam_id":76561198103899658,"connected_time":153000000000,"state":"active","ping":60},{"user_id":209,"name":"Криминальный уще","steam_id":76561198034136409,"connected_time":194000000000,"state":"active","ping":92},{"user_id":197,"name":"Rodia","steam_id":76561197968293161,"connected_time":803000000000,"state":"active","ping":63},{"user_id":188,"name":"Canis[Magnus]Pectus","steam_id":76561198363775072,"connected_time":1776000000000,"state":"active","ping":133},{"user_id":199,"name":"Fat Pigeon","steam_id":76561198817940142,"connected_time":469000000000,"state":"active","ping":58},{"user_id":213,"name":"Mr.TEA","steam_id":76561198014381591,"connected_time":46000000000,"state":"active","ping":99},{"user_id":173,"name":"KARCT","steam_id":76561198382841576,"connected_time":2453000000000,"state":"active","ping":87},{"user_id":139,"name":"LarsInABox","steam_id":76561198028329262,"connected_time":4416000000000,"state":"active","ping":79},{"user_id":214,"name":"čonky","steam_id":76561198012946164,"connected_time":43000000000,"state":"active","ping":50},{"user_id":177,"name":"BORGETENNISCLUB","steam_id":76561198049343723,"connected_time":2281000000000,"state":"active","ping":63},{"user_id":203,"name":"Toaster1337","steam_id":76561198103706881,"connected_time":371000000000,"state":"active","ping":59},{"user_id":204,"name":"christoph","steam_id":76561198862617811,"connected_time":365000000000,"state":"active","ping":67},{"user_id":205,"name":"Scipionemiliano","steam_id":76561198027646559,"connected_time":362000000000,"state":"active","ping":124},{"user_id":215,"name":"Ander Escobar","steam_id":76561198335366902,"connected_time":42000000000,"state":"active","ping":100},{"user_id":206,"name":"X-tis","steam_id":76561198043837480,"connected_time":359000000000,"state":"active","ping":74},{"user_id":180,"name":"\\- L || O || G -/","steam_id":76561198372396295,"connected_time":2188000000000,"state":"active","ping":76},{"user_id":135,"name":"wibe","steam_id":76561198002519060,"connected_time":5133000000000,"state":"active","ping":72}]},{"server_id":202,"name":"Uncletopia | Hong Kong | 1 | All Maps","name_short":"hgk-1","host":"hgk-1.hk.uncletopia.com","port":27015,"enabled":true,"region":"asia","cc":"hk","latitude":22.302711,"longitude":114.177216,"reserved":0,"last_update":"0001-01-01T00:00:00Z","name_a2s":"Uncletopia | Hong Kong | 1 | All Maps","protocol":17,"map":"pl_pier","folder":"tf","game":"Team Fortress","app_id":440,"player_count":0,"max_players":24,"Bots":0,"server_type":"Dedicated","server_os":"Linux","password":true,"vac":true,"version":"7882260","steam_id":85568392924494504,"keywords":["nocrits","nodmgspread","payload","uncletopia"],"game_id":440,"stv_port":27016,"stv_name":"Uncletopia | Hong Kong | 1 | All Maps | STV","players":null},{"server_id":1,"name":"Uncletopia | Los Angeles | 1 | All Maps","name_short":"lax-1","host":"lax-1.us.uncletopia.com","port":27015,"enabled":true,"region":"us-west","cc":"us","latitude":33.94279,"longitude":-118.41004,"reserved":0,"last_update":"0001-01-01T00:00:00Z","name_a2s":"Uncletopia | Los Angeles | 1 | All Maps","protocol":17,"map":"pl_badwater","folder":"tf","game":"Team Fortress","app_id":440,"player_count":24,"max_players":24,"Bots":0,"server_type":"Dedicated","server_os":"Linux","password":true,"vac":true,"version":"7882260","steam_id":85568392924469991,"keywords":["nocrits","nodmgspread","payload","uncletopia"],"game_id":440,"stv_port":27016,"stv_name":"Uncletopia | Los Angeles | 1 | All Maps | STV","players":[{"user_id":149,"name":"monkey squirts","steam_id":76561197983101644,"connected_time":2762000000000,"state":"active","ping":45},{"user_id":173,"name":"Skoad","steam_id":76561198104650528,"connected_time":1204000000000,"state":"active","ping":120},{"user_id":156,"name":"Pol","steam_id":76561198232094892,"connected_time":2531000000000,"state":"active","ping":84},{"user_id":174,"name":"Integral","steam_id":76561198158225481,"connected_time":1073000000000,"state":"active","ping":86},{"user_id":159,"name":"Doctor Sex","steam_id":76561198136205032,"connected_time":2406000000000,"state":"active","ping":67},{"user_id":92,"name":"BoredBunny","steam_id":76561198243610560,"connected_time":7286000000000,"state":"active","ping":110},{"user_id":168,"name":"echelon","steam_id":76561198139172979,"connected_time":1294000000000,"state":"active","ping":52},{"user_id":10,"name":"AirMan121","steam_id":76561198042951349,"connected_time":12778000000000,"state":"active","ping":62},{"user_id":170,"name":"hug monster","steam_id":76561198079437901,"connected_time":1283000000000,"state":"active","ping":75},{"user_id":165,"name":"p i n e ↟ ↟","steam_id":76561198058199952,"connected_time":1506000000000,"state":"active","ping":81},{"user_id":153,"name":"lebsiban","steam_id":76561198332079323,"connected_time":2609000000000,"state":"active","ping":111},{"user_id":112,"name":"Hottodoggu","steam_id":76561198084080712,"connected_time":6040000000000,"state":"active","ping":88},{"user_id":160,"name":"Beer","steam_id":76561199371817235,"connected_time":1975000000000,"state":"active","ping":120},{"user_id":171,"name":"Koø","steam_id":76561198347479416,"connected_time":1283000000000,"state":"active","ping":143},{"user_id":157,"name":"Plus you a Bitch","steam_id":76561198068654532,"connected_time":2516000000000,"state":"active","ping":120},{"user_id":132,"name":"Mando","steam_id":76561198139662905,"connected_time":4370000000000,"state":"active","ping":92},{"user_id":117,"name":"4logan","steam_id":76561198835163155,"connected_time":5737000000000,"state":"active","ping":69},{"user_id":167,"name":"Drapph","steam_id":76561199384213314,"connected_time":1344000000000,"state":"active","ping":120},{"user_id":65,"name":"SeaBass","steam_id":76561197982949108,"connected_time":9824000000000,"state":"active","ping":102},{"user_id":147,"name":"Sea raider","steam_id":76561198123982355,"connected_time":2965000000000,"state":"active","ping":69},{"user_id":138,"name":"Dirt Road","steam_id":76561198210372012,"connected_time":4023000000000,"state":"active","ping":128},{"user_id":175,"name":"Bluedemon","steam_id":76561199212058684,"connected_time":977000000000,"state":"active","ping":49},{"user_id":166,"name":"ＲＥＤ","steam_id":76561198030282308,"connected_time":1413000000000,"state":"active","ping":72},{"user_id":172,"name":"The Announcer's Feet","steam_id":76561199443456893,"connected_time":1281000000000,"state":"active","ping":82}]},{"server_id":112,"name":"Uncletopia | Los Angeles | 2 | All Maps","name_short":"lax-2","host":"lax-1.us.uncletopia.com","port":27025,"enabled":true,"region":"us-west","cc":"us","latitude":33.94279,"longitude":-118.41004,"reserved":0,"last_update":"0001-01-01T00:00:00Z","name_a2s":"Uncletopia | Los Angeles | 2 | All Maps","protocol":17,"map":"koth_lakeside_final","folder":"tf","game":"Team Fortress","app_id":440,"player_count":0,"max_players":24,"Bots":0,"server_type":"Dedicated","server_os":"Linux","password":true,"vac":true,"version":"7882260","steam_id":85568392924469992,"keywords":["cp","nocrits","nodmgspread","uncletopia"],"game_id":440,"stv_port":27026,"stv_name":"Uncletopia | Los Angeles | 2 | All Maps | STV","players":null},{"server_id":324,"name":"Uncletopia | Los Angeles | 3 | All Maps","name_short":"lax-3","host":"lax-1.us.uncletopia.com","port":27035,"enabled":true,"region":"us-west","cc":"us","latitude":33.94279,"longitude":-118.41004,"reserved":0,"last_update":"0001-01-01T00:00:00Z","name_a2s":"Uncletopia | Los Angeles | 3 | All Maps","protocol":17,"map":"cp_sunshine","folder":"tf","game":"Team Fortress","app_id":440,"player_count":0,"max_players":24,"Bots":0,"server_type":"Dedicated","server_os":"Linux","password":true,"vac":true,"version":"7882260","steam_id":85568392924510198,"keywords":["cp","nocrits","nodmgspread","uncletopia"],"game_id":440,"stv_port":27036,"stv_name":"Uncletopia | Los Angeles | 3 | All Maps | STV","players":null},{"server_id":25,"name":"Uncletopia | Los Angeles | 4 | Stopwatch Beta","name_short":"lax-4","host":"lax-1.us.uncletopia.com","port":27045,"enabled":true,"region":"us-west","cc":"us","latitude":33.94279,"longitude":-118.41004,"reserved":0,"last_update":"0001-01-01T00:00:00Z","name_a2s":"Uncletopia | Los Angeles | 4 | Stopwatch Beta","protocol":17,"map":"cp_snakewater_final1","folder":"tf","game":"Team Fortress","app_id":440,"player_count":0,"max_players":24,"Bots":0,"server_type":"Dedicated","server_os":"Linux","password":true,"vac":true,"version":"7882260","steam_id":85568392924510199,"keywords":["cp","nocrits","nodmgspread","uncletopia"],"game_id":440,"stv_port":27046,"stv_name":"Uncletopia | Los Angeles | 4 | Stopwatch Beta | STV","players":null},{"server_id":11,"name":"Uncletopia | London | 1 | All Maps","name_short":"lon-1","host":"lon-1.uk.uncletopia.com","port":27015,"enabled":true,"region":"eu","cc":"gb","latitude":51.509865,"longitude":-0.118092,"reserved":0,"last_update":"0001-01-01T00:00:00Z","name_a2s":"Uncletopia | London | 1 | All Maps","protocol":17,"map":"pl_upward","folder":"tf","game":"Team Fortress","app_id":440,"player_count":24,"max_players":24,"Bots":0,"server_type":"Dedicated","server_os":"Linux","password":true,"vac":true,"version":"7882260","steam_id":85568392924367362,"keywords":["nocrits","nodmgspread","payload","uncletopia"],"game_id":440,"stv_port":27016,"stv_name":"Uncletopia | London | 1 | All Maps | STV","players":[{"user_id":304,"name":"MagnosMan","steam_id":76561197983095579,"connected_time":2532000000000,"state":"active","ping":83},{"user_id":292,"name":"keri","steam_id":76561199066513442,"connected_time":3754000000000,"state":"active","ping":69},{"user_id":306,"name":"BreadBubbles","steam_id":76561198174332826,"connected_time":2325000000000,"state":"active","ping":55},{"user_id":296,"name":"Son Goku","steam_id":76561199383437138,"connected_time":3497000000000,"state":"active","ping":115},{"user_id":297,"name":"gimmick","steam_id":76561198930670117,"connected_time":3225000000000,"state":"active","ping":43},{"user_id":232,"name":"Sandshee","steam_id":76561198088574666,"connected_time":8444000000000,"state":"active","ping":44},{"user_id":295,"name":"Nomad994","steam_id":76561198051908201,"connected_time":3642000000000,"state":"active","ping":86},{"user_id":309,"name":"Kolanciasty ♥","steam_id":76561198020042179,"connected_time":2242000000000,"state":"active","ping":91},{"user_id":252,"name":"Borat","steam_id":76561198122226417,"connected_time":6124000000000,"state":"active","ping":37},{"user_id":305,"name":"SuperBob103","steam_id":76561199175360012,"connected_time":2420000000000,"state":"active","ping":60},{"user_id":308,"name":"transgender e-girl","steam_id":76561198168589809,"connected_time":2302000000000,"state":"active","ping":71},{"user_id":320,"name":"ayadam","steam_id":76561198161515769,"connected_time":1426000000000,"state":"active","ping":126},{"user_id":329,"name":"Fish","steam_id":76561198152128484,"connected_time":572000000000,"state":"active","ping":50},{"user_id":318,"name":"Cryspoeth47","steam_id":76561198892776023,"connected_time":1450000000000,"state":"active","ping":121},{"user_id":268,"name":"Steen","steam_id":76561198122992510,"connected_time":5123000000000,"state":"active","ping":45},{"user_id":321,"name":"lettuce out of stock","steam_id":76561199401283123,"connected_time":1282000000000,"state":"active","ping":49},{"user_id":330,"name":"BilalRB","steam_id":76561198352262967,"connected_time":532000000000,"state":"active","ping":164},{"user_id":307,"name":"Я НОРМАЛЬНЫЙ","steam_id":76561198354708713,"connected_time":2323000000000,"state":"active","ping":90},{"user_id":311,"name":"Banana Hoovy 2 9 0","steam_id":76561199167881489,"connected_time":2067000000000,"state":"active","ping":101},{"user_id":327,"name":"piss™","steam_id":76561198108098760,"connected_time":833000000000,"state":"active","ping":45},{"user_id":328,"name":"Professional facestab","steam_id":76561198258721056,"connected_time":811000000000,"state":"active","ping":50},{"user_id":314,"name":"Real photograph of me","steam_id":76561198236015392,"connected_time":1757000000000,"state":"active","ping":118},{"user_id":332,"name":"Jara.","steam_id":76561197992207165,"connected_time":146000000000,"state":"active","ping":102},{"user_id":331,"name":"Haha?","steam_id":76561198056882245,"connected_time":380000000000,"state":"active","ping":41}]},{"server_id":114,"name":"Uncletopia | London | 2 | All Maps","name_short":"lon-2","host":"lon-1.uk.uncletopia.com","port":27025,"enabled":true,"region":"eu","cc":"gb","latitude":51.509865,"longitude":-0.118092,"reserved":0,"last_update":"0001-01-01T00:00:00Z","name_a2s":"Uncletopia | London | 2 | All Maps","protocol":17,"map":"pl_borneo","folder":"tf","game":"Team Fortress","app_id":440,"player_count":24,"max_players":24,"Bots":0,"server_type":"Dedicated","server_os":"Linux","password":true,"vac":true,"version":"7882260","steam_id":85568392924470941,"keywords":["nocrits","nodmgspread","payload","uncletopia"],"game_id":440,"stv_port":27026,"stv_name":"Uncletopia | London | 2 | All Maps | STV","players":[{"user_id":61,"name":"K.V. #RemoveRandomCrits","steam_id":76561197994832993,"connected_time":788000000000,"state":"active","ping":81},{"user_id":63,"name":"Least sadistic healer main","steam_id":76561198114164702,"connected_time":708000000000,"state":"active","ping":78},{"user_id":44,"name":"I jazzed myself","steam_id":76561198203016603,"connected_time":1261000000000,"state":"active","ping":56},{"user_id":19,"name":"Sharkeh","steam_id":76561199005336372,"connected_time":2751000000000,"state":"active","ping":54},{"user_id":72,"name":"I Don't Know","steam_id":76561198841011430,"connected_time":414000000000,"state":"active","ping":80},{"user_id":23,"name":"Road to 0 pts","steam_id":76561198399390201,"connected_time":2148000000000,"state":"active","ping":99},{"user_id":69,"name":"JOHN GAMING (#1 gunspy)","steam_id":76561199085822219,"connected_time":452000000000,"state":"active","ping":78},{"user_id":30,"name":"hoovy gaming","steam_id":76561199230153761,"connected_time":1539000000000,"state":"active","ping":66},{"user_id":75,"name":"komarovo dvrst phonk remix","steam_id":76561198037810091,"connected_time":34000000000,"state":"active","ping":106},{"user_id":28,"name":"JeromeGamer293","steam_id":76561199210404349,"connected_time":1605000000000,"state":"active","ping":63},{"user_id":68,"name":"Thors","steam_id":76561197968739075,"connected_time":464000000000,"state":"active","ping":44},{"user_id":38,"name":"P9Nexus","steam_id":76561198073416257,"connected_time":1382000000000,"state":"active","ping":59},{"user_id":34,"name":"Roachy","steam_id":76561198004508448,"connected_time":1451000000000,"state":"active","ping":34},{"user_id":70,"name":"GGabe","steam_id":76561198117199068,"connected_time":425000000000,"state":"active","ping":75},{"user_id":37,"name":"goofster","steam_id":76561199052275857,"connected_time":1433000000000,"state":"active","ping":108},{"user_id":39,"name":"🗻🎴Hadrian Malone🎴🗻","steam_id":76561198036151103,"connected_time":1381000000000,"state":"active","ping":55},{"user_id":76,"name":"murf","steam_id":76561199184831395,"connected_time":29000000000,"state":"active","ping":41},{"user_id":41,"name":"Favi","steam_id":76561198013236935,"connected_time":1358000000000,"state":"active","ping":74},{"user_id":71,"name":"mellow","steam_id":76561198120166752,"connected_time":420000000000,"state":"active","ping":87},{"user_id":43,"name":"marc","steam_id":76561198018694332,"connected_time":1343000000000,"state":"active","ping":75},{"user_id":48,"name":"vadr","steam_id":76561198334528186,"connected_time":1205000000000,"state":"active","ping":43},{"user_id":73,"name":"maggot !","steam_id":76561199075532033,"connected_time":411000000000,"state":"active","ping":87},{"user_id":66,"name":"Velikyi","steam_id":76561198161164233,"connected_time":607000000000,"state":"active","ping":89},{"user_id":67,"name":"brtaba","steam_id":76561198796334790,"connected_time":573000000000,"state":"active","ping":70}]},{"server_id":320,"name":"Uncletopia | London | 3 | All Maps","name_short":"lon-3","host":"lon-1.uk.uncletopia.com","port":27035,"enabled":true,"region":"eu","cc":"gb","latitude":51.509865,"longitude":-0.118092,"reserved":0,"last_update":"0001-01-01T00:00:00Z","name_a2s":"Uncletopia | London | 3 | All Maps","protocol":17,"map":"pl_upward","folder":"tf","game":"Team Fortress","app_id":440,"player_count":24,"max_players":24,"Bots":0,"server_type":"Dedicated","server_os":"Linux","password":true,"vac":true,"version":"7882260","steam_id":85568392924510192,"keywords":["nocrits","nodmgspread","payload","uncletopia"],"game_id":440,"stv_port":27036,"stv_name":"Uncletopia | London | 3 | All Maps | STV","players":[{"user_id":78,"name":"Saint","steam_id":76561198003296382,"connected_time":827000000000,"state":"active","ping":72},{"user_id":65,"name":"beastmode","steam_id":76561198061299512,"connected_time":1752000000000,"state":"active","ping":60},{"user_id":76,"name":"cuboidbird741","steam_id":76561198174823322,"connected_time":1023000000000,"state":"active","ping":70},{"user_id":84,"name":"🌭 HugeE #YNWA","steam_id":76561198245495152,"connected_time":252000000000,"state":"active","ping":61},{"user_id":52,"name":"Kiha","steam_id":76561198031408608,"connected_time":1953000000000,"state":"active","ping":70},{"user_id":25,"name":"🌭 Arentrir KING.LBJ.6","steam_id":76561198334126785,"connected_time":2791000000000,"state":"active","ping":75},{"user_id":24,"name":"hbi*venomcrosshairs","steam_id":76561197996468677,"connected_time":2799000000000,"state":"active","ping":60},{"user_id":63,"name":"[BG] TheWiseRedditor 24/7 Tarde","steam_id":76561198105121641,"connected_time":1787000000000,"state":"active","ping":63},{"user_id":86,"name":"Priceybay","steam_id":76561198055389492,"connected_time":229000000000,"state":"active","ping":38},{"user_id":87,"name":"kag","steam_id":76561198059813166,"connected_time":79000000000,"state":"active","ping":32},{"user_id":89,"name":"Dateron","steam_id":76561198130892518,"connected_time":39000000000,"state":"active","ping":203},{"user_id":54,"name":"MILKY","steam_id":76561199261620682,"connected_time":1900000000000,"state":"active","ping":58},{"user_id":55,"name":"d3xxty","steam_id":76561198310647633,"connected_time":1876000000000,"state":"active","ping":103},{"user_id":81,"name":"YAH","steam_id":76561198083249161,"connected_time":688000000000,"state":"active","ping":54},{"user_id":90,"name":"Milk","steam_id":76561198125876588,"connected_time":7000000000,"state":"active","ping":92},{"user_id":40,"name":"ferizmer","steam_id":76561198806968871,"connected_time":2297000000000,"state":"active","ping":102},{"user_id":82,"name":"darkwater","steam_id":76561197986978738,"connected_time":631000000000,"state":"active","ping":59},{"user_id":56,"name":"Astolfo","steam_id":76561198354584982,"connected_time":1870000000000,"state":"active","ping":64},{"user_id":85,"name":"eva.","steam_id":76561198054474684,"connected_time":249000000000,"state":"active","ping":84},{"user_id":62,"name":"cream gravy","steam_id":76561198973069177,"connected_time":1816000000000,"state":"active","ping":62},{"user_id":83,"name":"Blobbaz","steam_id":76561198031076278,"connected_time":611000000000,"state":"active","ping":55},{"user_id":72,"name":"weleenkerk","steam_id":76561198143969491,"connected_time":1454000000000,"state":"active","ping":63},{"user_id":70,"name":"Ed","steam_id":76561199144451552,"connected_time":1651000000000,"state":"active","ping":89},{"user_id":73,"name":"Dr.Sees [F2P]","steam_id":76561199219233587,"connected_time":1451000000000,"state":"active","ping":78}]},{"server_id":321,"name":"Uncletopia | London | 4 | All Maps","name_short":"lon-4","host":"lon-1.uk.uncletopia.com","port":27045,"enabled":true,"region":"eu","cc":"gb","latitude":51.509865,"longitude":-0.118092,"reserved":0,"last_update":"0001-01-01T00:00:00Z","name_a2s":"Uncletopia | London | 4 | All Maps","protocol":17,"map":"cp_snakewater_final1","folder":"tf","game":"Team Fortress","app_id":440,"player_count":20,"max_players":24,"Bots":0,"server_type":"Dedicated","server_os":"Linux","password":true,"vac":true,"version":"7882260","steam_id":85568392924510193,"keywords":["cp","nocrits","nodmgspread","uncletopia"],"game_id":440,"stv_port":27046,"stv_name":"Uncletopia | London | 4 | All Maps | STV","players":[{"user_id":592,"name":"Michael","steam_id":76561198003146906,"connected_time":14000000000,"state":"spawning","ping":102},{"user_id":571,"name":"Greyhunter","steam_id":76561197960884202,"connected_time":1003000000000,"state":"spawning","ping":89},{"user_id":590,"name":"Providence","steam_id":76561198003920270,"connected_time":89000000000,"state":"spawning","ping":83},{"user_id":572,"name":"maakgis","steam_id":76561198851703804,"connected_time":985000000000,"state":"spawning","ping":184},{"user_id":556,"name":"greg","steam_id":76561199206080182,"connected_time":2363000000000,"state":"spawning","ping":274},{"user_id":593,"name":"=flashpoint=","steam_id":76561197976774456,"connected_time":9000000000,"state":"spawning","ping":172},{"user_id":568,"name":"MrMedic","steam_id":76561199239610052,"connected_time":1299000000000,"state":"spawning","ping":118},{"user_id":545,"name":"jabar7","steam_id":76561198055137986,"connected_time":2622000000000,"state":"spawning","ping":148},{"user_id":578,"name":"Skeletros","steam_id":76561198130969152,"connected_time":718000000000,"state":"spawning","ping":182},{"user_id":498,"name":"Shady guy","steam_id":76561198365698508,"connected_time":5374000000000,"state":"spawning","ping":134},{"user_id":587,"name":"lark","steam_id":76561198091724522,"connected_time":505000000000,"state":"spawning","ping":129},{"user_id":588,"name":"cropping","steam_id":76561198026586456,"connected_time":409000000000,"state":"spawning","ping":117},{"user_id":581,"name":"BenteBent","steam_id":76561198297920637,"connected_time":571000000000,"state":"spawning","ping":106},{"user_id":582,"name":"Saken","steam_id":76561198049075295,"connected_time":556000000000,"state":"spawning","ping":141},{"user_id":560,"name":"Fatass Cat In A Tuxedo","steam_id":76561198363366212,"connected_time":2197000000000,"state":"spawning","ping":140},{"user_id":447,"name":"clunk","steam_id":76561198836460767,"connected_time":9503000000000,"state":"spawning","ping":123},{"user_id":513,"name":"PASTAMAN!!!","steam_id":76561198995641765,"connected_time":4856000000000,"state":"spawning","ping":102},{"user_id":585,"name":"Roe Jogan","steam_id":76561198871991529,"connected_time":540000000000,"state":"spawning","ping":93},{"user_id":561,"name":"Mass","steam_id":76561198432195204,"connected_time":2108000000000,"state":"spawning","ping":127},{"user_id":586,"name":"znunney","steam_id":76561199438501613,"connected_time":538000000000,"state":"spawning","ping":82}]},{"server_id":21,"name":"Uncletopia | London | 5 | All Maps","name_short":"lon-5","host":"lon-1.uk.uncletopia.com","port":27055,"enabled":true,"region":"eu","cc":"gb","latitude":51.509865,"longitude":-0.118092,"reserved":0,"last_update":"0001-01-01T00:00:00Z","name_a2s":"Uncletopia | London | 5 | All Maps","protocol":17,"map":"koth_lakeside_final","folder":"tf","game":"Team Fortress","app_id":440,"player_count":0,"max_players":24,"Bots":0,"server_type":"Dedicated","server_os":"Linux","password":true,"vac":true,"version":"7882260","steam_id":85568392924742829,"keywords":["cp","nocrits","nodmgspread","uncletopia"],"game_id":440,"stv_port":27056,"stv_name":"Uncletopia | London | 5 | All Maps | STV","players":null},{"server_id":22,"name":"Uncletopia | London | 6 | All Maps","name_short":"lon-6","host":"lon-1.uk.uncletopia.com","port":27065,"enabled":true,"region":"eu","cc":"gb","latitude":51.509865,"longitude":-0.118092,"reserved":0,"last_update":"0001-01-01T00:00:00Z","name_a2s":"Uncletopia | London | 6 | All Maps","protocol":17,"map":"pl_barnblitz","folder":"tf","game":"Team Fortress","app_id":440,"player_count":24,"max_players":24,"Bots":0,"server_type":"Dedicated","server_os":"Linux","password":true,"vac":true,"version":"7882260","steam_id":85568392924742830,"keywords":["nocrits","nodmgspread","payload","uncletopia"],"game_id":440,"stv_port":27066,"stv_name":"Uncletopia | London | 6 | All Maps | STV","players":[{"user_id":141,"name":"Marmew","steam_id":76561198014969237,"connected_time":1083000000000,"state":"active","ping":44},{"user_id":153,"name":"AftiksPL","steam_id":76561198875182686,"connected_time":262000000000,"state":"active","ping":104},{"user_id":125,"name":"Charles Darwin","steam_id":76561197973496139,"connected_time":2581000000000,"state":"active","ping":61},{"user_id":100,"name":"The Gun Spy","steam_id":76561198411111004,"connected_time":3891000000000,"state":"active","ping":58},{"user_id":132,"name":"n18bu!!","steam_id":76561198307037169,"connected_time":1397000000000,"state":"active","ping":52},{"user_id":114,"name":"singular demo jumping tactic","steam_id":76561198963378933,"connected_time":3201000000000,"state":"active","ping":41},{"user_id":154,"name":"Gombinho","steam_id":76561198149658037,"connected_time":244000000000,"state":"active","ping":78},{"user_id":152,"name":"Noob_with_source","steam_id":76561198870362103,"connected_time":287000000000,"state":"active","ping":53},{"user_id":110,"name":"multiple demos jumping tactics","steam_id":76561198798803845,"connected_time":3586000000000,"state":"active","ping":46},{"user_id":142,"name":"Boki","steam_id":76561198044553351,"connected_time":966000000000,"state":"active","ping":75},{"user_id":155,"name":"rajAs","steam_id":76561198035928111,"connected_time":242000000000,"state":"active","ping":94},{"user_id":157,"name":"CHSe2-","steam_id":76561198196096054,"connected_time":10000000000,"state":"active","ping":118},{"user_id":148,"name":"I own the penis scooter","steam_id":76561198173218318,"connected_time":433000000000,"state":"active","ping":48},{"user_id":136,"name":"Art","steam_id":76561198823514629,"connected_time":1331000000000,"state":"active","ping":123},{"user_id":139,"name":"autistic luigi","steam_id":76561199218285040,"connected_time":1176000000000,"state":"active","ping":83},{"user_id":151,"name":":)","steam_id":76561198039964082,"connected_time":296000000000,"state":"active","ping":59},{"user_id":156,"name":"♦Silvia♦","steam_id":76561198373039444,"connected_time":242000000000,"state":"active","ping":114},{"user_id":149,"name":"Lowy","steam_id":76561198031470048,"connected_time":403000000000,"state":"active","ping":47},{"user_id":108,"name":"\"multiple demos jumping tactics","steam_id":76561198088624259,"connected_time":3699000000000,"state":"active","ping":60},{"user_id":140,"name":"rummy","steam_id":76561197997573379,"connected_time":1158000000000,"state":"active","ping":46},{"user_id":131,"name":"Dan86130","steam_id":76561199187190436,"connected_time":1594000000000,"state":"active","ping":66},{"user_id":128,"name":"MEDiUM","steam_id":76561198112328561,"connected_time":2521000000000,"state":"active","ping":87},{"user_id":146,"name":"tïger","steam_id":76561198260483157,"connected_time":847000000000,"state":"active","ping":83}]},{"server_id":40,"name":"Uncletopia | London | 7 | No Payload","name_short":"lon-7","host":"lon-1.uk.uncletopia.com","port":27075,"enabled":true,"region":"eu","cc":"gb","latitude":51.509865,"longitude":-0.118092,"reserved":0,"last_update":"0001-01-01T00:00:00Z","name_a2s":"Uncletopia | London | 7 | No Payload","protocol":17,"map":"koth_harvest_final","folder":"tf","game":"Team Fortress","app_id":440,"player_count":0,"max_players":24,"Bots":0,"server_type":"Dedicated","server_os":"Linux","password":true,"vac":true,"version":"7882260","steam_id":85568392924964314,"keywords":["cp","nocrits","nodmgspread","uncletopia"],"game_id":440,"stv_port":27076,"stv_name":"Uncletopia | London | 7 | No Payload | STV","players":null},{"server_id":41,"name":"Uncletopia | London | 8 | Community","name_short":"lon-8","host":"lon-1.uk.uncletopia.com","port":27085,"enabled":true,"region":"eu","cc":"gb","latitude":51.509865,"longitude":-0.118092,"reserved":0,"last_update":"0001-01-01T00:00:00Z","name_a2s":"Uncletopia | London | 8 | Community","protocol":17,"map":"workshop/koth_ramjam_rc1.ugc459778887","folder":"tf","game":"Team Fortress","app_id":440,"player_count":0,"max_players":24,"Bots":0,"server_type":"Dedicated","server_os":"Linux","password":true,"vac":true,"version":"7882260","steam_id":85568392924964315,"keywords":["cp","nocrits","nodmgspread","uncletopia"],"game_id":440,"stv_port":27086,"stv_name":"Uncletopia | London | 8 | Community | STV","players":null},{"server_id":300,"name":"Uncletopia | Montréal | 1 | All Maps","name_short":"mtl-1","host":"mtl-1.ca.uncletopia.com","port":27015,"enabled":true,"region":"us-east","cc":"ca","latitude":45.50889,"longitude":-73.56167,"reserved":0,"last_update":"0001-01-01T00:00:00Z","name_a2s":"Uncletopia | Montréal | 1 | All Maps","protocol":17,"map":"pl_snowycoast","folder":"tf","game":"Team Fortress","app_id":440,"player_count":0,"max_players":24,"Bots":0,"server_type":"Dedicated","server_os":"Linux","password":true,"vac":true,"version":"7882260","steam_id":85568392924500087,"keywords":["nocrits","nodmgspread","payload","uncletopia"],"game_id":440,"stv_port":27016,"stv_name":"Uncletopia | Montréal | 1 | All Maps | STV","players":null},{"server_id":301,"name":"Uncletopia | Montréal | 2 | All Maps","name_short":"mtl-2","host":"mtl-1.ca.uncletopia.com","port":27025,"enabled":true,"region":"us-east","cc":"ca","latitude":45.50889,"longitude":-73.56167,"reserved":0,"last_update":"0001-01-01T00:00:00Z","name_a2s":"Uncletopia | Montréal | 2 | All Maps","protocol":17,"map":"cp_sunshine","folder":"tf","game":"Team Fortress","app_id":440,"player_count":0,"max_players":24,"Bots":0,"server_type":"Dedicated","server_os":"Linux","password":true,"vac":true,"version":"7882260","steam_id":85568392924500088,"keywords":["cp","nocrits","nodmgspread","uncletopia"],"game_id":440,"stv_port":27026,"stv_name":"Uncletopia | Montréal | 2 | All Maps | STV","players":null},{"server_id":302,"name":"Uncletopia | Montréal | 3 | All Maps","name_short":"mtl-3","host":"mtl-1.ca.uncletopia.com","port":27035,"enabled":true,"region":"us-east","cc":"ca","latitude":45.50889,"longitude":-73.56167,"reserved":0,"last_update":"0001-01-01T00:00:00Z","name_a2s":"Uncletopia | Montréal | 3 | All Maps","protocol":17,"map":"cp_altitude","folder":"tf","game":"Team Fortress","app_id":440,"player_count":0,"max_players":24,"Bots":0,"server_type":"Dedicated","server_os":"Linux","password":true,"vac":true,"version":"7882260","steam_id":85568392924500089,"keywords":["cp","nocrits","nodmgspread","uncletopia"],"game_id":440,"stv_port":27036,"stv_name":"Uncletopia | Montréal | 3 | All Maps | STV","players":null},{"server_id":303,"name":"Uncletopia | Montréal | 4 | No Payload","name_short":"mtl-4","host":"mtl-1.ca.uncletopia.com","port":27045,"enabled":true,"region":"us-east","cc":"ca","latitude":45.50889,"longitude":-73.56167,"reserved":0,"last_update":"0001-01-01T00:00:00Z","name_a2s":"Uncletopia | Montréal | 4 | No Payload","protocol":17,"map":"cp_altitude","folder":"tf","game":"Team Fortress","app_id":440,"player_count":0,"max_players":24,"Bots":0,"server_type":"Dedicated","server_os":"Linux","password":true,"vac":true,"version":"7882260","steam_id":85568392924500090,"keywords":["cp","nocrits","nodmgspread","uncletopia"],"game_id":440,"stv_port":27046,"stv_name":"Uncletopia | Montréal | 4 | No Payload | STV","players":null},{"server_id":13,"name":"Uncletopia | New York City | 1 | All Maps","name_short":"nyc-1","host":"nyc-1.us.uncletopia.com","port":27015,"enabled":true,"region":"us-east","cc":"us","latitude":40.73061,"longitude":-73.93524,"reserved":0,"last_update":"0001-01-01T00:00:00Z","name_a2s":"Uncletopia | New York City | 1 | All Maps","protocol":17,"map":"pl_frontier_final","folder":"tf","game":"Team Fortress","app_id":440,"player_count":22,"max_players":24,"Bots":0,"server_type":"Dedicated","server_os":"Linux","password":true,"vac":true,"version":"7882260","steam_id":85568392924469993,"keywords":["nocrits","nodmgspread","payload","uncletopia"],"game_id":440,"stv_port":27016,"stv_name":"Uncletopia | New York City | 1 | All Maps | STV","players":[{"user_id":16,"name":"M16A1Sauce","steam_id":76561199058049384,"connected_time":1714000000000,"state":"active","ping":65},{"user_id":17,"name":"Ypuoi","steam_id":76561198170203261,"connected_time":1521000000000,"state":"active","ping":122},{"user_id":19,"name":"ObsessedNerd505","steam_id":76561199045531456,"connected_time":1137000000000,"state":"active","ping":44},{"user_id":31,"name":"wafflehamster2000","steam_id":76561198849161820,"connected_time":425000000000,"state":"active","ping":85},{"user_id":32,"name":"GanZ","steam_id":76561199378883538,"connected_time":362000000000,"state":"active","ping":64},{"user_id":33,"name":"minecraft","steam_id":76561198104345201,"connected_time":352000000000,"state":"active","ping":69},{"user_id":34,"name":"bsampson0330","steam_id":76561198199502507,"connected_time":350000000000,"state":"active","ping":84},{"user_id":35,"name":"Zeebop","steam_id":76561198148332988,"connected_time":288000000000,"state":"active","ping":63},{"user_id":29,"name":"TYPICAL_HUMAN","steam_id":76561198060914982,"connected_time":647000000000,"state":"active","ping":126},{"user_id":27,"name":"SomeGuy","steam_id":76561198350585861,"connected_time":704000000000,"state":"active","ping":82},{"user_id":28,"name":"Ghost","steam_id":76561198426370628,"connected_time":679000000000,"state":"active","ping":72},{"user_id":30,"name":"PuzzlePuddles","steam_id":76561198856494882,"connected_time":628000000000,"state":"active","ping":60},{"user_id":36,"name":"ReTrying","steam_id":76561198976162684,"connected_time":279000000000,"state":"active","ping":75},{"user_id":37,"name":"The Loveable CHI.I.BI.","steam_id":76561198039262228,"connected_time":245000000000,"state":"active","ping":83},{"user_id":38,"name":"TheLastSoL","steam_id":76561198273669592,"connected_time":226000000000,"state":"active","ping":70},{"user_id":44,"name":"Fsh","steam_id":76561198425631932,"connected_time":58000000000,"state":"active","ping":84},{"user_id":40,"name":"A beast version of our mascot","steam_id":76561198329087915,"connected_time":202000000000,"state":"active","ping":127},{"user_id":41,"name":"Necromancer Kush","steam_id":76561198079102999,"connected_time":183000000000,"state":"active","ping":83},{"user_id":42,"name":"KFC Rat","steam_id":76561198135128086,"connected_time":169000000000,"state":"active","ping":123},{"user_id":45,"name":"Bread Cat","steam_id":76561199086362207,"connected_time":31000000000,"state":"spawning","ping":111},{"user_id":46,"name":"Beersy","steam_id":76561198022426298,"connected_time":30000000000,"state":"spawning","ping":48},{"user_id":47,"name":"( ͡° ͜ʖ ͡°) clz9","steam_id":76561198258279528,"connected_time":3000000000,"state":"spawning","ping":59}]},{"server_id":14,"name":"Uncletopia | New York City | 2 | All Maps","name_short":"nyc-2","host":"nyc-1.us.uncletopia.com","port":27025,"enabled":true,"region":"us-east","cc":"us","latitude":40.73061,"longitude":-73.93524,"reserved":0,"last_update":"0001-01-01T00:00:00Z","name_a2s":"Uncletopia | New York City | 2 | All Maps","protocol":17,"map":"pl_snowycoast","folder":"tf","game":"Team Fortress","app_id":440,"player_count":0,"max_players":24,"Bots":0,"server_type":"Dedicated","server_os":"Linux","password":true,"vac":true,"version":"7882260","steam_id":85568392924469994,"keywords":["nocrits","nodmgspread","payload","uncletopia"],"game_id":440,"stv_port":27026,"stv_name":"Uncletopia | New York City | 2 | All Maps | STV","players":null},{"server_id":15,"name":"Uncletopia | New York City | 3 | Stopwatch Beta","name_short":"nyc-3","host":"nyc-1.us.uncletopia.com","port":27035,"enabled":true,"region":"us-east","cc":"us","latitude":40.73061,"longitude":-73.93524,"reserved":0,"last_update":"0001-01-01T00:00:00Z","name_a2s":"Uncletopia | New York City | 3 | Stopwatch Beta","protocol":17,"map":"koth_lakeside_final","folder":"tf","game":"Team Fortress","app_id":440,"player_count":0,"max_players":24,"Bots":0,"server_type":"Dedicated","server_os":"Linux","password":true,"vac":true,"version":"7882260","steam_id":85568392924742820,"keywords":["cp","nocrits","nodmgspread","uncletopia"],"game_id":440,"stv_port":27036,"stv_name":"Uncletopia | New York City | 3 | Stopwatch Beta | STV","players":null},{"server_id":16,"name":"Uncletopia | New York City | 4 | Community","name_short":"nyc-4","host":"nyc-1.us.uncletopia.com","port":27045,"enabled":true,"region":"us-east","cc":"us","latitude":40.73061,"longitude":-73.93524,"reserved":0,"last_update":"0001-01-01T00:00:00Z","name_a2s":"Uncletopia | New York City | 4 | Community","protocol":17,"map":"pl_badwater","folder":"tf","game":"Team Fortress","app_id":440,"player_count":0,"max_players":24,"Bots":0,"server_type":"Dedicated","server_os":"Linux","password":true,"vac":true,"version":"7882260","steam_id":85568392924742821,"keywords":["nocrits","nodmgspread","payload","uncletopia"],"game_id":440,"stv_port":27046,"stv_name":"Uncletopia | New York City | 4 | Community | STV","players":null},{"server_id":142,"name":"Uncletopia | São Paulo | 1 | All Maps","name_short":"sao-1","host":"sao-1.br.uncletopia.com","port":27015,"enabled":true,"region":"sa","cc":"br","latitude":-23.533773,"longitude":-46.62529,"reserved":0,"last_update":"0001-01-01T00:00:00Z","name_a2s":"Uncletopia | São Paulo | 1 | All Maps","protocol":17,"map":"pl_barnblitz","folder":"tf","game":"Team Fortress","app_id":440,"player_count":0,"max_players":24,"Bots":0,"server_type":"Dedicated","server_os":"Linux","password":true,"vac":true,"version":"7882260","steam_id":85568392924469996,"keywords":["nocrits","nodmgspread","payload","uncletopia"],"game_id":440,"stv_port":27016,"stv_name":"Uncletopia | São Paulo | 1 | All Maps | STV","players":null},{"server_id":143,"name":"Uncletopia | São Paulo | 2 | All Maps","name_short":"sao-2","host":"sao-2.br.uncletopia.com","port":27015,"enabled":true,"region":"sa","cc":"br","latitude":-23.533773,"longitude":-46.62529,"reserved":0,"last_update":"0001-01-01T00:00:00Z","name_a2s":"Uncletopia | São Paulo | 2 | All Maps","protocol":17,"map":"koth_viaduct","folder":"tf","game":"Team Fortress","app_id":440,"player_count":0,"max_players":24,"Bots":0,"server_type":"Dedicated","server_os":"Linux","password":true,"vac":true,"version":"7882260","steam_id":85568392924485349,"keywords":["cp","nocrits","nodmgspread","uncletopia"],"game_id":440,"stv_port":27016,"stv_name":"Uncletopia | São Paulo | 2 | All Maps | STV","players":null},{"server_id":7,"name":"Uncletopia | Seattle | 1 | All Maps","name_short":"sea-1","host":"sea-1.us.uncletopia.com","port":27015,"enabled":true,"region":"us-west","cc":"us","latitude":47.608013,"longitude":-122.33517,"reserved":0,"last_update":"0001-01-01T00:00:00Z","name_a2s":"Uncletopia | Seattle | 1 | All Maps","protocol":17,"map":"ctf_2fort","folder":"tf","game":"Team Fortress","app_id":440,"player_count":1,"max_players":24,"Bots":0,"server_type":"Dedicated","server_os":"Linux","password":true,"vac":true,"version":"7882260","steam_id":85568392924469997,"keywords":["ctf","nocrits","nodmgspread","uncletopia"],"game_id":440,"stv_port":27016,"stv_name":"Uncletopia | Seattle | 1 | All Maps | STV","players":[{"user_id":8,"name":"SibilantSerpent","steam_id":76561198154488754,"connected_time":1886000000000,"state":"active","ping":43}]},{"server_id":119,"name":"Uncletopia | Seattle | 2 | All Maps","name_short":"sea-2","host":"sea-1.us.uncletopia.com","port":27025,"enabled":true,"region":"us-west","cc":"us","latitude":47.608013,"longitude":-122.33517,"reserved":0,"last_update":"0001-01-01T00:00:00Z","name_a2s":"Uncletopia | Seattle | 2 | All Maps","protocol":17,"map":"koth_highpass","folder":"tf","game":"Team Fortress","app_id":440,"player_count":0,"max_players":24,"Bots":0,"server_type":"Dedicated","server_os":"Linux","password":true,"vac":true,"version":"7882260","steam_id":85568392924469998,"keywords":["cp","nocrits","nodmgspread","uncletopia"],"game_id":440,"stv_port":27026,"stv_name":"Uncletopia | Seattle | 2 | All Maps | STV","players":null},{"server_id":406,"name":"Uncletopia | Seattle | 3 | Stopwatch Beta","name_short":"sea-3","host":"sea-1.us.uncletopia.com","port":27035,"enabled":true,"region":"us-west","cc":"us","latitude":47.608013,"longitude":-122.33517,"reserved":0,"last_update":"0001-01-01T00:00:00Z","name_a2s":"Uncletopia | Seattle | 3 | Stopwatch Beta","protocol":17,"map":"cp_mountainlab","folder":"tf","game":"Team Fortress","app_id":440,"player_count":0,"max_players":24,"Bots":0,"server_type":"Dedicated","server_os":"Linux","password":true,"vac":true,"version":"7882260","steam_id":85568392924515217,"keywords":["cp","nocrits","nodmgspread","uncletopia"],"game_id":440,"stv_port":27036,"stv_name":"Uncletopia | Seattle | 3 | Stopwatch Beta | STV","players":null},{"server_id":17,"name":"Uncletopia | San Francisco | 1 | All Maps","name_short":"sfo-1","host":"sfo-1.us.uncletopia.com","port":27015,"enabled":true,"region":"us-west","cc":"us","latitude":37.77397,"longitude":-122.4313,"reserved":0,"last_update":"0001-01-01T00:00:00Z","name_a2s":"Uncletopia | San Francisco | 1 | All Maps","protocol":17,"map":"cp_process_final","folder":"tf","game":"Team Fortress","app_id":440,"player_count":0,"max_players":24,"Bots":0,"server_type":"Dedicated","server_os":"Linux","password":true,"vac":true,"version":"7757534","steam_id":85568392924469999,"keywords":["cp","nocrits","nodmgspread","uncletopia"],"game_id":440,"stv_port":27016,"stv_name":"Uncletopia | San Francisco | 1 | All Maps | STV","players":null},{"server_id":18,"name":"Uncletopia | San Francisco | 2 | All Maps","name_short":"sfo-2","host":"sfo-1.us.uncletopia.com","port":27025,"enabled":true,"region":"us-west","cc":"us","latitude":37.77397,"longitude":-122.4313,"reserved":0,"last_update":"0001-01-01T00:00:00Z","name_a2s":"Uncletopia | San Francisco | 2 | All Maps","protocol":17,"map":"koth_highpass","folder":"tf","game":"Team Fortress","app_id":440,"player_count":0,"max_players":24,"Bots":0,"server_type":"Dedicated","server_os":"Linux","password":true,"vac":true,"version":"7757534","steam_id":85568392924470000,"keywords":["cp","nocrits","nodmgspread","uncletopia"],"game_id":440,"stv_port":27026,"stv_name":"Uncletopia | San Francisco | 2 | All Maps | STV","players":null},{"server_id":19,"name":"Uncletopia | San Francisco | 3 | Stopwatch Beta","name_short":"sfo-3","host":"sfo-1.us.uncletopia.com","port":27035,"enabled":true,"region":"us-west","cc":"us","latitude":37.77397,"longitude":-122.4313,"reserved":0,"last_update":"0001-01-01T00:00:00Z","name_a2s":"Uncletopia | San Francisco | 3 | Stopwatch Beta","protocol":17,"map":"koth_lakeside_final","folder":"tf","game":"Team Fortress","app_id":440,"player_count":0,"max_players":24,"Bots":0,"server_type":"Dedicated","server_os":"Linux","password":true,"vac":true,"version":"7757534","steam_id":85568392924742824,"keywords":["cp","nocrits","nodmgspread","uncletopia"],"game_id":440,"stv_port":27036,"stv_name":"Uncletopia | San Francisco | 3 | Stopwatch Beta | STV","players":null},{"server_id":20,"name":"Uncletopia | San Francisco | 4 | Community","name_short":"sfo-4","host":"sfo-1.us.uncletopia.com","port":27045,"enabled":true,"region":"us-west","cc":"us","latitude":37.77397,"longitude":-122.4313,"reserved":0,"last_update":"0001-01-01T00:00:00Z","name_a2s":"Uncletopia | San Francisco | 4 | Community","protocol":17,"map":"cp_altitude","folder":"tf","game":"Team Fortress","app_id":440,"player_count":0,"max_players":24,"Bots":0,"server_type":"Dedicated","server_os":"Linux","password":true,"vac":true,"version":"7757534","steam_id":85568392924742826,"keywords":["cp","nocrits","nodmgspread","uncletopia"],"game_id":440,"stv_port":27046,"stv_name":"Uncletopia | San Francisco | 4 | Community | STV","players":null},{"server_id":141,"name":"Uncletopia | Sydney | 1 | All Maps","name_short":"syd-1","host":"syd-1.au.uncletopia.com","port":27015,"enabled":true,"region":"au","cc":"au","latitude":-33.865143,"longitude":151.2099,"reserved":0,"last_update":"0001-01-01T00:00:00Z","name_a2s":"Uncletopia | Sydney | 1 | All Maps","protocol":17,"map":"koth_lakeside_final","folder":"tf","game":"Team Fortress","app_id":440,"player_count":0,"max_players":24,"Bots":0,"server_type":"Dedicated","server_os":"Linux","password":true,"vac":true,"version":"7882260","steam_id":85568392924470001,"keywords":["cp","nocrits","nodmgspread","uncletopia"],"game_id":440,"stv_port":27016,"stv_name":"Uncletopia | Sydney | 1 | All Maps | STV","players":null},{"server_id":123,"name":"Uncletopia | Sydney | 2 | All Maps","name_short":"syd-2","host":"syd-1.au.uncletopia.com","port":27025,"enabled":true,"region":"au","cc":"au","latitude":-33.865143,"longitude":151.2099,"reserved":0,"last_update":"0001-01-01T00:00:00Z","name_a2s":"Uncletopia | Sydney | 2 | All Maps","protocol":17,"map":"pl_badwater","folder":"tf","game":"Team Fortress","app_id":440,"player_count":0,"max_players":24,"Bots":0,"server_type":"Dedicated","server_os":"Linux","password":true,"vac":true,"version":"7882260","steam_id":85568392924470002,"keywords":["nocrits","nodmgspread","payload","uncletopia"],"game_id":440,"stv_port":27026,"stv_name":"Uncletopia | Sydney | 2 | All Maps | STV","players":null},{"server_id":395,"name":"Uncletopia | Sydney | 3 | All Maps","name_short":"syd-3","host":"syd-1.au.uncletopia.com","port":27035,"enabled":true,"region":"au","cc":"au","latitude":-33.865143,"longitude":151.2099,"reserved":0,"last_update":"0001-01-01T00:00:00Z","name_a2s":"Uncletopia | Sydney | 3 | All Maps","protocol":17,"map":"koth_viaduct","folder":"tf","game":"Team Fortress","app_id":440,"player_count":0,"max_players":24,"Bots":0,"server_type":"Dedicated","server_os":"Linux","password":true,"vac":true,"version":"7882260","steam_id":85568392925194467,"keywords":["cp","nocrits","nodmgspread","uncletopia"],"game_id":440,"stv_port":27036,"stv_name":"Uncletopia | Sydney | 3 | All Maps | STV","players":null},{"server_id":396,"name":"Uncletopia | Sydney | 4 | All Maps","name_short":"syd-4","host":"syd-1.au.uncletopia.com","port":27045,"enabled":true,"region":"au","cc":"au","latitude":-33.865143,"longitude":151.2099,"reserved":0,"last_update":"0001-01-01T00:00:00Z","name_a2s":"Uncletopia | Sydney | 4 | All Maps","protocol":17,"map":"koth_lakeside_final","folder":"tf","game":"Team Fortress","app_id":440,"player_count":0,"max_players":24,"Bots":0,"server_type":"Dedicated","server_os":"Linux","password":true,"vac":true,"version":"7882260","steam_id":85568392925397958,"keywords":["cp","nocrits","nodmgspread","uncletopia"],"game_id":440,"stv_port":27046,"stv_name":"Uncletopia | Sydney | 4 | All Maps | STV","players":null},{"server_id":58,"name":"Uncletopia | Sydney | 5 | Stopwatch Beta","name_short":"syd-5","host":"syd-1.au.uncletopia.com","port":27055,"enabled":true,"region":"au","cc":"au","latitude":-33.865143,"longitude":151.2099,"reserved":0,"last_update":"0001-01-01T00:00:00Z","name_a2s":"Uncletopia | Sydney | 5 | Stopwatch Beta","protocol":17,"map":"workshop/pl_vigil_rc9.ugc1266210012","folder":"tf","game":"Team Fortress","app_id":440,"player_count":0,"max_players":24,"Bots":0,"server_type":"Dedicated","server_os":"Linux","password":true,"vac":true,"version":"7882260","steam_id":85568392925397959,"keywords":["nocrits","nodmgspread","payload","uncletopia"],"game_id":440,"stv_port":27056,"stv_name":"Uncletopia | Sydney | 5 | Stopwatch Beta | STV","players":null},{"server_id":59,"name":"Uncletopia | Sydney | 6 | Community","name_short":"syd-6","host":"syd-1.au.uncletopia.com","port":27065,"enabled":true,"region":"au","cc":"au","latitude":-33.865143,"longitude":151.2099,"reserved":0,"last_update":"0001-01-01T00:00:00Z","name_a2s":"Uncletopia | Sydney | 6 | Community","protocol":17,"map":"workshop/pl_divulgence_b4b.ugc2884808746","folder":"tf","game":"Team Fortress","app_id":440,"player_count":0,"max_players":24,"Bots":0,"server_type":"Dedicated","server_os":"Linux","password":true,"vac":true,"version":"7882260","steam_id":85568392925397960,"keywords":["nocrits","nodmgspread","payload","uncletopia"],"game_id":440,"stv_port":27066,"stv_name":"Uncletopia | Sydney | 6 | Community | STV","players":null},{"server_id":49,"name":"Uncletopia | Warsaw | 1 | All Maps","name_short":"waw-1","host":"waw-1.pl.uncletopia.com","port":27015,"enabled":true,"region":"eu","cc":"pl","latitude":52.2297,"longitude":21.017532,"reserved":0,"last_update":"0001-01-01T00:00:00Z","name_a2s":"","protocol":0,"map":"","folder":"","game":"","app_id":0,"player_count":0,"max_players":0,"Bots":0,"server_type":"","server_os":"","password":false,"vac":false,"version":"","steam_id":0,"keywords":null,"game_id":0,"stv_port":0,"stv_name":"","players":null},{"server_id":50,"name":"Uncletopia | Warsaw | 2 | All Maps","name_short":"waw-2","host":"waw-1.pl.uncletopia.com","port":27025,"enabled":true,"region":"eu","cc":"pl","latitude":52.2297,"longitude":21.017532,"reserved":0,"last_update":"0001-01-01T00:00:00Z","name_a2s":"Uncletopia | Warsaw | 2 | All Maps","protocol":17,"map":"koth_viaduct","folder":"tf","game":"Team Fortress","app_id":440,"player_count":0,"max_players":24,"Bots":0,"server_type":"Dedicated","server_os":"Linux","password":true,"vac":true,"version":"7882260","steam_id":85568392925397851,"keywords":["cp","nocrits","nodmgspread","uncletopia"],"game_id":440,"stv_port":27026,"stv_name":"Uncletopia | Warsaw | 2 | All Maps | STV","players":null},{"server_id":51,"name":"Uncletopia | Warsaw | 3 | All Maps","name_short":"waw-3","host":"waw-1.pl.uncletopia.com","port":27035,"enabled":true,"region":"eu","cc":"pl","latitude":52.2297,"longitude":21.017532,"reserved":0,"last_update":"0001-01-01T00:00:00Z","name_a2s":"Uncletopia | Warsaw | 3 | All Maps","protocol":17,"map":"koth_viaduct","folder":"tf","game":"Team Fortress","app_id":440,"player_count":0,"max_players":24,"Bots":0,"server_type":"Dedicated","server_os":"Linux","password":true,"vac":true,"version":"7882260","steam_id":85568392925397852,"keywords":["cp","nocrits","nodmgspread","uncletopia"],"game_id":440,"stv_port":27036,"stv_name":"Uncletopia | Warsaw | 3 | All Maps | STV","players":null},{"server_id":52,"name":"Uncletopia | Warsaw | 4 | All Maps","name_short":"waw-4","host":"waw-1.pl.uncletopia.com","port":27045,"enabled":true,"region":"eu","cc":"pl","latitude":52.2297,"longitude":21.017532,"reserved":0,"last_update":"0001-01-01T00:00:00Z","name_a2s":"Uncletopia | Warsaw | 4 | All Maps","protocol":17,"map":"koth_highpass","folder":"tf","game":"Team Fortress","app_id":440,"player_count":0,"max_players":24,"Bots":0,"server_type":"Dedicated","server_os":"Linux","password":true,"vac":true,"version":"7882260","steam_id":85568392925397853,"keywords":["cp","nocrits","nodmgspread","uncletopia"],"game_id":440,"stv_port":27046,"stv_name":"Uncletopia | Warsaw | 4 | All Maps | STV","players":null},{"server_id":53,"name":"Uncletopia | Warsaw | 5 | Stopwatch Beta","name_short":"waw-5","host":"waw-1.pl.uncletopia.com","port":27055,"enabled":true,"region":"eu","cc":"pl","latitude":52.2297,"longitude":21.017532,"reserved":0,"last_update":"0001-01-01T00:00:00Z","name_a2s":"Uncletopia | Warsaw | 5 | Stopwatch Beta","protocol":17,"map":"pl_upward","folder":"tf","game":"Team Fortress","app_id":440,"player_count":0,"max_players":24,"Bots":0,"server_type":"Dedicated","server_os":"Linux","password":true,"vac":true,"version":"7882260","steam_id":85568392925397854,"keywords":["nocrits","nodmgspread","payload","uncletopia"],"game_id":440,"stv_port":27056,"stv_name":"Uncletopia | Warsaw | 5 | Stopwatch Beta | STV","players":null},{"server_id":54,"name":"Uncletopia | Warsaw | 6 | Community","name_short":"waw-6","host":"waw-1.pl.uncletopia.com","port":27065,"enabled":true,"region":"eu","cc":"pl","latitude":52.2297,"longitude":21.017532,"reserved":0,"last_update":"0001-01-01T00:00:00Z","name_a2s":"Uncletopia | Warsaw | 6 | Community","protocol":17,"map":"workshop/pl_eruption_b9a.ugc2807898013","folder":"tf","game":"Team Fortress","app_id":440,"player_count":0,"max_players":24,"Bots":0,"server_type":"Dedicated","server_os":"Linux","password":true,"vac":true,"version":"7882260","steam_id":85568392925397856,"keywords":["nocrits","nodmgspread","payload","uncletopia"],"game_id":440,"stv_port":27066,"stv_name":"Uncletopia | Warsaw | 6 | Community | STV","players":null}]}