{"status":true,"message":"","result":[{"server_id":9,"name":"Uncletopia | Atlanta | 1 | All Maps","name_short":"atl-1","host":"atl-1.us.uncletopia.com","port":27015,"enabled":true,"region":"us-east","cc":"us","latitude":33.753746,"longitude":-84.38633,"reserved":0,"last_update":"0001-01-01T00:00:00Z","name_a2s":"Uncletopia | Atlanta | 1 | All Maps","protocol":17,"map":"koth_cascade","folder":"tf","game":"Team Fortress","app_id":440,"player_count":0,"max_players":24,"Bots":0,"server_type":"Dedicated","server_os":"Linux","password":true,"vac":true,"version":"7961495","steam_id":85568392924469982,"keywords":["cp","nocrits","nodmgspread","uncletopia"],"game_id":440,"stv_port":27016,"stv_name":"Uncletopia | Atlanta | 1 | All Maps | STV","players":null},{"server_id":104,"name":"Uncletopia | Atlanta | 2 | All Maps","name_short":"atl-2","host":"atl-1.us.uncletopia.com","port":27025,"enabled":true,"region":"us-east","cc":"us","latitude":33.753746,"longitude":-84.38633,"reserved":0,"last_update":"0001-01-01T00:00:00Z","name_a2s":"Uncletopia | Atlanta | 2 | All Maps","protocol":17,"map":"koth_cascade","folder":"tf","game":"Team Fortress","app_id":440,"player_count":0,"max_players":24,"Bots":0,"server_type":"Dedicated","server_os":"Linux","password":true,"vac":true,"version":"7961495","steam_id":85568392924469983,"keywords":["cp","nocrits","nodmgspread","uncletopia"],"game_id":440,"stv_port":27026,"stv_name":"Uncletopia | Atlanta | 2 | All Maps | STV","players":null},{"server_id":400,"name":"Uncletopia | Atlanta | 3 | Stopwatch","name_short":"atl-3","host":"atl-1.us.uncletopia.com","port":27035,"enabled":true,"region":"us-east","cc":"us","latitude":33.753746,"longitude":-84.38633,"reserved":0,"last_update":"0001-01-01T00:00:00Z","name_a2s":"Uncletopia | Atlanta | 3 | Stopwatch","protocol":17,"map":"pl_badwater","folder":"tf","game":"Team Fortress","app_id":440,"player_count":0,"max_players":24,"Bots":0,"server_type":"Dedicated","server_os":"Linux","password":true,"vac":true,"version":"7961495","steam_id":85568392924515187,"keywords":["nocrits","nodmgspread","payload","uncletopia"],"game_id":440,"stv_port":27036,"stv_name":"Uncletopia | Atlanta | 3 | Stopwatch | STV","players":null},{"server_id":401,"name":"Uncletopia | Atlanta | 4 | Community","name_short":"atl-4","host":"atl-1.us.uncletopia.com","port":27045,"enabled":true,"region":"us-east","cc":"us","latitude":33.753746,"longitude":-84.38633,"reserved":0,"last_update":"0001-01-01T00:00:00Z","name_a2s":"Uncletopia | Atlanta | 4 | Community","protocol":17,"map":"cp_sunshine","folder":"tf","game":"Team Fortress","app_id":440,"player_count":0,"max_players":24,"Bots":0,"server_type":"Dedicated","server_os":"Linux","password":true,"vac":true,"version":"7961495","steam_id":85568392924515188,"keywords":["cp","nocrits","nodmgspread","uncletopia"],"game_id":440,"stv_port":27046,"stv_name":"Uncletopia | Atlanta | 4 | Community | STV","players":null},{"server_id":2,"name":"Uncletopia | Chicago | 1 | All Maps","name_short":"chi-1","host":"chi-1.us.uncletopia.com","port":27015,"enabled":true,"region":"us-central","cc":"us","latitude":41.881832,"longitude":-87.62318,"reserved":0,"last_update":"0001-01-01T00:00:00Z","name_a2s":"Uncletopia | Chicago | 1 | All Maps","protocol":17,"map":"koth_viaduct","folder":"tf","game":"Team Fortress","app_id":440,"player_count":24,"max_players":24,"Bots":0,"server_type":"Dedicated","server_os":"Linux","password":true,"vac":true,"version":"7961495","steam_id":85568392924469984,"keywords":["cp","nocrits","nodmgspread","uncletopia"],"game_id":440,"stv_port":27016,"stv_name":"Uncletopia | Chicago | 1 | All Maps | STV","players":[{"user_id":196,"name":"SGX","steam_id":76561199102075970,"connected_time":719000000000,"state":"active","ping":92},{"user_id":140,"name":"SnexLongman","steam_id":76561198237309374,"connected_time":4569000000000,"state":"active","ping":109},{"user_id":69,"name":"metalfan666","steam_id":76561198386344068,"connected_time":9519000000000,"state":"active","ping":72},{"user_id":171,"name":"doishe","steam_id":76561198068190834,"connected_time":2308000000000,"state":"active","ping":102},{"user_id":197,"name":"SandHanitizer","steam_id":76561198234676500,"connected_time":429000000000,"state":"active","ping":70},{"user_id":181,"name":"Mcfighter2","steam_id":76561198168073956,"connected_time":1876000000000,"state":"active","ping":58},{"user_id":174,"name":"Beans","steam_id":76561198960131934,"connected_time":2009000000000,"state":"active","ping":158},{"user_id":133,"name":"qory","steam_id":76561198152064890,"connected_time":4939000000000,"state":"active","ping":58},{"user_id":153,"name":"Cyclops_672","steam_id":76561198080169497,"connected_time":3516000000000,"state":"active","ping":47},{"user_id":155,"name":"SCATTER","steam_id":76561198405168492,"connected_time":3448000000000,"state":"active","ping":78},{"user_id":188,"name":"RandyPickleshoes","steam_id":76561198064139260,"connected_time":1226000000000,"state":"active","ping":74},{"user_id":193,"name":"Caribou","steam_id":76561197997211265,"connected_time":736000000000,"state":"active","ping":70},{"user_id":186,"name":"capybara","steam_id":76561198798828328,"connected_time":1392000000000,"state":"active","ping":49},{"user_id":192,"name":"Puck Norris","steam_id":76561198151256410,"connected_time":741000000000,"state":"active","ping":139},{"user_id":158,"name":"lynt","steam_id":76561198988333976,"connected_time":3269000000000,"state":"active","ping":58},{"user_id":169,"name":"crispylego_","steam_id":76561199453679719,"connected_time":2442000000000,"state":"active","ping":199},{"user_id":189,"name":"dav2727","steam_id":76561197962027049,"connected_time":1218000000000,"state":"active","ping":47},{"user_id":190,"name":"basket","steam_id":76561199486768009,"connected_time":1041000000000,"state":"active","ping":98},{"user_id":163,"name":"Zymiren","steam_id":76561198054985471,"connected_time":2560000000000,"state":"active","ping":102},{"user_id":180,"name":"Not_Douglas","steam_id":76561199024184136,"connected_time":1898000000000,"state":"active","ping":62},{"user_id":195,"name":"Ockulus","steam_id":76561199069638460,"connected_time":721000000000,"state":"active","ping":105},{"user_id":70,"name":"mrappledumb","steam_id":76561199133590774,"connected_time":9519000000000,"state":"active","ping":64},{"user_id":185,"name":"asm_ghost","steam_id":76561199205363547,"connected_time":1754000000000,"state":"active","ping":131},{"user_id":128,"name":"maS","steam_id":76561198033846407,"connected_time":5097000000000,"state":"active","ping":50}]},{"server_id":106,"name":"Uncletopia | Chicago | 2 | All Maps","name_short":"chi-2","host":"chi-1.us.uncletopia.com","port":27025,"enabled":true,"region":"us-central","cc":"us","latitude":41.881832,"longitude":-87.62318,"reserved":0,"last_update":"0001-01-01T00:00:00Z","name_a2s":"Uncletopia | Chicago | 2 | All Maps","protocol":17,"map":"pl_swiftwater_final1","folder":"tf","game":"Team Fortress","app_id":440,"player_count":24,"max_players":24,"Bots":0,"server_type":"Dedicated","server_os":"Linux","password":true,"vac":true,"version":"7961495","steam_id":85568392924469985,"keywords":["nocrits","nodmgspread","payload","uncletopia"],"game_id":440,"stv_port":27026,"stv_name":"Uncletopia | Chicago | 2 | All Maps | STV","players":[{"user_id":31,"name":"Ze_Über_Nerd","steam_id":76561198091148675,"connected_time":678000000000,"state":"active","ping":71},{"user_id":16,"name":"w a l k  q u i e t","steam_id":76561198143453873,"connected_time":1332000000000,"state":"active","ping":58},{"user_id":24,"name":"penguivboi","steam_id":76561198049012401,"connected_time":934000000000,"state":"active","ping":76},{"user_id":21,"name":"ArcticRescue","steam_id":76561198055362404,"connected_time":975000000000,"state":"active","ping":30},{"user_id":20,"name":"Weird","steam_id":76561199082362722,"connected_time":1003000000000,"state":"active","ping":104},{"user_id":26,"name":"Huloon","steam_id":76561198070837568,"connected_time":852000000000,"state":"active","ping":69},{"user_id":36,"name":"Sicko Mode (Chris Pratt Cover)","steam_id":76561198315786174,"connected_time":603000000000,"state":"active","ping":108},{"user_id":54,"name":"♥Gorilla Grip Femboy♥","steam_id":76561199121980584,"connected_time":44000000000,"state":"active","ping":86},{"user_id":28,"name":"Sharky","steam_id":76561198032663494,"connected_time":753000000000,"state":"active","ping":62},{"user_id":50,"name":"FunnyUsernameWow","steam_id":76561198324177635,"connected_time":258000000000,"state":"active","ping":62},{"user_id":30,"name":"yes","steam_id":76561199094011002,"connected_time":719000000000,"state":"active","ping":56},{"user_id":32,"name":"Ligaie","steam_id":76561199121597694,"connected_time":676000000000,"state":"active","ping":72},{"user_id":53,"name":"Shooter of Walls","steam_id":76561197988105207,"connected_time":84000000000,"state":"active","ping":64},{"user_id":37,"name":"Feet Bandit","steam_id":76561199152252878,"connected_time":575000000000,"state":"active","ping":89},{"user_id":46,"name":"Xiphor","steam_id":76561199236537212,"connected_time":369000000000,"state":"active","ping":77},{"user_id":41,"name":"The Nikocado Enjoyer","steam_id":76561198263154374,"connected_time":469000000000,"state":"active","ping":70},{"user_id":42,"name":"Astrocards","steam_id":76561199184079830,"connected_time":437000000000,"state":"active","ping":66},{"user_id":43,"name":"batheman63","steam_id":76561198881818552,"connected_time":421000000000,"state":"active","ping":80},{"user_id":44,"name":"bologna forklift 2012","steam_id":76561198199061206,"connected_time":411000000000,"state":"active","ping":43},{"user_id":45,"name":"BIGBILF","steam_id":76561199089870289,"connected_time":399000000000,"state":"active","ping":141},{"user_id":51,"name":"Equinox","steam_id":76561198274279754,"connected_time":100000000000,"state":"active","ping":60},{"user_id":48,"name":"Jpxfred","steam_id":76561199414783749,"connected_time":349000000000,"state":"active","ping":110},{"user_id":52,"name":"Quack3y","steam_id":76561199212049105,"connected_time":97000000000,"state":"active","ping":91}]},{"server_id":402,"name":"Uncletopia | Chicago | 3 | All Maps","name_short":"chi-3","host":"chi-1.us.uncletopia.com","port":27035,"enabled":true,"region":"us-central","cc":"us","latitude":41.881832,"longitude":-87.62318,"reserved":0,"last_update":"0001-01-01T00:00:00Z","name_a2s":"Uncletopia | Chicago | 3 | All Maps","protocol":17,"map":"cp_dustbowl","folder":"tf","game":"Team Fortress","app_id":440,"player_count":5,"max_players":24,"Bots":0,"server_type":"Dedicated","server_os":"Linux","password":true,"vac":true,"version":"7961495","steam_id":85568392924515191,"keywords":["cp","nocrits","nodmgspread","uncletopia"],"game_id":440,"stv_port":27036,"stv_name":"Uncletopia | Chicago | 3 | All Maps | STV","players":[{"user_id":7,"name":"gen","steam_id":76561199118569153,"connected_time":206000000000,"state":"active","ping":56},{"user_id":8,"name":"i shit ed the bed","steam_id":76561198882512196,"connected_time":148000000000,"state":"active","ping":118},{"user_id":11,"name":"lukagotovac12","steam_id":76561199126479138,"connected_time":8000000000,"state":"spawning","ping":190},{"user_id":10,"name":"joshberg65","steam_id":76561198165893304,"connected_time":82000000000,"state":"active","ping":55},{"user_id":12,"name":"capetanunito","steam_id":76561199364524852,"connected_time":6000000000,"state":"spawning","ping":180}]},{"server_id":403,"name":"Uncletopia | Chicago | 4 | All Maps","name_short":"chi-4","host":"chi-1.us.uncletopia.com","port":27045,"enabled":true,"region":"us-central","cc":"us","latitude":41.881832,"longitude":-87.62318,"reserved":0,"last_update":"0001-01-01T00:00:00Z","name_a2s":"Uncletopia | Chicago | 4 | All Maps","protocol":17,"map":"koth_cascade","folder":"tf","game":"Team Fortress","app_id":440,"player_count":0,"max_players":24,"Bots":0,"server_type":"Dedicated","server_os":"Linux","password":true,"vac":true,"version":"7961495","steam_id":85568392924515193,"keywords":["cp","nocrits","nodmgspread","uncletopia"],"game_id":440,"stv_port":27046,"stv_name":"Uncletopia | Chicago | 4 | All Maps | STV","players":null},{"server_id":36,"name":"Uncletopia | Chicago | 5 | All Maps","name_short":"chi-5","host":"chi-2.us.uncletopia.com","port":27015,"enabled":true,"region":"us-central","cc":"us","latitude":41.881832,"longitude":-87.62318,"reserved":0,"last_update":"0001-01-01T00:00:00Z","name_a2s":"Uncletopia | Chicago | 5 | All Maps","protocol":17,"map":"koth_viaduct","folder":"tf","game":"Team Fortress","app_id":440,"player_count":0,"max_players":24,"Bots":0,"server_type":"Dedicated","server_os":"Linux","password":true,"vac":true,"version":"7961495","steam_id":85568392924866362,"keywords":["cp","nocrits","nodmgspread","uncletopia"],"game_id":440,"stv_port":27016,"stv_name":"Uncletopia | Chicago | 5 | All Maps | STV","players":null},{"server_id":37,"name":"Uncletopia | Chicago | 6 | All Maps","name_short":"chi-6","host":"chi-2.us.uncletopia.com","port":27025,"enabled":true,"region":"us-central","cc":"us","latitude":41.881832,"longitude":-87.62318,"reserved":0,"last_update":"0001-01-01T00:00:00Z","name_a2s":"Uncletopia | Chicago | 6 | All Maps","protocol":17,"map":"pl_upward","folder":"tf","game":"Team Fortress","app_id":440,"player_count":0,"max_players":24,"Bots":0,"server_type":"Dedicated","server_os":"Linux","password":true,"vac":true,"version":"7961495","steam_id":85568392924866363,"keywords":["nocrits","nodmgspread","payload","uncletopia"],"game_id":440,"stv_port":27026,"stv_name":"Uncletopia | Chicago | 6 | All Maps | STV","players":null},{"server_id":38,"name":"Uncletopia | Chicago | 7 | Stopwatch","name_short":"chi-7","host":"chi-2.us.uncletopia.com","port":27035,"enabled":true,"region":"us-central","cc":"us","latitude":41.881832,"longitude":-87.62318,"reserved":0,"last_update":"0001-01-01T00:00:00Z","name_a2s":"Uncletopia | Chicago | 7 | Stopwatch","protocol":17,"map":"cp_granary","folder":"tf","game":"Team Fortress","app_id":440,"player_count":0,"max_players":24,"Bots":0,"server_type":"Dedicated","server_os":"Linux","password":true,"vac":true,"version":"7961495","steam_id":85568392924866364,"keywords":["cp","nocrits","nodmgspread","uncletopia"],"game_id":440,"stv_port":27036,"stv_name":"Uncletopia | Chicago | 7 | Stopwatch | STV","players":null},{"server_id":39,"name":"Uncletopia | Chicago | 8 | Community","name_short":"chi-8","host":"chi-2.us.uncletopia.com","port":27045,"enabled":true,"region":"us-central","cc":"us","latitude":41.881832,"longitude":-87.62318,"reserved":0,"last_update":"0001-01-01T00:00:00Z","name_a2s":"Uncletopia | Chicago | 8 | Community","protocol":17,"map":"pl_pier","folder":"tf","game":"Team Fortress","app_id":440,"player_count":0,"max_players":24,"Bots":0,"server_type":"Dedicated","server_os":"Linux","password":true,"vac":true,"version":"7961495","steam_id":85568392924866365,"keywords":["nocrits","nodmgspread","payload","uncletopia"],"game_id":440,"stv_port":27046,"stv_name":"Uncletopia | Chicago | 8 | Community | STV","players":null},{"server_id":8,"name":"Uncletopia | Dallas | 1 | All Maps","name_short":"dal-1","host":"dal-1.us.uncletopia.com","port":27015,"enabled":true,"region":"us-central","cc":"us","latitude":32.779167,"longitude":-96.80889,"reserved":0,"last_update":"0001-01-01T00:00:00Z","name_a2s":"Uncletopia | Dallas | 1 | All Maps","protocol":17,"map":"pl_barnblitz","folder":"tf","game":"Team Fortress","app_id":440,"player_count":0,"max_players":24,"Bots":0,"server_type":"Dedicated","server_os":"Linux","password":true,"vac":true,"version":"7961495","steam_id":85568392924469986,"keywords":["nocrits","nodmgspread","payload","uncletopia"],"game_id":440,"stv_port":27016,"stv_name":"Uncletopia | Dallas | 1 | All Maps | STV","players":null},{"server_id":108,"name":"Uncletopia | Dallas | 2 | All Maps","name_short":"dal-2","host":"dal-1.us.uncletopia.com","port":27025,"enabled":true,"region":"us-central","cc":"us","latitude":32.779167,"longitude":-96.80889,"reserved":0,"last_update":"0001-01-01T00:00:00Z","name_a2s":"Uncletopia | Dallas | 2 | All Maps","protocol":17,"map":"pl_borneo","folder":"tf","game":"Team Fortress","app_id":440,"player_count":24,"max_players":24,"Bots":0,"server_type":"Dedicated","server_os":"Linux","password":true,"vac":true,"version":"7961495","steam_id":85568392924469988,"keywords":["nocrits","nodmgspread","payload","uncletopia"],"game_id":440,"stv_port":27026,"stv_name":"Uncletopia | Dallas | 2 | All Maps | STV","players":[{"user_id":154,"name":"TwistedJasper","steam_id":76561198192325429,"connected_time":70000000000,"state":"active","ping":76},{"user_id":145,"name":"viva la vida","steam_id":76561198072179483,"connected_time":626000000000,"state":"active","ping":107},{"user_id":102,"name":"slippyyλ","steam_id":76561198143018098,"connected_time":2901000000000,"state":"active","ping":85},{"user_id":147,"name":"mattazzzar","steam_id":76561198063068990,"connected_time":456000000000,"state":"active","ping":101},{"user_id":96,"name":"discord kitten","steam_id":76561198079178866,"connected_time":3266000000000,"state":"active","ping":85},{"user_id":148,"name":"Mr. Hankey","steam_id":76561198872852200,"connected_time":417000000000,"state":"active","ping":134},{"user_id":149,"name":"Alkimia","steam_id":76561198385763137,"connected_time":397000000000,"state":"active","ping":106},{"user_id":59,"name":"Tuvok Shakur","steam_id":76561198018875334,"connected_time":6098000000000,"state":"active","ping":58},{"user_id":119,"name":"Big Cat","steam_id":76561198115695203,"connected_time":1650000000000,"state":"active","ping":47},{"user_id":142,"name":"reject drugs and embrace God","steam_id":76561198452519031,"connected_time":701000000000,"state":"active","ping":108},{"user_id":120,"name":"Ping","steam_id":76561199206514106,"connected_time":1576000000000,"state":"active","ping":75},{"user_id":114,"name":"SCP-4999","steam_id":76561198803060193,"connected_time":2277000000000,"state":"active","ping":71},{"user_id":103,"name":"MyAimBad","steam_id":76561199499423343,"connected_time":2751000000000,"state":"active","ping":92},{"user_id":151,"name":"Bully Maguire","steam_id":76561199081621029,"connected_time":246000000000,"state":"active","ping":84},{"user_id":137,"name":"MuffinConsumer","steam_id":76561199472498725,"connected_time":1035000000000,"state":"active","ping":89},{"user_id":122,"name":"for the king","steam_id":76561197973488858,"connected_time":1560000000000,"state":"active","ping":78},{"user_id":135,"name":"aichim","steam_id":76561198012767135,"connected_time":1274000000000,"state":"active","ping":87},{"user_id":152,"name":"judesro","steam_id":76561198352244888,"connected_time":223000000000,"state":"active","ping":101},{"user_id":138,"name":"lukiss","steam_id":76561199134999203,"connected_time":836000000000,"state":"active","ping":85},{"user_id":118,"name":"El Bondin","steam_id":76561198820792434,"connected_time":1883000000000,"state":"active","ping":112},{"user_id":113,"name":"Kamin","steam_id":76561198255299559,"connected_time":2319000000000,"state":"active","ping":71},{"user_id":139,"name":"ryanzandorLX","steam_id":76561199068623664,"connected_time":806000000000,"state":"active","ping":103},{"user_id":153,"name":"Lysander Crow","steam_id":76561198214659356,"connected_time":165000000000,"state":"active","ping":88},{"user_id":126,"name":"Jrock","steam_id":76561198045715996,"connected_time":1477000000000,"state":"active","ping":99}]},{"server_id":404,"name":"Uncletopia | Dallas | 3 | All Maps","name_short":"dal-3","host":"dal-1.us.uncletopia.com","port":27035,"enabled":true,"region":"us-central","cc":"us","latitude":32.779167,"longitude":-96.80889,"reserved":0,"last_update":"0001-01-01T00:00:00Z","name_a2s":"Uncletopia | Dallas | 3 | All Maps","protocol":17,"map":"pl_borneo","folder":"tf","game":"Team Fortress","app_id":440,"player_count":0,"max_players":24,"Bots":0,"server_type":"Dedicated","server_os":"Linux","password":true,"vac":true,"version":"7961495","steam_id":85568392924515219,"keywords":["nocrits","nodmgspread","payload","uncletopia"],"game_id":440,"stv_port":27036,"stv_name":"Uncletopia | Dallas | 3 | All Maps | STV","players":null},{"server_id":405,"name":"Uncletopia | Dallas | 4 | Community","name_short":"dal-4","host":"dal-1.us.uncletopia.com","port":27045,"enabled":true,"region":"us-central","cc":"us","latitude":32.779167,"longitude":-96.80889,"reserved":0,"last_update":"0001-01-01T00:00:00Z","name_a2s":"Uncletopia | Dallas | 4 | Community","protocol":17,"map":"pl_pier","folder":"tf","game":"Team Fortress","app_id":440,"player_count":0,"max_players":24,"Bots":0,"server_type":"Dedicated","server_os":"Linux","password":true,"vac":true,"version":"7961495","steam_id":85568392924515220,"keywords":["nocrits","nodmgspread","payload","uncletopia"],"game_id":440,"stv_port":27046,"stv_name":"Uncletopia | Dallas | 4 | Community | STV","players":null},{"server_id":5,"name":"Uncletopia | Frankfurt | 1 | All Maps","name_short":"frk-1","host":"frk-1.de.uncletopia.com","port":27015,"enabled":true,"region":"eu","cc":"de","latitude":50.110924,"longitude":8.682127,"reserved":0,"last_update":"0001-01-01T00:00:00Z","name_a2s":"Uncletopia | Frankfurt | 1 | All Maps","protocol":17,"map":"pl_swiftwater_final1","folder":"tf","game":"Team Fortress","app_id":440,"player_count":24,"max_players":24,"Bots":0,"server_type":"Dedicated","server_os":"Linux","password":true,"vac":true,"version":"7961495","steam_id":85568392924469989,"keywords":["nocrits","nodmgspread","payload","uncletopia"],"game_id":440,"stv_port":27016,"stv_name":"Uncletopia | Frankfurt | 1 | All Maps | STV","players":[{"user_id":264,"name":"Grillem Dafoe","steam_id":76561198306874574,"connected_time":4148000000000,"state":"active","ping":79},{"user_id":323,"name":"romov","steam_id":76561199182288871,"connected_time":198000000000,"state":"active","ping":109},{"user_id":324,"name":"Small Mouse","steam_id":76561198286085100,"connected_time":172000000000,"state":"active","ping":80},{"user_id":322,"name":"Driver's drunkest God","steam_id":76561198969373800,"connected_time":359000000000,"state":"active","ping":72},{"user_id":302,"name":"KrAk3rs","steam_id":76561198298179344,"connected_time":1994000000000,"state":"active","ping":65},{"user_id":307,"name":"JepCabestany","steam_id":76561198123812578,"connected_time":1547000000000,"state":"active","ping":97},{"user_id":206,"name":"simeswipe","steam_id":76561198188471097,"connected_time":8519000000000,"state":"active","ping":80},{"user_id":313,"name":"Mr. Awki","steam_id":76561198061676496,"connected_time":820000000000,"state":"active","ping":69},{"user_id":266,"name":"NitPig","steam_id":76561198212991935,"connected_time":4100000000000,"state":"active","ping":108},{"user_id":295,"name":"Greenmaker","steam_id":76561198060466591,"connected_time":2751000000000,"state":"active","ping":73},{"user_id":314,"name":"pyromaniac","steam_id":76561198292781255,"connected_time":801000000000,"state":"active","ping":84},{"user_id":315,"name":"Vinn0","steam_id":76561198987241284,"connected_time":778000000000,"state":"active","ping":49},{"user_id":300,"name":"Organic Donut","steam_id":76561199119121016,"connected_time":2352000000000,"state":"active","ping":75},{"user_id":304,"name":"TheEventGuy","steam_id":76561197972797744,"connected_time":1844000000000,"state":"active","ping":65},{"user_id":297,"name":"Säyu","steam_id":76561199275368237,"connected_time":2636000000000,"state":"active","ping":82},{"user_id":316,"name":"BikerBilly47","steam_id":76561198104438656,"connected_time":715000000000,"state":"active","ping":61},{"user_id":188,"name":"levnemcev","steam_id":76561198057205970,"connected_time":9805000000000,"state":"active","ping":92},{"user_id":318,"name":"General Grievous","steam_id":76561198087800030,"connected_time":696000000000,"state":"active","ping":55},{"user_id":301,"name":"=OKB= P4NTH3R","steam_id":76561197999204603,"connected_time":2069000000000,"state":"active","ping":55},{"user_id":306,"name":"JohnTraveltime","steam_id":76561199244281754,"connected_time":1587000000000,"state":"active","ping":68},{"user_id":319,"name":"brtaba","steam_id":76561198796334790,"connected_time":558000000000,"state":"active","ping":69},{"user_id":276,"name":"Xeno","steam_id":76561198975556646,"connected_time":3345000000000,"state":"active","ping":47},{"user_id":310,"name":"Bigunit","steam_id":76561197960678014,"connected_time":1099000000000,"state":"active","ping":63},{"user_id":321,"name":"LiterallyRyanGosling","steam_id":76561199017856691,"connected_time":547000000000,"state":"active","ping":65}]},{"server_id":110,"name":"Uncletopia | Frankfurt | 2 | All Maps","name_short":"frk-2","host":"frk-1.de.uncletopia.com","port":27025,"enabled":true,"region":"eu","cc":"de","latitude":50.110924,"longitude":8.682127,"reserved":0,"last_update":"0001-01-01T00:00:00Z","name_a2s":"Uncletopia | Frankfurt | 2 | All Maps","protocol":17,"map":"cp_dustbowl","folder":"tf","game":"Team Fortress","app_id":440,"player_count":24,"max_players":24,"Bots":0,"server_type":"Dedicated","server_os":"Linux","password":true,"vac":true,"version":"7961495","steam_id":85568392924469990,"keywords":["cp","nocrits","nodmgspread","uncletopia"],"game_id":440,"stv_port":27026,"stv_name":"Uncletopia | Frankfurt | 2 | All Maps | STV","players":[{"user_id":264,"name":"What it was","steam_id":76561199256967423,"connected_time":2534000000000,"state":"active","ping":134},{"user_id":278,"name":"FartGoing","steam_id":76561198122284275,"connected_time":2224000000000,"state":"active","ping":76},{"user_id":275,"name":"bryophyta","steam_id":76561197968945306,"connected_time":2250000000000,"state":"active","ping":71},{"user_id":246,"name":"Jacob L118","steam_id":76561198128436016,"connected_time":3205000000000,"state":"active","ping":84},{"user_id":261,"name":"im tired","steam_id":76561198812159557,"connected_time":2713000000000,"state":"active","ping":71},{"user_id":298,"name":"Landan","steam_id":76561198102048004,"connected_time":833000000000,"state":"active","ping":66},{"user_id":112,"name":"Gaxkang","steam_id":76561198125768571,"connected_time":12939000000000,"state":"active","ping":69},{"user_id":293,"name":"L + Bomzis","steam_id":76561198118747192,"connected_time":1654000000000,"state":"active","ping":79},{"user_id":305,"name":"Will","steam_id":76561198173329977,"connected_time":99000000000,"state":"active","ping":69},{"user_id":292,"name":"Egor Pomidor","steam_id":76561199175688390,"connected_time":1662000000000,"state":"active","ping":83},{"user_id":252,"name":"krishtanv","steam_id":76561198155492861,"connected_time":3097000000000,"state":"active","ping":109},{"user_id":303,"name":"Arsonist","steam_id":76561199087953833,"connected_time":301000000000,"state":"active","ping":93},{"user_id":302,"name":"Conan","steam_id":76561198158321202,"connected_time":312000000000,"state":"active","ping":62},{"user_id":231,"name":"TheDeath","steam_id":76561198265038954,"connected_time":4680000000000,"state":"active","ping":69},{"user_id":290,"name":"cocaine fan","steam_id":76561198123592400,"connected_time":1751000000000,"state":"active","ping":92},{"user_id":266,"name":"maniac-baker","steam_id":76561198076966730,"connected_time":2510000000000,"state":"active","ping":62},{"user_id":230,"name":"ScudFXX","steam_id":76561198136603848,"connected_time":5114000000000,"state":"active","ping":61},{"user_id":223,"name":"Equipment of war","steam_id":76561198030563843,"connected_time":5662000000000,"state":"active","ping":82},{"user_id":161,"name":"Defender hunter","steam_id":76561198041458028,"connected_time":9791000000000,"state":"active","ping":112},{"user_id":255,"name":"..","steam_id":76561198380752444,"connected_time":3074000000000,"state":"active","ping":72},{"user_id":296,"name":"Laura ❤","steam_id":76561198975652501,"connected_time":985000000000,"state":"active","ping":90},{"user_id":304,"name":"OlleBruce","steam_id":76561199166000670,"connected_time":270000000000,"state":"active","ping":81},{"user_id":301,"name":"Old Beavis","steam_id":76561198065951617,"connected_time":346000000000,"state":"active","ping":74},{"user_id":291,"name":"default","steam_id":76561198186182298,"connected_time":1673000000000,"state":"active","ping":51}]},{"server_id":308,"name":"Uncletopia | Frankfurt | 3 | All Maps","name_short":"frk-3","host":"frk-1.de.uncletopia.com","port":27035,"enabled":true,"region":"eu","cc":"de","latitude":50.110924,"longitude":8.682127,"reserved":0,"last_update":"0001-01-01T00:00:00Z","name_a2s":"Uncletopia | Frankfurt | 3 | All Maps","protocol":17,"map":"pl_barnblitz","folder":"tf","game":"Team Fortress","app_id":440,"player_count":24,"max_players":24,"Bots":0,"server_type":"Dedicated","server_os":"Linux","password":true,"vac":true,"version":"7961495","steam_id":85568392924504274,"keywords":["nocrits","nodmgspread","payload","uncletopia"],"game_id":440,"stv_port":27036,"stv_name":"Uncletopia | Frankfurt | 3 | All Maps | STV","players":[{"user_id":326,"name":"Hexagon","steam_id":76561198151205758,"connected_time":1633000000000,"state":"active","ping":47},{"user_id":299,"name":"Pestilence","steam_id":76561198140938904,"connected_time":3500000000000,"state":"active","ping":70},{"user_id":255,"name":"SalCrabber deluxe","steam_id":76561198275942961,"connected_time":6293000000000,"state":"active","ping":43},{"user_id":327,"name":"Monkey","steam_id":76561199008411791,"connected_time":1577000000000,"state":"active","ping":58},{"user_id":333,"name":"Klorophyte","steam_id":76561198885112655,"connected_time":559000000000,"state":"active","ping":92},{"user_id":328,"name":"Nick","steam_id":76561198036109469,"connected_time":1574000000000,"state":"active","ping":89},{"user_id":318,"name":"Mau","steam_id":76561198410945277,"connected_time":2266000000000,"state":"active","ping":115},{"user_id":284,"name":"rhm","steam_id":76561199438126261,"connected_time":4507000000000,"state":"active","ping":99},{"user_id":314,"name":"Gator","steam_id":76561198065624683,"connected_time":2335000000000,"state":"active","ping":89},{"user_id":316,"name":"Goldblade","steam_id":76561198382997614,"connected_time":2332000000000,"state":"active","ping":76},{"user_id":340,"name":"Hóňa","steam_id":76561198096006081,"connected_time":130000000000,"state":"active","ping":67},{"user_id":298,"name":"TF2","steam_id":76561198256328990,"connected_time":3505000000000,"state":"active","ping":88},{"user_id":300,"name":"waj","steam_id":76561198053628243,"connected_time":3487000000000,"state":"active","ping":58},{"user_id":332,"name":"b","steam_id":76561198200529559,"connected_time":795000000000,"state":"active","ping":92},{"user_id":323,"name":"SoaCrow","steam_id":76561198069420717,"connected_time":2081000000000,"state":"active","ping":71},{"user_id":313,"name":"Metin_erd","steam_id":76561199134448234,"connected_time":2572000000000,"state":"active","ping":106},{"user_id":341,"name":"EricToGo","steam_id":76561198068019642,"connected_time":73000000000,"state":"active","ping":56},{"user_id":338,"name":"guro my beloved","steam_id":76561198401523966,"connected_time":444000000000,"state":"active","ping":89},{"user_id":321,"name":"Mr. Mundy","steam_id":76561198132008918,"connected_time":2135000000000,"state":"active","ping":79},{"user_id":337,"name":"snsmac","steam_id":76561198082821185,"connected_time":516000000000,"state":"active","ping":54},{"user_id":325,"name":"FistfulOfKittens","steam_id":76561198323611129,"connected_time":1723000000000,"state":"active","ping":69},{"user_id":303,"name":"Miito","steam_id":76561198188000642,"connected_time":3142000000000,"state":"active","ping":65},{"user_id":280,"name":"yuck","steam_id":76561197987249568,"connected_time":4553000000000,"state":"active","ping":90},{"user_id":342,"name":"Belley","steam_id":76561198026580804,"connected_time":49000000000,"state":"active","ping":59}]},{"server_id":309,"name":"Uncletopia | Frankfurt | 4 | All Maps","name_short":"frk-4","host":"frk-1.de.uncletopia.com","port":27045,"enabled":true,"region":"eu","cc":"de","latitude":50.110924,"longitude":8.682127,"reserved":0,"last_update":"0001-01-01T00:00:00Z","name_a2s":"Uncletopia | Frankfurt | 4 | All Maps","protocol":17,"map":"pl_borneo","folder":"tf","game":"Team Fortress","app_id":440,"player_count":24,"max_players":24,"Bots":0,"server_type":"Dedicated","server_os":"Linux","password":true,"vac":true,"version":"7961495","steam_id":85568392924504275,"keywords":["nocrits","nodmgspread","payload","uncletopia"],"game_id":440,"stv_port":27046,"stv_name":"Uncletopia | Frankfurt | 4 | All Maps | STV","players":[{"user_id":286,"name":"null","steam_id":76561198335549964,"connected_time":7070000000000,"state":"active","ping":136},{"user_id":383,"name":"Sham!","steam_id":76561198050434275,"connected_time":372000000000,"state":"active","ping":51},{"user_id":378,"name":"dezz.","steam_id":76561198408965840,"connected_time":464000000000,"state":"active","ping":49},{"user_id":289,"name":"Ink in veins","steam_id":76561199082262091,"connected_time":6888000000000,"state":"active","ping":78},{"user_id":371,"name":"an idiot","steam_id":76561198172542535,"connected_time":1454000000000,"state":"active","ping":68},{"user_id":350,"name":"Marukuso","steam_id":76561198154229845,"connected_time":3216000000000,"state":"active","ping":73},{"user_id":332,"name":"President013","steam_id":76561198107233527,"connected_time":4595000000000,"state":"active","ping":82},{"user_id":339,"name":"Hyperwizard of Space Conquest","steam_id":76561198953210459,"connected_time":4317000000000,"state":"active","ping":91},{"user_id":375,"name":"Play slowly, pls","steam_id":76561198006463587,"connected_time":711000000000,"state":"active","ping":139},{"user_id":357,"name":"torn","steam_id":76561198223003236,"connected_time":2595000000000,"state":"active","ping":48},{"user_id":346,"name":"Cheese Goblin","steam_id":76561198102366281,"connected_time":3788000000000,"state":"active","ping":47},{"user_id":349,"name":"El_Kommadante","steam_id":76561198079551685,"connected_time":3377000000000,"state":"active","ping":77},{"user_id":379,"name":"Froenzi","steam_id":76561198168841723,"connected_time":434000000000,"state":"active","ping":71},{"user_id":352,"name":"Gurgula","steam_id":76561198021253678,"connected_time":2800000000000,"state":"active","ping":61},{"user_id":374,"name":"Ellipsis","steam_id":76561198236630276,"connected_time":796000000000,"state":"active","ping":54},{"user_id":360,"name":"Rei Ayanami","steam_id":76561198405980575,"connected_time":1857000000000,"state":"active","ping":66},{"user_id":363,"name":"Ismael Ahmad Kanabawi","steam_id":76561198066295629,"connected_time":1653000000000,"state":"active","ping":68},{"user_id":364,"name":"zeeko683","steam_id":76561198429788727,"connected_time":1651000000000,"state":"active","ping":46},{"user_id":385,"name":"Krow","steam_id":76561198817864089,"connected_time":208000000000,"state":"active","ping":81},{"user_id":355,"name":"waffle toaster","steam_id":76561198799089628,"connected_time":2782000000000,"state":"active","ping":54},{"user_id":376,"name":"Tasi","steam_id":76561198000166299,"connected_time":693000000000,"state":"active","ping":76},{"user_id":381,"name":"Fluffy","steam_id":76561198084447725,"connected_time":392000000000,"state":"active","ping":55},{"user_id":386,"name":"Gabys","steam_id":76561198282892553,"connected_time":169000000000,"state":"active","ping":68},{"user_id":370,"name":"PAX","steam_id":76561198046692146,"connected_time":1544000000000,"state":"active","ping":85}]},{"server_id":310,"name":"Uncletopia | Frankfurt | 5 | All Maps","name_short":"frk-5","host":"frk-1.de.uncletopia.com","port":27055,"enabled":true,"region":"eu","cc":"de","latitude":50.110924,"longitude":8.682127,"reserved":0,"last_update":"0001-01-01T00:00:00Z","name_a2s":"Uncletopia | Frankfurt | 5 | All Maps","protocol":17,"map":"pl_pier","folder":"tf","game":"Team Fortress","app_id":440,"player_count":24,"max_players":24,"Bots":0,"server_type":"Dedicated","server_os":"Linux","password":true,"vac":true,"version":"7961495","steam_id":85568392924504277,"keywords":["nocrits","nodmgspread","payload","uncletopia"],"game_id":440,"stv_port":27056,"stv_name":"Uncletopia | Frankfurt | 5 | All Maps | STV","players":[{"user_id":245,"name":"Spinya","steam_id":76561198086653667,"connected_time":11064000000000,"state":"active","ping":61},{"user_id":405,"name":"meow :3","steam_id":76561198010662796,"connected_time":677000000000,"state":"active","ping":57},{"user_id":396,"name":":P","steam_id":76561198963804772,"connected_time":1683000000000,"state":"active","ping":90},{"user_id":246,"name":"DudeoftheRock","steam_id":76561198059401865,"connected_time":11058000000000,"state":"active","ping":63},{"user_id":399,"name":"Seiko Lili","steam_id":76561199097542270,"connected_time":1296000000000,"state":"active","ping":75},{"user_id":395,"name":"Toasty5050","steam_id":76561198073540881,"connected_time":1695000000000,"state":"active","ping":41},{"user_id":410,"name":"KingPotatoChips","steam_id":76561198035156465,"connected_time":311000000000,"state":"active","ping":60},{"user_id":379,"name":"MrChester","steam_id":76561199213192992,"connected_time":2085000000000,"state":"active","ping":79},{"user_id":380,"name":"NotExactlyAName","steam_id":76561199131759230,"connected_time":2084000000000,"state":"active","ping":89},{"user_id":407,"name":"Mr.Dies a lot","steam_id":76561199061602946,"connected_time":570000000000,"state":"active","ping":101},{"user_id":408,"name":"You're doin good lad","steam_id":76561198350707031,"connected_time":553000000000,"state":"active","ping":84},{"user_id":402,"name":"Ｍａｃｉｎｔｏｓｈ","steam_id":76561198074294565,"connected_time":1003000000000,"state":"active","ping":84},{"user_id":390,"name":"Average Water Fan","steam_id":76561199415989636,"connected_time":1876000000000,"state":"active","ping":90},{"user_id":398,"name":"g4yl0rd","steam_id":76561198195935759,"connected_time":1339000000000,"state":"active","ping":100},{"user_id":371,"name":"Urfangonultasadana","steam_id":76561199389286151,"connected_time":2340000000000,"state":"active","ping":103},{"user_id":394,"name":"tyroksi :D","steam_id":76561198103875245,"connected_time":1705000000000,"state":"active","ping":109},{"user_id":343,"name":"_zipfile","steam_id":76561198066133808,"connected_time":5319000000000,"state":"active","ping":61},{"user_id":414,"name":"Gamlader","steam_id":76561198306177608,"connected_time":202000000000,"state":"active","ping":73},{"user_id":400,"name":"DirtyFred","steam_id":76561198031814950,"connected_time":1230000000000,"state":"active","ping":80},{"user_id":404,"name":"golfmastr","steam_id":76561198993144124,"connected_time":748000000000,"state":"active","ping":70},{"user_id":409,"name":"Ash","steam_id":76561198272001890,"connected_time":454000000000,"state":"active","ping":67},{"user_id":415,"name":"Rimx","steam_id":76561198053034840,"connected_time":110000000000,"state":"active","ping":93},{"user_id":412,"name":"Penis Contortionist","steam_id":76561198073663784,"connected_time":277000000000,"state":"active","ping":51},{"user_id":367,"name":"Carlo","steam_id":76561198276491098,"connected_time":2900000000000,"state":"active","ping":59}]},{"server_id":311,"name":"Uncletopia | Frankfurt | 6 | All Maps","name_short":"frk-6","host":"frk-1.de.uncletopia.com","port":27065,"enabled":true,"region":"eu","cc":"de","latitude":50.110924,"longitude":8.682127,"reserved":0,"last_update":"0001-01-01T00:00:00Z","name_a2s":"Uncletopia | Frankfurt | 6 | All Maps","protocol":17,"map":"koth_cascade","folder":"tf","game":"Team Fortress","app_id":440,"player_count":0,"max_players":24,"Bots":0,"server_type":"Dedicated","server_os":"Linux","password":true,"vac":true,"version":"7961495","steam_id":85568392924504278,"keywords":["cp","nocrits","nodmgspread","uncletopia"],"game_id":440,"stv_port":27066,"stv_name":"Uncletopia | Frankfurt | 6 | All Maps | STV","players":null},{"server_id":23,"name":"Uncletopia | Frankfurt | 7 | Stopwatch","name_short":"frk-7","host":"frk-1.de.uncletopia.com","port":27075,"enabled":true,"region":"eu","cc":"de","latitude":50.110924,"longitude":8.682127,"reserved":0,"last_update":"0001-01-01T00:00:00Z","name_a2s":"Uncletopia | Frankfurt | 7 | Stopwatch","protocol":17,"map":"workshop/koth_ashville_final.ugc2130459942","folder":"tf","game":"Team Fortress","app_id":440,"player_count":0,"max_players":24,"Bots":0,"server_type":"Dedicated","server_os":"Linux","password":true,"vac":true,"version":"7961495","steam_id":85568392924742827,"keywords":["cp","nocrits","nodmgspread","uncletopia"],"game_id":440,"stv_port":27076,"stv_name":"Uncletopia | Frankfurt | 7 | Stopwatch | STV","players":null},{"server_id":24,"name":"Uncletopia | Frankfurt | 8 | Community","name_short":"frk-8","host":"frk-1.de.uncletopia.com","port":27085,"enabled":true,"region":"eu","cc":"de","latitude":50.110924,"longitude":8.682127,"reserved":0,"last_update":"0001-01-01T00:00:00Z","name_a2s":"Uncletopia | Frankfurt | 8 | Community","protocol":17,"map":"workshop/koth_trenchfoot_ab1.ugc731436616","folder":"tf","game":"Team Fortress","app_id":440,"player_count":0,"max_players":24,"Bots":0,"server_type":"Dedicated","server_os":"Linux","password":true,"vac":true,"version":"7961495","steam_id":85568392924742828,"keywords":["cp","nocrits","nodmgspread","uncletopia"],"game_id":440,"stv_port":27086,"stv_name":"Uncletopia | Frankfurt | 8 | Community | STV","players":null},{"server_id":202,"name":"Uncletopia | Hong Kong | 1 | All Maps","name_short":"hgk-1","host":"hgk-1.hk.uncletopia.com","port":27015,"enabled":true,"region":"asia","cc":"hk","latitude":22.302711,"longitude":114.177216,"reserved":0,"last_update":"0001-01-01T00:00:00Z","name_a2s":"Uncletopia | Hong Kong | 1 | All Maps","protocol":17,"map":"koth_highpass","folder":"tf","game":"Team Fortress","app_id":440,"player_count":3,"max_players":24,"Bots":0,"server_type":"Dedicated","server_os":"Linux","password":true,"vac":true,"version":"7961495","steam_id":85568392924494504,"keywords":["cp","nocrits","nodmgspread","uncletopia"],"game_id":440,"stv_port":27016,"stv_name":"Uncletopia | Hong Kong | 1 | All Maps | STV","players":[{"user_id":625,"name":"Gul'dan","steam_id":76561198240466940,"connected_time":218000000000,"state":"active","ping":260},{"user_id":624,"name":"Skyler White yo","steam_id":76561198895193247,"connected_time":555000000000,"state":"active","ping":72},{"user_id":610,"name":"villy","steam_id":76561198169263597,"connected_time":2025000000000,"state":"active","ping":36}]},{"server_id":1,"name":"Uncletopia | Los Angeles | 1 | All Maps","name_short":"lax-1","host":"lax-1.us.uncletopia.com","port":27015,"enabled":true,"region":"us-west","cc":"us","latitude":33.94279,"longitude":-118.41004,"reserved":0,"last_update":"0001-01-01T00:00:00Z","name_a2s":"Uncletopia | Los Angeles | 1 | All Maps","protocol":17,"map":"pl_swiftwater_final1","folder":"tf","game":"Team Fortress","app_id":440,"player_count":1,"max_players":24,"Bots":0,"server_type":"Dedicated","server_os":"Linux","password":true,"vac":true,"version":"7961495","steam_id":85568392924469991,"keywords":["nocrits","nodmgspread","payload","uncletopia"],"game_id":440,"stv_port":27016,"stv_name":"Uncletopia | Los Angeles | 1 | All Maps | STV","players":[{"user_id":5,"name":"Skribbles","steam_id":76561198373073766,"connected_time":19000000000,"state":"spawning","ping":41}]},{"server_id":112,"name":"Uncletopia | Los Angeles | 2 | All Maps","name_short":"lax-2","host":"lax-1.us.uncletopia.com","port":27025,"enabled":true,"region":"us-west","cc":"us","latitude":33.94279,"longitude":-118.41004,"reserved":0,"last_update":"0001-01-01T00:00:00Z","name_a2s":"Uncletopia | Los Angeles | 2 | All Maps","protocol":17,"map":"cp_mountainlab","folder":"tf","game":"Team Fortress","app_id":440,"player_count":0,"max_players":24,"Bots":0,"server_type":"Dedicated","server_os":"Linux","password":true,"vac":true,"version":"7961495","steam_id":85568392924469992,"keywords":["cp","nocrits","nodmgspread","uncletopia"],"game_id":440,"stv_port":27026,"stv_name":"Uncletopia | Los Angeles | 2 | All Maps | STV","players":null},{"server_id":324,"name":"Uncletopia | Los Angeles | 3 | All Maps","name_short":"lax-3","host":"lax-1.us.uncletopia.com","port":27035,"enabled":true,"region":"us-west","cc":"us","latitude":33.94279,"longitude":-118.41004,"reserved":0,"last_update":"0001-01-01T00:00:00Z","name_a2s":"Uncletopia | Los Angeles | 3 | All Maps","protocol":17,"map":"pl_frontier_final","folder":"tf","game":"Team Fortress","app_id":440,"player_count":0,"max_players":24,"Bots":0,"server_type":"Dedicated","server_os":"Linux","password":true,"vac":true,"version":"7961495","steam_id":85568392924510198,"keywords":["nocrits","nodmgspread","payload","uncletopia"],"game_id":440,"stv_port":27036,"stv_name":"Uncletopia | Los Angeles | 3 | All Maps | STV","players":null},{"server_id":25,"name":"Uncletopia | Los Angeles | 4 | Stopwatch","name_short":"lax-4","host":"lax-1.us.uncletopia.com","port":27045,"enabled":true,"region":"us-west","cc":"us","latitude":33.94279,"longitude":-118.41004,"reserved":0,"last_update":"0001-01-01T00:00:00Z","name_a2s":"Uncletopia | Los Angeles | 4 | Stopwatch","protocol":17,"map":"pl_barnblitz","folder":"tf","game":"Team Fortress","app_id":440,"player_count":0,"max_players":24,"Bots":0,"server_type":"Dedicated","server_os":"Linux","password":true,"vac":true,"version":"7961495","steam_id":85568392924510199,"keywords":["nocrits","nodmgspread","payload","uncletopia"],"game_id":440,"stv_port":27046,"stv_name":"Uncletopia | Los Angeles | 4 | Stopwatch | STV","players":null},{"server_id":11,"name":"Uncletopia | London | 1 | All Maps","name_short":"lon-1","host":"lon-1.uk.uncletopia.com","port":27015,"enabled":true,"region":"eu","cc":"gb","latitude":51.509865,"longitude":-0.118092,"reserved":0,"last_update":"0001-01-01T00:00:00Z","name_a2s":"Uncletopia | London | 1 | All Maps","protocol":17,"map":"pl_barnblitz","folder":"tf","game":"Team Fortress","app_id":440,"player_count":24,"max_players":24,"Bots":0,"server_type":"Dedicated","server_os":"Linux","password":true,"vac":true,"version":"7961495","steam_id":85568392924367362,"keywords":["nocrits","nodmgspread","payload","uncletopia"],"game_id":440,"stv_port":27016,"stv_name":"Uncletopia | London | 1 | All Maps | STV","players":[{"user_id":399,"name":"STEFF","steam_id":76561198013306538,"connected_time":3780000000000,"state":"active","ping":57},{"user_id":418,"name":"Anri Okita's Massive Milkers","steam_id":76561199186352720,"connected_time":1564000000000,"state":"active","ping":54},{"user_id":333,"name":"jona3838","steam_id":76561199097658195,"connected_time":9381000000000,"state":"active","ping":102},{"user_id":419,"name":"albert","steam_id":76561198353496134,"connected_time":1549000000000,"state":"active","ping":53},{"user_id":425,"name":"Joe Biden","steam_id":76561198047299145,"connected_time":1033000000000,"state":"active","ping":83},{"user_id":430,"name":"dwarf man","steam_id":76561199501952182,"connected_time":526000000000,"state":"active","ping":88},{"user_id":256,"name":"soil.dirt.earth","steam_id":76561198014377623,"connected_time":15646000000000,"state":"active","ping":33},{"user_id":424,"name":"󠀡󠀡","steam_id":76561198059375315,"connected_time":1183000000000,"state":"active","ping":71},{"user_id":420,"name":"emmy","steam_id":76561198066298422,"connected_time":1546000000000,"state":"active","ping":87},{"user_id":364,"name":"whimsy.","steam_id":76561198878171763,"connected_time":7177000000000,"state":"active","ping":57},{"user_id":369,"name":"TomNoSocks","steam_id":76561198114071046,"connected_time":6126000000000,"state":"active","ping":65},{"user_id":427,"name":"Ville","steam_id":76561198137424821,"connected_time":691000000000,"state":"active","ping":60},{"user_id":428,"name":"Rogue","steam_id":76561199143593182,"connected_time":638000000000,"state":"active","ping":48},{"user_id":426,"name":"SirToast","steam_id":76561199229729107,"connected_time":909000000000,"state":"active","ping":72},{"user_id":421,"name":"albinos","steam_id":76561198959964655,"connected_time":1527000000000,"state":"active","ping":83},{"user_id":429,"name":"gagalak","steam_id":76561198089979108,"connected_time":589000000000,"state":"active","ping":96},{"user_id":405,"name":"Zamorocian","steam_id":76561198076604017,"connected_time":3038000000000,"state":"active","ping":38},{"user_id":388,"name":"AWP Bodyshot :) ❤","steam_id":76561198029928533,"connected_time":4594000000000,"state":"active","ping":53},{"user_id":422,"name":"Slifer the Sky Dragon","steam_id":76561198062255803,"connected_time":1319000000000,"state":"active","ping":71},{"user_id":358,"name":"Lyell","steam_id":76561198350329389,"connected_time":7653000000000,"state":"active","ping":70},{"user_id":407,"name":"ඞauraඞ","steam_id":76561198066258544,"connected_time":2876000000000,"state":"active","ping":63},{"user_id":401,"name":"mertefe","steam_id":76561199237126613,"connected_time":3301000000000,"state":"active","ping":108},{"user_id":417,"name":"charlotte","steam_id":76561198075129898,"connected_time":1981000000000,"state":"active","ping":31}]},{"server_id":114,"name":"Uncletopia | London | 2 | All Maps","name_short":"lon-2","host":"lon-1.uk.uncletopia.com","port":27025,"enabled":true,"region":"eu","cc":"gb","latitude":51.509865,"longitude":-0.118092,"reserved":0,"last_update":"0001-01-01T00:00:00Z","name_a2s":"Uncletopia | London | 2 | All Maps","protocol":17,"map":"pl_pier","folder":"tf","game":"Team Fortress","app_id":440,"player_count":24,"max_players":24,"Bots":0,"server_type":"Dedicated","server_os":"Linux","password":true,"vac":true,"version":"7961495","steam_id":85568392924470941,"keywords":["nocrits","nodmgspread","payload","uncletopia"],"game_id":440,"stv_port":27026,"stv_name":"Uncletopia | London | 2 | All Maps | STV","players":[{"user_id":310,"name":"RIBS GROW BACK","steam_id":76561198123659806,"connected_time":3956000000000,"state":"active","ping":90},{"user_id":353,"name":"Demicore","steam_id":76561197976922136,"connected_time":1576000000000,"state":"active","ping":68},{"user_id":341,"name":"m909","steam_id":76561198279621400,"connected_time":2002000000000,"state":"active","ping":96},{"user_id":354,"name":"(MAC) [BN] Crazyking","steam_id":76561198001668616,"connected_time":1066000000000,"state":"active","ping":58},{"user_id":363,"name":"The_Jaystone","steam_id":76561198126280691,"connected_time":247000000000,"state":"active","ping":32},{"user_id":361,"name":"Tupac alive in serbia","steam_id":76561198010978989,"connected_time":814000000000,"state":"active","ping":67},{"user_id":373,"name":"Shlongulator","steam_id":76561198149779201,"connected_time":59000000000,"state":"active","ping":54},{"user_id":342,"name":"silicon based life form","steam_id":76561199127121346,"connected_time":1997000000000,"state":"active","ping":54},{"user_id":337,"name":"HUGO","steam_id":76561198317134996,"connected_time":2087000000000,"state":"active","ping":91},{"user_id":349,"name":"kluri","steam_id":76561198084518962,"connected_time":1894000000000,"state":"active","ping":75},{"user_id":365,"name":"Lonekus","steam_id":76561198055613110,"connected_time":216000000000,"state":"active","ping":70},{"user_id":366,"name":"Sushichef083","steam_id":76561198248567360,"connected_time":215000000000,"state":"active","ping":38},{"user_id":360,"name":"GGabe","steam_id":76561198117199068,"connected_time":837000000000,"state":"active","ping":75},{"user_id":344,"name":"INFINITE WISDOM","steam_id":76561198329621152,"connected_time":1982000000000,"state":"active","ping":60},{"user_id":367,"name":"scrambledeggs10","steam_id":76561198798803845,"connected_time":208000000000,"state":"active","ping":48},{"user_id":368,"name":"Lillipuut","steam_id":76561198090146457,"connected_time":202000000000,"state":"active","ping":41},{"user_id":369,"name":"DOMAIN","steam_id":76561199095640319,"connected_time":201000000000,"state":"active","ping":89},{"user_id":314,"name":"Max Andrew","steam_id":76561198158955194,"connected_time":3904000000000,"state":"active","ping":57},{"user_id":357,"name":"Mr.Pancakes","steam_id":76561198014345864,"connected_time":980000000000,"state":"active","ping":45},{"user_id":370,"name":"v-dog","steam_id":76561199056583954,"connected_time":188000000000,"state":"active","ping":60},{"user_id":332,"name":"compact disc","steam_id":76561198154677956,"connected_time":2586000000000,"state":"active","ping":81},{"user_id":374,"name":"burrito","steam_id":76561198884574659,"connected_time":30000000000,"state":"active","ping":75},{"user_id":371,"name":"dg","steam_id":76561199074553825,"connected_time":169000000000,"state":"active","ping":60},{"user_id":372,"name":"temanator","steam_id":76561198401227053,"connected_time":154000000000,"state":"active","ping":105}]},{"server_id":320,"name":"Uncletopia | London | 3 | All Maps","name_short":"lon-3","host":"lon-1.uk.uncletopia.com","port":27035,"enabled":true,"region":"eu","cc":"gb","latitude":51.509865,"longitude":-0.118092,"reserved":0,"last_update":"0001-01-01T00:00:00Z","name_a2s":"Uncletopia | London | 3 | All Maps","protocol":17,"map":"pl_pier","folder":"tf","game":"Team Fortress","app_id":440,"player_count":24,"max_players":24,"Bots":0,"server_type":"Dedicated","server_os":"Linux","password":true,"vac":true,"version":"7961495","steam_id":85568392924510192,"keywords":["nocrits","nodmgspread","payload","uncletopia"],"game_id":440,"stv_port":27036,"stv_name":"Uncletopia | London | 3 | All Maps | STV","players":[{"user_id":174,"name":"ScottishBrah","steam_id":76561198061923736,"connected_time":172000000000,"state":"active","ping":53},{"user_id":97,"name":"«x»Paradroide","steam_id":76561198180190190,"connected_time":4827000000000,"state":"active","ping":72},{"user_id":167,"name":"The Empire Ant","steam_id":76561198082466790,"connected_time":381000000000,"state":"active","ping":60},{"user_id":140,"name":"Talyos","steam_id":76561198040184806,"connected_time":1975000000000,"state":"active","ping":70},{"user_id":166,"name":"Irdi","steam_id":76561198357322167,"connected_time":386000000000,"state":"active","ping":40},{"user_id":168,"name":"一龙马","steam_id":76561198364121077,"connected_time":379000000000,"state":"active","ping":99},{"user_id":141,"name":"WHearts","steam_id":76561198081597329,"connected_time":1959000000000,"state":"active","ping":63},{"user_id":163,"name":"Lone Wanderer","steam_id":76561198827382617,"connected_time":495000000000,"state":"active","ping":131},{"user_id":169,"name":"La Résistance","steam_id":76561198891046692,"connected_time":374000000000,"state":"active","ping":103},{"user_id":170,"name":"Android Device Connected","steam_id":76561199244250562,"connected_time":328000000000,"state":"active","ping":104},{"user_id":152,"name":"pepper","steam_id":76561198059782462,"connected_time":1375000000000,"state":"active","ping":61},{"user_id":162,"name":"zayd","steam_id":76561198895235231,"connected_time":638000000000,"state":"active","ping":54},{"user_id":171,"name":"Matt the Waffling-Iron","steam_id":76561198044066043,"connected_time":324000000000,"state":"active","ping":82},{"user_id":172,"name":"elio","steam_id":76561198142662131,"connected_time":314000000000,"state":"active","ping":70},{"user_id":111,"name":"LivEssense","steam_id":76561198052476979,"connected_time":4159000000000,"state":"active","ping":89},{"user_id":146,"name":"A Succulent Chinese Meal","steam_id":76561198069472440,"connected_time":1857000000000,"state":"active","ping":74},{"user_id":87,"name":"Rjay","steam_id":76561198026151229,"connected_time":5629000000000,"state":"active","ping":107},{"user_id":76,"name":"After8","steam_id":76561198090750865,"connected_time":6507000000000,"state":"active","ping":74},{"user_id":175,"name":"DrExplosive","steam_id":76561198063678579,"connected_time":128000000000,"state":"active","ping":52},{"user_id":100,"name":"★Lily","steam_id":76561198014774371,"connected_time":4805000000000,"state":"active","ping":45},{"user_id":158,"name":"Rubi","steam_id":76561198139410003,"connected_time":838000000000,"state":"active","ping":92},{"user_id":109,"name":"Optimist 50","steam_id":76561198039631442,"connected_time":4253000000000,"state":"active","ping":83},{"user_id":164,"name":"eMcP","steam_id":76561198382509396,"connected_time":492000000000,"state":"active","ping":59},{"user_id":173,"name":"VampireSunflower","steam_id":76561199007012355,"connected_time":231000000000,"state":"active","ping":54}]},{"server_id":321,"name":"Uncletopia | London | 4 | All Maps","name_short":"lon-4","host":"lon-1.uk.uncletopia.com","port":27045,"enabled":true,"region":"eu","cc":"gb","latitude":51.509865,"longitude":-0.118092,"reserved":0,"last_update":"0001-01-01T00:00:00Z","name_a2s":"Uncletopia | London | 4 | All Maps","protocol":17,"map":"cp_mossrock","folder":"tf","game":"Team Fortress","app_id":440,"player_count":22,"max_players":24,"Bots":0,"server_type":"Dedicated","server_os":"Linux","password":true,"vac":true,"version":"7961495","steam_id":85568392924510193,"keywords":["cp","nocrits","nodmgspread","uncletopia"],"game_id":440,"stv_port":27046,"stv_name":"Uncletopia | London | 4 | All Maps | STV","players":[{"user_id":156,"name":"Anthony's Official Profile","steam_id":76561199020903774,"connected_time":660000000000,"state":"active","ping":100},{"user_id":167,"name":"ᶦˢʳᵃᵉˡ","steam_id":76561198051832269,"connected_time":13000000000,"state":"spawning","ping":48},{"user_id":145,"name":"Pvt. Prinny","steam_id":76561198030278562,"connected_time":1222000000000,"state":"active","ping":46},{"user_id":149,"name":"un puie","steam_id":76561198084056439,"connected_time":1136000000000,"state":"active","ping":32},{"user_id":146,"name":"The Twice-Gorped Morp","steam_id":76561198052636352,"connected_time":1221000000000,"state":"active","ping":46},{"user_id":164,"name":"Dagertul","steam_id":76561198102822860,"connected_time":71000000000,"state":"active","ping":88},{"user_id":136,"name":"I. P. Freely","steam_id":76561198155176802,"connected_time":1290000000000,"state":"active","ping":151},{"user_id":165,"name":"A_dude","steam_id":76561199261495418,"connected_time":58000000000,"state":"active","ping":108},{"user_id":114,"name":"A Very Disappointing Salad","steam_id":76561198020277939,"connected_time":2840000000000,"state":"active","ping":54},{"user_id":133,"name":"Oviraptor Supreme","steam_id":76561198044262534,"connected_time":1661000000000,"state":"active","ping":148},{"user_id":161,"name":"D4NTheProtogen","steam_id":76561198206460789,"connected_time":266000000000,"state":"active","ping":59},{"user_id":127,"name":"Bzd","steam_id":76561198204521956,"connected_time":1867000000000,"state":"active","ping":85},{"user_id":126,"name":"Gregor Samsa","steam_id":76561198973069177,"connected_time":1939000000000,"state":"active","ping":59},{"user_id":157,"name":"totalynotToast","steam_id":76561198384625892,"connected_time":657000000000,"state":"active","ping":81},{"user_id":107,"name":"Bags.","steam_id":76561198045708372,"connected_time":3140000000000,"state":"active","ping":63},{"user_id":142,"name":"אבא","steam_id":76561198184360615,"connected_time":1254000000000,"state":"active","ping":104},{"user_id":124,"name":"Jaeger","steam_id":76561199392187099,"connected_time":2022000000000,"state":"active","ping":166},{"user_id":166,"name":"Hankster","steam_id":76561199472336795,"connected_time":54000000000,"state":"active","ping":131},{"user_id":94,"name":"WrytXander","steam_id":76561198067856323,"connected_time":4026000000000,"state":"active","ping":88},{"user_id":130,"name":"[HOL] Solringen","steam_id":76561198003584681,"connected_time":1790000000000,"state":"active","ping":75},{"user_id":148,"name":"Kokos","steam_id":76561198085501501,"connected_time":1188000000000,"state":"active","ping":83}]},{"server_id":21,"name":"Uncletopia | London | 5 | All Maps","name_short":"lon-5","host":"lon-1.uk.uncletopia.com","port":27055,"enabled":true,"region":"eu","cc":"gb","latitude":51.509865,"longitude":-0.118092,"reserved":0,"last_update":"0001-01-01T00:00:00Z","name_a2s":"Uncletopia | London | 5 | All Maps","protocol":17,"map":"cp_process_final","folder":"tf","game":"Team Fortress","app_id":440,"player_count":23,"max_players":24,"Bots":0,"server_type":"Dedicated","server_os":"Linux","password":true,"vac":true,"version":"7961495","steam_id":85568392924742829,"keywords":["cp","nocrits","nodmgspread","uncletopia"],"game_id":440,"stv_port":27056,"stv_name":"Uncletopia | London | 5 | All Maps | STV","players":[{"user_id":57,"name":"Ghost","steam_id":76561198110914180,"connected_time":3234000000000,"state":"active","ping":101},{"user_id":59,"name":"Jeff","steam_id":76561198074722832,"connected_time":2978000000000,"state":"active","ping":60},{"user_id":63,"name":"Hotdogs","steam_id":76561199112737347,"connected_time":2700000000000,"state":"active","ping":59},{"user_id":76,"name":"Xtis","steam_id":76561198043837480,"connected_time":1823000000000,"state":"active","ping":62},{"user_id":20,"name":"Deez nuts","steam_id":76561199429562693,"connected_time":5203000000000,"state":"active","ping":74},{"user_id":21,"name":"Kenny_killer_69","steam_id":76561199465207725,"connected_time":5198000000000,"state":"active","ping":72},{"user_id":91,"name":"Kiwi","steam_id":76561198162162816,"connected_time":212000000000,"state":"active","ping":53},{"user_id":77,"name":"Padux","steam_id":76561198303885943,"connected_time":1689000000000,"state":"active","ping":90},{"user_id":87,"name":"JayKey","steam_id":76561198008847925,"connected_time":1077000000000,"state":"active","ping":60},{"user_id":32,"name":"Dry","steam_id":76561198027164095,"connected_time":4020000000000,"state":"active","ping":135},{"user_id":72,"name":"Loot goblin","steam_id":76561198803330799,"connected_time":1916000000000,"state":"active","ping":101},{"user_id":84,"name":"Lubi Animal","steam_id":76561199041620433,"connected_time":1342000000000,"state":"active","ping":61},{"user_id":88,"name":"Mr. Hunts","steam_id":76561197981910397,"connected_time":1036000000000,"state":"active","ping":63},{"user_id":89,"name":"bondbungerjames2007.eu","steam_id":76561198112681438,"connected_time":929000000000,"state":"active","ping":86},{"user_id":79,"name":"Tort","steam_id":76561198329646769,"connected_time":1499000000000,"state":"active","ping":66},{"user_id":66,"name":"Woman (Real)","steam_id":76561199151823932,"connected_time":2581000000000,"state":"active","ping":83},{"user_id":70,"name":"Fat Pigeon","steam_id":76561198817940142,"connected_time":2223000000000,"state":"active","ping":47},{"user_id":43,"name":"skittish maiden","steam_id":76561198096856475,"connected_time":3680000000000,"state":"active","ping":49},{"user_id":60,"name":"Spurt","steam_id":76561198078523852,"connected_time":2973000000000,"state":"active","ping":55},{"user_id":90,"name":"Beanie","steam_id":76561198173882658,"connected_time":915000000000,"state":"active","ping":51},{"user_id":75,"name":"xavier","steam_id":76561198076494034,"connected_time":1851000000000,"state":"active","ping":51},{"user_id":69,"name":"Mono","steam_id":76561198114569493,"connected_time":2409000000000,"state":"active","ping":45},{"user_id":56,"name":"Snowy","steam_id":76561198169992461,"connected_time":3277000000000,"state":"active","ping":37}]},{"server_id":22,"name":"Uncletopia | London | 6 | All Maps","name_short":"lon-6","host":"lon-1.uk.uncletopia.com","port":27065,"enabled":true,"region":"eu","cc":"gb","latitude":51.509865,"longitude":-0.118092,"reserved":0,"last_update":"0001-01-01T00:00:00Z","name_a2s":"Uncletopia | London | 6 | All Maps","protocol":17,"map":"pl_borneo","folder":"tf","game":"Team Fortress","app_id":440,"player_count":24,"max_players":24,"Bots":0,"server_type":"Dedicated","server_os":"Linux","password":true,"vac":true,"version":"7961495","steam_id":85568392924742830,"keywords":["nocrits","nodmgspread","payload","uncletopia"],"game_id":440,"stv_port":27066,"stv_name":"Uncletopia | London | 6 | All Maps | STV","players":[{"user_id":215,"name":"Hugh","steam_id":76561198976348754,"connected_time":293000000000,"state":"active","ping":41},{"user_id":216,"name":"belal tiger","steam_id":76561198977309417,"connected_time":279000000000,"state":"active","ping":155},{"user_id":168,"name":"b0g","steam_id":76561198051124946,"connected_time":2167000000000,"state":"active","ping":48},{"user_id":201,"name":"SodaHead13","steam_id":76561198202990635,"connected_time":879000000000,"state":"active","ping":74},{"user_id":172,"name":"SirDirtbag","steam_id":76561198091890855,"connected_time":1920000000000,"state":"active","ping":76},{"user_id":206,"name":"thekoolest88","steam_id":76561199022415672,"connected_time":505000000000,"state":"active","ping":135},{"user_id":182,"name":"G_raff","steam_id":76561199048512726,"connected_time":1576000000000,"state":"active","ping":81},{"user_id":175,"name":"FunkyTortoise","steam_id":76561198199327225,"connected_time":1663000000000,"state":"active","ping":151},{"user_id":202,"name":"hipster_doofus","steam_id":76561197970902697,"connected_time":665000000000,"state":"active","ping":58},{"user_id":177,"name":"Heisenberg","steam_id":76561199258663651,"connected_time":1642000000000,"state":"active","ping":97},{"user_id":178,"name":"Makima","steam_id":76561198142035416,"connected_time":1630000000000,"state":"active","ping":104},{"user_id":179,"name":"crow","steam_id":76561198126999251,"connected_time":1624000000000,"state":"active","ping":74},{"user_id":207,"name":"Irme","steam_id":76561198161590299,"connected_time":498000000000,"state":"active","ping":79},{"user_id":208,"name":"Samitizer","steam_id":76561198354682764,"connected_time":470000000000,"state":"active","ping":63},{"user_id":183,"name":"QuestionMark","steam_id":76561198976108019,"connected_time":1565000000000,"state":"active","ping":161},{"user_id":214,"name":"CarbonPan","steam_id":76561198072169983,"connected_time":420000000000,"state":"active","ping":103},{"user_id":217,"name":"Dude Time","steam_id":76561198092991160,"connected_time":173000000000,"state":"active","ping":163},{"user_id":187,"name":"(1)jeans","steam_id":76561198097706286,"connected_time":1499000000000,"state":"active","ping":54},{"user_id":195,"name":"Michael","steam_id":76561198003146906,"connected_time":1194000000000,"state":"active","ping":46},{"user_id":189,"name":"Macoda","steam_id":76561198061487030,"connected_time":1484000000000,"state":"active","ping":115},{"user_id":190,"name":"N5LH","steam_id":76561199112528775,"connected_time":1466000000000,"state":"active","ping":107},{"user_id":191,"name":"Taplo","steam_id":76561198045694019,"connected_time":1458000000000,"state":"active","ping":72},{"user_id":204,"name":"xiiski","steam_id":76561198152387747,"connected_time":617000000000,"state":"active","ping":102},{"user_id":213,"name":"Mizzow","steam_id":76561198008040797,"connected_time":432000000000,"state":"active","ping":82}]},{"server_id":40,"name":"Uncletopia | London | 7 | Stopwatch","name_short":"lon-7","host":"lon-1.uk.uncletopia.com","port":27075,"enabled":true,"region":"eu","cc":"gb","latitude":51.509865,"longitude":-0.118092,"reserved":0,"last_update":"0001-01-01T00:00:00Z","name_a2s":"Uncletopia | London | 7 | Stopwatch","protocol":17,"map":"koth_highpass","folder":"tf","game":"Team Fortress","app_id":440,"player_count":0,"max_players":24,"Bots":0,"server_type":"Dedicated","server_os":"Linux","password":true,"vac":true,"version":"7961495","steam_id":85568392924964314,"keywords":["cp","nocrits","nodmgspread","uncletopia"],"game_id":440,"stv_port":27076,"stv_name":"Uncletopia | London | 7 | Stopwatch | STV","players":null},{"server_id":41,"name":"Uncletopia | London | 8 | Community","name_short":"lon-8","host":"lon-1.uk.uncletopia.com","port":27085,"enabled":true,"region":"eu","cc":"gb","latitude":51.509865,"longitude":-0.118092,"reserved":0,"last_update":"0001-01-01T00:00:00Z","name_a2s":"Uncletopia | London | 8 | Community","protocol":17,"map":"workshop/koth_product_final.ugc454272353","folder":"tf","game":"Team Fortress","app_id":440,"player_count":0,"max_players":24,"Bots":0,"server_type":"Dedicated","server_os":"Linux","password":true,"vac":true,"version":"7961495","steam_id":85568392924964315,"keywords":["cp","nocrits","nodmgspread","uncletopia"],"game_id":440,"stv_port":27086,"stv_name":"Uncletopia | London | 8 | Community | STV","players":null},{"server_id":300,"name":"Uncletopia | Montréal | 1 | One Thousand Uncles","name_short":"mtl-1","host":"mtl-1.ca.uncletopia.com","port":27015,"enabled":true,"region":"us-east","cc":"ca","latitude":45.50889,"longitude":-73.56167,"reserved":0,"last_update":"0001-01-01T00:00:00Z","name_a2s":"","protocol":0,"map":"","folder":"","game":"","app_id":0,"player_count":9,"max_players":0,"Bots":0,"server_type":"","server_os":"","password":false,"vac":false,"version":"","steam_id":0,"keywords":null,"game_id":0,"stv_port":0,"stv_name":"","players":[{"user_id":73,"name":"DurpyChimiChanGa","steam_id":76561199101447065,"connected_time":3853000000000,"state":"active","ping":65},{"user_id":107,"name":"Pig master","steam_id":76561199388075545,"connected_time":734000000000,"state":"active","ping":111},{"user_id":108,"name":"PointyCactus","steam_id":76561199377064707,"connected_time":611000000000,"state":"active","ping":60},{"user_id":96,"name":"Tlord","steam_id":76561198086967416,"connected_time":2101000000000,"state":"active","ping":66},{"user_id":94,"name":"TheBoringEdward","steam_id":76561199061482992,"connected_time":2826000000000,"state":"active","ping":123},{"user_id":101,"name":"C.I.R.C.U.I.T","steam_id":76561199303995403,"connected_time":1330000000000,"state":"active","ping":127},{"user_id":103,"name":"Why not Zoidberg?","steam_id":76561197982207556,"connected_time":1216000000000,"state":"active","ping":74},{"user_id":110,"name":"Ak","steam_id":76561199333659458,"connected_time":198000000000,"state":"active","ping":61},{"user_id":111,"name":"Piercedemoss13","steam_id":76561198850170270,"connected_time":143000000000,"state":"active","ping":95}]},{"server_id":301,"name":"Uncletopia | Montréal | 2 | One Thousand Uncles","name_short":"mtl-2","host":"mtl-1.ca.uncletopia.com","port":27025,"enabled":true,"region":"us-east","cc":"ca","latitude":45.50889,"longitude":-73.56167,"reserved":0,"last_update":"0001-01-01T00:00:00Z","name_a2s":"","protocol":0,"map":"","folder":"","game":"","app_id":0,"player_count":0,"max_players":0,"Bots":0,"server_type":"","server_os":"","password":false,"vac":false,"version":"","steam_id":0,"keywords":null,"game_id":0,"stv_port":0,"stv_name":"","players":null},{"server_id":302,"name":"Uncletopia | Montréal | 3 | One Thousand Uncles","name_short":"mtl-3","host":"mtl-1.ca.uncletopia.com","port":27035,"enabled":true,"region":"us-east","cc":"ca","latitude":45.50889,"longitude":-73.56167,"reserved":0,"last_update":"0001-01-01T00:00:00Z","name_a2s":"","protocol":0,"map":"","folder":"","game":"","app_id":0,"player_count":0,"max_players":0,"Bots":0,"server_type":"","server_os":"","password":false,"vac":false,"version":"","steam_id":0,"keywords":null,"game_id":0,"stv_port":0,"stv_name":"","players":null},{"server_id":13,"name":"Uncletopia | New York City | 1 | All Maps","name_short":"nyc-1","host":"nyc-1.us.uncletopia.com","port":27015,"enabled":true,"region":"us-east","cc":"us","latitude":40.73061,"longitude":-73.93524,"reserved":0,"last_update":"0001-01-01T00:00:00Z","name_a2s":"Uncletopia | New York City | 1 | All Maps","protocol":17,"map":"cp_altitude","folder":"tf","game":"Team Fortress","app_id":440,"player_count":0,"max_players":24,"Bots":0,"server_type":"Dedicated","server_os":"Linux","password":true,"vac":true,"version":"7961495","steam_id":85568392924469993,"keywords":["cp","nocrits","nodmgspread","uncletopia"],"game_id":440,"stv_port":27016,"stv_name":"Uncletopia | New York City | 1 | All Maps | STV","players":null},{"server_id":14,"name":"Uncletopia | New York City | 2 | All Maps","name_short":"nyc-2","host":"nyc-1.us.uncletopia.com","port":27025,"enabled":true,"region":"us-east","cc":"us","latitude":40.73061,"longitude":-73.93524,"reserved":0,"last_update":"0001-01-01T00:00:00Z","name_a2s":"Uncletopia | New York City | 2 | All Maps","protocol":17,"map":"cp_powerhouse","folder":"tf","game":"Team Fortress","app_id":440,"player_count":24,"max_players":24,"Bots":0,"server_type":"Dedicated","server_os":"Linux","password":true,"vac":true,"version":"7961495","steam_id":85568392924469994,"keywords":["cp","nocrits","nodmgspread","uncletopia"],"game_id":440,"stv_port":27026,"stv_name":"Uncletopia | New York City | 2 | All Maps | STV","players":[{"user_id":224,"name":"AprilB0rnSt0rm","steam_id":76561199135214335,"connected_time":377000000000,"state":"active","ping":75},{"user_id":86,"name":"Jin","steam_id":76561198119873148,"connected_time":7972000000000,"state":"active","ping":46},{"user_id":190,"name":"He rolls his own","steam_id":76561198058162684,"connected_time":2768000000000,"state":"active","ping":64},{"user_id":173,"name":"Seven","steam_id":76561198259947055,"connected_time":3891000000000,"state":"active","ping":58},{"user_id":209,"name":"confetti","steam_id":76561198335140490,"connected_time":1979000000000,"state":"active","ping":82},{"user_id":177,"name":"MaxTheRetroGuy","steam_id":76561198845344731,"connected_time":3857000000000,"state":"active","ping":56},{"user_id":147,"name":"rat 🥲😶🌫","steam_id":76561198130412963,"connected_time":6418000000000,"state":"active","ping":86},{"user_id":214,"name":"Mipsiek","steam_id":76561198164013471,"connected_time":1255000000000,"state":"active","ping":48},{"user_id":216,"name":"MechaSixVII","steam_id":76561198014927379,"connected_time":1243000000000,"state":"active","ping":73},{"user_id":225,"name":"Werm","steam_id":76561198149601897,"connected_time":360000000000,"state":"active","ping":57},{"user_id":217,"name":"RealStanzy","steam_id":76561199060261003,"connected_time":1242000000000,"state":"active","ping":57},{"user_id":198,"name":"I microwave fish","steam_id":76561198011603359,"connected_time":2437000000000,"state":"active","ping":69},{"user_id":179,"name":"vastrobotmax","steam_id":76561198417110724,"connected_time":3836000000000,"state":"active","ping":71},{"user_id":185,"name":"pea ttv/peabeanz","steam_id":76561198119551968,"connected_time":3309000000000,"state":"active","ping":58},{"user_id":221,"name":"battle clown","steam_id":76561198045788371,"connected_time":566000000000,"state":"active","ping":75},{"user_id":172,"name":"SHADY SWEATER SALESMAN","steam_id":76561198014616865,"connected_time":3908000000000,"state":"active","ping":47},{"user_id":183,"name":"hayes","steam_id":76561198057101042,"connected_time":3340000000000,"state":"active","ping":101},{"user_id":222,"name":"Gailus","steam_id":76561198319509387,"connected_time":462000000000,"state":"active","ping":62},{"user_id":164,"name":"CornDog","steam_id":76561198249446918,"connected_time":5078000000000,"state":"active","ping":39},{"user_id":192,"name":"innisfree","steam_id":76561198109065124,"connected_time":2726000000000,"state":"active","ping":57},{"user_id":211,"name":"lu","steam_id":76561198080731872,"connected_time":1349000000000,"state":"active","ping":73},{"user_id":206,"name":"Big Yoshi","steam_id":76561199160576376,"connected_time":2224000000000,"state":"active","ping":125},{"user_id":218,"name":"LeGamingProPlays","steam_id":76561198121304032,"connected_time":1242000000000,"state":"active","ping":84},{"user_id":201,"name":"[TF2Apples] Intense Green Apple","steam_id":76561198803561622,"connected_time":2289000000000,"state":"active","ping":81}]},{"server_id":15,"name":"Uncletopia | New York City | 3 | Stopwatch","name_short":"nyc-3","host":"nyc-1.us.uncletopia.com","port":27035,"enabled":true,"region":"us-east","cc":"us","latitude":40.73061,"longitude":-73.93524,"reserved":0,"last_update":"0001-01-01T00:00:00Z","name_a2s":"Uncletopia | New York City | 3 | Stopwatch","protocol":17,"map":"workshop/koth_product_final.ugc454272353","folder":"tf","game":"Team Fortress","app_id":440,"player_count":0,"max_players":24,"Bots":0,"server_type":"Dedicated","server_os":"Linux","password":true,"vac":true,"version":"7961495","steam_id":85568392924742820,"keywords":["cp","nocrits","nodmgspread","uncletopia"],"game_id":440,"stv_port":27036,"stv_name":"Uncletopia | New York City | 3 | Stopwatch | STV","players":null},{"server_id":16,"name":"Uncletopia | New York City | 4 | Community","name_short":"nyc-4","host":"nyc-1.us.uncletopia.com","port":27045,"enabled":true,"region":"us-east","cc":"us","latitude":40.73061,"longitude":-73.93524,"reserved":0,"last_update":"0001-01-01T00:00:00Z","name_a2s":"Uncletopia | New York City | 4 | Community","protocol":17,"map":"workshop/cp_fulgur_rc2a.ugc2068252300","folder":"tf","game":"Team Fortress","app_id":440,"player_count":0,"max_players":24,"Bots":0,"server_type":"Dedicated","server_os":"Linux","password":true,"vac":true,"version":"7961495","steam_id":85568392924742821,"keywords":["cp","nocrits","nodmgspread","uncletopia"],"game_id":440,"stv_port":27046,"stv_name":"Uncletopia | New York City | 4 | Community | STV","players":null},{"server_id":142,"name":"Uncletopia | São Paulo | 1 | All Maps","name_short":"sao-1","host":"sao-1.br.uncletopia.com","port":27015,"enabled":true,"region":"sa","cc":"br","latitude":-23.533773,"longitude":-46.62529,"reserved":0,"last_update":"0001-01-01T00:00:00Z","name_a2s":"Uncletopia | São Paulo | 1 | All Maps","protocol":17,"map":"koth_viaduct","folder":"tf","game":"Team Fortress","app_id":440,"player_count":1,"max_players":24,"Bots":0,"server_type":"Dedicated","server_os":"Linux","password":true,"vac":true,"version":"7961495","steam_id":85568392924469996,"keywords":["cp","nocrits","nodmgspread","uncletopia"],"game_id":440,"stv_port":27016,"stv_name":"Uncletopia | São Paulo | 1 | All Maps | STV","players":[{"user_id":6,"name":"Chainsaw 286","steam_id":76561199006539437,"connected_time":19000000000,"state":"spawning","ping":103}]},{"server_id":143,"name":"Uncletopia | São Paulo | 2 | Community","name_short":"sao-2","host":"sao-2.br.uncletopia.com","port":27015,"enabled":true,"region":"sa","cc":"br","latitude":-23.533773,"longitude":-46.62529,"reserved":0,"last_update":"0001-01-01T00:00:00Z","name_a2s":"Uncletopia | São Paulo | 2 | Community","protocol":17,"map":"pl_badwater","folder":"tf","game":"Team Fortress","app_id":440,"player_count":0,"max_players":24,"Bots":0,"server_type":"Dedicated","server_os":"Linux","password":true,"vac":true,"version":"7961495","steam_id":85568392924485349,"keywords":["nocrits","nodmgspread","payload","uncletopia"],"game_id":440,"stv_port":27016,"stv_name":"Uncletopia | São Paulo | 2 | Community | STV","players":null},{"server_id":7,"name":"Uncletopia | Seattle | 1 | All Maps","name_short":"sea-1","host":"sea-1.us.uncletopia.com","port":27015,"enabled":true,"region":"us-west","cc":"us","latitude":47.608013,"longitude":-122.33517,"reserved":0,"last_update":"0001-01-01T00:00:00Z","name_a2s":"Uncletopia | Seattle | 1 | All Maps","protocol":17,"map":"pl_pier","folder":"tf","game":"Team Fortress","app_id":440,"player_count":24,"max_players":24,"Bots":0,"server_type":"Dedicated","server_os":"Linux","password":true,"vac":true,"version":"7961495","steam_id":85568392924469997,"keywords":["nocrits","nodmgspread","payload","uncletopia"],"game_id":440,"stv_port":27016,"stv_name":"Uncletopia | Seattle | 1 | All Maps | STV","players":[{"user_id":146,"name":"jp!?","steam_id":76561198297764223,"connected_time":702000000000,"state":"active","ping":75},{"user_id":65,"name":"orbisg","steam_id":76561198004133638,"connected_time":6421000000000,"state":"active","ping":67},{"user_id":128,"name":"SomeName","steam_id":76561198055637632,"connected_time":1501000000000,"state":"active","ping":80},{"user_id":113,"name":"Hashmere","steam_id":76561198002797253,"connected_time":2895000000000,"state":"active","ping":111},{"user_id":87,"name":"Pi-er","steam_id":76561198450073779,"connected_time":4566000000000,"state":"active","ping":44},{"user_id":105,"name":"sudoku_fiend","steam_id":76561198152029104,"connected_time":3393000000000,"state":"active","ping":84},{"user_id":102,"name":"Doorstop","steam_id":76561198017707085,"connected_time":3521000000000,"state":"active","ping":120},{"user_id":147,"name":"jello_hey","steam_id":76561199176327650,"connected_time":620000000000,"state":"active","ping":111},{"user_id":142,"name":"Aerospine","steam_id":76561198021438134,"connected_time":789000000000,"state":"active","ping":71},{"user_id":153,"name":"AttackCommander","steam_id":76561198111522679,"connected_time":318000000000,"state":"active","ping":104},{"user_id":154,"name":"mada","steam_id":76561198400172186,"connected_time":302000000000,"state":"active","ping":110},{"user_id":132,"name":"GH578","steam_id":76561199493262585,"connected_time":1334000000000,"state":"active","ping":72},{"user_id":134,"name":"rootin tootin buckaneer","steam_id":76561198372513219,"connected_time":1298000000000,"state":"active","ping":47},{"user_id":149,"name":"kevin duramputator","steam_id":76561198089691679,"connected_time":610000000000,"state":"active","ping":114},{"user_id":136,"name":"Little Linguine","steam_id":76561198816986370,"connected_time":1283000000000,"state":"active","ping":41},{"user_id":151,"name":"Leo x.x","steam_id":76561198309760791,"connected_time":374000000000,"state":"active","ping":123},{"user_id":155,"name":"Bush.exe","steam_id":76561198124385307,"connected_time":250000000000,"state":"active","ping":121},{"user_id":156,"name":"dimmy","steam_id":76561198401788526,"connected_time":102000000000,"state":"active","ping":47},{"user_id":112,"name":"Eden","steam_id":76561198081284664,"connected_time":2977000000000,"state":"active","ping":79},{"user_id":62,"name":"Bcuz","steam_id":76561197981318027,"connected_time":7017000000000,"state":"active","ping":85},{"user_id":143,"name":"Tracey [sillymoder]","steam_id":76561198202235495,"connected_time":786000000000,"state":"active","ping":42},{"user_id":117,"name":"kirby7","steam_id":76561199167006749,"connected_time":2488000000000,"state":"active","ping":95},{"user_id":145,"name":"FatCuddlyBear","steam_id":76561198133613253,"connected_time":775000000000,"state":"active","ping":104},{"user_id":127,"name":"Oktayey","steam_id":76561198143213426,"connected_time":1554000000000,"state":"active","ping":64}]},{"server_id":119,"name":"Uncletopia | Seattle | 2 | All Maps","name_short":"sea-2","host":"sea-1.us.uncletopia.com","port":27025,"enabled":true,"region":"us-west","cc":"us","latitude":47.608013,"longitude":-122.33517,"reserved":0,"last_update":"0001-01-01T00:00:00Z","name_a2s":"Uncletopia | Seattle | 2 | All Maps","protocol":17,"map":"cp_process_final","folder":"tf","game":"Team Fortress","app_id":440,"player_count":0,"max_players":24,"Bots":0,"server_type":"Dedicated","server_os":"Linux","password":true,"vac":true,"version":"7961495","steam_id":85568392924469998,"keywords":["cp","nocrits","nodmgspread","uncletopia"],"game_id":440,"stv_port":27026,"stv_name":"Uncletopia | Seattle | 2 | All Maps | STV","players":null},{"server_id":406,"name":"Uncletopia | Seattle | 3 | Stopwatch","name_short":"sea-3","host":"sea-1.us.uncletopia.com","port":27035,"enabled":true,"region":"us-west","cc":"us","latitude":47.608013,"longitude":-122.33517,"reserved":0,"last_update":"0001-01-01T00:00:00Z","name_a2s":"Uncletopia | Seattle | 3 | Stopwatch","protocol":17,"map":"pl_pier","folder":"tf","game":"Team Fortress","app_id":440,"player_count":0,"max_players":24,"Bots":0,"server_type":"Dedicated","server_os":"Linux","password":true,"vac":true,"version":"7961495","steam_id":85568392924515217,"keywords":["nocrits","nodmgspread","payload","uncletopia"],"game_id":440,"stv_port":27036,"stv_name":"Uncletopia | Seattle | 3 | Stopwatch | STV","players":null},{"server_id":17,"name":"Uncletopia | San Francisco | 1 | All Maps","name_short":"sfo-1","host":"sfo-1.us.uncletopia.com","port":27015,"enabled":true,"region":"us-west","cc":"us","latitude":37.77397,"longitude":-122.4313,"reserved":0,"last_update":"0001-01-01T00:00:00Z","name_a2s":"Uncletopia | San Francisco | 1 | All Maps","protocol":17,"map":"koth_cascade","folder":"tf","game":"Team Fortress","app_id":440,"player_count":0,"max_players":24,"Bots":0,"server_type":"Dedicated","server_os":"Linux","password":true,"vac":true,"version":"7961495","steam_id":85568392924469999,"keywords":["cp","nocrits","nodmgspread","uncletopia"],"game_id":440,"stv_port":27016,"stv_name":"Uncletopia | San Francisco | 1 | All Maps | STV","players":null},{"server_id":18,"name":"Uncletopia | San Francisco | 2 | All Maps","name_short":"sfo-2","host":"sfo-1.us.uncletopia.com","port":27025,"enabled":true,"region":"us-west","cc":"us","latitude":37.77397,"longitude":-122.4313,"reserved":0,"last_update":"0001-01-01T00:00:00Z","name_a2s":"Uncletopia | San Francisco | 2 | All Maps","protocol":17,"map":"pl_frontier_final","folder":"tf","game":"Team Fortress","app_id":440,"player_count":0,"max_players":24,"Bots":0,"server_type":"Dedicated","server_os":"Linux","password":true,"vac":true,"version":"7961495","steam_id":85568392924470000,"keywords":["nocrits","nodmgspread","payload","uncletopia"],"game_id":440,"stv_port":27026,"stv_name":"Uncletopia | San Francisco | 2 | All Maps | STV","players":null},{"server_id":19,"name":"Uncletopia | San Francisco | 3 | Stopwatch","name_short":"sfo-3","host":"sfo-1.us.uncletopia.com","port":27035,"enabled":true,"region":"us-west","cc":"us","latitude":37.77397,"longitude":-122.4313,"reserved":0,"last_update":"0001-01-01T00:00:00Z","name_a2s":"Uncletopia | San Francisco | 3 | Stopwatch","protocol":17,"map":"workshop/koth_clearcut_b15.ugc2107050255","folder":"tf","game":"Team Fortress","app_id":440,"player_count":0,"max_players":24,"Bots":0,"server_type":"Dedicated","server_os":"Linux","password":true,"vac":true,"version":"7961495","steam_id":85568392924742824,"keywords":["cp","nocrits","nodmgspread","uncletopia"],"game_id":440,"stv_port":27036,"stv_name":"Uncletopia | San Francisco | 3 | Stopwatch | STV","players":null},{"server_id":20,"name":"Uncletopia | San Francisco | 4 | Community","name_short":"sfo-4","host":"sfo-1.us.uncletopia.com","port":27045,"enabled":true,"region":"us-west","cc":"us","latitude":37.77397,"longitude":-122.4313,"reserved":0,"last_update":"0001-01-01T00:00:00Z","name_a2s":"Uncletopia | San Francisco | 4 | Community","protocol":17,"map":"pl_pier","folder":"tf","game":"Team Fortress","app_id":440,"player_count":0,"max_players":24,"Bots":0,"server_type":"Dedicated","server_os":"Linux","password":true,"vac":true,"version":"7961495","steam_id":85568392924742826,"keywords":["nocrits","nodmgspread","payload","uncletopia"],"game_id":440,"stv_port":27046,"stv_name":"Uncletopia | San Francisco | 4 | Community | STV","players":null},{"server_id":141,"name":"Uncletopia | Sydney | 1 | All Maps","name_short":"syd-1","host":"syd-1.au.uncletopia.com","port":27015,"enabled":true,"region":"au","cc":"au","latitude":-33.865143,"longitude":151.2099,"reserved":0,"last_update":"0001-01-01T00:00:00Z","name_a2s":"Uncletopia | Sydney | 1 | All Maps","protocol":17,"map":"koth_viaduct","folder":"tf","game":"Team Fortress","app_id":440,"player_count":0,"max_players":24,"Bots":0,"server_type":"Dedicated","server_os":"Linux","password":true,"vac":true,"version":"7961495","steam_id":85568392924470001,"keywords":["cp","nocrits","nodmgspread","uncletopia"],"game_id":440,"stv_port":27016,"stv_name":"Uncletopia | Sydney | 1 | All Maps | STV","players":null},{"server_id":123,"name":"Uncletopia | Sydney | 2 | All Maps","name_short":"syd-2","host":"syd-1.au.uncletopia.com","port":27025,"enabled":true,"region":"au","cc":"au","latitude":-33.865143,"longitude":151.2099,"reserved":0,"last_update":"0001-01-01T00:00:00Z","name_a2s":"Uncletopia | Sydney | 2 | All Maps","protocol":17,"map":"pl_pier","folder":"tf","game":"Team Fortress","app_id":440,"player_count":0,"max_players":24,"Bots":0,"server_type":"Dedicated","server_os":"Linux","password":true,"vac":true,"version":"7961495","steam_id":85568392924470002,"keywords":["nocrits","nodmgspread","payload","uncletopia"],"game_id":440,"stv_port":27026,"stv_name":"Uncletopia | Sydney | 2 | All Maps | STV","players":null},{"server_id":395,"name":"Uncletopia | Sydney | 3 | All Maps","name_short":"syd-3","host":"syd-1.au.uncletopia.com","port":27035,"enabled":true,"region":"au","cc":"au","latitude":-33.865143,"longitude":151.2099,"reserved":0,"last_update":"0001-01-01T00:00:00Z","name_a2s":"Uncletopia | Sydney | 3 | All Maps","protocol":17,"map":"pl_pier","folder":"tf","game":"Team Fortress","app_id":440,"player_count":0,"max_players":24,"Bots":0,"server_type":"Dedicated","server_os":"Linux","password":true,"vac":true,"version":"7961495","steam_id":85568392925194467,"keywords":["nocrits","nodmgspread","payload","uncletopia"],"game_id":440,"stv_port":27036,"stv_name":"Uncletopia | Sydney | 3 | All Maps | STV","players":null},{"server_id":396,"name":"Uncletopia | Sydney | 4 | All Maps","name_short":"syd-4","host":"syd-1.au.uncletopia.com","port":27045,"enabled":true,"region":"au","cc":"au","latitude":-33.865143,"longitude":151.2099,"reserved":0,"last_update":"0001-01-01T00:00:00Z","name_a2s":"Uncletopia | Sydney | 4 | All Maps","protocol":17,"map":"koth_lakeside_final","folder":"tf","game":"Team Fortress","app_id":440,"player_count":0,"max_players":24,"Bots":0,"server_type":"Dedicated","server_os":"Linux","password":true,"vac":true,"version":"7961495","steam_id":85568392925397958,"keywords":["cp","nocrits","nodmgspread","uncletopia"],"game_id":440,"stv_port":27046,"stv_name":"Uncletopia | Sydney | 4 | All Maps | STV","players":null},{"server_id":58,"name":"Uncletopia | Sydney | 5 | Stopwatch","name_short":"syd-5","host":"syd-1.au.uncletopia.com","port":27055,"enabled":true,"region":"au","cc":"au","latitude":-33.865143,"longitude":151.2099,"reserved":0,"last_update":"0001-01-01T00:00:00Z","name_a2s":"Uncletopia | Sydney | 5 | Stopwatch","protocol":17,"map":"workshop/pl_badwater_pro_v12.ugc2142942074","folder":"tf","game":"Team Fortress","app_id":440,"player_count":0,"max_players":24,"Bots":0,"server_type":"Dedicated","server_os":"Linux","password":true,"vac":true,"version":"7961495","steam_id":85568392925397959,"keywords":["nocrits","nodmgspread","payload","uncletopia"],"game_id":440,"stv_port":27056,"stv_name":"Uncletopia | Sydney | 5 | Stopwatch | STV","players":null},{"server_id":59,"name":"Uncletopia | Sydney | 6 | Community","name_short":"syd-6","host":"syd-1.au.uncletopia.com","port":27065,"enabled":true,"region":"au","cc":"au","latitude":-33.865143,"longitude":151.2099,"reserved":0,"last_update":"0001-01-01T00:00:00Z","name_a2s":"Uncletopia | Sydney | 6 | Community","protocol":17,"map":"workshop/pl_boundary_final1.ugc456799153","folder":"tf","game":"Team Fortress","app_id":440,"player_count":0,"max_players":24,"Bots":0,"server_type":"Dedicated","server_os":"Linux","password":true,"vac":true,"version":"7961495","steam_id":85568392925397960,"keywords":["nocrits","nodmgspread","payload","uncletopia"],"game_id":440,"stv_port":27066,"stv_name":"Uncletopia | Sydney | 6 | Community | STV","players":null},{"server_id":49,"name":"Uncletopia | Warsaw | 1 | One Thousand Uncles","name_short":"waw-1","host":"waw-1.pl.uncletopia.com","port":27015,"enabled":true,"region":"eu","cc":"pl","latitude":52.2297,"longitude":21.017532,"reserved":0,"last_update":"0001-01-01T00:00:00Z","name_a2s":"Uncletopia | Warsaw | 1 | One Thousand Uncles","protocol":17,"map":"pl_badwater","folder":"tf","game":"Team Fortress","app_id":440,"player_count":29,"max_players":32,"Bots":16,"server_type":"Dedicated","server_os":"Linux","password":true,"vac":true,"version":"7961495","steam_id":85568392925397850,"keywords":["alltalk","bots","danepve","increased_maxplayers","nocrits","norespawntime","payload","uncletopia"],"game_id":440,"stv_port":0,"stv_name":"","players":[{"user_id":511,"name":"Gaesekki","steam_id":76561198000262805,"connected_time":329000000000,"state":"active","ping":66},{"user_id":512,"name":"Ideletedmypyrovisiongoggles","steam_id":76561199081550701,"connected_time":316000000000,"state":"active","ping":95},{"user_id":453,"name":"demo flower","steam_id":76561199401272759,"connected_time":5276000000000,"state":"active","ping":64},{"user_id":510,"name":"Mr. Boobmastic","steam_id":76561197975482475,"connected_time":461000000000,"state":"active","ping":59},{"user_id":440,"name":"PuPuruPuruPumPu","steam_id":76561198391950490,"connected_time":5811000000000,"state":"active","ping":104},{"user_id":413,"name":"The f2p enjoyer","steam_id":76561199100077788,"connected_time":7441000000000,"state":"active","ping":76},{"user_id":471,"name":"камберм талант","steam_id":76561199438119298,"connected_time":2917000000000,"state":"active","ping":103},{"user_id":472,"name":"Shelly1052","steam_id":76561199043551053,"connected_time":2872000000000,"state":"active","ping":65},{"user_id":518,"name":"FACE 33","steam_id":76561197986801560,"connected_time":124000000000,"state":"active","ping":84},{"user_id":385,"name":"d u k k i","steam_id":76561198071807437,"connected_time":8403000000000,"state":"active","ping":59},{"user_id":508,"name":"Furious_soldier","steam_id":76561199073825442,"connected_time":549000000000,"state":"active","ping":61},{"user_id":474,"name":"Ruygun","steam_id":76561198294755098,"connected_time":2522000000000,"state":"active","ping":87},{"user_id":475,"name":"Jonkheervanflep","steam_id":76561198006853101,"connected_time":2370000000000,"state":"active","ping":69}]},{"server_id":50,"name":"Uncletopia | Warsaw | 2 | One Thousand Uncles","name_short":"waw-2","host":"waw-1.pl.uncletopia.com","port":27025,"enabled":true,"region":"eu","cc":"pl","latitude":52.2297,"longitude":21.017532,"reserved":0,"last_update":"0001-01-01T00:00:00Z","name_a2s":"Uncletopia | Warsaw | 2 | One Thousand Uncles","protocol":17,"map":"pl_chilly","folder":"tf","game":"Team Fortress","app_id":440,"player_count":24,"max_players":32,"Bots":16,"server_type":"Dedicated","server_os":"Linux","password":true,"vac":true,"version":"7961495","steam_id":85568392925397851,"keywords":["alltalk","bots","danepve","increased_maxplayers","nocrits","norespawntime","payload","uncletopia"],"game_id":440,"stv_port":0,"stv_name":"","players":[{"user_id":173,"name":"Who?","steam_id":76561198271901063,"connected_time":699000000000,"state":"active","ping":82},{"user_id":174,"name":"Kotlet schabowy","steam_id":76561198048983509,"connected_time":681000000000,"state":"active","ping":44},{"user_id":166,"name":"Grat10 ヾ(•ω•`)o","steam_id":76561198154479557,"connected_time":1411000000000,"state":"active","ping":62},{"user_id":175,"name":"gooseloose64","steam_id":76561199410265902,"connected_time":234000000000,"state":"active","ping":51},{"user_id":161,"name":"jakonator1","steam_id":76561198127792559,"connected_time":2678000000000,"state":"active","ping":81},{"user_id":167,"name":"WomenBeardLike","steam_id":76561198390184314,"connected_time":1319000000000,"state":"active","ping":78},{"user_id":165,"name":"G1busMann","steam_id":76561199231410186,"connected_time":2062000000000,"state":"active","ping":301},{"user_id":169,"name":"bartoszmalaszkiewicz","steam_id":76561199157266817,"connected_time":1284000000000,"state":"active","ping":41}]},{"server_id":51,"name":"Uncletopia | Warsaw | 3 | All Maps","name_short":"waw-3","host":"waw-1.pl.uncletopia.com","port":27035,"enabled":true,"region":"eu","cc":"pl","latitude":52.2297,"longitude":21.017532,"reserved":0,"last_update":"0001-01-01T00:00:00Z","name_a2s":"Uncletopia | Warsaw | 3 | All Maps","protocol":17,"map":"cp_snakewater_final1","folder":"tf","game":"Team Fortress","app_id":440,"player_count":0,"max_players":24,"Bots":0,"server_type":"Dedicated","server_os":"Linux","password":true,"vac":true,"version":"7961495","steam_id":85568392925397852,"keywords":["cp","nocrits","nodmgspread","uncletopia"],"game_id":440,"stv_port":27036,"stv_name":"Uncletopia | Warsaw | 3 | All Maps | STV","players":null},{"server_id":52,"name":"Uncletopia | Warsaw | 4 | All Maps","name_short":"waw-4","host":"waw-1.pl.uncletopia.com","port":27045,"enabled":true,"region":"eu","cc":"pl","latitude":52.2297,"longitude":21.017532,"reserved":0,"last_update":"0001-01-01T00:00:00Z","name_a2s":"Uncletopia | Warsaw | 4 | All Maps","protocol":17,"map":"cp_altitude","folder":"tf","game":"Team Fortress","app_id":440,"player_count":0,"max_players":24,"Bots":0,"server_type":"Dedicated","server_os":"Linux","password":true,"vac":true,"version":"7961495","steam_id":85568392925397853,"keywords":["cp","nocrits","nodmgspread","uncletopia"],"game_id":440,"stv_port":27046,"stv_name":"Uncletopia | Warsaw | 4 | All Maps | STV","players":null},{"server_id":53,"name":"Uncletopia | Warsaw | 5 | Stopwatch","name_short":"waw-5","host":"waw-1.pl.uncletopia.com","port":27055,"enabled":true,"region":"eu","cc":"pl","latitude":52.2297,"longitude":21.017532,"reserved":0,"last_update":"0001-01-01T00:00:00Z","name_a2s":"Uncletopia | Warsaw | 5 | Stopwatch","protocol":17,"map":"workshop/koth_bagel_rc6.ugc2514036946","folder":"tf","game":"Team Fortress","app_id":440,"player_count":0,"max_players":24,"Bots":0,"server_type":"Dedicated","server_os":"Linux","password":true,"vac":true,"version":"7961495","steam_id":85568392925397854,"keywords":["cp","nocrits","nodmgspread","uncletopia"],"game_id":440,"stv_port":27056,"stv_name":"Uncletopia | Warsaw | 5 | Stopwatch | STV","players":null},{"server_id":54,"name":"Uncletopia | Warsaw | 6 | Community","name_short":"waw-6","host":"waw-1.pl.uncletopia.com","port":27065,"enabled":true,"region":"eu","cc":"pl","latitude":52.2297,"longitude":21.017532,"reserved":0,"last_update":"0001-01-01T00:00:00Z","name_a2s":"Uncletopia | Warsaw | 6 | Community","protocol":17,"map":"workshop/cp_mannbase_rc2a.ugc1900737467","folder":"tf","game":"Team Fortress","app_id":440,"player_count":0,"max_players":24,"Bots":0,"server_type":"Dedicated","server_os":"Linux","password":true,"vac":true,"version":"7961495","steam_id":85568392925397856,"keywords":["cp","nocrits","nodmgspread","uncletopia"],"game_id":440,"stv_port":27066,"stv_name":"Uncletopia | Warsaw | 6 | Community | STV","players":null}]}