{"status":true,"message":"","result":[{"server_id":9,"name":"Uncletopia | Atlanta | 1 | All Maps","name_short":"atl-1","host":"atl-1.us.uncletopia.com","port":27015,"enabled":true,"region":"us-east","cc":"us","latitude":33.753746,"longitude":-84.38633,"reserved":0,"last_update":"0001-01-01T00:00:00Z","name_a2s":"Uncletopia | Atlanta | 1 | All Maps","protocol":17,"map":"pl_swiftwater_final1","folder":"tf","game":"Team Fortress","app_id":440,"player_count":24,"max_players":24,"Bots":0,"server_type":"Dedicated","server_os":"Linux","password":true,"vac":true,"version":"7742253","steam_id":85568392924469982,"keywords":["nocrits","nodmgspread","payload","uncletopia"],"game_id":440,"stv_port":27016,"stv_name":"Uncletopia | Atlanta | 1 | All Maps | STV","players":[{"user_id":512,"name":"soy jury","steam_id":76561198026664629,"connected_time":1293000000000,"state":"active","ping":54},{"user_id":523,"name":"Honeybunch","steam_id":76561198014850580,"connected_time":482000000000,"state":"active","ping":101},{"user_id":527,"name":"bogginwater","steam_id":76561198155547142,"connected_time":419000000000,"state":"active","ping":56},{"user_id":536,"name":"unchmiri","steam_id":76561199181659125,"connected_time":295000000000,"state":"active","ping":79},{"user_id":528,"name":"indi","steam_id":76561198045917538,"connected_time":414000000000,"state":"active","ping":73},{"user_id":522,"name":"Watt Dafuq","steam_id":76561198194402925,"connected_time":516000000000,"state":"active","ping":65},{"user_id":537,"name":"pab","steam_id":76561198156915999,"connected_time":166000000000,"state":"active","ping":51},{"user_id":519,"name":"Luucyf3r","steam_id":76561198141820085,"connected_time":834000000000,"state":"active","ping":60},{"user_id":506,"name":"Alkivo","steam_id":76561198315999766,"connected_time":1399000000000,"state":"active","ping":75},{"user_id":521,"name":"MOTORTREND TRUCK OF THE YEAR","steam_id":76561198077654131,"connected_time":570000000000,"state":"active","ping":95},{"user_id":504,"name":"Doctor Vegeta","steam_id":76561198353898356,"connected_time":1410000000000,"state":"active","ping":76},{"user_id":526,"name":"G-G-G-GAMERSHOT","steam_id":76561198798980951,"connected_time":461000000000,"state":"active","ping":60},{"user_id":501,"name":"DuckMann","steam_id":76561198197058638,"connected_time":2070000000000,"state":"active","ping":64},{"user_id":532,"name":"Degree","steam_id":76561198059812393,"connected_time":365000000000,"state":"active","ping":74},{"user_id":530,"name":"Major7th","steam_id":76561199000847414,"connected_time":402000000000,"state":"active","ping":66},{"user_id":481,"name":"Bottom Trans Cowgirl","steam_id":76561198304239680,"connected_time":3993000000000,"state":"active","ping":71},{"user_id":539,"name":"Big Phony","steam_id":76561199092395311,"connected_time":29000000000,"state":"spawning","ping":108},{"user_id":531,"name":"Mr. Sun","steam_id":76561198081338822,"connected_time":400000000000,"state":"active","ping":64},{"user_id":534,"name":"nUwUb","steam_id":76561198164984099,"connected_time":334000000000,"state":"active","ping":89},{"user_id":479,"name":"fritzzl","steam_id":76561199067153815,"connected_time":4155000000000,"state":"active","ping":97},{"user_id":491,"name":"Jojoker","steam_id":76561198049833406,"connected_time":3407000000000,"state":"active","ping":75},{"user_id":538,"name":"ATL1 | to4st","steam_id":76561198981009008,"connected_time":157000000000,"state":"active","ping":73},{"user_id":535,"name":"juno","steam_id":76561198111089144,"connected_time":299000000000,"state":"active","ping":106},{"user_id":419,"name":"Ronin Grinch","steam_id":76561198041439581,"connected_time":9743000000000,"state":"active","ping":73}]},{"server_id":400,"name":"Uncletopia | Atlanta | 3 | Stopwatch Beta","name_short":"atl-3","host":"atl-1.us.uncletopia.com","port":27035,"enabled":true,"region":"us-east","cc":"us","latitude":33.753746,"longitude":-84.38633,"reserved":0,"last_update":"0001-01-01T00:00:00Z","name_a2s":"Uncletopia | Atlanta | 3 | Stopwatch Beta","protocol":17,"map":"pl_pier","folder":"tf","game":"Team Fortress","app_id":440,"player_count":0,"max_players":24,"Bots":0,"server_type":"Dedicated","server_os":"Linux","password":true,"vac":true,"version":"7742253","steam_id":85568392924515187,"keywords":["nocrits","nodmgspread","payload","uncletopia"],"game_id":440,"stv_port":27036,"stv_name":"Uncletopia | Atlanta | 3 | Stopwatch Beta | STV","players":null},{"server_id":401,"name":"Uncletopia | Atlanta | 4 | No Payload","name_short":"atl-4","host":"atl-1.us.uncletopia.com","port":27045,"enabled":true,"region":"us-east","cc":"us","latitude":33.753746,"longitude":-84.38633,"reserved":0,"last_update":"0001-01-01T00:00:00Z","name_a2s":"Uncletopia | Atlanta | 4 | No Payload","protocol":17,"map":"pl_pier","folder":"tf","game":"Team Fortress","app_id":440,"player_count":0,"max_players":24,"Bots":0,"server_type":"Dedicated","server_os":"Linux","password":true,"vac":true,"version":"7723704","steam_id":85568392924515188,"keywords":["nocrits","nodmgspread","payload","uncletopia"],"game_id":440,"stv_port":27046,"stv_name":"Uncletopia | Atlanta | 4 | No Payload | STV","players":null},{"server_id":2,"name":"Uncletopia | Chicago | 1 | All Maps","name_short":"chi-1","host":"chi-1.us.uncletopia.com","port":27015,"enabled":true,"region":"us-central","cc":"us","latitude":41.881832,"longitude":-87.62318,"reserved":0,"last_update":"0001-01-01T00:00:00Z","name_a2s":"Uncletopia | Chicago | 1 | All Maps","protocol":17,"map":"pl_upward","folder":"tf","game":"Team Fortress","app_id":440,"player_count":24,"max_players":24,"Bots":0,"server_type":"Dedicated","server_os":"Linux","password":true,"vac":true,"version":"7742253","steam_id":85568392924469984,"keywords":["nocrits","nodmgspread","payload","uncletopia"],"game_id":440,"stv_port":27016,"stv_name":"Uncletopia | Chicago | 1 | All Maps | STV","players":[{"user_id":428,"name":"The Annoying Alchemist","steam_id":76561198215704896,"connected_time":1485000000000,"state":"active","ping":79},{"user_id":395,"name":"No Telefrag Plz","steam_id":76561198113931312,"connected_time":4857000000000,"state":"active","ping":67},{"user_id":417,"name":"HavocGDI","steam_id":76561199388371914,"connected_time":2738000000000,"state":"active","ping":107},{"user_id":442,"name":"vdub63","steam_id":76561198093443689,"connected_time":164000000000,"state":"active","ping":53},{"user_id":432,"name":"no","steam_id":76561198248853140,"connected_time":1233000000000,"state":"active","ping":49},{"user_id":382,"name":"Ademar","steam_id":76561199391802581,"connected_time":7363000000000,"state":"active","ping":60},{"user_id":397,"name":"Snom","steam_id":76561198333827920,"connected_time":4842000000000,"state":"active","ping":90},{"user_id":387,"name":"the deadliest pyroshark","steam_id":76561198374227766,"connected_time":6587000000000,"state":"active","ping":60},{"user_id":436,"name":"Pixeled","steam_id":76561198088917077,"connected_time":708000000000,"state":"active","ping":82},{"user_id":426,"name":"Devoid","steam_id":76561198254039012,"connected_time":1588000000000,"state":"active","ping":71},{"user_id":419,"name":"Tick","steam_id":76561198184161214,"connected_time":2189000000000,"state":"active","ping":42},{"user_id":437,"name":"Lots0","steam_id":76561198043143145,"connected_time":684000000000,"state":"active","ping":102},{"user_id":355,"name":"Heropon","steam_id":76561198105224481,"connected_time":8981000000000,"state":"active","ping":79},{"user_id":439,"name":"IM OFF A PERC","steam_id":76561198286792807,"connected_time":537000000000,"state":"active","ping":66},{"user_id":394,"name":"KingCrawful","steam_id":76561198104291657,"connected_time":5092000000000,"state":"active","ping":58},{"user_id":424,"name":"Guy Who Names Square Enix Games","steam_id":76561198202195792,"connected_time":1848000000000,"state":"active","ping":70},{"user_id":407,"name":"I sometimes play pyro","steam_id":76561198421760112,"connected_time":3805000000000,"state":"active","ping":62},{"user_id":367,"name":"Steeb","steam_id":76561198008058593,"connected_time":8180000000000,"state":"active","ping":55},{"user_id":353,"name":"Red","steam_id":76561197998285162,"connected_time":9377000000000,"state":"active","ping":87},{"user_id":433,"name":"PKBEAST_7","steam_id":76561198177136537,"connected_time":778000000000,"state":"active","ping":89},{"user_id":434,"name":"caption cool","steam_id":76561197990612056,"connected_time":752000000000,"state":"active","ping":55},{"user_id":438,"name":"Definitely Not A Replicant.","steam_id":76561198087464370,"connected_time":681000000000,"state":"active","ping":97}]},{"server_id":106,"name":"Uncletopia | Chicago | 2 | All Maps","name_short":"chi-2","host":"chi-1.us.uncletopia.com","port":27025,"enabled":true,"region":"us-central","cc":"us","latitude":41.881832,"longitude":-87.62318,"reserved":0,"last_update":"0001-01-01T00:00:00Z","name_a2s":"Uncletopia | Chicago | 2 | All Maps","protocol":17,"map":"pl_thundermountain","folder":"tf","game":"Team Fortress","app_id":440,"player_count":24,"max_players":24,"Bots":0,"server_type":"Dedicated","server_os":"Linux","password":true,"vac":true,"version":"7742253","steam_id":85568392924469985,"keywords":["nocrits","nodmgspread","payload","uncletopia"],"game_id":440,"stv_port":27026,"stv_name":"Uncletopia | Chicago | 2 | All Maps | STV","players":[{"user_id":793,"name":"WhippedHook","steam_id":76561198069581138,"connected_time":2573000000000,"state":"active","ping":72},{"user_id":830,"name":"happy man!!! :D!!!!","steam_id":76561198128468316,"connected_time":708000000000,"state":"active","ping":89},{"user_id":833,"name":"boa","steam_id":76561199153223537,"connected_time":307000000000,"state":"active","ping":55},{"user_id":831,"name":"Edi","steam_id":76561198283003299,"connected_time":579000000000,"state":"active","ping":101},{"user_id":832,"name":"irish \u003c3","steam_id":76561198164420174,"connected_time":557000000000,"state":"active","ping":53},{"user_id":836,"name":"liebZ","steam_id":76561198210449121,"connected_time":261000000000,"state":"active","ping":65},{"user_id":837,"name":"pilltacular","steam_id":76561198032789419,"connected_time":249000000000,"state":"active","ping":45},{"user_id":849,"name":"ambrotos","steam_id":76561198042600523,"connected_time":82000000000,"state":"active","ping":63},{"user_id":805,"name":"Mailman","steam_id":76561198090675970,"connected_time":2165000000000,"state":"active","ping":57},{"user_id":838,"name":"twitch.tv/cccilytf2","steam_id":76561198322125595,"connected_time":242000000000,"state":"active","ping":103},{"user_id":807,"name":"Bad Medic Buddy","steam_id":76561198093222632,"connected_time":2161000000000,"state":"active","ping":87},{"user_id":839,"name":"HimynamewaS","steam_id":76561199082300828,"connected_time":241000000000,"state":"active","ping":86},{"user_id":843,"name":"warm","steam_id":76561198162160743,"connected_time":232000000000,"state":"active","ping":60},{"user_id":841,"name":"ValacPAB","steam_id":76561198272692721,"connected_time":238000000000,"state":"active","ping":106},{"user_id":842,"name":"tools","steam_id":76561199010542612,"connected_time":238000000000,"state":"active","ping":45},{"user_id":844,"name":"Cooki","steam_id":76561198051705314,"connected_time":228000000000,"state":"active","ping":71},{"user_id":845,"name":"LordOfUwU | ACAB/BLM ‚ù§CUM‚ù§","steam_id":76561198202237540,"connected_time":216000000000,"state":"active","ping":75},{"user_id":850,"name":"DJFunnyBone","steam_id":76561198892528359,"connected_time":81000000000,"state":"active","ping":31},{"user_id":847,"name":"Fever Dreams","steam_id":76561198116614620,"connected_time":188000000000,"state":"active","ping":74},{"user_id":818,"name":"lazybones21","steam_id":76561198994854327,"connected_time":1941000000000,"state":"active","ping":103},{"user_id":776,"name":"Oh, it's Zach","steam_id":76561198103309672,"connected_time":3745000000000,"state":"active","ping":56},{"user_id":822,"name":"Merchants of Misery","steam_id":76561199188142396,"connected_time":1777000000000,"state":"active","ping":83},{"user_id":829,"name":"Porsy","steam_id":76561198041850843,"connected_time":876000000000,"state":"active","ping":48}]},{"server_id":402,"name":"Uncletopia | Chicago | 3 | All Maps","name_short":"chi-3","host":"chi-1.us.uncletopia.com","port":27035,"enabled":true,"region":"us-central","cc":"us","latitude":41.881832,"longitude":-87.62318,"reserved":0,"last_update":"0001-01-01T00:00:00Z","name_a2s":"Uncletopia | Chicago | 3 | All Maps","protocol":17,"map":"pl_snowycoast","folder":"tf","game":"Team Fortress","app_id":440,"player_count":24,"max_players":24,"Bots":0,"server_type":"Dedicated","server_os":"Linux","password":true,"vac":true,"version":"7742253","steam_id":85568392924515191,"keywords":["nocrits","nodmgspread","payload","uncletopia"],"game_id":440,"stv_port":27036,"stv_name":"Uncletopia | Chicago | 3 | All Maps | STV","players":[{"user_id":664,"name":"ShinyOrion (She/Her)","steam_id":76561198408378321,"connected_time":1129000000000,"state":"active","ping":74},{"user_id":636,"name":"AAAAAAAAAAAAAAAAAAAAAAAAAAAAAAA","steam_id":76561198817866879,"connected_time":3012000000000,"state":"active","ping":67},{"user_id":666,"name":"Wert","steam_id":76561198368345693,"connected_time":854000000000,"state":"active","ping":61},{"user_id":672,"name":"Laura Palmer Gaming","steam_id":76561198282965733,"connected_time":380000000000,"state":"active","ping":60},{"user_id":657,"name":"FrogMaLog","steam_id":76561199055926567,"connected_time":1545000000000,"state":"active","ping":62},{"user_id":654,"name":"Rx Auntie","steam_id":76561198051618393,"connected_time":1802000000000,"state":"active","ping":97},{"user_id":637,"name":"Filthy Acts at Reasonable Price","steam_id":76561198354615890,"connected_time":2869000000000,"state":"active","ping":92},{"user_id":642,"name":"Bee","steam_id":76561198074681324,"connected_time":2163000000000,"state":"active","ping":64},{"user_id":669,"name":"CreamFilling","steam_id":76561198056328408,"connected_time":447000000000,"state":"active","ping":59},{"user_id":638,"name":"Nikofreaker","steam_id":76561198320604061,"connected_time":2704000000000,"state":"active","ping":77},{"user_id":667,"name":"jan kili","steam_id":76561198289894834,"connected_time":848000000000,"state":"active","ping":63},{"user_id":656,"name":"muffinm565","steam_id":76561199135226250,"connected_time":1568000000000,"state":"active","ping":105},{"user_id":670,"name":"Joji - Tick Tock","steam_id":76561198418414338,"connected_time":414000000000,"state":"active","ping":80},{"user_id":619,"name":"Silverio","steam_id":76561197999425381,"connected_time":4290000000000,"state":"active","ping":78},{"user_id":659,"name":"Josh","steam_id":76561198055691099,"connected_time":1418000000000,"state":"active","ping":73},{"user_id":671,"name":"anthony,","steam_id":76561198095912644,"connected_time":401000000000,"state":"active","ping":103},{"user_id":676,"name":"GooniOoni","steam_id":76561198102154561,"connected_time":267000000000,"state":"active","ping":56},{"user_id":673,"name":"The Unmatched Power of The Sun","steam_id":76561198090891781,"connected_time":365000000000,"state":"active","ping":68},{"user_id":674,"name":"Chonky Wolf","steam_id":76561198077249707,"connected_time":357000000000,"state":"active","ping":67},{"user_id":650,"name":"Sh3ba Spaniel","steam_id":76561198047412394,"connected_time":2072000000000,"state":"active","ping":62},{"user_id":663,"name":"NyanHorses","steam_id":76561198161584966,"connected_time":1260000000000,"state":"active","ping":60},{"user_id":653,"name":"The Foolish Samurai","steam_id":76561198094494945,"connected_time":1979000000000,"state":"active","ping":112},{"user_id":655,"name":"Cdesmondd","steam_id":76561198072774462,"connected_time":1752000000000,"state":"active","ping":50},{"user_id":675,"name":"Íú±·¥ã è·¥á","steam_id":76561198024477688,"connected_time":342000000000,"state":"active","ping":72}]},{"server_id":403,"name":"Uncletopia | Chicago | 4 | All Maps","name_short":"chi-4","host":"chi-1.us.uncletopia.com","port":27045,"enabled":true,"region":"us-central","cc":"us","latitude":41.881832,"longitude":-87.62318,"reserved":0,"last_update":"0001-01-01T00:00:00Z","name_a2s":"Uncletopia | Chicago | 4 | All Maps","protocol":17,"map":"pl_badwater","folder":"tf","game":"Team Fortress","app_id":440,"player_count":24,"max_players":24,"Bots":0,"server_type":"Dedicated","server_os":"Linux","password":true,"vac":true,"version":"7742253","steam_id":85568392924515193,"keywords":["nocrits","nodmgspread","payload","uncletopia"],"game_id":440,"stv_port":27046,"stv_name":"Uncletopia | Chicago | 4 | All Maps | STV","players":[{"user_id":484,"name":"zpoxthedark","steam_id":76561198199549510,"connected_time":1711000000000,"state":"active","ping":63},{"user_id":488,"name":"Cj Lightning","steam_id":76561198044265072,"connected_time":1323000000000,"state":"active","ping":62},{"user_id":481,"name":"[DATS‚û°] Sugar Meowth","steam_id":76561197995251793,"connected_time":1787000000000,"state":"active","ping":89},{"user_id":355,"name":"BrotherGrowly","steam_id":76561198086663043,"connected_time":9497000000000,"state":"active","ping":93},{"user_id":493,"name":"Aster","steam_id":76561198037920420,"connected_time":917000000000,"state":"active","ping":81},{"user_id":495,"name":"BustedRake","steam_id":76561198130489976,"connected_time":324000000000,"state":"active","ping":69},{"user_id":468,"name":"Moshi Man","steam_id":76561198038249762,"connected_time":2341000000000,"state":"active","ping":45},{"user_id":482,"name":"tranquil","steam_id":76561198319990195,"connected_time":1780000000000,"state":"active","ping":76},{"user_id":496,"name":"wezeer","steam_id":76561198407577922,"connected_time":275000000000,"state":"active","ping":57},{"user_id":492,"name":"Haevy Waepons Gyu","steam_id":76561199016285746,"connected_time":1109000000000,"state":"active","ping":88},{"user_id":470,"name":"PAC-MATH","steam_id":76561198327729748,"connected_time":2331000000000,"state":"active","ping":58},{"user_id":497,"name":"penguinlord","steam_id":76561198305192692,"connected_time":229000000000,"state":"active","ping":51},{"user_id":498,"name":"Queen Frau the Round","steam_id":76561197999942134,"connected_time":200000000000,"state":"active","ping":45},{"user_id":499,"name":"Joan The Kisaragi Cat","steam_id":76561199370650064,"connected_time":185000000000,"state":"active","ping":421},{"user_id":486,"name":"hi","steam_id":76561198118498882,"connected_time":1669000000000,"state":"active","ping":62},{"user_id":500,"name":"nines","steam_id":76561198078992548,"connected_time":168000000000,"state":"active","ping":76},{"user_id":501,"name":"Tornadoboy","steam_id":76561198867700274,"connected_time":164000000000,"state":"active","ping":67},{"user_id":502,"name":"GuyGoom","steam_id":76561198254522178,"connected_time":155000000000,"state":"active","ping":58},{"user_id":475,"name":"Horny Pirate","steam_id":76561198085174007,"connected_time":2318000000000,"state":"active","ping":64},{"user_id":503,"name":"the.land.of.avalon","steam_id":76561198245431668,"connected_time":151000000000,"state":"active","ping":61},{"user_id":433,"name":"starfungus","steam_id":76561198158312789,"connected_time":5821000000000,"state":"active","ping":70},{"user_id":504,"name":"Penrose42","steam_id":76561198288577396,"connected_time":134000000000,"state":"active","ping":79},{"user_id":505,"name":"Roberto Del Fuego","steam_id":76561198043458554,"connected_time":116000000000,"state":"active","ping":46},{"user_id":506,"name":"jolly","steam_id":76561198797922219,"connected_time":98000000000,"state":"active","ping":78}]},{"server_id":36,"name":"Uncletopia | Chicago | 5 | All Maps","name_short":"chi-5","host":"chi-2.us.uncletopia.com","port":27015,"enabled":true,"region":"us-central","cc":"us","latitude":41.881832,"longitude":-87.62318,"reserved":0,"last_update":"0001-01-01T00:00:00Z","name_a2s":"Uncletopia | Chicago | 5 | All Maps","protocol":17,"map":"pl_badwater","folder":"tf","game":"Team Fortress","app_id":440,"player_count":21,"max_players":24,"Bots":0,"server_type":"Dedicated","server_os":"Linux","password":true,"vac":true,"version":"7742253","steam_id":85568392924866362,"keywords":["nocrits","nodmgspread","payload","uncletopia"],"game_id":440,"stv_port":27016,"stv_name":"Uncletopia | Chicago | 5 | All Maps | STV","players":[{"user_id":658,"name":"Gliglamesh","steam_id":76561198058221449,"connected_time":1364000000000,"state":"active","ping":58},{"user_id":674,"name":"honeybun","steam_id":76561197993931722,"connected_time":424000000000,"state":"active","ping":46},{"user_id":620,"name":"slothful jeremiah","steam_id":76561198170276601,"connected_time":3113000000000,"state":"active","ping":86},{"user_id":629,"name":"funyon2","steam_id":76561198338778699,"connected_time":2636000000000,"state":"active","ping":54},{"user_id":660,"name":"begolds8","steam_id":76561198841069098,"connected_time":1242000000000,"state":"active","ping":93},{"user_id":630,"name":"ShitsandGiggles‚Ñ¢","steam_id":76561198058708019,"connected_time":2624000000000,"state":"active","ping":50},{"user_id":638,"name":"nalezinik","steam_id":76561198030026119,"connected_time":2305000000000,"state":"active","ping":99},{"user_id":673,"name":"Jak","steam_id":76561197990363504,"connected_time":473000000000,"state":"active","ping":67},{"user_id":670,"name":"Tommy Pickles (Very Cool)","steam_id":76561198391261463,"connected_time":745000000000,"state":"active","ping":93},{"user_id":662,"name":"SHADOW (he/him)","steam_id":76561198207768148,"connected_time":1193000000000,"state":"active","ping":107},{"user_id":650,"name":"ultra instinct cringe micheal","steam_id":76561198275625984,"connected_time":1691000000000,"state":"active","ping":71},{"user_id":600,"name":"Tallboi","steam_id":76561198274286470,"connected_time":4339000000000,"state":"active","ping":113},{"user_id":663,"name":"Late-Night Dog Poker","steam_id":76561198091299589,"connected_time":1156000000000,"state":"active","ping":73},{"user_id":669,"name":"chunkysquare","steam_id":76561199076468383,"connected_time":812000000000,"state":"active","ping":107},{"user_id":646,"name":"CloudedOrca1360","steam_id":76561199084746479,"connected_time":1805000000000,"state":"active","ping":82},{"user_id":675,"name":"dave strider","steam_id":76561198065112186,"connected_time":20000000000,"state":"spawning","ping":67},{"user_id":676,"name":"SuperJagops","steam_id":76561198034689716,"connected_time":14000000000,"state":"active","ping":74},{"user_id":661,"name":"victordead121","steam_id":76561199180843121,"connected_time":1240000000000,"state":"active","ping":125},{"user_id":672,"name":"NastyStarchy","steam_id":76561198291849732,"connected_time":504000000000,"state":"active","ping":60},{"user_id":608,"name":"Insurance Frog","steam_id":76561198067556825,"connected_time":4166000000000,"state":"active","ping":83},{"user_id":637,"name":"clopherite","steam_id":76561198860351700,"connected_time":2395000000000,"state":"active","ping":85}]},{"server_id":37,"name":"Uncletopia | Chicago | 6 | All Maps","name_short":"chi-6","host":"chi-2.us.uncletopia.com","port":27025,"enabled":true,"region":"us-central","cc":"us","latitude":41.881832,"longitude":-87.62318,"reserved":0,"last_update":"0001-01-01T00:00:00Z","name_a2s":"Uncletopia | Chicago | 6 | All Maps","protocol":17,"map":"pl_frontier_final","folder":"tf","game":"Team Fortress","app_id":440,"player_count":23,"max_players":24,"Bots":0,"server_type":"Dedicated","server_os":"Linux","password":true,"vac":true,"version":"7742253","steam_id":85568392924866363,"keywords":["nocrits","nodmgspread","payload","uncletopia"],"game_id":440,"stv_port":27026,"stv_name":"Uncletopia | Chicago | 6 | All Maps | STV","players":[{"user_id":730,"name":"Smet19","steam_id":76561198118455606,"connected_time":328000000000,"state":"active","ping":53},{"user_id":716,"name":".-.","steam_id":76561198820617005,"connected_time":643000000000,"state":"active","ping":129},{"user_id":713,"name":"TheyThembo","steam_id":76561198096221632,"connected_time":1005000000000,"state":"active","ping":68},{"user_id":714,"name":"CherryYeti","steam_id":76561199221441151,"connected_time":814000000000,"state":"active","ping":108},{"user_id":718,"name":"QueeQuey","steam_id":76561198117204064,"connected_time":619000000000,"state":"active","ping":58},{"user_id":710,"name":"MR. MODE","steam_id":76561198046775352,"connected_time":1606000000000,"state":"active","ping":96},{"user_id":682,"name":"Freewave","steam_id":76561198156282541,"connected_time":4180000000000,"state":"active","ping":51},{"user_id":728,"name":"redzach","steam_id":76561198444094359,"connected_time":393000000000,"state":"active","ping":49},{"user_id":712,"name":"Theodore Roosevelt","steam_id":76561197993295656,"connected_time":1202000000000,"state":"active","ping":53},{"user_id":679,"name":"Femboy mouth user","steam_id":76561198085813708,"connected_time":4409000000000,"state":"active","ping":61},{"user_id":719,"name":"watchfull","steam_id":76561198433266742,"connected_time":601000000000,"state":"active","ping":98},{"user_id":720,"name":"gear","steam_id":76561198051928674,"connected_time":593000000000,"state":"active","ping":58},{"user_id":676,"name":"best head giver 2013","steam_id":76561198812086921,"connected_time":4429000000000,"state":"active","ping":67},{"user_id":721,"name":"costanza gaming","steam_id":76561198272896181,"connected_time":542000000000,"state":"active","ping":80},{"user_id":722,"name":"BEEFMAN","steam_id":76561199108767373,"connected_time":534000000000,"state":"active","ping":89},{"user_id":723,"name":"Nave","steam_id":76561198152862549,"connected_time":522000000000,"state":"active","ping":54},{"user_id":724,"name":"NotReal","steam_id":76561198797820882,"connected_time":506000000000,"state":"active","ping":105},{"user_id":725,"name":"Elegant Ejaculation","steam_id":76561198014190878,"connected_time":484000000000,"state":"active","ping":102},{"user_id":687,"name":"Murshed Poturdurrs","steam_id":76561198043177191,"connected_time":3992000000000,"state":"active","ping":76},{"user_id":726,"name":"Sicko Mode (Chris Pratt Cover)","steam_id":76561198315786174,"connected_time":469000000000,"state":"active","ping":89},{"user_id":727,"name":" ï‚Ä¢·¥•‚Ä¢ î the bear","steam_id":76561197989591976,"connected_time":425000000000,"state":"active","ping":76},{"user_id":669,"name":"GibWilly","steam_id":76561199072518408,"connected_time":4665000000000,"state":"active","ping":59},{"user_id":731,"name":"RipHunter77","steam_id":76561198272973014,"connected_time":323000000000,"state":"active","ping":77}]},{"server_id":38,"name":"Uncletopia | Chicago | 7 | Stopwatch Beta","name_short":"chi-7","host":"chi-2.us.uncletopia.com","port":27035,"enabled":true,"region":"us-central","cc":"us","latitude":41.881832,"longitude":-87.62318,"reserved":0,"last_update":"0001-01-01T00:00:00Z","name_a2s":"Uncletopia | Chicago | 7 | Stopwatch Beta","protocol":17,"map":"workshop/koth_product_final.ugc454272353","folder":"tf","game":"Team Fortress","app_id":440,"player_count":0,"max_players":24,"Bots":0,"server_type":"Dedicated","server_os":"Linux","password":true,"vac":true,"version":"7742253","steam_id":85568392924866364,"keywords":["cp","nocrits","nodmgspread","uncletopia"],"game_id":440,"stv_port":27036,"stv_name":"Uncletopia | Chicago | 7 | Stopwatch Beta | STV","players":null},{"server_id":39,"name":"Uncletopia | Chicago | 8 | Community","name_short":"chi-8","host":"chi-2.us.uncletopia.com","port":27045,"enabled":true,"region":"us-central","cc":"us","latitude":41.881832,"longitude":-87.62318,"reserved":0,"last_update":"0001-01-01T00:00:00Z","name_a2s":"Uncletopia | Chicago | 8 | Community","protocol":17,"map":"workshop/cp_logjam_rc12.ugc454812035","folder":"tf","game":"Team Fortress","app_id":440,"player_count":24,"max_players":24,"Bots":0,"server_type":"Dedicated","server_os":"Linux","password":true,"vac":true,"version":"7742253","steam_id":85568392924866365,"keywords":["cp","nocrits","nodmgspread","uncletopia"],"game_id":440,"stv_port":27046,"stv_name":"Uncletopia | Chicago | 8 | Community | STV","players":[{"user_id":167,"name":"Gram Tokers Count Doinkula","steam_id":76561198112811565,"connected_time":4493000000000,"state":"active","ping":72},{"user_id":233,"name":"Nightfall","steam_id":76561198169718867,"connected_time":2265000000000,"state":"active","ping":117},{"user_id":256,"name":"She's giving you a WUTVILLE??","steam_id":76561198172792271,"connected_time":1399000000000,"state":"active","ping":81},{"user_id":269,"name":"get rich and become god","steam_id":76561198984612489,"connected_time":677000000000,"state":"active","ping":91},{"user_id":248,"name":"_SKEETER_","steam_id":76561199077086828,"connected_time":1788000000000,"state":"active","ping":103},{"user_id":154,"name":"[TF2Apples] Intense Green Apple","steam_id":76561198803561622,"connected_time":4847000000000,"state":"active","ping":85},{"user_id":271,"name":"another breloom","steam_id":76561198006938024,"connected_time":453000000000,"state":"active","ping":101},{"user_id":257,"name":"EmeraldMoth","steam_id":76561198153816586,"connected_time":1381000000000,"state":"active","ping":77},{"user_id":246,"name":"Coolbeans4Evah","steam_id":76561198840823486,"connected_time":1847000000000,"state":"active","ping":60},{"user_id":259,"name":"Kratos Gaming","steam_id":76561198035475444,"connected_time":1268000000000,"state":"active","ping":55},{"user_id":272,"name":"bass97","steam_id":76561198849018884,"connected_time":439000000000,"state":"active","ping":72},{"user_id":270,"name":"Xx_PR3TTY_R4VE_G!R1_xX","steam_id":76561199059016425,"connected_time":582000000000,"state":"active","ping":55},{"user_id":268,"name":"BernardBull","steam_id":76561198036138813,"connected_time":822000000000,"state":"active","ping":84},{"user_id":159,"name":"Cam","steam_id":76561198023380573,"connected_time":4708000000000,"state":"active","ping":55},{"user_id":235,"name":"Blagoni","steam_id":76561198079134230,"connected_time":2181000000000,"state":"active","ping":105},{"user_id":251,"name":"G‡∂ûMER","steam_id":76561198340389876,"connected_time":1691000000000,"state":"active","ping":120},{"user_id":193,"name":"King Sans","steam_id":76561198294198517,"connected_time":3433000000000,"state":"active","ping":68},{"user_id":262,"name":"StarB","steam_id":76561198149605368,"connected_time":1167000000000,"state":"active","ping":83},{"user_id":263,"name":"defcon","steam_id":76561198100656328,"connected_time":1145000000000,"state":"active","ping":82},{"user_id":267,"name":"Jarny","steam_id":76561198079973410,"connected_time":881000000000,"state":"active","ping":85},{"user_id":252,"name":"Colin102004","steam_id":76561198202384334,"connected_time":1681000000000,"state":"active","ping":61},{"user_id":198,"name":"Sluggzma","steam_id":76561198062956313,"connected_time":3313000000000,"state":"active","ping":79},{"user_id":203,"name":"too funky ·óúÀ¨·óú","steam_id":76561199120399776,"connected_time":3087000000000,"state":"active","ping":75},{"user_id":134,"name":"Predicta","steam_id":76561198017630616,"connected_time":5523000000000,"state":"active","ping":46}]},{"server_id":8,"name":"Uncletopia | Dallas | 1 | All Maps","name_short":"dal-1","host":"dal-1.us.uncletopia.com","port":27015,"enabled":true,"region":"us-central","cc":"us","latitude":32.779167,"longitude":-96.80889,"reserved":0,"last_update":"0001-01-01T00:00:00Z","name_a2s":"Uncletopia | Dallas | 1 | All Maps","protocol":17,"map":"pl_thundermountain","folder":"tf","game":"Team Fortress","app_id":440,"player_count":24,"max_players":24,"Bots":0,"server_type":"Dedicated","server_os":"Linux","password":true,"vac":true,"version":"7742253","steam_id":85568392924469986,"keywords":["nocrits","nodmgspread","payload","uncletopia"],"game_id":440,"stv_port":27016,"stv_name":"Uncletopia | Dallas | 1 | All Maps | STV","players":[{"user_id":478,"name":"coffee bagel","steam_id":76561198141198352,"connected_time":5801000000000,"state":"active","ping":74},{"user_id":510,"name":"Blue_Yoshi","steam_id":76561199455280829,"connected_time":3113000000000,"state":"active","ping":62},{"user_id":533,"name":"Dogburn","steam_id":76561198832459732,"connected_time":648000000000,"state":"active","ping":53},{"user_id":512,"name":"PHONE","steam_id":76561198029268743,"connected_time":3067000000000,"state":"active","ping":72},{"user_id":535,"name":"Pi Guy","steam_id":76561199071784224,"connected_time":108000000000,"state":"active","ping":88},{"user_id":531,"name":"Crabs on Deck","steam_id":76561198812183594,"connected_time":1117000000000,"state":"active","ping":87},{"user_id":532,"name":"Wizard02","steam_id":76561198178293623,"connected_time":1115000000000,"state":"active","ping":61},{"user_id":534,"name":"Jutsu","steam_id":76561198058671945,"connected_time":240000000000,"state":"active","ping":79},{"user_id":481,"name":"egyptiangodcard","steam_id":76561198855935442,"connected_time":5701000000000,"state":"active","ping":119},{"user_id":517,"name":"keffers","steam_id":76561198202338796,"connected_time":2922000000000,"state":"active","ping":81},{"user_id":518,"name":"Bonesala","steam_id":76561199052450127,"connected_time":2917000000000,"state":"active","ping":63},{"user_id":528,"name":"Bigfoot ate my ass","steam_id":76561198071605190,"connected_time":1767000000000,"state":"active","ping":81},{"user_id":480,"name":"little hog","steam_id":76561199230929836,"connected_time":5784000000000,"state":"active","ping":62},{"user_id":520,"name":"Box","steam_id":76561198973425038,"connected_time":2903000000000,"state":"active","ping":89},{"user_id":505,"name":"Sanic","steam_id":76561198083124962,"connected_time":3442000000000,"state":"active","ping":82},{"user_id":484,"name":"hydrochloric acid drinker","steam_id":76561198077272494,"connected_time":5669000000000,"state":"active","ping":70},{"user_id":492,"name":"Wind Fucker","steam_id":76561198275362375,"connected_time":4910000000000,"state":"active","ping":92},{"user_id":522,"name":"Phillip Jeffries","steam_id":76561198064052174,"connected_time":2780000000000,"state":"active","ping":96},{"user_id":487,"name":"BIG HOG","steam_id":76561198079923652,"connected_time":5479000000000,"state":"active","ping":66},{"user_id":524,"name":"Fermenting Kiwi","steam_id":76561198253303497,"connected_time":2732000000000,"state":"active","ping":70},{"user_id":479,"name":"paige novick","steam_id":76561199089284643,"connected_time":5800000000000,"state":"active","ping":77},{"user_id":494,"name":"MasterGeek.MX","steam_id":76561198063355220,"connected_time":4613000000000,"state":"active","ping":96},{"user_id":527,"name":"pipibaby","steam_id":76561198067430685,"connected_time":1905000000000,"state":"active","ping":69},{"user_id":497,"name":"Mr.Pan","steam_id":76561198069030613,"connected_time":4324000000000,"state":"active","ping":72}]},{"server_id":108,"name":"Uncletopia | Dallas | 2 | All Maps","name_short":"dal-2","host":"dal-1.us.uncletopia.com","port":27025,"enabled":true,"region":"us-central","cc":"us","latitude":32.779167,"longitude":-96.80889,"reserved":0,"last_update":"0001-01-01T00:00:00Z","name_a2s":"Uncletopia | Dallas | 2 | All Maps","protocol":17,"map":"pl_frontier_final","folder":"tf","game":"Team Fortress","app_id":440,"player_count":23,"max_players":24,"Bots":0,"server_type":"Dedicated","server_os":"Linux","password":true,"vac":true,"version":"7742253","steam_id":85568392924469988,"keywords":["nocrits","nodmgspread","payload","uncletopia"],"game_id":440,"stv_port":27026,"stv_name":"Uncletopia | Dallas | 2 | All Maps | STV","players":[{"user_id":339,"name":"Razor","steam_id":76561198008415797,"connected_time":509000000000,"state":"active","ping":91},{"user_id":269,"name":"MR.meeseeks","steam_id":76561198294943420,"connected_time":5862000000000,"state":"active","ping":122},{"user_id":305,"name":"axfty","steam_id":76561198000359738,"connected_time":3526000000000,"state":"active","ping":71},{"user_id":298,"name":"remedu","steam_id":76561198005152587,"connected_time":4159000000000,"state":"active","ping":44},{"user_id":317,"name":"Blehnder","steam_id":76561198172097526,"connected_time":2792000000000,"state":"active","ping":103},{"user_id":319,"name":"hunky dory","steam_id":76561198030422254,"connected_time":2751000000000,"state":"active","ping":131},{"user_id":341,"name":"S.N.A.F.U.","steam_id":76561197980128424,"connected_time":454000000000,"state":"active","ping":75},{"user_id":290,"name":"[LINUX] F2P=S*(M/B)+H || Spy!","steam_id":76561198093538786,"connected_time":4406000000000,"state":"active","ping":46},{"user_id":345,"name":"Susan","steam_id":76561198045705049,"connected_time":370000000000,"state":"active","ping":88},{"user_id":333,"name":"Curtis \"Big foot\" Winchester","steam_id":76561198825658971,"connected_time":1270000000000,"state":"active","ping":81},{"user_id":340,"name":"turt","steam_id":76561198058890821,"connected_time":494000000000,"state":"active","ping":74},{"user_id":342,"name":"Gr8butnotreally","steam_id":76561198133924450,"connected_time":434000000000,"state":"active","ping":103},{"user_id":275,"name":"scruffer","steam_id":76561198044095460,"connected_time":5593000000000,"state":"active","ping":131},{"user_id":343,"name":"AtomLao","steam_id":76561198886167680,"connected_time":427000000000,"state":"active","ping":62},{"user_id":330,"name":"„Éû„ÉÉ„Éà9„É†„Éº„É≥[EMEA$]","steam_id":76561198111982890,"connected_time":1670000000000,"state":"active","ping":45},{"user_id":320,"name":"Doinnoid","steam_id":76561198262276139,"connected_time":2748000000000,"state":"active","ping":55},{"user_id":336,"name":"jeremy","steam_id":76561198081332766,"connected_time":598000000000,"state":"active","ping":74},{"user_id":309,"name":"Nodspine","steam_id":76561198253579994,"connected_time":3510000000000,"state":"active","ping":133},{"user_id":313,"name":"Thatoneguy21","steam_id":76561199061998888,"connected_time":3309000000000,"state":"active","ping":61},{"user_id":326,"name":"Etomb","steam_id":76561198210017208,"connected_time":2147000000000,"state":"active","ping":111},{"user_id":344,"name":"Khallaria","steam_id":76561198000706490,"connected_time":419000000000,"state":"active","ping":129},{"user_id":338,"name":"trooper","steam_id":76561198191364589,"connected_time":546000000000,"state":"active","ping":72}]},{"server_id":5,"name":"Uncletopia | Frankfurt | 1 | All Maps","name_short":"frk-1","host":"frk-1.de.uncletopia.com","port":27015,"enabled":true,"region":"eu","cc":"de","latitude":50.110924,"longitude":8.682127,"reserved":0,"last_update":"0001-01-01T00:00:00Z","name_a2s":"Uncletopia | Frankfurt | 1 | All Maps","protocol":17,"map":"cp_mountainlab","folder":"tf","game":"Team Fortress","app_id":440,"player_count":0,"max_players":24,"Bots":0,"server_type":"Dedicated","server_os":"Linux","password":true,"vac":true,"version":"7742253","steam_id":85568392924469989,"keywords":["cp","nocrits","nodmgspread","uncletopia"],"game_id":440,"stv_port":27016,"stv_name":"Uncletopia | Frankfurt | 1 | All Maps | STV","players":null},{"server_id":110,"name":"Uncletopia | Frankfurt | 2 | All Maps","name_short":"frk-2","host":"frk-1.de.uncletopia.com","port":27025,"enabled":true,"region":"eu","cc":"de","latitude":50.110924,"longitude":8.682127,"reserved":0,"last_update":"0001-01-01T00:00:00Z","name_a2s":"Uncletopia | Frankfurt | 2 | All Maps","protocol":17,"map":"pl_frontier_final","folder":"tf","game":"Team Fortress","app_id":440,"player_count":24,"max_players":24,"Bots":0,"server_type":"Dedicated","server_os":"Linux","password":true,"vac":true,"version":"7742253","steam_id":85568392924469990,"keywords":["nocrits","nodmgspread","payload","uncletopia"],"game_id":440,"stv_port":27026,"stv_name":"Uncletopia | Frankfurt | 2 | All Maps | STV","players":[{"user_id":860,"name":"trans werewolf (2023-‚àû)","steam_id":76561198107235989,"connected_time":839000000000,"state":"active","ping":60},{"user_id":813,"name":"silves","steam_id":76561198106407598,"connected_time":4339000000000,"state":"active","ping":68},{"user_id":849,"name":"poczuj Zbyszka","steam_id":76561198169261982,"connected_time":1746000000000,"state":"active","ping":103},{"user_id":851,"name":"Shovelhalfrusty","steam_id":76561198346447513,"connected_time":1654000000000,"state":"active","ping":71},{"user_id":846,"name":":b","steam_id":76561198301481739,"connected_time":1827000000000,"state":"active","ping":47},{"user_id":827,"name":"Mafour","steam_id":76561197994581337,"connected_time":3353000000000,"state":"active","ping":75},{"user_id":812,"name":"Tsuruko","steam_id":76561198063618114,"connected_time":4419000000000,"state":"active","ping":63},{"user_id":831,"name":"engie?","steam_id":76561198331852832,"connected_time":2948000000000,"state":"active","ping":82},{"user_id":814,"name":"Enzo","steam_id":76561198074041378,"connected_time":4325000000000,"state":"active","ping":63},{"user_id":852,"name":"Salmiakki","steam_id":76561198061510276,"connected_time":1606000000000,"state":"active","ping":68},{"user_id":853,"name":"SuntanPikachu","steam_id":76561198121242476,"connected_time":1564000000000,"state":"active","ping":63},{"user_id":848,"name":"GigaGuenther","steam_id":76561198257633868,"connected_time":1799000000000,"state":"active","ping":56},{"user_id":843,"name":"Matth3wksy","steam_id":76561199028063968,"connected_time":2089000000000,"state":"active","ping":54},{"user_id":861,"name":"sacha","steam_id":76561198098065932,"connected_time":109000000000,"state":"active","ping":50},{"user_id":858,"name":"etc","steam_id":76561197998394797,"connected_time":1132000000000,"state":"active","ping":60},{"user_id":828,"name":"FL 11 Parametric EQ","steam_id":76561198256811438,"connected_time":3200000000000,"state":"active","ping":98},{"user_id":823,"name":"she strogan me off til i beef","steam_id":76561198166555207,"connected_time":3886000000000,"state":"active","ping":65},{"user_id":839,"name":"Mega Man Legends 3","steam_id":76561198014110199,"connected_time":2374000000000,"state":"active","ping":55},{"user_id":857,"name":"hnz","steam_id":76561198136606222,"connected_time":1501000000000,"state":"active","ping":53},{"user_id":840,"name":"Ê†∏nucleone„ÉÑ","steam_id":76561198099372569,"connected_time":2349000000000,"state":"active","ping":75},{"user_id":819,"name":"Aras","steam_id":76561198160394046,"connected_time":4189000000000,"state":"active","ping":101},{"user_id":824,"name":"Bizarro","steam_id":76561197983902578,"connected_time":3468000000000,"state":"active","ping":80},{"user_id":826,"name":"Ducky[WADZ]üê§","steam_id":76561198060341245,"connected_time":3392000000000,"state":"active","ping":48},{"user_id":842,"name":"b","steam_id":76561198074160877,"connected_time":2145000000000,"state":"active","ping":71}]},{"server_id":308,"name":"Uncletopia | Frankfurt | 3 | All Maps","name_short":"frk-3","host":"frk-1.de.uncletopia.com","port":27035,"enabled":true,"region":"eu","cc":"de","latitude":50.110924,"longitude":8.682127,"reserved":0,"last_update":"0001-01-01T00:00:00Z","name_a2s":"Uncletopia | Frankfurt | 3 | All Maps","protocol":17,"map":"cp_altitude","folder":"tf","game":"Team Fortress","app_id":440,"player_count":0,"max_players":24,"Bots":0,"server_type":"Dedicated","server_os":"Linux","password":true,"vac":true,"version":"7742253","steam_id":85568392924504274,"keywords":["cp","nocrits","nodmgspread","uncletopia"],"game_id":440,"stv_port":27036,"stv_name":"Uncletopia | Frankfurt | 3 | All Maps | STV","players":null},{"server_id":309,"name":"Uncletopia | Frankfurt | 4 | All Maps","name_short":"frk-4","host":"frk-1.de.uncletopia.com","port":27045,"enabled":true,"region":"eu","cc":"de","latitude":50.110924,"longitude":8.682127,"reserved":0,"last_update":"0001-01-01T00:00:00Z","name_a2s":"Uncletopia | Frankfurt | 4 | All Maps","protocol":17,"map":"koth_viaduct","folder":"tf","game":"Team Fortress","app_id":440,"player_count":0,"max_players":24,"Bots":0,"server_type":"Dedicated","server_os":"Linux","password":true,"vac":true,"version":"7742253","steam_id":85568392924504275,"keywords":["cp","nocrits","nodmgspread","uncletopia"],"game_id":440,"stv_port":27046,"stv_name":"Uncletopia | Frankfurt | 4 | All Maps | STV","players":null},{"server_id":310,"name":"Uncletopia | Frankfurt | 5 | All Maps","name_short":"frk-5","host":"frk-1.de.uncletopia.com","port":27055,"enabled":true,"region":"eu","cc":"de","latitude":50.110924,"longitude":8.682127,"reserved":0,"last_update":"0001-01-01T00:00:00Z","name_a2s":"Uncletopia | Frankfurt | 5 | All Maps","protocol":17,"map":"koth_lakeside_final","folder":"tf","game":"Team Fortress","app_id":440,"player_count":22,"max_players":24,"Bots":0,"server_type":"Dedicated","server_os":"Linux","password":true,"vac":true,"version":"7742253","steam_id":85568392924504277,"keywords":["cp","nocrits","nodmgspread","uncletopia"],"game_id":440,"stv_port":27056,"stv_name":"Uncletopia | Frankfurt | 5 | All Maps | STV","players":[{"user_id":794,"name":"gobbie gamer","steam_id":76561198120737107,"connected_time":6328000000000,"state":"active","ping":58},{"user_id":795,"name":"Katla","steam_id":76561198036742174,"connected_time":6316000000000,"state":"active","ping":52},{"user_id":819,"name":"taiyaki","steam_id":76561198096189399,"connected_time":3249000000000,"state":"active","ping":57},{"user_id":853,"name":"Revis","steam_id":76561198881184141,"connected_time":1225000000000,"state":"active","ping":43},{"user_id":864,"name":"Ridge","steam_id":76561198127755079,"connected_time":469000000000,"state":"active","ping":62},{"user_id":855,"name":"catboy trickster","steam_id":76561198075665211,"connected_time":837000000000,"state":"active","ping":33},{"user_id":807,"name":"Theo","steam_id":76561198144205951,"connected_time":4046000000000,"state":"active","ping":98},{"user_id":865,"name":"-makina","steam_id":76561198273042780,"connected_time":297000000000,"state":"active","ping":63},{"user_id":829,"name":"cum 2","steam_id":76561198010075638,"connected_time":2466000000000,"state":"active","ping":60},{"user_id":868,"name":"Darconnoisseur","steam_id":76561198007618821,"connected_time":210000000000,"state":"active","ping":77},{"user_id":813,"name":"Tom","steam_id":76561198126800063,"connected_time":3472000000000,"state":"active","ping":59},{"user_id":857,"name":"Its Morbin Time","steam_id":76561198175575193,"connected_time":712000000000,"state":"active","ping":71},{"user_id":831,"name":"cuteacidUwU","steam_id":76561199257510555,"connected_time":2417000000000,"state":"active","ping":53},{"user_id":839,"name":"Carl's Marx","steam_id":76561198059700045,"connected_time":2203000000000,"state":"active","ping":69},{"user_id":845,"name":"ÔΩÉÔΩà_ÔΩåÔΩÖÔΩéÔΩâÔΩé 1","steam_id":76561198327978002,"connected_time":1874000000000,"state":"active","ping":90},{"user_id":866,"name":"snowi","steam_id":76561198006502679,"connected_time":246000000000,"state":"active","ping":60},{"user_id":861,"name":"Yiffware :3","steam_id":76561198198461837,"connected_time":599000000000,"state":"active","ping":81},{"user_id":848,"name":"Johnyaazz","steam_id":76561198452749072,"connected_time":1799000000000,"state":"active","ping":61},{"user_id":869,"name":"Wand\u003c3r","steam_id":76561198051780941,"connected_time":189000000000,"state":"active","ping":99},{"user_id":863,"name":"Plimpus","steam_id":76561198086654069,"connected_time":529000000000,"state":"active","ping":73},{"user_id":871,"name":"Alf","steam_id":76561198869666452,"connected_time":161000000000,"state":"active","ping":75},{"user_id":872,"name":"wicc","steam_id":76561198893915644,"connected_time":137000000000,"state":"active","ping":89}]},{"server_id":311,"name":"Uncletopia | Frankfurt | 6 | All Maps","name_short":"frk-6","host":"frk-1.de.uncletopia.com","port":27065,"enabled":true,"region":"eu","cc":"de","latitude":50.110924,"longitude":8.682127,"reserved":0,"last_update":"0001-01-01T00:00:00Z","name_a2s":"Uncletopia | Frankfurt | 6 | All Maps","protocol":17,"map":"pl_badwater","folder":"tf","game":"Team Fortress","app_id":440,"player_count":0,"max_players":24,"Bots":0,"server_type":"Dedicated","server_os":"Linux","password":true,"vac":true,"version":"7742253","steam_id":85568392924504278,"keywords":["nocrits","nodmgspread","payload","uncletopia"],"game_id":440,"stv_port":27066,"stv_name":"Uncletopia | Frankfurt | 6 | All Maps | STV","players":null},{"server_id":23,"name":"Uncletopia | Frankfurt | 7 | Stopwatch Beta","name_short":"frk-7","host":"frk-1.de.uncletopia.com","port":27075,"enabled":true,"region":"eu","cc":"de","latitude":50.110924,"longitude":8.682127,"reserved":0,"last_update":"0001-01-01T00:00:00Z","name_a2s":"Uncletopia | Frankfurt | 7 | Stopwatch Beta","protocol":17,"map":"koth_highpass","folder":"tf","game":"Team Fortress","app_id":440,"player_count":0,"max_players":24,"Bots":0,"server_type":"Dedicated","server_os":"Linux","password":true,"vac":true,"version":"7742253","steam_id":85568392924742827,"keywords":["cp","nocrits","nodmgspread","uncletopia"],"game_id":440,"stv_port":27076,"stv_name":"Uncletopia | Frankfurt | 7 | Stopwatch Beta | STV","players":null},{"server_id":24,"name":"Uncletopia | Frankfurt | 8 | Community","name_short":"frk-8","host":"frk-1.de.uncletopia.com","port":27085,"enabled":true,"region":"eu","cc":"de","latitude":50.110924,"longitude":8.682127,"reserved":0,"last_update":"0001-01-01T00:00:00Z","name_a2s":"Uncletopia | Frankfurt | 8 | Community","protocol":17,"map":"workshop/koth_bagel_rc5.ugc2514036946","folder":"tf","game":"Team Fortress","app_id":440,"player_count":0,"max_players":24,"Bots":0,"server_type":"Dedicated","server_os":"Linux","password":true,"vac":true,"version":"7742253","steam_id":85568392924742828,"keywords":["cp","nocrits","nodmgspread","uncletopia"],"game_id":440,"stv_port":27086,"stv_name":"Uncletopia | Frankfurt | 8 | Community | STV","players":null},{"server_id":202,"name":"Uncletopia | Hong Kong | 1 | All Maps","name_short":"hgk-1","host":"hgk-1.hk.uncletopia.com","port":27015,"enabled":true,"region":"asia","cc":"hk","latitude":22.302711,"longitude":114.177216,"reserved":0,"last_update":"0001-01-01T00:00:00Z","name_a2s":"Uncletopia | Hong Kong | 1 | All Maps","protocol":17,"map":"koth_harvest_final","folder":"tf","game":"Team Fortress","app_id":440,"player_count":0,"max_players":24,"Bots":0,"server_type":"Dedicated","server_os":"Linux","password":true,"vac":true,"version":"7742253","steam_id":85568392924494504,"keywords":["cp","nocrits","nodmgspread","uncletopia"],"game_id":440,"stv_port":27016,"stv_name":"Uncletopia | Hong Kong | 1 | All Maps | STV","players":null},{"server_id":1,"name":"Uncletopia | Los Angeles | 1 | All Maps","name_short":"lax-1","host":"lax-1.us.uncletopia.com","port":27015,"enabled":true,"region":"us-west","cc":"us","latitude":33.94279,"longitude":-118.41004,"reserved":0,"last_update":"0001-01-01T00:00:00Z","name_a2s":"Uncletopia | Los Angeles | 1 | All Maps","protocol":17,"map":"pl_badwater","folder":"tf","game":"Team Fortress","app_id":440,"player_count":24,"max_players":24,"Bots":0,"server_type":"Dedicated","server_os":"Linux","password":true,"vac":true,"version":"7742253","steam_id":85568392924469991,"keywords":["nocrits","nodmgspread","payload","uncletopia"],"game_id":440,"stv_port":27016,"stv_name":"Uncletopia | Los Angeles | 1 | All Maps | STV","players":[{"user_id":350,"name":"Polygunner","steam_id":76561199165741650,"connected_time":410000000000,"state":"active","ping":113},{"user_id":327,"name":"sly1","steam_id":76561198049014977,"connected_time":3002000000000,"state":"active","ping":60},{"user_id":343,"name":"WHATISYOURNAME","steam_id":76561198342560783,"connected_time":882000000000,"state":"active","ping":192},{"user_id":335,"name":"Reyloko","steam_id":76561198172480913,"connected_time":1409000000000,"state":"active","ping":104},{"user_id":340,"name":"Doctor Pyro","steam_id":76561198240400118,"connected_time":1249000000000,"state":"active","ping":101},{"user_id":312,"name":"Ceatharlach","steam_id":76561198318126190,"connected_time":3842000000000,"state":"active","ping":156},{"user_id":352,"name":"buzzandwoodykids","steam_id":76561198189814911,"connected_time":232000000000,"state":"active","ping":123},{"user_id":336,"name":"Card Farming","steam_id":76561198167803027,"connected_time":1383000000000,"state":"active","ping":56},{"user_id":344,"name":"vulture pupy","steam_id":76561198061963965,"connected_time":877000000000,"state":"active","ping":88},{"user_id":346,"name":"QueeQuee","steam_id":76561198070804012,"connected_time":493000000000,"state":"active","ping":64},{"user_id":337,"name":"Scuttlebug","steam_id":76561198338055105,"connected_time":1379000000000,"state":"active","ping":47},{"user_id":267,"name":"DUBMonkey","steam_id":76561198046257506,"connected_time":7055000000000,"state":"active","ping":52},{"user_id":333,"name":"Mike Ehrmantraut","steam_id":76561198082446459,"connected_time":1621000000000,"state":"active","ping":114},{"user_id":349,"name":"Fresh","steam_id":76561198068565728,"connected_time":424000000000,"state":"active","ping":47},{"user_id":345,"name":"master_minion","steam_id":76561198170693990,"connected_time":524000000000,"state":"active","ping":55},{"user_id":320,"name":"Harold","steam_id":76561198057317770,"connected_time":3652000000000,"state":"active","ping":47},{"user_id":330,"name":"Sticky","steam_id":76561198031581547,"connected_time":2797000000000,"state":"active","ping":45},{"user_id":353,"name":"Mintce","steam_id":76561198178255901,"connected_time":78000000000,"state":"active","ping":55},{"user_id":283,"name":"tweaker","steam_id":76561198115269587,"connected_time":6361000000000,"state":"active","ping":102},{"user_id":331,"name":"SQbuilder","steam_id":76561198076473375,"connected_time":2773000000000,"state":"active","ping":49},{"user_id":308,"name":"DAS SCHNITZELSTIEN","steam_id":76561198051137159,"connected_time":4492000000000,"state":"active","ping":59},{"user_id":284,"name":"SheepWithPants","steam_id":76561198169158454,"connected_time":6294000000000,"state":"active","ping":65},{"user_id":265,"name":"DEWDE PERFECTED","steam_id":76561198109321346,"connected_time":7234000000000,"state":"active","ping":69},{"user_id":322,"name":"mappy","steam_id":76561198027207244,"connected_time":3607000000000,"state":"active","ping":81}]},{"server_id":112,"name":"Uncletopia | Los Angeles | 2 | All Maps","name_short":"lax-2","host":"lax-1.us.uncletopia.com","port":27025,"enabled":true,"region":"us-west","cc":"us","latitude":33.94279,"longitude":-118.41004,"reserved":0,"last_update":"0001-01-01T00:00:00Z","name_a2s":"Uncletopia | Los Angeles | 2 | All Maps","protocol":17,"map":"koth_cascade","folder":"tf","game":"Team Fortress","app_id":440,"player_count":0,"max_players":24,"Bots":0,"server_type":"Dedicated","server_os":"Linux","password":true,"vac":true,"version":"7742253","steam_id":85568392924469992,"keywords":["cp","nocrits","nodmgspread","uncletopia"],"game_id":440,"stv_port":27026,"stv_name":"Uncletopia | Los Angeles | 2 | All Maps | STV","players":null},{"server_id":324,"name":"Uncletopia | Los Angeles | 3 | All Maps","name_short":"lax-3","host":"lax-1.us.uncletopia.com","port":27035,"enabled":true,"region":"us-west","cc":"us","latitude":33.94279,"longitude":-118.41004,"reserved":0,"last_update":"0001-01-01T00:00:00Z","name_a2s":"Uncletopia | Los Angeles | 3 | All Maps","protocol":17,"map":"koth_highpass","folder":"tf","game":"Team Fortress","app_id":440,"player_count":0,"max_players":24,"Bots":0,"server_type":"Dedicated","server_os":"Linux","password":true,"vac":true,"version":"7742253","steam_id":85568392924510198,"keywords":["cp","nocrits","nodmgspread","uncletopia"],"game_id":440,"stv_port":27036,"stv_name":"Uncletopia | Los Angeles | 3 | All Maps | STV","players":null},{"server_id":25,"name":"Uncletopia | Los Angeles | 4 | Stopwatch Beta","name_short":"lax-4","host":"lax-1.us.uncletopia.com","port":27045,"enabled":true,"region":"us-west","cc":"us","latitude":33.94279,"longitude":-118.41004,"reserved":0,"last_update":"0001-01-01T00:00:00Z","name_a2s":"Uncletopia | Los Angeles | 4 | Stopwatch Beta","protocol":17,"map":"pl_borneo","folder":"tf","game":"Team Fortress","app_id":440,"player_count":0,"max_players":24,"Bots":0,"server_type":"Dedicated","server_os":"Linux","password":true,"vac":true,"version":"7742253","steam_id":85568392924510199,"keywords":["nocrits","nodmgspread","payload","uncletopia"],"game_id":440,"stv_port":27046,"stv_name":"Uncletopia | Los Angeles | 4 | Stopwatch Beta | STV","players":null},{"server_id":11,"name":"Uncletopia | London | 1 | All Maps","name_short":"lon-1","host":"lon-1.uk.uncletopia.com","port":27015,"enabled":true,"region":"eu","cc":"gb","latitude":51.509865,"longitude":-0.118092,"reserved":0,"last_update":"0001-01-01T00:00:00Z","name_a2s":"Uncletopia | London | 1 | All Maps","protocol":17,"map":"pl_pier","folder":"tf","game":"Team Fortress","app_id":440,"player_count":24,"max_players":24,"Bots":0,"server_type":"Dedicated","server_os":"Linux","password":true,"vac":true,"version":"7742253","steam_id":85568392924367362,"keywords":["nocrits","nodmgspread","payload","uncletopia"],"game_id":440,"stv_port":27016,"stv_name":"Uncletopia | London | 1 | All Maps | STV","players":[{"user_id":846,"name":"BrainLacking","steam_id":76561198965574196,"connected_time":543000000000,"state":"active","ping":59},{"user_id":830,"name":"Bupster","steam_id":76561199077027065,"connected_time":1049000000000,"state":"active","ping":73},{"user_id":823,"name":"Johnny Cockroach","steam_id":76561198049648277,"connected_time":1366000000000,"state":"active","ping":104},{"user_id":831,"name":"Logic Not Found","steam_id":76561198273025576,"connected_time":1039000000000,"state":"active","ping":58},{"user_id":816,"name":"Master Oogway","steam_id":76561198114911291,"connected_time":1745000000000,"state":"active","ping":88},{"user_id":840,"name":"I am on the tf2 scoreboard...","steam_id":76561198043850884,"connected_time":704000000000,"state":"active","ping":59},{"user_id":845,"name":"waddle dork","steam_id":76561198297349985,"connected_time":590000000000,"state":"active","ping":63},{"user_id":792,"name":"SuperBob103","steam_id":76561199175360012,"connected_time":4285000000000,"state":"active","ping":51},{"user_id":760,"name":"Wubbles","steam_id":76561197970314906,"connected_time":5477000000000,"state":"active","ping":71},{"user_id":851,"name":"Resounding","steam_id":76561198051011034,"connected_time":282000000000,"state":"active","ping":45},{"user_id":821,"name":"frosty","steam_id":76561198094560834,"connected_time":1650000000000,"state":"active","ping":48},{"user_id":824,"name":"ivanmixo","steam_id":76561198160213989,"connected_time":1363000000000,"state":"active","ping":71},{"user_id":825,"name":"Danube501","steam_id":76561198143222686,"connected_time":1345000000000,"state":"active","ping":110},{"user_id":826,"name":"Za_Warudo_69_420","steam_id":76561199172415952,"connected_time":1294000000000,"state":"active","ping":46},{"user_id":832,"name":"Ran33","steam_id":76561197991474499,"connected_time":1024000000000,"state":"active","ping":88},{"user_id":847,"name":"Immovable Gonzalez","steam_id":76561198072233046,"connected_time":444000000000,"state":"active","ping":78},{"user_id":790,"name":"Sarip","steam_id":76561198113330438,"connected_time":4306000000000,"state":"active","ping":55},{"user_id":841,"name":"bender","steam_id":76561198051056898,"connected_time":700000000000,"state":"active","ping":43},{"user_id":835,"name":"joecalmatt","steam_id":76561198172552015,"connected_time":981000000000,"state":"active","ping":45},{"user_id":834,"name":"Shlongulator","steam_id":76561198149779201,"connected_time":998000000000,"state":"active","ping":52},{"user_id":844,"name":"the indomitable human spirit","steam_id":76561198718760200,"connected_time":627000000000,"state":"active","ping":46},{"user_id":849,"name":"tf2 enjoyer","steam_id":76561199207246378,"connected_time":332000000000,"state":"active","ping":138},{"user_id":850,"name":"AMD","steam_id":76561199114981461,"connected_time":303000000000,"state":"active","ping":161},{"user_id":852,"name":"Hydroxianchaos","steam_id":76561198043786828,"connected_time":265000000000,"state":"active","ping":119}]},{"server_id":114,"name":"Uncletopia | London | 2 | All Maps","name_short":"lon-2","host":"lon-1.uk.uncletopia.com","port":27025,"enabled":true,"region":"eu","cc":"gb","latitude":51.509865,"longitude":-0.118092,"reserved":0,"last_update":"0001-01-01T00:00:00Z","name_a2s":"Uncletopia | London | 2 | All Maps","protocol":17,"map":"cp_sunshine","folder":"tf","game":"Team Fortress","app_id":440,"player_count":0,"max_players":24,"Bots":0,"server_type":"Dedicated","server_os":"Linux","password":true,"vac":true,"version":"7742253","steam_id":85568392924470941,"keywords":["cp","nocrits","nodmgspread","uncletopia"],"game_id":440,"stv_port":27026,"stv_name":"Uncletopia | London | 2 | All Maps | STV","players":null},{"server_id":320,"name":"Uncletopia | London | 3 | All Maps","name_short":"lon-3","host":"lon-1.uk.uncletopia.com","port":27035,"enabled":true,"region":"eu","cc":"gb","latitude":51.509865,"longitude":-0.118092,"reserved":0,"last_update":"0001-01-01T00:00:00Z","name_a2s":"Uncletopia | London | 3 | All Maps","protocol":17,"map":"koth_cascade","folder":"tf","game":"Team Fortress","app_id":440,"player_count":0,"max_players":24,"Bots":0,"server_type":"Dedicated","server_os":"Linux","password":true,"vac":true,"version":"7742253","steam_id":85568392924510192,"keywords":["cp","nocrits","nodmgspread","uncletopia"],"game_id":440,"stv_port":27036,"stv_name":"Uncletopia | London | 3 | All Maps | STV","players":null},{"server_id":321,"name":"Uncletopia | London | 4 | All Maps","name_short":"lon-4","host":"lon-1.uk.uncletopia.com","port":27045,"enabled":true,"region":"eu","cc":"gb","latitude":51.509865,"longitude":-0.118092,"reserved":0,"last_update":"0001-01-01T00:00:00Z","name_a2s":"Uncletopia | London | 4 | All Maps","protocol":17,"map":"cp_mountainlab","folder":"tf","game":"Team Fortress","app_id":440,"player_count":0,"max_players":24,"Bots":0,"server_type":"Dedicated","server_os":"Linux","password":true,"vac":true,"version":"7742253","steam_id":85568392924510193,"keywords":["cp","nocrits","nodmgspread","uncletopia"],"game_id":440,"stv_port":27046,"stv_name":"Uncletopia | London | 4 | All Maps | STV","players":null},{"server_id":21,"name":"Uncletopia | London | 5 | All Maps","name_short":"lon-5","host":"lon-1.uk.uncletopia.com","port":27055,"enabled":true,"region":"eu","cc":"gb","latitude":51.509865,"longitude":-0.118092,"reserved":0,"last_update":"0001-01-01T00:00:00Z","name_a2s":"Uncletopia | London | 5 | All Maps","protocol":17,"map":"pl_barnblitz","folder":"tf","game":"Team Fortress","app_id":440,"player_count":0,"max_players":24,"Bots":0,"server_type":"Dedicated","server_os":"Linux","password":true,"vac":true,"version":"7742253","steam_id":85568392924742829,"keywords":["nocrits","nodmgspread","payload","uncletopia"],"game_id":440,"stv_port":27056,"stv_name":"Uncletopia | London | 5 | All Maps | STV","players":null},{"server_id":22,"name":"Uncletopia | London | 6 | All Maps","name_short":"lon-6","host":"lon-1.uk.uncletopia.com","port":27065,"enabled":true,"region":"eu","cc":"gb","latitude":51.509865,"longitude":-0.118092,"reserved":0,"last_update":"0001-01-01T00:00:00Z","name_a2s":"Uncletopia | London | 6 | All Maps","protocol":17,"map":"koth_cascade","folder":"tf","game":"Team Fortress","app_id":440,"player_count":3,"max_players":24,"Bots":0,"server_type":"Dedicated","server_os":"Linux","password":true,"vac":true,"version":"7742253","steam_id":85568392924742830,"keywords":["cp","nocrits","nodmgspread","uncletopia"],"game_id":440,"stv_port":27066,"stv_name":"Uncletopia | London | 6 | All Maps | STV","players":[{"user_id":457,"name":"SIR KNIGHT OF DOGE","steam_id":76561198175682134,"connected_time":4560000000000,"state":"active","ping":58},{"user_id":458,"name":"Fulfu (O·¥•O)","steam_id":76561198211867499,"connected_time":4526000000000,"state":"active","ping":49},{"user_id":468,"name":"sid","steam_id":76561198093613358,"connected_time":1701000000000,"state":"active","ping":102}]},{"server_id":40,"name":"Uncletopia | London | 7 | No Payload","name_short":"lon-7","host":"lon-1.uk.uncletopia.com","port":27075,"enabled":true,"region":"eu","cc":"gb","latitude":51.509865,"longitude":-0.118092,"reserved":0,"last_update":"0001-01-01T00:00:00Z","name_a2s":"Uncletopia | London | 7 | No Payload","protocol":17,"map":"cp_fastlane","folder":"tf","game":"Team Fortress","app_id":440,"player_count":0,"max_players":24,"Bots":0,"server_type":"Dedicated","server_os":"Linux","password":true,"vac":true,"version":"7742253","steam_id":85568392924964314,"keywords":["cp","nocrits","nodmgspread","uncletopia"],"game_id":440,"stv_port":27076,"stv_name":"Uncletopia | London | 7 | No Payload | STV","players":null},{"server_id":41,"name":"Uncletopia | London | 8 | Community","name_short":"lon-8","host":"lon-1.uk.uncletopia.com","port":27085,"enabled":true,"region":"eu","cc":"gb","latitude":51.509865,"longitude":-0.118092,"reserved":0,"last_update":"0001-01-01T00:00:00Z","name_a2s":"Uncletopia | London | 8 | Community","protocol":17,"map":"workshop/pl_eruption_b9a.ugc2807898013","folder":"tf","game":"Team Fortress","app_id":440,"player_count":0,"max_players":24,"Bots":0,"server_type":"Dedicated","server_os":"Linux","password":true,"vac":true,"version":"7742253","steam_id":85568392924964315,"keywords":["nocrits","nodmgspread","payload","uncletopia"],"game_id":440,"stv_port":27086,"stv_name":"Uncletopia | London | 8 | Community | STV","players":null},{"server_id":300,"name":"Uncletopia | Montr√©al | 1 | All Maps","name_short":"mtl-1","host":"mtl-1.ca.uncletopia.com","port":27015,"enabled":true,"region":"us-east","cc":"ca","latitude":45.50889,"longitude":-73.56167,"reserved":0,"last_update":"0001-01-01T00:00:00Z","name_a2s":"Uncletopia | Montr√©al | 1 | All Maps","protocol":17,"map":"pl_barnblitz","folder":"tf","game":"Team Fortress","app_id":440,"player_count":0,"max_players":24,"Bots":0,"server_type":"Dedicated","server_os":"Linux","password":true,"vac":true,"version":"7742253","steam_id":85568392924500087,"keywords":["nocrits","nodmgspread","payload","uncletopia"],"game_id":440,"stv_port":27016,"stv_name":"Uncletopia | Montr√©al | 1 | All Maps | STV","players":null},{"server_id":301,"name":"Uncletopia | Montr√©al | 2 | All Maps","name_short":"mtl-2","host":"mtl-1.ca.uncletopia.com","port":27025,"enabled":true,"region":"us-east","cc":"ca","latitude":45.50889,"longitude":-73.56167,"reserved":0,"last_update":"0001-01-01T00:00:00Z","name_a2s":"Uncletopia | Montr√©al | 2 | All Maps","protocol":17,"map":"koth_highpass","folder":"tf","game":"Team Fortress","app_id":440,"player_count":4,"max_players":24,"Bots":0,"server_type":"Dedicated","server_os":"Linux","password":true,"vac":true,"version":"7742253","steam_id":85568392924500088,"keywords":["cp","nocrits","nodmgspread","uncletopia"],"game_id":440,"stv_port":27026,"stv_name":"Uncletopia | Montr√©al | 2 | All Maps | STV","players":[{"user_id":17,"name":"Bandit","steam_id":76561198328421159,"connected_time":325000000000,"state":"active","ping":56},{"user_id":18,"name":"Lost","steam_id":76561198110450849,"connected_time":324000000000,"state":"active","ping":52},{"user_id":19,"name":"seanfitzgerald2003","steam_id":76561198283286100,"connected_time":275000000000,"state":"active","ping":65},{"user_id":20,"name":"RealFakeFitz","steam_id":76561198203299400,"connected_time":108000000000,"state":"active","ping":60}]},{"server_id":302,"name":"Uncletopia | Montr√©al | 3 | All Maps","name_short":"mtl-3","host":"mtl-1.ca.uncletopia.com","port":27035,"enabled":true,"region":"us-east","cc":"ca","latitude":45.50889,"longitude":-73.56167,"reserved":0,"last_update":"0001-01-01T00:00:00Z","name_a2s":"Uncletopia | Montr√©al | 3 | All Maps","protocol":17,"map":"koth_viaduct","folder":"tf","game":"Team Fortress","app_id":440,"player_count":0,"max_players":24,"Bots":0,"server_type":"Dedicated","server_os":"Linux","password":true,"vac":true,"version":"7742253","steam_id":85568392924500089,"keywords":["cp","nocrits","nodmgspread","uncletopia"],"game_id":440,"stv_port":27036,"stv_name":"Uncletopia | Montr√©al | 3 | All Maps | STV","players":null},{"server_id":303,"name":"Uncletopia | Montr√©al | 4 | No Payload","name_short":"mtl-4","host":"mtl-1.ca.uncletopia.com","port":27045,"enabled":true,"region":"us-east","cc":"ca","latitude":45.50889,"longitude":-73.56167,"reserved":0,"last_update":"0001-01-01T00:00:00Z","name_a2s":"Uncletopia | Montr√©al | 4 | No Payload","protocol":17,"map":"plr_pipeline","folder":"tf","game":"Team Fortress","app_id":440,"player_count":0,"max_players":24,"Bots":0,"server_type":"Dedicated","server_os":"Linux","password":true,"vac":true,"version":"7742253","steam_id":85568392924500090,"keywords":["nocrits","nodmgspread","payload","uncletopia"],"game_id":440,"stv_port":27046,"stv_name":"Uncletopia | Montr√©al | 4 | No Payload | STV","players":null},{"server_id":13,"name":"Uncletopia | New York City | 1 | All Maps","name_short":"nyc-1","host":"nyc-1.us.uncletopia.com","port":27015,"enabled":true,"region":"us-east","cc":"us","latitude":40.73061,"longitude":-73.93524,"reserved":0,"last_update":"0001-01-01T00:00:00Z","name_a2s":"Uncletopia | New York City | 1 | All Maps","protocol":17,"map":"pl_badwater","folder":"tf","game":"Team Fortress","app_id":440,"player_count":24,"max_players":24,"Bots":0,"server_type":"Dedicated","server_os":"Linux","password":true,"vac":true,"version":"7742253","steam_id":85568392924469993,"keywords":["nocrits","nodmgspread","payload","uncletopia"],"game_id":440,"stv_port":27016,"stv_name":"Uncletopia | New York City | 1 | All Maps | STV","players":[{"user_id":508,"name":"Fawful's Minion","steam_id":76561198090120779,"connected_time":2926000000000,"state":"active","ping":155},{"user_id":531,"name":"Smig","steam_id":76561198408846602,"connected_time":387000000000,"state":"active","ping":56},{"user_id":520,"name":"pikscast","steam_id":76561198144047527,"connected_time":802000000000,"state":"active","ping":90},{"user_id":516,"name":"flora","steam_id":76561197994492154,"connected_time":1293000000000,"state":"active","ping":145},{"user_id":514,"name":"StrangeSaus","steam_id":76561198147790758,"connected_time":1547000000000,"state":"active","ping":68},{"user_id":442,"name":"layabout","steam_id":76561198130892117,"connected_time":6939000000000,"state":"active","ping":61},{"user_id":521,"name":"SoniaSquishy","steam_id":76561198046275326,"connected_time":800000000000,"state":"active","ping":61},{"user_id":533,"name":"pathways","steam_id":76561198054832333,"connected_time":151000000000,"state":"active","ping":78},{"user_id":511,"name":"Nico","steam_id":76561198125701869,"connected_time":2549000000000,"state":"active","ping":50},{"user_id":524,"name":"Herr M√ºller","steam_id":76561198064876829,"connected_time":780000000000,"state":"active","ping":93},{"user_id":515,"name":"Space Cops","steam_id":76561198032414253,"connected_time":1480000000000,"state":"active","ping":45},{"user_id":532,"name":"A Puppy","steam_id":76561198828184456,"connected_time":170000000000,"state":"active","ping":51},{"user_id":534,"name":"Fallbourn","steam_id":76561197994851732,"connected_time":137000000000,"state":"active","ping":80},{"user_id":530,"name":"speck","steam_id":76561198147107736,"connected_time":459000000000,"state":"active","ping":57},{"user_id":391,"name":"FrumpyGoldsmith","steam_id":76561199036534127,"connected_time":11052000000000,"state":"active","ping":72},{"user_id":526,"name":"jimmy skillet","steam_id":76561198067232126,"connected_time":726000000000,"state":"active","ping":91},{"user_id":527,"name":"Genn","steam_id":76561198070450699,"connected_time":718000000000,"state":"active","ping":43},{"user_id":510,"name":"Frosti","steam_id":76561198332850064,"connected_time":2866000000000,"state":"active","ping":78},{"user_id":529,"name":"yes","steam_id":76561198183373721,"connected_time":562000000000,"state":"active","ping":47},{"user_id":536,"name":"average girl in red listener","steam_id":76561198326083509,"connected_time":45000000000,"state":"active","ping":79},{"user_id":496,"name":"TLG, Certified Gamer Mom","steam_id":76561198076669951,"connected_time":3503000000000,"state":"active","ping":58},{"user_id":380,"name":"xXBigWingmanFanXx","steam_id":76561198067904392,"connected_time":11926000000000,"state":"active","ping":53},{"user_id":417,"name":"ArcanianArcher","steam_id":76561198088445076,"connected_time":9172000000000,"state":"active","ping":65},{"user_id":513,"name":"Acute Surrealism","steam_id":76561198109618175,"connected_time":2072000000000,"state":"active","ping":87}]},{"server_id":14,"name":"Uncletopia | New York City | 2 | All Maps","name_short":"nyc-2","host":"nyc-1.us.uncletopia.com","port":27025,"enabled":true,"region":"us-east","cc":"us","latitude":40.73061,"longitude":-73.93524,"reserved":0,"last_update":"0001-01-01T00:00:00Z","name_a2s":"Uncletopia | New York City | 2 | All Maps","protocol":17,"map":"pl_badwater","folder":"tf","game":"Team Fortress","app_id":440,"player_count":24,"max_players":24,"Bots":0,"server_type":"Dedicated","server_os":"Linux","password":true,"vac":true,"version":"7742253","steam_id":85568392924469994,"keywords":["nocrits","nodmgspread","payload","uncletopia"],"game_id":440,"stv_port":27026,"stv_name":"Uncletopia | New York City | 2 | All Maps | STV","players":[{"user_id":863,"name":"der","steam_id":76561198292049646,"connected_time":1099000000000,"state":"active","ping":72},{"user_id":861,"name":"party pooper","steam_id":76561198068760559,"connected_time":1147000000000,"state":"active","ping":45},{"user_id":905,"name":"azucar","steam_id":76561198056543825,"connected_time":25000000000,"state":"active","ping":79},{"user_id":858,"name":"Sprise","steam_id":76561198018054196,"connected_time":1373000000000,"state":"active","ping":78},{"user_id":903,"name":"fishfin","steam_id":76561198255819115,"connected_time":81000000000,"state":"active","ping":78},{"user_id":837,"name":"julie 2","steam_id":76561198047707226,"connected_time":2420000000000,"state":"active","ping":54},{"user_id":862,"name":"Cha1n","steam_id":76561198075610474,"connected_time":1131000000000,"state":"active","ping":51},{"user_id":854,"name":"Dealyo","steam_id":76561198282395338,"connected_time":1500000000000,"state":"active","ping":54},{"user_id":850,"name":"Mattaroo","steam_id":76561198333076483,"connected_time":1622000000000,"state":"active","ping":48},{"user_id":826,"name":"Shoe‚Ñ¢","steam_id":76561199114397881,"connected_time":2974000000000,"state":"active","ping":61},{"user_id":831,"name":"AFloatingShoppinList","steam_id":76561198300216562,"connected_time":2746000000000,"state":"active","ping":46},{"user_id":804,"name":"Ewah","steam_id":76561198057912166,"connected_time":4658000000000,"state":"active","ping":66},{"user_id":846,"name":"drifloy","steam_id":76561198153437083,"connected_time":1868000000000,"state":"active","ping":45},{"user_id":898,"name":"Ciro1001","steam_id":76561198055807559,"connected_time":224000000000,"state":"active","ping":146},{"user_id":851,"name":"BurnN8or101","steam_id":76561198132668224,"connected_time":1620000000000,"state":"active","ping":69},{"user_id":855,"name":"Avizzo","steam_id":76561198127023219,"connected_time":1448000000000,"state":"active","ping":99},{"user_id":864,"name":"Not Guztaf","steam_id":76561198334924763,"connected_time":1067000000000,"state":"active","ping":75},{"user_id":865,"name":"Acute Angle","steam_id":76561198159495534,"connected_time":1059000000000,"state":"active","ping":47},{"user_id":859,"name":"Wolfe","steam_id":76561197997350470,"connected_time":1307000000000,"state":"active","ping":78},{"user_id":868,"name":"yodieland","steam_id":76561198143727547,"connected_time":1043000000000,"state":"active","ping":86},{"user_id":878,"name":"john","steam_id":76561198039864629,"connected_time":774000000000,"state":"active","ping":76},{"user_id":869,"name":"MMario36","steam_id":76561198181402966,"connected_time":1004000000000,"state":"active","ping":74},{"user_id":870,"name":"saus","steam_id":76561198114729364,"connected_time":988000000000,"state":"active","ping":138},{"user_id":902,"name":"Greenshrum","steam_id":76561198318605958,"connected_time":150000000000,"state":"active","ping":64}]},{"server_id":15,"name":"Uncletopia | New York City | 3 | Stopwatch Beta","name_short":"nyc-3","host":"nyc-1.us.uncletopia.com","port":27035,"enabled":true,"region":"us-east","cc":"us","latitude":40.73061,"longitude":-73.93524,"reserved":0,"last_update":"0001-01-01T00:00:00Z","name_a2s":"Uncletopia | New York City | 3 | Stopwatch Beta","protocol":17,"map":"workshop/koth_bagel_rc5.ugc2514036946","folder":"tf","game":"Team Fortress","app_id":440,"player_count":20,"max_players":24,"Bots":0,"server_type":"Dedicated","server_os":"Linux","password":true,"vac":true,"version":"7742253","steam_id":85568392924742820,"keywords":["cp","nocrits","nodmgspread","uncletopia"],"game_id":440,"stv_port":27036,"stv_name":"Uncletopia | New York City | 3 | Stopwatch Beta | STV","players":[{"user_id":432,"name":"RazzTheDazzle","steam_id":76561199045963031,"connected_time":396000000000,"state":"active","ping":99},{"user_id":429,"name":"Professor Shaggy","steam_id":76561198276926724,"connected_time":539000000000,"state":"active","ping":46},{"user_id":430,"name":"carloseolartec","steam_id":76561198396648023,"connected_time":454000000000,"state":"active","ping":48},{"user_id":437,"name":"tomboytysen","steam_id":76561198149641643,"connected_time":115000000000,"state":"active","ping":80},{"user_id":398,"name":"KFC‚ò≠","steam_id":76561199206815320,"connected_time":1768000000000,"state":"active","ping":113},{"user_id":408,"name":"Plinko","steam_id":76561197968530638,"connected_time":1124000000000,"state":"active","ping":54},{"user_id":433,"name":"chester","steam_id":76561198952172376,"connected_time":298000000000,"state":"active","ping":46},{"user_id":434,"name":"Shia","steam_id":76561198057900522,"connected_time":248000000000,"state":"active","ping":85},{"user_id":332,"name":"NovaStar","steam_id":76561198421340963,"connected_time":5570000000000,"state":"active","ping":108},{"user_id":399,"name":"Lilly","steam_id":76561198255786125,"connected_time":1765000000000,"state":"active","ping":65},{"user_id":439,"name":"Caoticaos","steam_id":76561198114800227,"connected_time":2000000000,"state":"spawning","ping":171},{"user_id":435,"name":"ZachB.","steam_id":76561198039146326,"connected_time":212000000000,"state":"active","ping":59},{"user_id":400,"name":"‚òÖZefir‚òÖ","steam_id":76561198153621935,"connected_time":1752000000000,"state":"active","ping":149},{"user_id":426,"name":"Austin","steam_id":76561198058386207,"connected_time":649000000000,"state":"active","ping":97},{"user_id":436,"name":"sylph","steam_id":76561199078544046,"connected_time":198000000000,"state":"active","ping":84},{"user_id":412,"name":"tim-","steam_id":76561199119101315,"connected_time":1044000000000,"state":"active","ping":52},{"user_id":402,"name":"Unwavering Flavor","steam_id":76561198053306065,"connected_time":1643000000000,"state":"active","ping":95},{"user_id":438,"name":"nivekuil","steam_id":76561198043892129,"connected_time":61000000000,"state":"active","ping":108},{"user_id":425,"name":"Violetta","steam_id":76561197999924080,"connected_time":654000000000,"state":"active","ping":44},{"user_id":421,"name":"Cowboy Cookie","steam_id":76561198051483841,"connected_time":854000000000,"state":"active","ping":158}]},{"server_id":16,"name":"Uncletopia | New York City | 4 | Community","name_short":"nyc-4","host":"nyc-1.us.uncletopia.com","port":27045,"enabled":true,"region":"us-east","cc":"us","latitude":40.73061,"longitude":-73.93524,"reserved":0,"last_update":"0001-01-01T00:00:00Z","name_a2s":"Uncletopia | New York City | 4 | Community","protocol":17,"map":"workshop/koth_bagel_rc5.ugc2514036946","folder":"tf","game":"Team Fortress","app_id":440,"player_count":4,"max_players":24,"Bots":0,"server_type":"Dedicated","server_os":"Linux","password":true,"vac":true,"version":"7742253","steam_id":85568392924742821,"keywords":["cp","nocrits","nodmgspread","uncletopia"],"game_id":440,"stv_port":27046,"stv_name":"Uncletopia | New York City | 4 | Community | STV","players":[{"user_id":229,"name":"Boltingdasher","steam_id":76561198799489173,"connected_time":2197000000000,"state":"active","ping":304},{"user_id":230,"name":"walnut","steam_id":76561198336517425,"connected_time":2079000000000,"state":"active","ping":38},{"user_id":228,"name":"Rusty Donkey Banger","steam_id":76561199002608046,"connected_time":2326000000000,"state":"active","ping":224},{"user_id":231,"name":"read the name of my bison","steam_id":76561198296507235,"connected_time":642000000000,"state":"active","ping":70}]},{"server_id":142,"name":"Uncletopia | S√£o Paulo | 1 | All Maps","name_short":"sao-1","host":"sao-1.br.uncletopia.com","port":27015,"enabled":true,"region":"sa","cc":"br","latitude":-23.533773,"longitude":-46.62529,"reserved":0,"last_update":"0001-01-01T00:00:00Z","name_a2s":"Uncletopia | S√£o Paulo | 1 | All Maps","protocol":17,"map":"pl_snowycoast","folder":"tf","game":"Team Fortress","app_id":440,"player_count":0,"max_players":24,"Bots":0,"server_type":"Dedicated","server_os":"Linux","password":true,"vac":true,"version":"7742253","steam_id":85568392924469996,"keywords":["nocrits","nodmgspread","payload","uncletopia"],"game_id":440,"stv_port":27016,"stv_name":"Uncletopia | S√£o Paulo | 1 | All Maps | STV","players":null},{"server_id":143,"name":"Uncletopia | S√£o Paulo | 2 | All Maps","name_short":"sao-2","host":"sao-2.br.uncletopia.com","port":27015,"enabled":true,"region":"sa","cc":"br","latitude":-23.533773,"longitude":-46.62529,"reserved":0,"last_update":"0001-01-01T00:00:00Z","name_a2s":"Uncletopia | S√£o Paulo | 2 | All Maps","protocol":17,"map":"koth_viaduct","folder":"tf","game":"Team Fortress","app_id":440,"player_count":0,"max_players":24,"Bots":0,"server_type":"Dedicated","server_os":"Linux","password":true,"vac":true,"version":"7742253","steam_id":85568392924485349,"keywords":["cp","nocrits","nodmgspread","uncletopia"],"game_id":440,"stv_port":27016,"stv_name":"Uncletopia | S√£o Paulo | 2 | All Maps | STV","players":null},{"server_id":7,"name":"Uncletopia | Seattle | 1 | All Maps","name_short":"sea-1","host":"sea-1.us.uncletopia.com","port":27015,"enabled":true,"region":"us-west","cc":"us","latitude":47.608013,"longitude":-122.33517,"reserved":0,"last_update":"0001-01-01T00:00:00Z","name_a2s":"Uncletopia | Seattle | 1 | All Maps","protocol":17,"map":"cp_mountainlab","folder":"tf","game":"Team Fortress","app_id":440,"player_count":24,"max_players":24,"Bots":0,"server_type":"Dedicated","server_os":"Linux","password":true,"vac":true,"version":"7742253","steam_id":85568392924469997,"keywords":["cp","nocrits","nodmgspread","uncletopia"],"game_id":440,"stv_port":27016,"stv_name":"Uncletopia | Seattle | 1 | All Maps | STV","players":[{"user_id":443,"name":"Mignyanne :3","steam_id":76561198048754056,"connected_time":774000000000,"state":"active","ping":72},{"user_id":455,"name":"Michael scom GUNGA ‰∑±","steam_id":76561198137221516,"connected_time":336000000000,"state":"active","ping":44},{"user_id":442,"name":"Greskrendtregk","steam_id":76561197969553142,"connected_time":1114000000000,"state":"active","ping":51},{"user_id":453,"name":"ThatGuyMatt","steam_id":76561198398747295,"connected_time":389000000000,"state":"active","ping":103},{"user_id":436,"name":"Tomato Soup","steam_id":76561198051834684,"connected_time":1400000000000,"state":"active","ping":60},{"user_id":454,"name":"PirateJet","steam_id":76561198050858744,"connected_time":386000000000,"state":"active","ping":82},{"user_id":456,"name":"skytyler","steam_id":76561198257848356,"connected_time":318000000000,"state":"active","ping":68},{"user_id":457,"name":"jungus","steam_id":76561198129862008,"connected_time":278000000000,"state":"active","ping":77},{"user_id":450,"name":"Leonard","steam_id":76561198276200628,"connected_time":589000000000,"state":"active","ping":79},{"user_id":447,"name":"Colonel Sanders jr.","steam_id":76561197990168787,"connected_time":706000000000,"state":"active","ping":50},{"user_id":452,"name":"some velvet morning","steam_id":76561198325306660,"connected_time":412000000000,"state":"active","ping":53},{"user_id":458,"name":"Lane","steam_id":76561197965828506,"connected_time":264000000000,"state":"active","ping":85},{"user_id":462,"name":"lag","steam_id":76561197963872739,"connected_time":68000000000,"state":"active","ping":57},{"user_id":460,"name":"DapperDuck1118","steam_id":76561198421122259,"connected_time":249000000000,"state":"active","ping":84},{"user_id":431,"name":"Lemonade Juice","steam_id":76561198402892608,"connected_time":1512000000000,"state":"active","ping":74},{"user_id":448,"name":"Zomen","steam_id":76561198134901918,"connected_time":657000000000,"state":"active","ping":65},{"user_id":449,"name":"CRAZY FROG ISNT THE SONG","steam_id":76561198046705420,"connected_time":606000000000,"state":"active","ping":103},{"user_id":428,"name":"Erk-Kirk","steam_id":76561198288954914,"connected_time":1675000000000,"state":"active","ping":96},{"user_id":439,"name":"Len","steam_id":76561199141913673,"connected_time":1371000000000,"state":"active","ping":68},{"user_id":412,"name":"rat gets the cheese","steam_id":76561198031234032,"connected_time":2837000000000,"state":"active","ping":103},{"user_id":451,"name":"doomshroom","steam_id":76561198092827250,"connected_time":516000000000,"state":"active","ping":62},{"user_id":461,"name":"SapphireSundew [Lotus]","steam_id":76561198040904890,"connected_time":201000000000,"state":"active","ping":99},{"user_id":441,"name":"Number28","steam_id":76561198315018819,"connected_time":1250000000000,"state":"active","ping":75},{"user_id":370,"name":"Wormy wants to RTV","steam_id":76561198054539200,"connected_time":5137000000000,"state":"active","ping":51}]},{"server_id":119,"name":"Uncletopia | Seattle | 2 | All Maps","name_short":"sea-2","host":"sea-1.us.uncletopia.com","port":27025,"enabled":true,"region":"us-west","cc":"us","latitude":47.608013,"longitude":-122.33517,"reserved":0,"last_update":"0001-01-01T00:00:00Z","name_a2s":"Uncletopia | Seattle | 2 | All Maps","protocol":17,"map":"pl_badwater","folder":"tf","game":"Team Fortress","app_id":440,"player_count":24,"max_players":24,"Bots":0,"server_type":"Dedicated","server_os":"Linux","password":true,"vac":true,"version":"7742253","steam_id":85568392924469998,"keywords":["nocrits","nodmgspread","payload","uncletopia"],"game_id":440,"stv_port":27026,"stv_name":"Uncletopia | Seattle | 2 | All Maps | STV","players":[{"user_id":255,"name":"Gary, 40, soul sucking 9-5","steam_id":76561198073812888,"connected_time":2609000000000,"state":"active","ping":43},{"user_id":154,"name":"kermitcreeper(ZAZA)","steam_id":76561199222829972,"connected_time":9553000000000,"state":"active","ping":102},{"user_id":277,"name":"I_Want_A_Soft_Taco","steam_id":76561198225561352,"connected_time":1238000000000,"state":"active","ping":86},{"user_id":300,"name":"[UHG]barracks obimbo","steam_id":76561198009832041,"connected_time":361000000000,"state":"active","ping":111},{"user_id":169,"name":"mumbles","steam_id":76561197994528974,"connected_time":8690000000000,"state":"active","ping":80},{"user_id":272,"name":"EpicVenture","steam_id":76561198012475713,"connected_time":1477000000000,"state":"active","ping":141},{"user_id":278,"name":"PootisLife","steam_id":76561198074400568,"connected_time":1223000000000,"state":"active","ping":39},{"user_id":297,"name":"Isopentyl Ethanoate","steam_id":76561198116389072,"connected_time":463000000000,"state":"active","ping":63},{"user_id":294,"name":"Frongus","steam_id":76561197979056451,"connected_time":555000000000,"state":"active","ping":49},{"user_id":279,"name":"Ducks‚ù§","steam_id":76561198795851270,"connected_time":1189000000000,"state":"active","ping":120},{"user_id":280,"name":"bullet man","steam_id":76561198080058079,"connected_time":1105000000000,"state":"active","ping":49},{"user_id":281,"name":"Cuno Doesn't Care!","steam_id":76561198007372782,"connected_time":1095000000000,"state":"active","ping":77},{"user_id":292,"name":"Ace!!!!","steam_id":76561197964648089,"connected_time":607000000000,"state":"active","ping":61},{"user_id":248,"name":"teh mummy","steam_id":76561198044123636,"connected_time":2774000000000,"state":"active","ping":70},{"user_id":290,"name":"voyager","steam_id":76561198169747517,"connected_time":753000000000,"state":"active","ping":74},{"user_id":283,"name":"MagicSooup","steam_id":76561198988280325,"connected_time":999000000000,"state":"active","ping":62},{"user_id":284,"name":"juliusgem","steam_id":76561198206751192,"connected_time":967000000000,"state":"active","ping":94},{"user_id":302,"name":"god approaches","steam_id":76561198081617990,"connected_time":95000000000,"state":"active","ping":134},{"user_id":295,"name":"self sufficient kitten","steam_id":76561197960592612,"connected_time":534000000000,"state":"active","ping":48},{"user_id":299,"name":"‚ù§ Ashley ‚ù§","steam_id":76561198056428303,"connected_time":389000000000,"state":"active","ping":81},{"user_id":259,"name":"g8rade","steam_id":76561198070593964,"connected_time":2447000000000,"state":"active","ping":135},{"user_id":301,"name":"KingTinkerer","steam_id":76561198226856548,"connected_time":299000000000,"state":"active","ping":75},{"user_id":285,"name":"Captain Scoundrel","steam_id":76561198412322703,"connected_time":947000000000,"state":"active","ping":115},{"user_id":291,"name":"Coffeemelon","steam_id":76561198285891257,"connected_time":737000000000,"state":"active","ping":72}]},{"server_id":406,"name":"Uncletopia | Seattle | 3 | Stopwatch Beta","name_short":"sea-3","host":"sea-1.us.uncletopia.com","port":27035,"enabled":true,"region":"us-west","cc":"us","latitude":47.608013,"longitude":-122.33517,"reserved":0,"last_update":"0001-01-01T00:00:00Z","name_a2s":"Uncletopia | Seattle | 3 | Stopwatch Beta","protocol":17,"map":"workshop/koth_ramjam_rc1.ugc459778887","folder":"tf","game":"Team Fortress","app_id":440,"player_count":0,"max_players":24,"Bots":0,"server_type":"Dedicated","server_os":"Linux","password":true,"vac":true,"version":"7742253","steam_id":85568392924515217,"keywords":["cp","nocrits","nodmgspread","uncletopia"],"game_id":440,"stv_port":27036,"stv_name":"Uncletopia | Seattle | 3 | Stopwatch Beta | STV","players":null},{"server_id":17,"name":"Uncletopia | San Francisco | 1 | All Maps","name_short":"sfo-1","host":"sfo-1.us.uncletopia.com","port":27015,"enabled":true,"region":"us-west","cc":"us","latitude":37.77397,"longitude":-122.4313,"reserved":0,"last_update":"0001-01-01T00:00:00Z","name_a2s":"Uncletopia | San Francisco | 1 | All Maps","protocol":17,"map":"pl_barnblitz","folder":"tf","game":"Team Fortress","app_id":440,"player_count":24,"max_players":24,"Bots":0,"server_type":"Dedicated","server_os":"Linux","password":true,"vac":true,"version":"7742253","steam_id":85568392924469999,"keywords":["nocrits","nodmgspread","payload","uncletopia"],"game_id":440,"stv_port":27016,"stv_name":"Uncletopia | San Francisco | 1 | All Maps | STV","players":[{"user_id":104,"name":"Amogous Supreme","steam_id":76561198025476774,"connected_time":1035000000000,"state":"active","ping":51},{"user_id":105,"name":"CrackedSanity","steam_id":76561198279841251,"connected_time":773000000000,"state":"active","ping":62},{"user_id":93,"name":"facedatfatchat","steam_id":76561198335285125,"connected_time":2000000000000,"state":"active","ping":65},{"user_id":96,"name":"OwlTrowl","steam_id":76561198071179817,"connected_time":1640000000000,"state":"active","ping":118},{"user_id":106,"name":"Lactose ‡πëÔ≠•","steam_id":76561198208256987,"connected_time":752000000000,"state":"active","ping":118},{"user_id":98,"name":"supatrip","steam_id":76561198131030886,"connected_time":1509000000000,"state":"active","ping":52},{"user_id":78,"name":"conductor i have a problem","steam_id":76561198140231083,"connected_time":3301000000000,"state":"active","ping":67},{"user_id":15,"name":"Perfume Department","steam_id":76561198128299594,"connected_time":6343000000000,"state":"active","ping":50},{"user_id":103,"name":"kirkland signature","steam_id":76561198062712676,"connected_time":1333000000000,"state":"active","ping":66},{"user_id":83,"name":"Magikarp_Gamer","steam_id":76561198143910511,"connected_time":3154000000000,"state":"active","ping":69},{"user_id":97,"name":"Abobo","steam_id":76561198161817421,"connected_time":1588000000000,"state":"active","ping":54},{"user_id":84,"name":"Ranger Lugi","steam_id":76561198143611016,"connected_time":3071000000000,"state":"active","ping":69},{"user_id":107,"name":"Crustiest_Bill","steam_id":76561198842722858,"connected_time":148000000000,"state":"active","ping":57},{"user_id":76,"name":"Gloomfairy","steam_id":76561198043867915,"connected_time":3341000000000,"state":"active","ping":107},{"user_id":100,"name":"poey","steam_id":76561198865346767,"connected_time":1426000000000,"state":"active","ping":63},{"user_id":69,"name":"The Squid Gamer‚Ñ¢","steam_id":76561198340621517,"connected_time":3746000000000,"state":"active","ping":80},{"user_id":101,"name":"Void","steam_id":76561198308290211,"connected_time":1407000000000,"state":"active","ping":71},{"user_id":79,"name":"ozzy","steam_id":76561198954472385,"connected_time":3300000000000,"state":"active","ping":63},{"user_id":86,"name":"{DNJ} exoslayer -Z-","steam_id":76561198022370929,"connected_time":2751000000000,"state":"active","ping":58},{"user_id":95,"name":"crouton.net","steam_id":76561198068374646,"connected_time":1877000000000,"state":"active","ping":55},{"user_id":81,"name":"stop","steam_id":76561198268686419,"connected_time":3268000000000,"state":"active","ping":114},{"user_id":102,"name":"fuzzorino","steam_id":76561198093146293,"connected_time":1407000000000,"state":"active","ping":47},{"user_id":82,"name":"Locrian","steam_id":76561198356159602,"connected_time":3267000000000,"state":"active","ping":65},{"user_id":94,"name":"I regret nothing","steam_id":76561198399261089,"connected_time":1903000000000,"state":"active","ping":44}]},{"server_id":18,"name":"Uncletopia | San Francisco | 2 | All Maps","name_short":"sfo-2","host":"sfo-1.us.uncletopia.com","port":27025,"enabled":true,"region":"us-west","cc":"us","latitude":37.77397,"longitude":-122.4313,"reserved":0,"last_update":"0001-01-01T00:00:00Z","name_a2s":"Uncletopia | San Francisco | 2 | All Maps","protocol":17,"map":"koth_viaduct","folder":"tf","game":"Team Fortress","app_id":440,"player_count":0,"max_players":24,"Bots":0,"server_type":"Dedicated","server_os":"Linux","password":true,"vac":true,"version":"7742253","steam_id":85568392924470000,"keywords":["cp","nocrits","nodmgspread","uncletopia"],"game_id":440,"stv_port":27026,"stv_name":"Uncletopia | San Francisco | 2 | All Maps | STV","players":null},{"server_id":19,"name":"Uncletopia | San Francisco | 3 | Stopwatch Beta","name_short":"sfo-3","host":"sfo-1.us.uncletopia.com","port":27035,"enabled":true,"region":"us-west","cc":"us","latitude":37.77397,"longitude":-122.4313,"reserved":0,"last_update":"0001-01-01T00:00:00Z","name_a2s":"Uncletopia | San Francisco | 3 | Stopwatch Beta","protocol":17,"map":"workshop/pl_badwater_pro_v12.ugc2142942074","folder":"tf","game":"Team Fortress","app_id":440,"player_count":0,"max_players":24,"Bots":0,"server_type":"Dedicated","server_os":"Linux","password":true,"vac":true,"version":"7742253","steam_id":85568392924742824,"keywords":["nocrits","nodmgspread","payload","uncletopia"],"game_id":440,"stv_port":27036,"stv_name":"Uncletopia | San Francisco | 3 | Stopwatch Beta | STV","players":null},{"server_id":20,"name":"Uncletopia | San Francisco | 4 | Community","name_short":"sfo-4","host":"sfo-1.us.uncletopia.com","port":27045,"enabled":true,"region":"us-west","cc":"us","latitude":37.77397,"longitude":-122.4313,"reserved":0,"last_update":"0001-01-01T00:00:00Z","name_a2s":"Uncletopia | San Francisco | 4 | Community","protocol":17,"map":"workshop/koth_slaughter_rc1.ugc1712845210","folder":"tf","game":"Team Fortress","app_id":440,"player_count":0,"max_players":24,"Bots":0,"server_type":"Dedicated","server_os":"Linux","password":true,"vac":true,"version":"7742253","steam_id":85568392924742826,"keywords":["cp","nocrits","nodmgspread","uncletopia"],"game_id":440,"stv_port":27046,"stv_name":"Uncletopia | San Francisco | 4 | Community | STV","players":null},{"server_id":141,"name":"Uncletopia | Sydney | 1 | All Maps","name_short":"syd-1","host":"syd-1.au.uncletopia.com","port":27015,"enabled":true,"region":"au","cc":"au","latitude":-33.865143,"longitude":151.2099,"reserved":0,"last_update":"0001-01-01T00:00:00Z","name_a2s":"Uncletopia | Sydney | 1 | All Maps","protocol":17,"map":"pl_upward","folder":"tf","game":"Team Fortress","app_id":440,"player_count":11,"max_players":24,"Bots":0,"server_type":"Dedicated","server_os":"Linux","password":true,"vac":true,"version":"7742253","steam_id":85568392924470001,"keywords":["nocrits","nodmgspread","payload","uncletopia"],"game_id":440,"stv_port":27016,"stv_name":"Uncletopia | Sydney | 1 | All Maps | STV","players":[{"user_id":272,"name":"elbarto","steam_id":76561198122259040,"connected_time":277000000000,"state":"active","ping":40},{"user_id":269,"name":"Really","steam_id":76561198153397177,"connected_time":566000000000,"state":"active","ping":51},{"user_id":278,"name":"Moist","steam_id":76561198110566656,"connected_time":26000000000,"state":"active","ping":49},{"user_id":173,"name":"sSubtlüî±","steam_id":76561198102080207,"connected_time":7434000000000,"state":"active","ping":47},{"user_id":279,"name":"Danatello","steam_id":76561198341368233,"connected_time":12000000000,"state":"active","ping":46},{"user_id":264,"name":"mrquestables","steam_id":76561198954911129,"connected_time":826000000000,"state":"active","ping":53},{"user_id":240,"name":"wse.","steam_id":76561198272148020,"connected_time":2669000000000,"state":"active","ping":61},{"user_id":275,"name":"Not Quite My Tempo","steam_id":76561198101357494,"connected_time":266000000000,"state":"active","ping":41},{"user_id":224,"name":"Zacy","steam_id":76561198114841670,"connected_time":4435000000000,"state":"active","ping":120},{"user_id":254,"name":"FyreFeat","steam_id":76561198068428930,"connected_time":1246000000000,"state":"active","ping":47},{"user_id":268,"name":"lem","steam_id":76561199119233603,"connected_time":655000000000,"state":"active","ping":54}]},{"server_id":123,"name":"Uncletopia | Sydney | 2 | All Maps","name_short":"syd-2","host":"syd-1.au.uncletopia.com","port":27025,"enabled":true,"region":"au","cc":"au","latitude":-33.865143,"longitude":151.2099,"reserved":0,"last_update":"0001-01-01T00:00:00Z","name_a2s":"Uncletopia | Sydney | 2 | All Maps","protocol":17,"map":"pl_barnblitz","folder":"tf","game":"Team Fortress","app_id":440,"player_count":23,"max_players":24,"Bots":0,"server_type":"Dedicated","server_os":"Linux","password":true,"vac":true,"version":"7742253","steam_id":85568392924470002,"keywords":["nocrits","nodmgspread","payload","uncletopia"],"game_id":440,"stv_port":27026,"stv_name":"Uncletopia | Sydney | 2 | All Maps | STV","players":[{"user_id":23,"name":"maximind123","steam_id":76561199237473824,"connected_time":3113000000000,"state":"active","ping":49},{"user_id":20,"name":"111111adama","steam_id":76561199149781531,"connected_time":3529000000000,"state":"active","ping":89},{"user_id":27,"name":"lemur","steam_id":76561198278239170,"connected_time":2660000000000,"state":"active","ping":81},{"user_id":50,"name":"Drakeo","steam_id":76561198268859184,"connected_time":1027000000000,"state":"active","ping":91},{"user_id":58,"name":"Tomatolaxatives","steam_id":76561198165184407,"connected_time":719000000000,"state":"active","ping":35},{"user_id":25,"name":"Mr Gottem","steam_id":76561198004006228,"connected_time":2916000000000,"state":"active","ping":58},{"user_id":39,"name":"Dr Crazii","steam_id":76561198067775226,"connected_time":1805000000000,"state":"active","ping":75},{"user_id":57,"name":"edd0rb","steam_id":76561198158746921,"connected_time":784000000000,"state":"active","ping":37},{"user_id":59,"name":"Jizfellow","steam_id":76561198067993108,"connected_time":679000000000,"state":"active","ping":51},{"user_id":34,"name":"*akolai","steam_id":76561198075366402,"connected_time":2261000000000,"state":"active","ping":48},{"user_id":41,"name":"Wrainbow","steam_id":76561199039385168,"connected_time":1704000000000,"state":"active","ping":81},{"user_id":60,"name":"Ve√∞rf√∂lnir","steam_id":76561198105113720,"connected_time":636000000000,"state":"active","ping":82},{"user_id":63,"name":"lavanderpumpernickle","steam_id":76561199093611800,"connected_time":235000000000,"state":"active","ping":54},{"user_id":44,"name":"FlynnRain","steam_id":76561199229332018,"connected_time":1124000000000,"state":"active","ping":61},{"user_id":45,"name":"NO SKILL","steam_id":76561198262670239,"connected_time":1113000000000,"state":"active","ping":30},{"user_id":52,"name":"Big Boss","steam_id":76561198023962878,"connected_time":999000000000,"state":"active","ping":30},{"user_id":64,"name":"The Sandpiper","steam_id":76561198218899791,"connected_time":170000000000,"state":"active","ping":45},{"user_id":56,"name":"Slippo","steam_id":76561198079649290,"connected_time":853000000000,"state":"active","ping":47},{"user_id":65,"name":"Zort","steam_id":76561198056414289,"connected_time":149000000000,"state":"active","ping":63},{"user_id":53,"name":"LampoMcLamp","steam_id":76561199207279665,"connected_time":988000000000,"state":"active","ping":69},{"user_id":66,"name":"SoyBoy","steam_id":76561197992447102,"connected_time":109000000000,"state":"active","ping":44},{"user_id":69,"name":"Extra Exotic","steam_id":76561198045191981,"connected_time":24000000000,"state":"spawning","ping":74},{"user_id":68,"name":"krandlez` (Any/All)","steam_id":76561198044839726,"connected_time":80000000000,"state":"active","ping":37}]},{"server_id":395,"name":"Uncletopia | Sydney | 3 | All Maps","name_short":"syd-3","host":"syd-1.au.uncletopia.com","port":27035,"enabled":true,"region":"au","cc":"au","latitude":-33.865143,"longitude":151.2099,"reserved":0,"last_update":"0001-01-01T00:00:00Z","name_a2s":"Uncletopia | Sydney | 3 | All Maps","protocol":17,"map":"koth_viaduct","folder":"tf","game":"Team Fortress","app_id":440,"player_count":1,"max_players":24,"Bots":0,"server_type":"Dedicated","server_os":"Linux","password":true,"vac":true,"version":"7742253","steam_id":85568392925194467,"keywords":["cp","nocrits","nodmgspread","uncletopia"],"game_id":440,"stv_port":27036,"stv_name":"Uncletopia | Sydney | 3 | All Maps | STV","players":[{"user_id":9,"name":"Branko","steam_id":76561199262196710,"connected_time":90000000000,"state":"active","ping":34}]},{"server_id":396,"name":"Uncletopia | Sydney | 4 | All Maps","name_short":"syd-4","host":"syd-1.au.uncletopia.com","port":27045,"enabled":true,"region":"au","cc":"au","latitude":-33.865143,"longitude":151.2099,"reserved":0,"last_update":"0001-01-01T00:00:00Z","name_a2s":"Uncletopia | Sydney | 4 | All Maps","protocol":17,"map":"pl_frontier_final","folder":"tf","game":"Team Fortress","app_id":440,"player_count":0,"max_players":24,"Bots":0,"server_type":"Dedicated","server_os":"Linux","password":true,"vac":true,"version":"7742253","steam_id":85568392925397958,"keywords":["nocrits","nodmgspread","payload","uncletopia"],"game_id":440,"stv_port":27046,"stv_name":"Uncletopia | Sydney | 4 | All Maps | STV","players":null},{"server_id":58,"name":"Uncletopia | Sydney | 5 | Stopwatch Beta","name_short":"syd-5","host":"syd-1.au.uncletopia.com","port":27055,"enabled":true,"region":"au","cc":"au","latitude":-33.865143,"longitude":151.2099,"reserved":0,"last_update":"0001-01-01T00:00:00Z","name_a2s":"Uncletopia | Sydney | 5 | Stopwatch Beta","protocol":17,"map":"workshop/koth_ashville_final.ugc2130459942","folder":"tf","game":"Team Fortress","app_id":440,"player_count":0,"max_players":24,"Bots":0,"server_type":"Dedicated","server_os":"Linux","password":true,"vac":true,"version":"7742253","steam_id":85568392925397959,"keywords":["cp","nocrits","nodmgspread","uncletopia"],"game_id":440,"stv_port":27056,"stv_name":"Uncletopia | Sydney | 5 | Stopwatch Beta | STV","players":null},{"server_id":59,"name":"Uncletopia | Sydney | 6 | Community","name_short":"syd-6","host":"syd-1.au.uncletopia.com","port":27065,"enabled":true,"region":"au","cc":"au","latitude":-33.865143,"longitude":151.2099,"reserved":0,"last_update":"0001-01-01T00:00:00Z","name_a2s":"Uncletopia | Sydney | 6 | Community","protocol":17,"map":"workshop/pl_fifthcurve_rc1.ugc648227046","folder":"tf","game":"Team Fortress","app_id":440,"player_count":0,"max_players":24,"Bots":0,"server_type":"Dedicated","server_os":"Linux","password":true,"vac":true,"version":"7742253","steam_id":85568392925397960,"keywords":["nocrits","nodmgspread","payload","uncletopia"],"game_id":440,"stv_port":27066,"stv_name":"Uncletopia | Sydney | 6 | Community | STV","players":null},{"server_id":49,"name":"Uncletopia | Warsaw | 1 | All Maps","name_short":"waw-1","host":"waw-1.pl.uncletopia.com","port":27015,"enabled":true,"region":"eu","cc":"pl","latitude":52.2297,"longitude":21.017532,"reserved":0,"last_update":"0001-01-01T00:00:00Z","name_a2s":"","protocol":0,"map":"","folder":"","game":"","app_id":0,"player_count":0,"max_players":0,"Bots":0,"server_type":"","server_os":"","password":false,"vac":false,"version":"","steam_id":0,"keywords":null,"game_id":0,"stv_port":0,"stv_name":"","players":null},{"server_id":50,"name":"Uncletopia | Warsaw | 2 | All Maps","name_short":"waw-2","host":"waw-1.pl.uncletopia.com","port":27025,"enabled":true,"region":"eu","cc":"pl","latitude":52.2297,"longitude":21.017532,"reserved":0,"last_update":"0001-01-01T00:00:00Z","name_a2s":"Uncletopia | Warsaw | 2 | All Maps","protocol":17,"map":"pl_snowycoast","folder":"tf","game":"Team Fortress","app_id":440,"player_count":0,"max_players":24,"Bots":0,"server_type":"Dedicated","server_os":"Linux","password":true,"vac":true,"version":"7742253","steam_id":85568392925397851,"keywords":["nocrits","nodmgspread","payload","uncletopia"],"game_id":440,"stv_port":27026,"stv_name":"Uncletopia | Warsaw | 2 | All Maps | STV","players":null},{"server_id":51,"name":"Uncletopia | Warsaw | 3 | All Maps","name_short":"waw-3","host":"waw-1.pl.uncletopia.com","port":27035,"enabled":true,"region":"eu","cc":"pl","latitude":52.2297,"longitude":21.017532,"reserved":0,"last_update":"0001-01-01T00:00:00Z","name_a2s":"Uncletopia | Warsaw | 3 | All Maps","protocol":17,"map":"cp_process_final","folder":"tf","game":"Team Fortress","app_id":440,"player_count":0,"max_players":24,"Bots":0,"server_type":"Dedicated","server_os":"Linux","password":true,"vac":true,"version":"7742253","steam_id":85568392925397852,"keywords":["cp","nocrits","nodmgspread","uncletopia"],"game_id":440,"stv_port":27036,"stv_name":"Uncletopia | Warsaw | 3 | All Maps | STV","players":null},{"server_id":52,"name":"Uncletopia | Warsaw | 4 | All Maps","name_short":"waw-4","host":"waw-1.pl.uncletopia.com","port":27045,"enabled":true,"region":"eu","cc":"pl","latitude":52.2297,"longitude":21.017532,"reserved":0,"last_update":"0001-01-01T00:00:00Z","name_a2s":"Uncletopia | Warsaw | 4 | All Maps","protocol":17,"map":"koth_highpass","folder":"tf","game":"Team Fortress","app_id":440,"player_count":0,"max_players":24,"Bots":0,"server_type":"Dedicated","server_os":"Linux","password":true,"vac":true,"version":"7742253","steam_id":85568392925397853,"keywords":["cp","nocrits","nodmgspread","uncletopia"],"game_id":440,"stv_port":27046,"stv_name":"Uncletopia | Warsaw | 4 | All Maps | STV","players":null},{"server_id":53,"name":"Uncletopia | Warsaw | 5 | Stopwatch Beta","name_short":"waw-5","host":"waw-1.pl.uncletopia.com","port":27055,"enabled":true,"region":"eu","cc":"pl","latitude":52.2297,"longitude":21.017532,"reserved":0,"last_update":"0001-01-01T00:00:00Z","name_a2s":"Uncletopia | Warsaw | 5 | Stopwatch Beta","protocol":17,"map":"koth_lakeside_final","folder":"tf","game":"Team Fortress","app_id":440,"player_count":0,"max_players":24,"Bots":0,"server_type":"Dedicated","server_os":"Linux","password":true,"vac":true,"version":"7742253","steam_id":85568392925397854,"keywords":["cp","nocrits","nodmgspread","uncletopia"],"game_id":440,"stv_port":27056,"stv_name":"Uncletopia | Warsaw | 5 | Stopwatch Beta | STV","players":null},{"server_id":54,"name":"Uncletopia | Warsaw | 6 | Community","name_short":"waw-6","host":"waw-1.pl.uncletopia.com","port":27065,"enabled":true,"region":"eu","cc":"pl","latitude":52.2297,"longitude":21.017532,"reserved":0,"last_update":"0001-01-01T00:00:00Z","name_a2s":"Uncletopia | Warsaw | 6 | Community","protocol":17,"map":"koth_highpass","folder":"tf","game":"Team Fortress","app_id":440,"player_count":0,"max_players":24,"Bots":0,"server_type":"Dedicated","server_os":"Linux","password":true,"vac":true,"version":"7742253","steam_id":85568392925397856,"keywords":["cp","nocrits","nodmgspread","uncletopia"],"game_id":440,"stv_port":27066,"stv_name":"Uncletopia | Warsaw | 6 | Community | STV","players":null}]}