{"status":true,"message":"","result":[{"server_id":9,"name":"Uncletopia | Atlanta | 1 | All Maps","name_short":"atl-1","host":"atl-1.us.uncletopia.com","port":27015,"enabled":true,"region":"us-east","cc":"us","latitude":33.753746,"longitude":-84.38633,"reserved":0,"last_update":"0001-01-01T00:00:00Z","name_a2s":"Uncletopia | Atlanta | 1 | All Maps","protocol":17,"map":"ctf_doublecross","folder":"tf","game":"Team Fortress","app_id":440,"player_count":24,"max_players":24,"Bots":0,"server_type":"Dedicated","server_os":"Linux","password":true,"vac":true,"version":"7882260","steam_id":85568392924469982,"keywords":["ctf","nocrits","nodmgspread","uncletopia"],"game_id":440,"stv_port":27016,"stv_name":"Uncletopia | Atlanta | 1 | All Maps | STV","players":[{"user_id":257,"name":"Gill-Man","steam_id":76561198072736830,"connected_time":1410000000000,"state":"active","ping":100},{"user_id":271,"name":"Sentry Gun Main Man","steam_id":76561198327938247,"connected_time":405000000000,"state":"active","ping":83},{"user_id":201,"name":"Pumbloom","steam_id":76561198024481281,"connected_time":6522000000000,"state":"active","ping":46},{"user_id":265,"name":"Barlon","steam_id":76561198023717515,"connected_time":844000000000,"state":"active","ping":75},{"user_id":273,"name":"sandvich dealer","steam_id":76561199277336645,"connected_time":157000000000,"state":"active","ping":81},{"user_id":227,"name":"crouton","steam_id":76561198828709358,"connected_time":4277000000000,"state":"active","ping":58},{"user_id":226,"name":"kazoo2","steam_id":76561198260473504,"connected_time":4587000000000,"state":"active","ping":77},{"user_id":255,"name":"Ninty","steam_id":76561199364725776,"connected_time":1653000000000,"state":"active","ping":65},{"user_id":222,"name":"Smug ¬‿¬ Smug","steam_id":76561198325526945,"connected_time":4761000000000,"state":"active","ping":89},{"user_id":269,"name":"pull up in that wtf","steam_id":76561198143132686,"connected_time":580000000000,"state":"active","ping":101},{"user_id":229,"name":"badzombies2003","steam_id":76561198408802629,"connected_time":4114000000000,"state":"active","ping":69},{"user_id":274,"name":"It burns when I pee","steam_id":76561198038321859,"connected_time":30000000000,"state":"active","ping":84},{"user_id":234,"name":"sal","steam_id":76561198814096380,"connected_time":3506000000000,"state":"active","ping":78},{"user_id":256,"name":"Yoshi_86","steam_id":76561198942328734,"connected_time":1426000000000,"state":"active","ping":65},{"user_id":235,"name":"IZISOO","steam_id":76561198970380577,"connected_time":3475000000000,"state":"active","ping":87},{"user_id":196,"name":"Monoko","steam_id":76561198106345026,"connected_time":7067000000000,"state":"active","ping":60},{"user_id":268,"name":"William Wallace","steam_id":76561199343316814,"connected_time":604000000000,"state":"active","ping":59},{"user_id":272,"name":"Trollstoy","steam_id":76561198072017175,"connected_time":320000000000,"state":"active","ping":159},{"user_id":247,"name":"Cup o' Water","steam_id":76561198881038234,"connected_time":2799000000000,"state":"active","ping":133},{"user_id":204,"name":"Crib Death","steam_id":76561198329598223,"connected_time":5585000000000,"state":"active","ping":76},{"user_id":143,"name":"can you don't","steam_id":76561198070477953,"connected_time":12090000000000,"state":"active","ping":84},{"user_id":228,"name":"Ashes!","steam_id":76561197998475441,"connected_time":4151000000000,"state":"active","ping":75},{"user_id":266,"name":"dirty dank","steam_id":76561198360904432,"connected_time":829000000000,"state":"active","ping":61},{"user_id":262,"name":"Skinny pete","steam_id":76561198801608576,"connected_time":1098000000000,"state":"active","ping":73}]},{"server_id":104,"name":"Uncletopia | Atlanta | 2 | All Maps","name_short":"atl-2","host":"atl-1.us.uncletopia.com","port":27025,"enabled":true,"region":"us-east","cc":"us","latitude":33.753746,"longitude":-84.38633,"reserved":0,"last_update":"0001-01-01T00:00:00Z","name_a2s":"Uncletopia | Atlanta | 2 | All Maps","protocol":17,"map":"koth_nucleus","folder":"tf","game":"Team Fortress","app_id":440,"player_count":24,"max_players":24,"Bots":0,"server_type":"Dedicated","server_os":"Linux","password":true,"vac":true,"version":"7882260","steam_id":85568392924469983,"keywords":["cp","nocrits","nodmgspread","uncletopia"],"game_id":440,"stv_port":27026,"stv_name":"Uncletopia | Atlanta | 2 | All Maps | STV","players":[{"user_id":12,"name":"Transfem Catgirl \u003c3 (she/it)","steam_id":76561198807069433,"connected_time":10489000000000,"state":"active","ping":81},{"user_id":13,"name":"Transfem Furry \u003c3","steam_id":76561198288036403,"connected_time":10417000000000,"state":"active","ping":105},{"user_id":143,"name":"Pinhed Lary","steam_id":76561198378320706,"connected_time":128000000000,"state":"active","ping":60},{"user_id":137,"name":"Mr_Web (He/They)","steam_id":76561198815562258,"connected_time":531000000000,"state":"active","ping":86},{"user_id":103,"name":"Orca?","steam_id":76561198164341099,"connected_time":4016000000000,"state":"active","ping":95},{"user_id":101,"name":"Vanilla :3","steam_id":76561199106847859,"connected_time":4248000000000,"state":"active","ping":68},{"user_id":122,"name":"highschool drop-out","steam_id":76561198366299848,"connected_time":2321000000000,"state":"active","ping":53},{"user_id":138,"name":"ArcWorld Tour Nerf Bat","steam_id":76561198257691881,"connected_time":459000000000,"state":"active","ping":85},{"user_id":106,"name":"helen keller","steam_id":76561197979870540,"connected_time":3679000000000,"state":"active","ping":75},{"user_id":141,"name":"pinple","steam_id":76561198167075606,"connected_time":162000000000,"state":"active","ping":56},{"user_id":121,"name":"minecraft","steam_id":76561198104345201,"connected_time":2343000000000,"state":"active","ping":63},{"user_id":130,"name":"123","steam_id":76561198106308056,"connected_time":1184000000000,"state":"active","ping":106},{"user_id":142,"name":"mEch114","steam_id":76561198236936060,"connected_time":162000000000,"state":"active","ping":61},{"user_id":144,"name":"Lucile","steam_id":76561198041889138,"connected_time":121000000000,"state":"active","ping":90},{"user_id":80,"name":"Baker","steam_id":76561198055196430,"connected_time":5719000000000,"state":"active","ping":84},{"user_id":126,"name":"Si1entSn1pa","steam_id":76561198170095479,"connected_time":2055000000000,"state":"active","ping":71},{"user_id":87,"name":"Praise Hero","steam_id":76561198071362210,"connected_time":5266000000000,"state":"active","ping":79},{"user_id":125,"name":"QueenOTheSea","steam_id":76561199399273897,"connected_time":2087000000000,"state":"active","ping":70},{"user_id":85,"name":"uzi murder drones (real)","steam_id":76561198156799627,"connected_time":5326000000000,"state":"active","ping":82},{"user_id":136,"name":"El Bondin","steam_id":76561198820792434,"connected_time":543000000000,"state":"active","ping":85},{"user_id":145,"name":"bananaslug12","steam_id":76561198052431073,"connected_time":99000000000,"state":"active","ping":68},{"user_id":135,"name":"Temujin","steam_id":76561198030936583,"connected_time":779000000000,"state":"active","ping":45},{"user_id":146,"name":"Mr. Dick™","steam_id":76561198047309044,"connected_time":78000000000,"state":"active","ping":47},{"user_id":119,"name":"(Past Tense)","steam_id":76561197996279335,"connected_time":2661000000000,"state":"active","ping":75}]},{"server_id":400,"name":"Uncletopia | Atlanta | 3 | Community","name_short":"atl-3","host":"atl-1.us.uncletopia.com","port":27035,"enabled":true,"region":"us-east","cc":"us","latitude":33.753746,"longitude":-84.38633,"reserved":0,"last_update":"0001-01-01T00:00:00Z","name_a2s":"Uncletopia | Atlanta | 3 | Community","protocol":17,"map":"workshop/pl_emerge_rc2.ugc888027758","folder":"tf","game":"Team Fortress","app_id":440,"player_count":0,"max_players":24,"Bots":0,"server_type":"Dedicated","server_os":"Linux","password":true,"vac":true,"version":"7882260","steam_id":85568392924515187,"keywords":["nocrits","nodmgspread","payload","uncletopia"],"game_id":440,"stv_port":27036,"stv_name":"Uncletopia | Atlanta | 3 | Community | STV","players":null},{"server_id":401,"name":"Uncletopia | Atlanta | 4 | No Payload","name_short":"atl-4","host":"atl-1.us.uncletopia.com","port":27045,"enabled":true,"region":"us-east","cc":"us","latitude":33.753746,"longitude":-84.38633,"reserved":0,"last_update":"0001-01-01T00:00:00Z","name_a2s":"","protocol":0,"map":"","folder":"","game":"","app_id":0,"player_count":0,"max_players":0,"Bots":0,"server_type":"","server_os":"","password":false,"vac":false,"version":"","steam_id":0,"keywords":null,"game_id":0,"stv_port":0,"stv_name":"","players":null},{"server_id":2,"name":"Uncletopia | Chicago | 1 | All Maps","name_short":"chi-1","host":"chi-1.us.uncletopia.com","port":27015,"enabled":true,"region":"us-central","cc":"us","latitude":41.881832,"longitude":-87.62318,"reserved":0,"last_update":"0001-01-01T00:00:00Z","name_a2s":"Uncletopia | Chicago | 1 | All Maps","protocol":17,"map":"pl_barnblitz","folder":"tf","game":"Team Fortress","app_id":440,"player_count":24,"max_players":24,"Bots":0,"server_type":"Dedicated","server_os":"Linux","password":true,"vac":true,"version":"7882260","steam_id":85568392924469984,"keywords":["nocrits","nodmgspread","payload","uncletopia"],"game_id":440,"stv_port":27016,"stv_name":"Uncletopia | Chicago | 1 | All Maps | STV","players":[{"user_id":21,"name":"Deadhax","steam_id":76561198296581175,"connected_time":4973000000000,"state":"active","ping":68},{"user_id":22,"name":"Mecha","steam_id":76561198014927379,"connected_time":4694000000000,"state":"active","ping":82},{"user_id":86,"name":"genuine reaction","steam_id":76561199007703661,"connected_time":546000000000,"state":"active","ping":77},{"user_id":95,"name":"fnkwgn","steam_id":76561198036884600,"connected_time":328000000000,"state":"active","ping":66},{"user_id":65,"name":"CollDragon","steam_id":76561198067534450,"connected_time":2322000000000,"state":"active","ping":68},{"user_id":70,"name":"StonedGiant","steam_id":76561197984386932,"connected_time":1823000000000,"state":"active","ping":62},{"user_id":81,"name":"who else high as fuck rn","steam_id":76561198035853865,"connected_time":931000000000,"state":"active","ping":83},{"user_id":67,"name":"AterPan","steam_id":76561199084128806,"connected_time":2126000000000,"state":"active","ping":43},{"user_id":87,"name":"Praise_to_the_Flashlight!","steam_id":76561199001728789,"connected_time":493000000000,"state":"active","ping":54},{"user_id":88,"name":"CuSO4","steam_id":76561199278147589,"connected_time":491000000000,"state":"active","ping":71},{"user_id":82,"name":"Gaben Gaming","steam_id":76561198330119627,"connected_time":841000000000,"state":"active","ping":76},{"user_id":83,"name":"Drapph","steam_id":76561199384213314,"connected_time":825000000000,"state":"active","ping":62},{"user_id":37,"name":"Notsocreative","steam_id":76561198236372202,"connected_time":3969000000000,"state":"active","ping":83},{"user_id":50,"name":"scio","steam_id":76561199001930207,"connected_time":3628000000000,"state":"active","ping":75},{"user_id":75,"name":"pipis","steam_id":76561198140971525,"connected_time":1435000000000,"state":"active","ping":64},{"user_id":60,"name":"MjrMovnTARGET","steam_id":76561199125908849,"connected_time":2410000000000,"state":"active","ping":76},{"user_id":92,"name":"incoherent thoughtform","steam_id":76561198045343646,"connected_time":454000000000,"state":"active","ping":74},{"user_id":89,"name":"CoconutNeutral","steam_id":76561198277110108,"connected_time":482000000000,"state":"active","ping":79},{"user_id":96,"name":"Mastermind","steam_id":76561198127783432,"connected_time":175000000000,"state":"active","ping":75},{"user_id":46,"name":"Kars","steam_id":76561198845612670,"connected_time":3707000000000,"state":"active","ping":68},{"user_id":91,"name":"Sprinklingmydoughnut","steam_id":76561198168009092,"connected_time":465000000000,"state":"active","ping":81},{"user_id":94,"name":"JoJoJo","steam_id":76561198067153390,"connected_time":349000000000,"state":"active","ping":56},{"user_id":84,"name":"Astoriae!","steam_id":76561199090168858,"connected_time":559000000000,"state":"active","ping":69},{"user_id":58,"name":"Castroy","steam_id":76561198108160099,"connected_time":2933000000000,"state":"active","ping":66}]},{"server_id":106,"name":"Uncletopia | Chicago | 2 | All Maps","name_short":"chi-2","host":"chi-1.us.uncletopia.com","port":27025,"enabled":true,"region":"us-central","cc":"us","latitude":41.881832,"longitude":-87.62318,"reserved":0,"last_update":"0001-01-01T00:00:00Z","name_a2s":"Uncletopia | Chicago | 2 | All Maps","protocol":17,"map":"pl_upward","folder":"tf","game":"Team Fortress","app_id":440,"player_count":23,"max_players":24,"Bots":0,"server_type":"Dedicated","server_os":"Linux","password":true,"vac":true,"version":"7882260","steam_id":85568392924469985,"keywords":["nocrits","nodmgspread","payload","uncletopia"],"game_id":440,"stv_port":27026,"stv_name":"Uncletopia | Chicago | 2 | All Maps | STV","players":[{"user_id":5,"name":"AdorableMew","steam_id":76561198186706405,"connected_time":1783000000000,"state":"active","ping":68},{"user_id":6,"name":"magickxanadu","steam_id":76561199117360103,"connected_time":1747000000000,"state":"active","ping":77},{"user_id":8,"name":"Admiral Crumbs","steam_id":76561198108791583,"connected_time":1306000000000,"state":"active","ping":60},{"user_id":34,"name":"Vladimir Puddin","steam_id":76561198139674520,"connected_time":522000000000,"state":"active","ping":56},{"user_id":10,"name":"jorjor wells","steam_id":76561199073429082,"connected_time":1293000000000,"state":"active","ping":64},{"user_id":11,"name":"furry sucker","steam_id":76561198063970639,"connected_time":1292000000000,"state":"active","ping":62},{"user_id":36,"name":"Artemy \"The Haruspex\" Burakh","steam_id":76561198257038275,"connected_time":195000000000,"state":"active","ping":80},{"user_id":37,"name":"CyberZayne","steam_id":76561198002351356,"connected_time":52000000000,"state":"active","ping":96},{"user_id":14,"name":"edin","steam_id":76561198117393097,"connected_time":1243000000000,"state":"active","ping":74},{"user_id":15,"name":"blushcolors","steam_id":76561198382326295,"connected_time":1235000000000,"state":"active","ping":86},{"user_id":16,"name":"Nassu","steam_id":76561198147367577,"connected_time":1201000000000,"state":"active","ping":66},{"user_id":32,"name":"Trippy","steam_id":76561199090730294,"connected_time":876000000000,"state":"active","ping":160},{"user_id":38,"name":"All 24 Pokémon movies at once","steam_id":76561198164738311,"connected_time":20000000000,"state":"active","ping":68},{"user_id":28,"name":"RileyNiko","steam_id":76561198162093639,"connected_time":1046000000000,"state":"active","ping":61},{"user_id":35,"name":"PheebsyDeebsy","steam_id":76561198101509436,"connected_time":499000000000,"state":"active","ping":90},{"user_id":21,"name":"SirCleric","steam_id":76561198353556457,"connected_time":1133000000000,"state":"active","ping":71},{"user_id":22,"name":"Chaotic Rushu","steam_id":76561198170054407,"connected_time":1130000000000,"state":"active","ping":76},{"user_id":23,"name":"G-G-G-GAMERSHOT","steam_id":76561198798980951,"connected_time":1126000000000,"state":"active","ping":59},{"user_id":39,"name":"Sapperman126","steam_id":76561198939102936,"connected_time":10000000000,"state":"spawning","ping":55},{"user_id":29,"name":"Dennis The Dark Lord","steam_id":76561198259260405,"connected_time":1036000000000,"state":"active","ping":57},{"user_id":27,"name":"Bee_Pirate","steam_id":76561199000599111,"connected_time":1057000000000,"state":"active","ping":56},{"user_id":30,"name":"sphinxmagoo","steam_id":76561198057001653,"connected_time":1008000000000,"state":"active","ping":64},{"user_id":31,"name":"Kyzer","steam_id":76561198048034600,"connected_time":1003000000000,"state":"active","ping":66}]},{"server_id":402,"name":"Uncletopia | Chicago | 3 | All Maps","name_short":"chi-3","host":"chi-1.us.uncletopia.com","port":27035,"enabled":true,"region":"us-central","cc":"us","latitude":41.881832,"longitude":-87.62318,"reserved":0,"last_update":"0001-01-01T00:00:00Z","name_a2s":"Uncletopia | Chicago | 3 | All Maps","protocol":17,"map":"pl_frontier_final","folder":"tf","game":"Team Fortress","app_id":440,"player_count":24,"max_players":24,"Bots":0,"server_type":"Dedicated","server_os":"Linux","password":true,"vac":true,"version":"7882260","steam_id":85568392924515191,"keywords":["nocrits","nodmgspread","payload","uncletopia"],"game_id":440,"stv_port":27036,"stv_name":"Uncletopia | Chicago | 3 | All Maps | STV","players":[{"user_id":178,"name":"Witch Vomit","steam_id":76561198080766921,"connected_time":1395000000000,"state":"active","ping":68},{"user_id":127,"name":"weeb_whacker","steam_id":76561198187098041,"connected_time":6306000000000,"state":"active","ping":51},{"user_id":182,"name":"ZAZABLOON DEALER","steam_id":76561198031675881,"connected_time":1063000000000,"state":"active","ping":38},{"user_id":184,"name":"Smooky","steam_id":76561198191435451,"connected_time":1021000000000,"state":"active","ping":84},{"user_id":199,"name":"GrimFate","steam_id":76561199011948330,"connected_time":120000000000,"state":"active","ping":97},{"user_id":170,"name":"raygun RING","steam_id":76561198290269128,"connected_time":2142000000000,"state":"active","ping":98},{"user_id":195,"name":"Lord Scrubling","steam_id":76561198263744445,"connected_time":546000000000,"state":"active","ping":73},{"user_id":174,"name":"pee pee poo poo","steam_id":76561198930017260,"connected_time":1437000000000,"state":"active","ping":57},{"user_id":201,"name":"BonesJohnson","steam_id":76561198799169951,"connected_time":11000000000,"state":"spawning","ping":133},{"user_id":180,"name":"Squifyz","steam_id":76561199405650048,"connected_time":1108000000000,"state":"active","ping":130},{"user_id":175,"name":"YJ","steam_id":76561198315010474,"connected_time":1432000000000,"state":"active","ping":63},{"user_id":188,"name":"Auto-Fellatio","steam_id":76561198056078945,"connected_time":631000000000,"state":"active","ping":66},{"user_id":198,"name":"Slondermin","steam_id":76561198320301349,"connected_time":299000000000,"state":"active","ping":86},{"user_id":194,"name":"sine","steam_id":76561198012038088,"connected_time":554000000000,"state":"active","ping":54},{"user_id":192,"name":"Mr. Durian","steam_id":76561198093813212,"connected_time":562000000000,"state":"active","ping":78},{"user_id":169,"name":"josh R\u0026M.TF","steam_id":76561198111565081,"connected_time":2147000000000,"state":"active","ping":111},{"user_id":179,"name":"Blue⛧Melon","steam_id":76561197970926435,"connected_time":1204000000000,"state":"active","ping":75},{"user_id":196,"name":"Pasta Enthusiast","steam_id":76561198306393090,"connected_time":513000000000,"state":"active","ping":45},{"user_id":164,"name":"Flowers","steam_id":76561198031669899,"connected_time":3187000000000,"state":"active","ping":91},{"user_id":150,"name":":3","steam_id":76561198237292756,"connected_time":4291000000000,"state":"active","ping":69},{"user_id":177,"name":"Mr.noob","steam_id":76561199200442395,"connected_time":1420000000000,"state":"active","ping":169},{"user_id":186,"name":"Apetometrist","steam_id":76561198045391635,"connected_time":974000000000,"state":"active","ping":64},{"user_id":187,"name":"Amish Supremacist","steam_id":76561198396181197,"connected_time":973000000000,"state":"active","ping":86},{"user_id":189,"name":"katryna","steam_id":76561198023440304,"connected_time":627000000000,"state":"active","ping":56}]},{"server_id":403,"name":"Uncletopia | Chicago | 4 | All Maps","name_short":"chi-4","host":"chi-1.us.uncletopia.com","port":27045,"enabled":true,"region":"us-central","cc":"us","latitude":41.881832,"longitude":-87.62318,"reserved":0,"last_update":"0001-01-01T00:00:00Z","name_a2s":"Uncletopia | Chicago | 4 | All Maps","protocol":17,"map":"koth_lakeside_final","folder":"tf","game":"Team Fortress","app_id":440,"player_count":0,"max_players":24,"Bots":0,"server_type":"Dedicated","server_os":"Linux","password":true,"vac":true,"version":"7882260","steam_id":85568392924515193,"keywords":["cp","nocrits","nodmgspread","uncletopia"],"game_id":440,"stv_port":27046,"stv_name":"Uncletopia | Chicago | 4 | All Maps | STV","players":null},{"server_id":36,"name":"Uncletopia | Chicago | 5 | All Maps","name_short":"chi-5","host":"chi-2.us.uncletopia.com","port":27015,"enabled":true,"region":"us-central","cc":"us","latitude":41.881832,"longitude":-87.62318,"reserved":0,"last_update":"0001-01-01T00:00:00Z","name_a2s":"Uncletopia | Chicago | 5 | All Maps","protocol":17,"map":"cp_altitude","folder":"tf","game":"Team Fortress","app_id":440,"player_count":18,"max_players":24,"Bots":0,"server_type":"Dedicated","server_os":"Linux","password":true,"vac":true,"version":"7882260","steam_id":85568392924866362,"keywords":["cp","nocrits","nodmgspread","uncletopia"],"game_id":440,"stv_port":27016,"stv_name":"Uncletopia | Chicago | 5 | All Maps | STV","players":[{"user_id":152,"name":"lifted tater","steam_id":76561198404564240,"connected_time":64000000000,"state":"active","ping":59},{"user_id":105,"name":"Gaskranx","steam_id":76561198020269547,"connected_time":4376000000000,"state":"active","ping":71},{"user_id":148,"name":"helikopter","steam_id":76561198881026292,"connected_time":637000000000,"state":"active","ping":65},{"user_id":150,"name":"ATastyDonut","steam_id":76561198984819894,"connected_time":341000000000,"state":"active","ping":72},{"user_id":143,"name":"ryan","steam_id":76561198141875225,"connected_time":771000000000,"state":"active","ping":58},{"user_id":129,"name":"keffers","steam_id":76561198202338796,"connected_time":2214000000000,"state":"active","ping":69},{"user_id":136,"name":"The Noob Sire","steam_id":76561198119219754,"connected_time":1365000000000,"state":"active","ping":91},{"user_id":126,"name":"A Trigger Happy Chipmunk","steam_id":76561198013608736,"connected_time":2465000000000,"state":"active","ping":45},{"user_id":138,"name":"Snozz Core","steam_id":76561198064520262,"connected_time":1187000000000,"state":"active","ping":71},{"user_id":117,"name":"PoisonIvy","steam_id":76561198072384574,"connected_time":2846000000000,"state":"active","ping":55},{"user_id":137,"name":"DetL","steam_id":76561198375053315,"connected_time":1287000000000,"state":"active","ping":96},{"user_id":142,"name":"BennBap","steam_id":76561198171881453,"connected_time":788000000000,"state":"active","ping":133},{"user_id":133,"name":"joemoe84g","steam_id":76561199141651280,"connected_time":1488000000000,"state":"active","ping":83},{"user_id":149,"name":"Dr. Chad Feelgood","steam_id":76561198454077219,"connected_time":444000000000,"state":"active","ping":64},{"user_id":151,"name":"GeraldyJones65","steam_id":76561199122297098,"connected_time":327000000000,"state":"active","ping":68},{"user_id":131,"name":"Engineer Gaming","steam_id":76561199386119444,"connected_time":1533000000000,"state":"active","ping":116},{"user_id":147,"name":"hatsune miku♡","steam_id":76561199445009981,"connected_time":724000000000,"state":"active","ping":102},{"user_id":140,"name":"Disco Fever","steam_id":76561198069532215,"connected_time":890000000000,"state":"active","ping":70}]},{"server_id":37,"name":"Uncletopia | Chicago | 6 | All Maps","name_short":"chi-6","host":"chi-2.us.uncletopia.com","port":27025,"enabled":true,"region":"us-central","cc":"us","latitude":41.881832,"longitude":-87.62318,"reserved":0,"last_update":"0001-01-01T00:00:00Z","name_a2s":"Uncletopia | Chicago | 6 | All Maps","protocol":17,"map":"pl_snowycoast","folder":"tf","game":"Team Fortress","app_id":440,"player_count":0,"max_players":24,"Bots":0,"server_type":"Dedicated","server_os":"Linux","password":true,"vac":true,"version":"7882260","steam_id":85568392924866363,"keywords":["nocrits","nodmgspread","payload","uncletopia"],"game_id":440,"stv_port":27026,"stv_name":"Uncletopia | Chicago | 6 | All Maps | STV","players":null},{"server_id":38,"name":"Uncletopia | Chicago | 7 | Stopwatch Beta","name_short":"chi-7","host":"chi-2.us.uncletopia.com","port":27035,"enabled":true,"region":"us-central","cc":"us","latitude":41.881832,"longitude":-87.62318,"reserved":0,"last_update":"0001-01-01T00:00:00Z","name_a2s":"Uncletopia | Chicago | 7 | Stopwatch Beta","protocol":17,"map":"pl_upward","folder":"tf","game":"Team Fortress","app_id":440,"player_count":0,"max_players":24,"Bots":0,"server_type":"Dedicated","server_os":"Linux","password":true,"vac":true,"version":"7882260","steam_id":85568392924866364,"keywords":["nocrits","nodmgspread","payload","uncletopia"],"game_id":440,"stv_port":27036,"stv_name":"Uncletopia | Chicago | 7 | Stopwatch Beta | STV","players":null},{"server_id":39,"name":"Uncletopia | Chicago | 8 | Community","name_short":"chi-8","host":"chi-2.us.uncletopia.com","port":27045,"enabled":true,"region":"us-central","cc":"us","latitude":41.881832,"longitude":-87.62318,"reserved":0,"last_update":"0001-01-01T00:00:00Z","name_a2s":"Uncletopia | Chicago | 8 | Community","protocol":17,"map":"workshop/pl_highwood_b13.ugc1769496557","folder":"tf","game":"Team Fortress","app_id":440,"player_count":0,"max_players":24,"Bots":0,"server_type":"Dedicated","server_os":"Linux","password":true,"vac":true,"version":"7882260","steam_id":85568392924866365,"keywords":["nocrits","nodmgspread","payload","uncletopia"],"game_id":440,"stv_port":27046,"stv_name":"Uncletopia | Chicago | 8 | Community | STV","players":null},{"server_id":8,"name":"Uncletopia | Dallas | 1 | All Maps","name_short":"dal-1","host":"dal-1.us.uncletopia.com","port":27015,"enabled":true,"region":"us-central","cc":"us","latitude":32.779167,"longitude":-96.80889,"reserved":0,"last_update":"0001-01-01T00:00:00Z","name_a2s":"Uncletopia | Dallas | 1 | All Maps","protocol":17,"map":"pl_badwater","folder":"tf","game":"Team Fortress","app_id":440,"player_count":24,"max_players":24,"Bots":0,"server_type":"Dedicated","server_os":"Linux","password":true,"vac":true,"version":"7882260","steam_id":85568392924469986,"keywords":["nocrits","nodmgspread","payload","uncletopia"],"game_id":440,"stv_port":27016,"stv_name":"Uncletopia | Dallas | 1 | All Maps | STV","players":[{"user_id":309,"name":"blobb","steam_id":76561198950448488,"connected_time":560000000000,"state":"active","ping":75},{"user_id":296,"name":"Fiestaknight","steam_id":76561198037847385,"connected_time":2036000000000,"state":"active","ping":110},{"user_id":311,"name":"ふわふわ毛布","steam_id":76561198088403016,"connected_time":530000000000,"state":"active","ping":180},{"user_id":312,"name":"Grassman (Cc)","steam_id":76561198026488532,"connected_time":507000000000,"state":"active","ping":87},{"user_id":308,"name":"lilorphanterio","steam_id":76561198996539622,"connected_time":586000000000,"state":"active","ping":65},{"user_id":313,"name":"Bluedemon","steam_id":76561199212058684,"connected_time":484000000000,"state":"active","ping":83},{"user_id":314,"name":"ray (the based god)","steam_id":76561198311984941,"connected_time":460000000000,"state":"active","ping":82},{"user_id":281,"name":"stozzy","steam_id":76561198085809880,"connected_time":3345000000000,"state":"active","ping":78},{"user_id":295,"name":"LEEROY JENKINS","steam_id":76561199070160646,"connected_time":2054000000000,"state":"active","ping":116},{"user_id":269,"name":"Waltuh Whitte","steam_id":76561198372798868,"connected_time":3753000000000,"state":"active","ping":105},{"user_id":298,"name":"Bong Water","steam_id":76561198320044243,"connected_time":1930000000000,"state":"active","ping":75},{"user_id":275,"name":"JoanitoBananas","steam_id":76561198942953101,"connected_time":3476000000000,"state":"active","ping":73},{"user_id":318,"name":"Kazmirl","steam_id":76561198116008410,"connected_time":54000000000,"state":"active","ping":112},{"user_id":286,"name":"RaddaRaddaMan","steam_id":76561198354669477,"connected_time":3139000000000,"state":"active","ping":112},{"user_id":287,"name":"ACBucher","steam_id":76561198799154681,"connected_time":3133000000000,"state":"active","ping":83},{"user_id":299,"name":"FurryPlague","steam_id":76561198824729615,"connected_time":1928000000000,"state":"active","ping":84},{"user_id":305,"name":"webaline","steam_id":76561199052450127,"connected_time":1051000000000,"state":"active","ping":81},{"user_id":317,"name":"Willyboi!!","steam_id":76561198252156874,"connected_time":166000000000,"state":"active","ping":82},{"user_id":304,"name":"NOT Susie Deltarune (not real)","steam_id":76561199007365488,"connected_time":1158000000000,"state":"active","ping":69},{"user_id":306,"name":"semillams cuenta","steam_id":76561199223089296,"connected_time":789000000000,"state":"active","ping":172},{"user_id":316,"name":"BossGauss","steam_id":76561198126676507,"connected_time":379000000000,"state":"active","ping":57},{"user_id":283,"name":"a Salty Individual","steam_id":76561197979951077,"connected_time":3321000000000,"state":"active","ping":136},{"user_id":282,"name":"Sushii","steam_id":76561198160962635,"connected_time":3337000000000,"state":"active","ping":175},{"user_id":303,"name":"Drakon","steam_id":76561198078210822,"connected_time":1428000000000,"state":"active","ping":87}]},{"server_id":108,"name":"Uncletopia | Dallas | 2 | All Maps","name_short":"dal-2","host":"dal-1.us.uncletopia.com","port":27025,"enabled":true,"region":"us-central","cc":"us","latitude":32.779167,"longitude":-96.80889,"reserved":0,"last_update":"0001-01-01T00:00:00Z","name_a2s":"Uncletopia | Dallas | 2 | All Maps","protocol":17,"map":"cp_sunshine","folder":"tf","game":"Team Fortress","app_id":440,"player_count":24,"max_players":24,"Bots":0,"server_type":"Dedicated","server_os":"Linux","password":true,"vac":true,"version":"7882260","steam_id":85568392924469988,"keywords":["cp","nocrits","nodmgspread","uncletopia"],"game_id":440,"stv_port":27026,"stv_name":"Uncletopia | Dallas | 2 | All Maps | STV","players":[{"user_id":252,"name":"Professor Pistachio","steam_id":76561198092494136,"connected_time":453000000000,"state":"active","ping":42},{"user_id":243,"name":"portal enjoyer","steam_id":76561199230796521,"connected_time":1976000000000,"state":"active","ping":81},{"user_id":254,"name":"dewmeer","steam_id":76561198082600360,"connected_time":423000000000,"state":"active","ping":40},{"user_id":248,"name":"plink","steam_id":76561198057829889,"connected_time":941000000000,"state":"active","ping":50},{"user_id":260,"name":"Surprisingly Explosive Garbage","steam_id":76561198411264177,"connected_time":180000000000,"state":"active","ping":108},{"user_id":251,"name":"bigboimarven","steam_id":76561198844778810,"connected_time":504000000000,"state":"active","ping":59},{"user_id":255,"name":"Misanthrope","steam_id":76561198090692884,"connected_time":415000000000,"state":"active","ping":101},{"user_id":218,"name":"jeremy","steam_id":76561198081332766,"connected_time":3274000000000,"state":"active","ping":72},{"user_id":203,"name":"thermometer mercury drink","steam_id":76561198882713406,"connected_time":4297000000000,"state":"active","ping":174},{"user_id":148,"name":"Toe","steam_id":76561199006989074,"connected_time":8444000000000,"state":"active","ping":70},{"user_id":256,"name":"Meat Mans Meat","steam_id":76561198062149455,"connected_time":287000000000,"state":"active","ping":54},{"user_id":219,"name":"Aviyarn","steam_id":76561199074194652,"connected_time":3262000000000,"state":"active","ping":77},{"user_id":235,"name":"Feesh","steam_id":76561198817024734,"connected_time":2128000000000,"state":"active","ping":68},{"user_id":230,"name":"...","steam_id":76561198312298321,"connected_time":2234000000000,"state":"active","ping":90},{"user_id":123,"name":"Moomin","steam_id":76561198072726213,"connected_time":11147000000000,"state":"active","ping":76},{"user_id":236,"name":"MoiMoi","steam_id":76561198873850038,"connected_time":2091000000000,"state":"active","ping":68},{"user_id":257,"name":"BlancaLamb","steam_id":76561198025646073,"connected_time":276000000000,"state":"active","ping":75},{"user_id":237,"name":"Doopity","steam_id":76561198171836357,"connected_time":2091000000000,"state":"active","ping":60},{"user_id":220,"name":"TF3.aflyingmouse","steam_id":76561198058134934,"connected_time":3194000000000,"state":"active","ping":102},{"user_id":249,"name":"Sartupial","steam_id":76561198443169940,"connected_time":941000000000,"state":"active","ping":52},{"user_id":221,"name":"imp","steam_id":76561198055603569,"connected_time":3178000000000,"state":"active","ping":64},{"user_id":204,"name":"b4rry","steam_id":76561198365887154,"connected_time":4267000000000,"state":"active","ping":90},{"user_id":258,"name":"nickel and dimer","steam_id":76561198170381402,"connected_time":225000000000,"state":"active","ping":76},{"user_id":259,"name":"Berry Cool Vlad","steam_id":76561198149616270,"connected_time":201000000000,"state":"active","ping":71}]},{"server_id":5,"name":"Uncletopia | Frankfurt | 1 | All Maps","name_short":"frk-1","host":"frk-1.de.uncletopia.com","port":27015,"enabled":true,"region":"eu","cc":"de","latitude":50.110924,"longitude":8.682127,"reserved":0,"last_update":"0001-01-01T00:00:00Z","name_a2s":"Uncletopia | Frankfurt | 1 | All Maps","protocol":17,"map":"cp_yukon_final","folder":"tf","game":"Team Fortress","app_id":440,"player_count":22,"max_players":24,"Bots":0,"server_type":"Dedicated","server_os":"Linux","password":true,"vac":true,"version":"7882260","steam_id":85568392924469989,"keywords":["cp","nocrits","nodmgspread","uncletopia"],"game_id":440,"stv_port":27016,"stv_name":"Uncletopia | Frankfurt | 1 | All Maps | STV","players":[{"user_id":505,"name":"Syd","steam_id":76561198020515027,"connected_time":1215000000000,"state":"active","ping":80},{"user_id":523,"name":"miev","steam_id":76561198078278737,"connected_time":481000000000,"state":"active","ping":60},{"user_id":493,"name":"꧁༒Xenon༒꧂","steam_id":76561198120502313,"connected_time":1948000000000,"state":"active","ping":88},{"user_id":519,"name":"Penguinaco","steam_id":76561198369797969,"connected_time":692000000000,"state":"active","ping":57},{"user_id":506,"name":"SANKE","steam_id":76561198042561678,"connected_time":1194000000000,"state":"active","ping":57},{"user_id":525,"name":"murmeldjur","steam_id":76561198166065637,"connected_time":415000000000,"state":"active","ping":93},{"user_id":449,"name":"Andy","steam_id":76561198046918834,"connected_time":5360000000000,"state":"active","ping":64},{"user_id":488,"name":"Ham","steam_id":76561198248478444,"connected_time":2533000000000,"state":"active","ping":83},{"user_id":492,"name":"Mr.Usean","steam_id":76561198965758724,"connected_time":2011000000000,"state":"active","ping":63},{"user_id":507,"name":"Breadman","steam_id":76561198992521922,"connected_time":1154000000000,"state":"active","ping":71},{"user_id":508,"name":"Jorji Costava","steam_id":76561198308441483,"connected_time":1121000000000,"state":"active","ping":90},{"user_id":513,"name":"Huru_mies30","steam_id":76561199240991587,"connected_time":924000000000,"state":"active","ping":61},{"user_id":457,"name":"Buster Bunny","steam_id":76561198113374310,"connected_time":4706000000000,"state":"active","ping":155},{"user_id":467,"name":"Dr Ludwig","steam_id":76561198426522902,"connected_time":4396000000000,"state":"active","ping":63},{"user_id":472,"name":"Dio","steam_id":76561198117685434,"connected_time":3913000000000,"state":"active","ping":78},{"user_id":452,"name":"MoistMomMauler","steam_id":76561198069359049,"connected_time":5059000000000,"state":"active","ping":85},{"user_id":501,"name":"froglids","steam_id":76561198045466919,"connected_time":1668000000000,"state":"active","ping":66},{"user_id":512,"name":"KODE","steam_id":76561198053212394,"connected_time":1003000000000,"state":"active","ping":64},{"user_id":524,"name":"MrKampfCookie","steam_id":76561198085490175,"connected_time":474000000000,"state":"active","ping":47},{"user_id":516,"name":"thebigcheif","steam_id":76561198236015392,"connected_time":881000000000,"state":"active","ping":120},{"user_id":517,"name":"Dåvid","steam_id":76561198184135755,"connected_time":837000000000,"state":"active","ping":61},{"user_id":490,"name":"SirSangoor","steam_id":76561198044462559,"connected_time":2419000000000,"state":"active","ping":121}]},{"server_id":110,"name":"Uncletopia | Frankfurt | 2 | All Maps","name_short":"frk-2","host":"frk-1.de.uncletopia.com","port":27025,"enabled":true,"region":"eu","cc":"de","latitude":50.110924,"longitude":8.682127,"reserved":0,"last_update":"0001-01-01T00:00:00Z","name_a2s":"Uncletopia | Frankfurt | 2 | All Maps","protocol":17,"map":"pl_borneo","folder":"tf","game":"Team Fortress","app_id":440,"player_count":24,"max_players":24,"Bots":0,"server_type":"Dedicated","server_os":"Linux","password":true,"vac":true,"version":"7882260","steam_id":85568392924469990,"keywords":["nocrits","nodmgspread","payload","uncletopia"],"game_id":440,"stv_port":27026,"stv_name":"Uncletopia | Frankfurt | 2 | All Maps | STV","players":[{"user_id":110,"name":"Vidrox #savetf2","steam_id":76561199217854983,"connected_time":1012000000000,"state":"active","ping":89},{"user_id":107,"name":"Brinier","steam_id":76561199012604288,"connected_time":1285000000000,"state":"active","ping":66},{"user_id":108,"name":"absalonn","steam_id":76561198850407517,"connected_time":1275000000000,"state":"active","ping":122},{"user_id":119,"name":"CarrotFlowers LFT","steam_id":76561198154714698,"connected_time":369000000000,"state":"active","ping":58},{"user_id":112,"name":"Avoo","steam_id":76561198186954897,"connected_time":961000000000,"state":"active","ping":58},{"user_id":120,"name":"The Cadean Lucius","steam_id":76561198183880529,"connected_time":362000000000,"state":"active","ping":61},{"user_id":114,"name":"Bun","steam_id":76561197989239999,"connected_time":827000000000,"state":"active","ping":49},{"user_id":88,"name":"Sensei","steam_id":76561198383582429,"connected_time":2789000000000,"state":"active","ping":89},{"user_id":102,"name":"maxharmony","steam_id":76561198233819688,"connected_time":2060000000000,"state":"active","ping":85},{"user_id":126,"name":"Remizer","steam_id":76561198799755616,"connected_time":71000000000,"state":"active","ping":61},{"user_id":122,"name":"Avocado1262","steam_id":76561199077413016,"connected_time":269000000000,"state":"active","ping":78},{"user_id":117,"name":"Dr. Cox","steam_id":76561198246629218,"connected_time":724000000000,"state":"active","ping":110},{"user_id":84,"name":"?","steam_id":76561198111134021,"connected_time":3404000000000,"state":"active","ping":83},{"user_id":104,"name":"Adib al-asfar","steam_id":76561198095691592,"connected_time":1457000000000,"state":"active","ping":60},{"user_id":123,"name":"Michael","steam_id":76561198003146906,"connected_time":263000000000,"state":"active","ping":61},{"user_id":60,"name":"Pacyfista Feminista Frutarianin","steam_id":76561198435883762,"connected_time":5274000000000,"state":"active","ping":85},{"user_id":47,"name":"Ixsus\u003c3","steam_id":76561198094756869,"connected_time":5647000000000,"state":"active","ping":57},{"user_id":124,"name":"Eggman (Kaio-ken x20)","steam_id":76561199042470246,"connected_time":249000000000,"state":"active","ping":59},{"user_id":80,"name":"tallen","steam_id":76561198061708595,"connected_time":4125000000000,"state":"active","ping":90},{"user_id":103,"name":"gegit08","steam_id":76561199040010283,"connected_time":1585000000000,"state":"active","ping":75},{"user_id":109,"name":"Shovelhalfrusty","steam_id":76561198346447513,"connected_time":1218000000000,"state":"active","ping":76},{"user_id":125,"name":"or win","steam_id":76561198056238137,"connected_time":248000000000,"state":"active","ping":71},{"user_id":59,"name":"Charged","steam_id":76561199127215130,"connected_time":5323000000000,"state":"active","ping":77},{"user_id":99,"name":"Oculus Caeli","steam_id":76561198204655696,"connected_time":2232000000000,"state":"active","ping":67}]},{"server_id":308,"name":"Uncletopia | Frankfurt | 3 | All Maps","name_short":"frk-3","host":"frk-1.de.uncletopia.com","port":27035,"enabled":true,"region":"eu","cc":"de","latitude":50.110924,"longitude":8.682127,"reserved":0,"last_update":"0001-01-01T00:00:00Z","name_a2s":"Uncletopia | Frankfurt | 3 | All Maps","protocol":17,"map":"cp_mountainlab","folder":"tf","game":"Team Fortress","app_id":440,"player_count":0,"max_players":24,"Bots":0,"server_type":"Dedicated","server_os":"Linux","password":true,"vac":true,"version":"7882260","steam_id":85568392924504274,"keywords":["cp","nocrits","nodmgspread","uncletopia"],"game_id":440,"stv_port":27036,"stv_name":"Uncletopia | Frankfurt | 3 | All Maps | STV","players":null},{"server_id":309,"name":"Uncletopia | Frankfurt | 4 | All Maps","name_short":"frk-4","host":"frk-1.de.uncletopia.com","port":27045,"enabled":true,"region":"eu","cc":"de","latitude":50.110924,"longitude":8.682127,"reserved":0,"last_update":"0001-01-01T00:00:00Z","name_a2s":"Uncletopia | Frankfurt | 4 | All Maps","protocol":17,"map":"koth_lakeside_final","folder":"tf","game":"Team Fortress","app_id":440,"player_count":0,"max_players":24,"Bots":0,"server_type":"Dedicated","server_os":"Linux","password":true,"vac":true,"version":"7882260","steam_id":85568392924504275,"keywords":["cp","nocrits","nodmgspread","uncletopia"],"game_id":440,"stv_port":27046,"stv_name":"Uncletopia | Frankfurt | 4 | All Maps | STV","players":null},{"server_id":310,"name":"Uncletopia | Frankfurt | 5 | All Maps","name_short":"frk-5","host":"frk-1.de.uncletopia.com","port":27055,"enabled":true,"region":"eu","cc":"de","latitude":50.110924,"longitude":8.682127,"reserved":0,"last_update":"0001-01-01T00:00:00Z","name_a2s":"Uncletopia | Frankfurt | 5 | All Maps","protocol":17,"map":"koth_viaduct","folder":"tf","game":"Team Fortress","app_id":440,"player_count":0,"max_players":24,"Bots":0,"server_type":"Dedicated","server_os":"Linux","password":true,"vac":true,"version":"7882260","steam_id":85568392924504277,"keywords":["cp","nocrits","nodmgspread","uncletopia"],"game_id":440,"stv_port":27056,"stv_name":"Uncletopia | Frankfurt | 5 | All Maps | STV","players":null},{"server_id":311,"name":"Uncletopia | Frankfurt | 6 | All Maps","name_short":"frk-6","host":"frk-1.de.uncletopia.com","port":27065,"enabled":true,"region":"eu","cc":"de","latitude":50.110924,"longitude":8.682127,"reserved":0,"last_update":"0001-01-01T00:00:00Z","name_a2s":"Uncletopia | Frankfurt | 6 | All Maps","protocol":17,"map":"cp_process_final","folder":"tf","game":"Team Fortress","app_id":440,"player_count":23,"max_players":24,"Bots":0,"server_type":"Dedicated","server_os":"Linux","password":true,"vac":true,"version":"7882260","steam_id":85568392924504278,"keywords":["cp","nocrits","nodmgspread","uncletopia"],"game_id":440,"stv_port":27066,"stv_name":"Uncletopia | Frankfurt | 6 | All Maps | STV","players":[{"user_id":230,"name":"where do i get replacement bike","steam_id":76561198084597975,"connected_time":4224000000000,"state":"active","ping":61},{"user_id":280,"name":"Pilaarius","steam_id":76561198120273212,"connected_time":1423000000000,"state":"active","ping":91},{"user_id":282,"name":"finbar","steam_id":76561198056812396,"connected_time":1106000000000,"state":"active","ping":78},{"user_id":234,"name":"QR code 78","steam_id":76561198073749509,"connected_time":3811000000000,"state":"active","ping":67},{"user_id":289,"name":"Louis Armstrong Gaming","steam_id":76561199142022395,"connected_time":14000000000,"state":"spawning","ping":62},{"user_id":189,"name":"Spectral Sloth","steam_id":76561198170083139,"connected_time":7698000000000,"state":"active","ping":83},{"user_id":261,"name":"Lugialf","steam_id":76561198069050794,"connected_time":2278000000000,"state":"active","ping":95},{"user_id":263,"name":"oscar","steam_id":76561198079636127,"connected_time":2126000000000,"state":"active","ping":71},{"user_id":283,"name":"hungry burger","steam_id":76561198064342804,"connected_time":400000000000,"state":"active","ping":88},{"user_id":287,"name":"wouris","steam_id":76561198876188003,"connected_time":92000000000,"state":"active","ping":49},{"user_id":288,"name":"JC","steam_id":76561198029213352,"connected_time":58000000000,"state":"active","ping":49},{"user_id":240,"name":"SpaceNut","steam_id":76561198059198302,"connected_time":3727000000000,"state":"active","ping":60},{"user_id":254,"name":"One-Face","steam_id":76561197999384826,"connected_time":2800000000000,"state":"active","ping":51},{"user_id":272,"name":"Zyabrik10","steam_id":76561199090400619,"connected_time":1778000000000,"state":"active","ping":245},{"user_id":269,"name":"Cars","steam_id":76561198173329977,"connected_time":1947000000000,"state":"active","ping":64},{"user_id":281,"name":"a peculiar romanian pig disease","steam_id":76561198013502376,"connected_time":1364000000000,"state":"active","ping":60},{"user_id":275,"name":"Mi Manchi","steam_id":76561198171573129,"connected_time":1688000000000,"state":"active","ping":54},{"user_id":279,"name":"Bajas","steam_id":76561198179339326,"connected_time":1505000000000,"state":"active","ping":75},{"user_id":250,"name":"zee","steam_id":76561197994492154,"connected_time":3586000000000,"state":"active","ping":59},{"user_id":260,"name":"BrotherPotato","steam_id":76561198049948120,"connected_time":2355000000000,"state":"active","ping":74},{"user_id":252,"name":"Samplee","steam_id":76561198063406140,"connected_time":3577000000000,"state":"active","ping":74},{"user_id":259,"name":"Bonca","steam_id":76561198137503531,"connected_time":2419000000000,"state":"active","ping":75},{"user_id":285,"name":"[SWMG]","steam_id":76561198872013525,"connected_time":353000000000,"state":"active","ping":138}]},{"server_id":23,"name":"Uncletopia | Frankfurt | 7 | Stopwatch Beta","name_short":"frk-7","host":"frk-1.de.uncletopia.com","port":27075,"enabled":true,"region":"eu","cc":"de","latitude":50.110924,"longitude":8.682127,"reserved":0,"last_update":"0001-01-01T00:00:00Z","name_a2s":"Uncletopia | Frankfurt | 7 | Stopwatch Beta","protocol":17,"map":"pl_swiftwater_final1","folder":"tf","game":"Team Fortress","app_id":440,"player_count":0,"max_players":24,"Bots":0,"server_type":"Dedicated","server_os":"Linux","password":true,"vac":true,"version":"7882260","steam_id":85568392924742827,"keywords":["nocrits","nodmgspread","payload","uncletopia"],"game_id":440,"stv_port":27076,"stv_name":"Uncletopia | Frankfurt | 7 | Stopwatch Beta | STV","players":null},{"server_id":24,"name":"Uncletopia | Frankfurt | 8 | Community","name_short":"frk-8","host":"frk-1.de.uncletopia.com","port":27085,"enabled":true,"region":"eu","cc":"de","latitude":50.110924,"longitude":8.682127,"reserved":0,"last_update":"0001-01-01T00:00:00Z","name_a2s":"Uncletopia | Frankfurt | 8 | Community","protocol":17,"map":"workshop/koth_ashville_final.ugc2130459942","folder":"tf","game":"Team Fortress","app_id":440,"player_count":0,"max_players":24,"Bots":0,"server_type":"Dedicated","server_os":"Linux","password":true,"vac":true,"version":"7882260","steam_id":85568392924742828,"keywords":["cp","nocrits","nodmgspread","uncletopia"],"game_id":440,"stv_port":27086,"stv_name":"Uncletopia | Frankfurt | 8 | Community | STV","players":null},{"server_id":202,"name":"Uncletopia | Hong Kong | 1 | All Maps","name_short":"hgk-1","host":"hgk-1.hk.uncletopia.com","port":27015,"enabled":true,"region":"asia","cc":"hk","latitude":22.302711,"longitude":114.177216,"reserved":0,"last_update":"0001-01-01T00:00:00Z","name_a2s":"Uncletopia | Hong Kong | 1 | All Maps","protocol":17,"map":"koth_viaduct","folder":"tf","game":"Team Fortress","app_id":440,"player_count":0,"max_players":24,"Bots":0,"server_type":"Dedicated","server_os":"Linux","password":true,"vac":true,"version":"7882260","steam_id":85568392924494504,"keywords":["cp","nocrits","nodmgspread","uncletopia"],"game_id":440,"stv_port":27016,"stv_name":"Uncletopia | Hong Kong | 1 | All Maps | STV","players":null},{"server_id":1,"name":"Uncletopia | Los Angeles | 1 | All Maps","name_short":"lax-1","host":"lax-1.us.uncletopia.com","port":27015,"enabled":true,"region":"us-west","cc":"us","latitude":33.94279,"longitude":-118.41004,"reserved":0,"last_update":"0001-01-01T00:00:00Z","name_a2s":"Uncletopia | Los Angeles | 1 | All Maps","protocol":17,"map":"koth_cascade","folder":"tf","game":"Team Fortress","app_id":440,"player_count":0,"max_players":24,"Bots":0,"server_type":"Dedicated","server_os":"Linux","password":true,"vac":true,"version":"7882260","steam_id":85568392924469991,"keywords":["cp","nocrits","nodmgspread","uncletopia"],"game_id":440,"stv_port":27016,"stv_name":"Uncletopia | Los Angeles | 1 | All Maps | STV","players":null},{"server_id":112,"name":"Uncletopia | Los Angeles | 2 | All Maps","name_short":"lax-2","host":"lax-1.us.uncletopia.com","port":27025,"enabled":true,"region":"us-west","cc":"us","latitude":33.94279,"longitude":-118.41004,"reserved":0,"last_update":"0001-01-01T00:00:00Z","name_a2s":"Uncletopia | Los Angeles | 2 | All Maps","protocol":17,"map":"cp_altitude","folder":"tf","game":"Team Fortress","app_id":440,"player_count":0,"max_players":24,"Bots":0,"server_type":"Dedicated","server_os":"Linux","password":true,"vac":true,"version":"7882260","steam_id":85568392924469992,"keywords":["cp","nocrits","nodmgspread","uncletopia"],"game_id":440,"stv_port":27026,"stv_name":"Uncletopia | Los Angeles | 2 | All Maps | STV","players":null},{"server_id":324,"name":"Uncletopia | Los Angeles | 3 | All Maps","name_short":"lax-3","host":"lax-1.us.uncletopia.com","port":27035,"enabled":true,"region":"us-west","cc":"us","latitude":33.94279,"longitude":-118.41004,"reserved":0,"last_update":"0001-01-01T00:00:00Z","name_a2s":"Uncletopia | Los Angeles | 3 | All Maps","protocol":17,"map":"pl_swiftwater_final1","folder":"tf","game":"Team Fortress","app_id":440,"player_count":0,"max_players":24,"Bots":0,"server_type":"Dedicated","server_os":"Linux","password":true,"vac":true,"version":"7882260","steam_id":85568392924510198,"keywords":["nocrits","nodmgspread","payload","uncletopia"],"game_id":440,"stv_port":27036,"stv_name":"Uncletopia | Los Angeles | 3 | All Maps | STV","players":null},{"server_id":25,"name":"Uncletopia | Los Angeles | 4 | Stopwatch Beta","name_short":"lax-4","host":"lax-1.us.uncletopia.com","port":27045,"enabled":true,"region":"us-west","cc":"us","latitude":33.94279,"longitude":-118.41004,"reserved":0,"last_update":"0001-01-01T00:00:00Z","name_a2s":"Uncletopia | Los Angeles | 4 | Stopwatch Beta","protocol":17,"map":"koth_viaduct","folder":"tf","game":"Team Fortress","app_id":440,"player_count":0,"max_players":24,"Bots":0,"server_type":"Dedicated","server_os":"Linux","password":true,"vac":true,"version":"7882260","steam_id":85568392924510199,"keywords":["cp","nocrits","nodmgspread","uncletopia"],"game_id":440,"stv_port":27046,"stv_name":"Uncletopia | Los Angeles | 4 | Stopwatch Beta | STV","players":null},{"server_id":11,"name":"Uncletopia | London | 1 | All Maps","name_short":"lon-1","host":"lon-1.uk.uncletopia.com","port":27015,"enabled":true,"region":"eu","cc":"gb","latitude":51.509865,"longitude":-0.118092,"reserved":0,"last_update":"0001-01-01T00:00:00Z","name_a2s":"Uncletopia | London | 1 | All Maps","protocol":17,"map":"pl_swiftwater_final1","folder":"tf","game":"Team Fortress","app_id":440,"player_count":21,"max_players":24,"Bots":0,"server_type":"Dedicated","server_os":"Linux","password":true,"vac":true,"version":"7882260","steam_id":85568392924367362,"keywords":["nocrits","nodmgspread","payload","uncletopia"],"game_id":440,"stv_port":27016,"stv_name":"Uncletopia | London | 1 | All Maps | STV","players":[{"user_id":367,"name":"brk559","steam_id":76561199095687349,"connected_time":264000000000,"state":"active","ping":105},{"user_id":370,"name":"Frylock","steam_id":76561198050292560,"connected_time":53000000000,"state":"active","ping":36},{"user_id":368,"name":"Loperin","steam_id":76561198111237338,"connected_time":117000000000,"state":"active","ping":189},{"user_id":354,"name":"Elevator Builder","steam_id":76561198851157897,"connected_time":1390000000000,"state":"active","ping":60},{"user_id":359,"name":"TJ1212","steam_id":76561199013575313,"connected_time":1137000000000,"state":"active","ping":73},{"user_id":369,"name":"flr","steam_id":76561198249327786,"connected_time":111000000000,"state":"active","ping":70},{"user_id":226,"name":"Mr. Heavy LFT Premiership","steam_id":76561198080912087,"connected_time":9963000000000,"state":"active","ping":60},{"user_id":361,"name":"FZStick","steam_id":76561198086617223,"connected_time":660000000000,"state":"active","ping":52},{"user_id":222,"name":"lyra","steam_id":76561198043601838,"connected_time":10050000000000,"state":"active","ping":60},{"user_id":362,"name":"Countsmegula","steam_id":76561198005813558,"connected_time":622000000000,"state":"active","ping":45},{"user_id":318,"name":"British Disapproval","steam_id":76561198001375260,"connected_time":3471000000000,"state":"active","ping":57},{"user_id":360,"name":"NoobfromHell","steam_id":76561198394221491,"connected_time":954000000000,"state":"active","ping":65},{"user_id":339,"name":"Prostate stealer","steam_id":76561198866972538,"connected_time":1984000000000,"state":"active","ping":82},{"user_id":357,"name":"Pomeczka","steam_id":76561198281666662,"connected_time":1155000000000,"state":"active","ping":72},{"user_id":356,"name":"","steam_id":76561198973232202,"connected_time":1334000000000,"state":"active","ping":87},{"user_id":343,"name":"Limbless André","steam_id":76561198077283223,"connected_time":1815000000000,"state":"active","ping":84},{"user_id":319,"name":"fume.","steam_id":76561197960476801,"connected_time":3307000000000,"state":"active","ping":53},{"user_id":329,"name":"[O\u0026O]YaboiDucki","steam_id":76561198195976589,"connected_time":2369000000000,"state":"active","ping":83},{"user_id":353,"name":"Tarakan usatuy","steam_id":76561199088697437,"connected_time":1518000000000,"state":"active","ping":86},{"user_id":275,"name":"e9","steam_id":76561198890193313,"connected_time":5879000000000,"state":"active","ping":52},{"user_id":363,"name":"Dody","steam_id":76561198380493068,"connected_time":605000000000,"state":"active","ping":73}]},{"server_id":114,"name":"Uncletopia | London | 2 | All Maps","name_short":"lon-2","host":"lon-1.uk.uncletopia.com","port":27025,"enabled":true,"region":"eu","cc":"gb","latitude":51.509865,"longitude":-0.118092,"reserved":0,"last_update":"0001-01-01T00:00:00Z","name_a2s":"Uncletopia | London | 2 | All Maps","protocol":17,"map":"pl_swiftwater_final1","folder":"tf","game":"Team Fortress","app_id":440,"player_count":24,"max_players":24,"Bots":0,"server_type":"Dedicated","server_os":"Linux","password":true,"vac":true,"version":"7882260","steam_id":85568392924470941,"keywords":["nocrits","nodmgspread","payload","uncletopia"],"game_id":440,"stv_port":27026,"stv_name":"Uncletopia | London | 2 | All Maps | STV","players":[{"user_id":231,"name":"Margaret Thatcher","steam_id":76561198124463930,"connected_time":9064000000000,"state":"active","ping":36},{"user_id":318,"name":"Akkie.","steam_id":76561198017619091,"connected_time":2142000000000,"state":"active","ping":61},{"user_id":304,"name":"Spurt","steam_id":76561198078523852,"connected_time":3043000000000,"state":"active","ping":52},{"user_id":320,"name":"Woman (Real)","steam_id":76561199151823932,"connected_time":1698000000000,"state":"active","ping":87},{"user_id":272,"name":"Pink Cheese","steam_id":76561198972186436,"connected_time":4983000000000,"state":"active","ping":78},{"user_id":269,"name":"frosty","steam_id":76561198094560834,"connected_time":5040000000000,"state":"active","ping":54},{"user_id":253,"name":"Kernel Panic","steam_id":76561198215811047,"connected_time":6876000000000,"state":"active","ping":37},{"user_id":254,"name":"Caliban","steam_id":76561197999696839,"connected_time":6815000000000,"state":"active","ping":125},{"user_id":319,"name":"Hey, I´m Andy!","steam_id":76561198060337777,"connected_time":2096000000000,"state":"active","ping":80},{"user_id":326,"name":"SK4RD3S","steam_id":76561198058724777,"connected_time":1003000000000,"state":"active","ping":76},{"user_id":322,"name":"E² FTH","steam_id":76561198066287815,"connected_time":1384000000000,"state":"active","ping":120},{"user_id":327,"name":"えななん","steam_id":76561199427679148,"connected_time":976000000000,"state":"active","ping":165},{"user_id":290,"name":"howabe","steam_id":76561197996486818,"connected_time":4595000000000,"state":"active","ping":57},{"user_id":308,"name":"MoonDroid","steam_id":76561198023027016,"connected_time":2539000000000,"state":"active","ping":45},{"user_id":332,"name":"ashley","steam_id":76561198448551449,"connected_time":510000000000,"state":"active","ping":30},{"user_id":321,"name":"i'm a movement player lois","steam_id":76561198112681438,"connected_time":1492000000000,"state":"active","ping":94},{"user_id":252,"name":"reformed i swear","steam_id":76561198152392309,"connected_time":6907000000000,"state":"active","ping":52},{"user_id":328,"name":"Rizziologist","steam_id":76561198089003514,"connected_time":921000000000,"state":"active","ping":59},{"user_id":325,"name":"violent monkey porn","steam_id":76561199285074344,"connected_time":1066000000000,"state":"active","ping":130},{"user_id":314,"name":"Well, off to hang myself","steam_id":76561198053374944,"connected_time":2471000000000,"state":"active","ping":66},{"user_id":331,"name":"John Noob","steam_id":76561197999170026,"connected_time":779000000000,"state":"active","ping":80},{"user_id":193,"name":"Miss Bari","steam_id":76561198365286092,"connected_time":11294000000000,"state":"active","ping":42},{"user_id":303,"name":"yoursbzt","steam_id":76561198201866574,"connected_time":3449000000000,"state":"active","ping":83},{"user_id":330,"name":"roltsi","steam_id":76561198014337231,"connected_time":837000000000,"state":"active","ping":76}]},{"server_id":320,"name":"Uncletopia | London | 3 | All Maps","name_short":"lon-3","host":"lon-1.uk.uncletopia.com","port":27035,"enabled":true,"region":"eu","cc":"gb","latitude":51.509865,"longitude":-0.118092,"reserved":0,"last_update":"0001-01-01T00:00:00Z","name_a2s":"Uncletopia | London | 3 | All Maps","protocol":17,"map":"pl_thundermountain","folder":"tf","game":"Team Fortress","app_id":440,"player_count":23,"max_players":24,"Bots":0,"server_type":"Dedicated","server_os":"Linux","password":true,"vac":true,"version":"7882260","steam_id":85568392924510192,"keywords":["nocrits","nodmgspread","payload","uncletopia"],"game_id":440,"stv_port":27036,"stv_name":"Uncletopia | London | 3 | All Maps | STV","players":[{"user_id":701,"name":"Borat","steam_id":76561198122226417,"connected_time":1634000000000,"state":"active","ping":39},{"user_id":727,"name":"Insain Bolt!","steam_id":76561198025687726,"connected_time":54000000000,"state":"active","ping":81},{"user_id":706,"name":"KorieOne ❣","steam_id":76561197982998663,"connected_time":1333000000000,"state":"active","ping":54},{"user_id":652,"name":"Tea","steam_id":76561198799243030,"connected_time":4317000000000,"state":"active","ping":58},{"user_id":696,"name":"KnugenIV","steam_id":76561198127091993,"connected_time":2377000000000,"state":"active","ping":62},{"user_id":708,"name":"mike erhmentraut","steam_id":76561199025378498,"connected_time":1175000000000,"state":"active","ping":46},{"user_id":707,"name":"air arrow legacy","steam_id":76561198180361759,"connected_time":1179000000000,"state":"active","ping":44},{"user_id":705,"name":"znunney","steam_id":76561199438501613,"connected_time":1507000000000,"state":"active","ping":62},{"user_id":684,"name":"useless windows applications","steam_id":76561198410066304,"connected_time":3173000000000,"state":"active","ping":52},{"user_id":709,"name":"IDon'tNeedACoolName","steam_id":76561198013547503,"connected_time":1161000000000,"state":"active","ping":65},{"user_id":686,"name":"Umbraprism","steam_id":76561197984504910,"connected_time":3048000000000,"state":"active","ping":60},{"user_id":704,"name":"hedon/","steam_id":76561198249832770,"connected_time":1547000000000,"state":"active","ping":45},{"user_id":710,"name":"The Legolord","steam_id":76561199101367611,"connected_time":1158000000000,"state":"active","ping":136},{"user_id":700,"name":"Dromeka","steam_id":76561198963557200,"connected_time":1703000000000,"state":"active","ping":59},{"user_id":712,"name":"Ecin","steam_id":76561198816655769,"connected_time":1120000000000,"state":"active","ping":70},{"user_id":599,"name":"Tea Follet","steam_id":76561198852408734,"connected_time":6848000000000,"state":"active","ping":68},{"user_id":698,"name":"Seri","steam_id":76561198017135441,"connected_time":1938000000000,"state":"active","ping":55},{"user_id":722,"name":"S.V.I.L.A.R","steam_id":76561198828348612,"connected_time":517000000000,"state":"active","ping":94},{"user_id":711,"name":"CAMON ENGELAND","steam_id":76561198054301125,"connected_time":1148000000000,"state":"active","ping":95},{"user_id":725,"name":"slifer the executive producer","steam_id":76561198322087870,"connected_time":158000000000,"state":"active","ping":112},{"user_id":680,"name":"ford unfocus","steam_id":76561198305748973,"connected_time":3278000000000,"state":"active","ping":79},{"user_id":726,"name":"quickfast","steam_id":76561199438900919,"connected_time":126000000000,"state":"active","ping":44},{"user_id":724,"name":"❤G a n K","steam_id":76561199125995565,"connected_time":255000000000,"state":"active","ping":55}]},{"server_id":321,"name":"Uncletopia | London | 4 | All Maps","name_short":"lon-4","host":"lon-1.uk.uncletopia.com","port":27045,"enabled":true,"region":"eu","cc":"gb","latitude":51.509865,"longitude":-0.118092,"reserved":0,"last_update":"0001-01-01T00:00:00Z","name_a2s":"Uncletopia | London | 4 | All Maps","protocol":17,"map":"pl_barnblitz","folder":"tf","game":"Team Fortress","app_id":440,"player_count":24,"max_players":24,"Bots":0,"server_type":"Dedicated","server_os":"Linux","password":true,"vac":true,"version":"7882260","steam_id":85568392924510193,"keywords":["nocrits","nodmgspread","payload","uncletopia"],"game_id":440,"stv_port":27046,"stv_name":"Uncletopia | London | 4 | All Maps | STV","players":[{"user_id":143,"name":"kreeekz","steam_id":76561198014431602,"connected_time":172000000000,"state":"active","ping":75},{"user_id":103,"name":"Xx_EpicGaymer_xX","steam_id":76561198846784757,"connected_time":1866000000000,"state":"active","ping":53},{"user_id":116,"name":"DiracDeltaFunction","steam_id":76561199201624841,"connected_time":1103000000000,"state":"active","ping":110},{"user_id":69,"name":"cream gravy","steam_id":76561198973069177,"connected_time":2735000000000,"state":"active","ping":52},{"user_id":131,"name":"The.Real.Genesis","steam_id":76561198999652040,"connected_time":473000000000,"state":"active","ping":46},{"user_id":106,"name":"Kestrel","steam_id":76561198144033005,"connected_time":1840000000000,"state":"active","ping":52},{"user_id":142,"name":"Ziemniaczki z koperkiem","steam_id":76561198829123464,"connected_time":234000000000,"state":"active","ping":84},{"user_id":137,"name":"Milk","steam_id":76561198125876588,"connected_time":391000000000,"state":"active","ping":41},{"user_id":133,"name":"Max Power","steam_id":76561198019269089,"connected_time":436000000000,"state":"active","ping":57},{"user_id":75,"name":"OkamiSumo","steam_id":76561198271644152,"connected_time":2441000000000,"state":"active","ping":84},{"user_id":128,"name":"WolfmanCZ","steam_id":76561199157141414,"connected_time":592000000000,"state":"active","ping":77},{"user_id":122,"name":"kaze","steam_id":76561198997095048,"connected_time":701000000000,"state":"active","ping":72},{"user_id":134,"name":"Fran","steam_id":76561199070516960,"connected_time":434000000000,"state":"active","ping":73},{"user_id":121,"name":"Pomson 6000","steam_id":76561198344588858,"connected_time":707000000000,"state":"active","ping":48},{"user_id":135,"name":"mercurial","steam_id":76561198046227550,"connected_time":432000000000,"state":"active","ping":44},{"user_id":82,"name":"iokoieon","steam_id":76561198065009070,"connected_time":2274000000000,"state":"active","ping":102},{"user_id":139,"name":"Content Spy","steam_id":76561198250161534,"connected_time":322000000000,"state":"active","ping":103},{"user_id":136,"name":"FatGuySandwich","steam_id":76561198126078799,"connected_time":418000000000,"state":"active","ping":69},{"user_id":138,"name":"Vecomti","steam_id":76561198153471156,"connected_time":385000000000,"state":"active","ping":83},{"user_id":114,"name":"Margaret \"Gamer\" Thatcher","steam_id":76561198819871606,"connected_time":1200000000000,"state":"active","ping":101},{"user_id":113,"name":"dotdotdot","steam_id":76561198057628751,"connected_time":1294000000000,"state":"active","ping":64},{"user_id":140,"name":"Oak","steam_id":76561198067315672,"connected_time":314000000000,"state":"active","ping":47},{"user_id":141,"name":"jovi_","steam_id":76561198449280552,"connected_time":298000000000,"state":"active","ping":55},{"user_id":127,"name":"Rook","steam_id":76561197995204779,"connected_time":651000000000,"state":"active","ping":32}]},{"server_id":21,"name":"Uncletopia | London | 5 | All Maps","name_short":"lon-5","host":"lon-1.uk.uncletopia.com","port":27055,"enabled":true,"region":"eu","cc":"gb","latitude":51.509865,"longitude":-0.118092,"reserved":0,"last_update":"0001-01-01T00:00:00Z","name_a2s":"Uncletopia | London | 5 | All Maps","protocol":17,"map":"pl_upward","folder":"tf","game":"Team Fortress","app_id":440,"player_count":24,"max_players":24,"Bots":0,"server_type":"Dedicated","server_os":"Linux","password":true,"vac":true,"version":"7882260","steam_id":85568392924742829,"keywords":["nocrits","nodmgspread","payload","uncletopia"],"game_id":440,"stv_port":27056,"stv_name":"Uncletopia | London | 5 | All Maps | STV","players":[{"user_id":74,"name":"hunte","steam_id":76561198063483484,"connected_time":2581000000000,"state":"active","ping":78},{"user_id":96,"name":"EastmoreRandoms.","steam_id":76561198048921203,"connected_time":821000000000,"state":"active","ping":69},{"user_id":108,"name":"schmick h_stt 0","steam_id":76561198039537958,"connected_time":540000000000,"state":"active","ping":45},{"user_id":81,"name":"Noob_Extreme","steam_id":76561198353507507,"connected_time":2228000000000,"state":"active","ping":81},{"user_id":78,"name":"MozPango","steam_id":76561198083556891,"connected_time":2343000000000,"state":"active","ping":76},{"user_id":91,"name":"andrewmcquaid06","steam_id":76561198955746332,"connected_time":1263000000000,"state":"active","ping":71},{"user_id":97,"name":"Le bagutte","steam_id":76561198258504847,"connected_time":791000000000,"state":"active","ping":68},{"user_id":47,"name":"mook","steam_id":76561198175543442,"connected_time":3016000000000,"state":"active","ping":71},{"user_id":98,"name":"2fort's silliest soldier","steam_id":76561198128613675,"connected_time":761000000000,"state":"active","ping":77},{"user_id":99,"name":"inebriation of the senses","steam_id":76561198977420882,"connected_time":708000000000,"state":"active","ping":40},{"user_id":111,"name":"Meki","steam_id":76561198108279631,"connected_time":491000000000,"state":"active","ping":98},{"user_id":100,"name":"PASTAMANIA!","steam_id":76561197967858558,"connected_time":694000000000,"state":"active","ping":47},{"user_id":53,"name":"BoBunny McGlitter","steam_id":76561198057403817,"connected_time":2923000000000,"state":"active","ping":60},{"user_id":93,"name":"curious femboy","steam_id":76561199199388221,"connected_time":972000000000,"state":"active","ping":58},{"user_id":56,"name":"OutOfDucks","steam_id":76561198166376227,"connected_time":2908000000000,"state":"active","ping":58},{"user_id":114,"name":"Mitrev","steam_id":76561198157124880,"connected_time":341000000000,"state":"active","ping":72},{"user_id":102,"name":"JonnyBain","steam_id":76561198090080911,"connected_time":647000000000,"state":"active","ping":61},{"user_id":89,"name":"jge","steam_id":76561198123186387,"connected_time":1604000000000,"state":"active","ping":69},{"user_id":109,"name":"Fish 'n' Chips","steam_id":76561198033476886,"connected_time":526000000000,"state":"active","ping":50},{"user_id":62,"name":"Mike","steam_id":76561198228455736,"connected_time":2870000000000,"state":"active","ping":79},{"user_id":105,"name":"▼ SomeZebra","steam_id":76561197990517218,"connected_time":610000000000,"state":"active","ping":97},{"user_id":69,"name":"Erin in Soup","steam_id":76561198416493306,"connected_time":2792000000000,"state":"active","ping":53},{"user_id":115,"name":"Remyie","steam_id":76561198131031404,"connected_time":278000000000,"state":"active","ping":96},{"user_id":113,"name":"Providence","steam_id":76561198003920270,"connected_time":398000000000,"state":"active","ping":73}]},{"server_id":22,"name":"Uncletopia | London | 6 | All Maps","name_short":"lon-6","host":"lon-1.uk.uncletopia.com","port":27065,"enabled":true,"region":"eu","cc":"gb","latitude":51.509865,"longitude":-0.118092,"reserved":0,"last_update":"0001-01-01T00:00:00Z","name_a2s":"Uncletopia | London | 6 | All Maps","protocol":17,"map":"pl_upward","folder":"tf","game":"Team Fortress","app_id":440,"player_count":6,"max_players":24,"Bots":0,"server_type":"Dedicated","server_os":"Linux","password":true,"vac":true,"version":"7882260","steam_id":85568392924742830,"keywords":["nocrits","nodmgspread","payload","uncletopia"],"game_id":440,"stv_port":27066,"stv_name":"Uncletopia | London | 6 | All Maps | STV","players":[{"user_id":18,"name":"i can run tf2!","steam_id":76561198219193327,"connected_time":1685000000000,"state":"active","ping":80},{"user_id":19,"name":"Penis Gaming","steam_id":76561199198623988,"connected_time":1542000000000,"state":"active","ping":59},{"user_id":26,"name":"I'mCager","steam_id":76561198099761221,"connected_time":482000000000,"state":"active","ping":60},{"user_id":27,"name":"TheFluffyCrano","steam_id":76561198058832960,"connected_time":477000000000,"state":"active","ping":44},{"user_id":23,"name":"Tengen","steam_id":76561199356990346,"connected_time":1423000000000,"state":"active","ping":103},{"user_id":28,"name":"mare named luna","steam_id":76561199158272077,"connected_time":371000000000,"state":"active","ping":48}]},{"server_id":40,"name":"Uncletopia | London | 7 | No Payload","name_short":"lon-7","host":"lon-1.uk.uncletopia.com","port":27075,"enabled":true,"region":"eu","cc":"gb","latitude":51.509865,"longitude":-0.118092,"reserved":0,"last_update":"0001-01-01T00:00:00Z","name_a2s":"Uncletopia | London | 7 | No Payload","protocol":17,"map":"plr_hightower","folder":"tf","game":"Team Fortress","app_id":440,"player_count":0,"max_players":24,"Bots":0,"server_type":"Dedicated","server_os":"Linux","password":true,"vac":true,"version":"7882260","steam_id":85568392924964314,"keywords":["nocrits","nodmgspread","payload","uncletopia"],"game_id":440,"stv_port":27076,"stv_name":"Uncletopia | London | 7 | No Payload | STV","players":null},{"server_id":41,"name":"Uncletopia | London | 8 | Community","name_short":"lon-8","host":"lon-1.uk.uncletopia.com","port":27085,"enabled":true,"region":"eu","cc":"gb","latitude":51.509865,"longitude":-0.118092,"reserved":0,"last_update":"0001-01-01T00:00:00Z","name_a2s":"Uncletopia | London | 8 | Community","protocol":17,"map":"workshop/cp_indulge.ugc528106646","folder":"tf","game":"Team Fortress","app_id":440,"player_count":2,"max_players":24,"Bots":0,"server_type":"Dedicated","server_os":"Linux","password":true,"vac":true,"version":"7882260","steam_id":85568392924964315,"keywords":["cp","nocrits","nodmgspread","uncletopia"],"game_id":440,"stv_port":27086,"stv_name":"Uncletopia | London | 8 | Community | STV","players":[{"user_id":25,"name":"Kiz","steam_id":76561198811732820,"connected_time":1922000000000,"state":"active","ping":70},{"user_id":26,"name":"DicyPicky","steam_id":76561198078873335,"connected_time":1917000000000,"state":"active","ping":62}]},{"server_id":300,"name":"Uncletopia | Montréal | 1 | All Maps","name_short":"mtl-1","host":"mtl-1.ca.uncletopia.com","port":27015,"enabled":true,"region":"us-east","cc":"ca","latitude":45.50889,"longitude":-73.56167,"reserved":0,"last_update":"0001-01-01T00:00:00Z","name_a2s":"Uncletopia | Montréal | 1 | All Maps","protocol":17,"map":"pl_pier","folder":"tf","game":"Team Fortress","app_id":440,"player_count":0,"max_players":24,"Bots":0,"server_type":"Dedicated","server_os":"Linux","password":true,"vac":true,"version":"7882260","steam_id":85568392924500087,"keywords":["nocrits","nodmgspread","payload","uncletopia"],"game_id":440,"stv_port":27016,"stv_name":"Uncletopia | Montréal | 1 | All Maps | STV","players":null},{"server_id":301,"name":"Uncletopia | Montréal | 2 | All Maps","name_short":"mtl-2","host":"mtl-1.ca.uncletopia.com","port":27025,"enabled":true,"region":"us-east","cc":"ca","latitude":45.50889,"longitude":-73.56167,"reserved":0,"last_update":"0001-01-01T00:00:00Z","name_a2s":"Uncletopia | Montréal | 2 | All Maps","protocol":17,"map":"pl_swiftwater_final1","folder":"tf","game":"Team Fortress","app_id":440,"player_count":0,"max_players":24,"Bots":0,"server_type":"Dedicated","server_os":"Linux","password":true,"vac":true,"version":"7882260","steam_id":85568392924500088,"keywords":["nocrits","nodmgspread","payload","uncletopia"],"game_id":440,"stv_port":27026,"stv_name":"Uncletopia | Montréal | 2 | All Maps | STV","players":null},{"server_id":302,"name":"Uncletopia | Montréal | 3 | All Maps","name_short":"mtl-3","host":"mtl-1.ca.uncletopia.com","port":27035,"enabled":true,"region":"us-east","cc":"ca","latitude":45.50889,"longitude":-73.56167,"reserved":0,"last_update":"0001-01-01T00:00:00Z","name_a2s":"Uncletopia | Montréal | 3 | All Maps","protocol":17,"map":"cp_process_final","folder":"tf","game":"Team Fortress","app_id":440,"player_count":0,"max_players":24,"Bots":0,"server_type":"Dedicated","server_os":"Linux","password":true,"vac":true,"version":"7882260","steam_id":85568392924500089,"keywords":["cp","nocrits","nodmgspread","uncletopia"],"game_id":440,"stv_port":27036,"stv_name":"Uncletopia | Montréal | 3 | All Maps | STV","players":null},{"server_id":303,"name":"Uncletopia | Montréal | 4 | No Payload","name_short":"mtl-4","host":"mtl-1.ca.uncletopia.com","port":27045,"enabled":true,"region":"us-east","cc":"ca","latitude":45.50889,"longitude":-73.56167,"reserved":0,"last_update":"0001-01-01T00:00:00Z","name_a2s":"Uncletopia | Montréal | 4 | No Payload","protocol":17,"map":"koth_highpass","folder":"tf","game":"Team Fortress","app_id":440,"player_count":0,"max_players":24,"Bots":0,"server_type":"Dedicated","server_os":"Linux","password":true,"vac":true,"version":"7882260","steam_id":85568392924500090,"keywords":["cp","nocrits","nodmgspread","uncletopia"],"game_id":440,"stv_port":27046,"stv_name":"Uncletopia | Montréal | 4 | No Payload | STV","players":null},{"server_id":13,"name":"Uncletopia | New York City | 1 | All Maps","name_short":"nyc-1","host":"nyc-1.us.uncletopia.com","port":27015,"enabled":true,"region":"us-east","cc":"us","latitude":40.73061,"longitude":-73.93524,"reserved":0,"last_update":"0001-01-01T00:00:00Z","name_a2s":"Uncletopia | New York City | 1 | All Maps","protocol":17,"map":"cp_dustbowl","folder":"tf","game":"Team Fortress","app_id":440,"player_count":20,"max_players":24,"Bots":0,"server_type":"Dedicated","server_os":"Linux","password":true,"vac":true,"version":"7882260","steam_id":85568392924469993,"keywords":["cp","nocrits","nodmgspread","uncletopia"],"game_id":440,"stv_port":27016,"stv_name":"Uncletopia | New York City | 1 | All Maps | STV","players":[{"user_id":239,"name":"crankshaft","steam_id":76561197992798282,"connected_time":96000000000,"state":"active","ping":106},{"user_id":233,"name":"Lemonade Juice","steam_id":76561198402892608,"connected_time":244000000000,"state":"active","ping":100},{"user_id":229,"name":"Uncle Majic the Hip Hop Magicia","steam_id":76561198107924303,"connected_time":700000000000,"state":"active","ping":52},{"user_id":236,"name":"BasicPeaches","steam_id":76561198190890150,"connected_time":179000000000,"state":"active","ping":60},{"user_id":211,"name":"Stryder","steam_id":76561199387418697,"connected_time":2844000000000,"state":"active","ping":99},{"user_id":120,"name":"Totally not CIA","steam_id":76561198237827742,"connected_time":10613000000000,"state":"active","ping":46},{"user_id":173,"name":"YoshaBoss","steam_id":76561198449656454,"connected_time":6212000000000,"state":"active","ping":52},{"user_id":110,"name":"JD","steam_id":76561198202669250,"connected_time":11273000000000,"state":"active","ping":61},{"user_id":237,"name":"Don't Fuckle with Shuckle","steam_id":76561199020102367,"connected_time":147000000000,"state":"active","ping":91},{"user_id":238,"name":"GibbusGod","steam_id":76561199232436690,"connected_time":136000000000,"state":"active","ping":74},{"user_id":240,"name":"FrogInShorts","steam_id":76561198081903213,"connected_time":35000000000,"state":"active","ping":60},{"user_id":128,"name":"meth ape","steam_id":76561199110579692,"connected_time":9680000000000,"state":"active","ping":61},{"user_id":182,"name":"PyroEagle","steam_id":76561198296434231,"connected_time":5375000000000,"state":"active","ping":89},{"user_id":221,"name":"Good Seed","steam_id":76561198013443319,"connected_time":1776000000000,"state":"active","ping":51},{"user_id":241,"name":"Autumn Clover","steam_id":76561198012295314,"connected_time":15000000000,"state":"spawning","ping":55},{"user_id":224,"name":"greenV","steam_id":76561199261615711,"connected_time":1469000000000,"state":"active","ping":67},{"user_id":183,"name":"Bunnyboy","steam_id":76561198298416058,"connected_time":5048000000000,"state":"active","ping":68},{"user_id":189,"name":"Bother","steam_id":76561198336750909,"connected_time":4607000000000,"state":"active","ping":38},{"user_id":231,"name":"Xavi","steam_id":76561198337783795,"connected_time":561000000000,"state":"active","ping":48},{"user_id":215,"name":"Likeia #Savetf2","steam_id":76561198005214207,"connected_time":2601000000000,"state":"active","ping":60}]},{"server_id":14,"name":"Uncletopia | New York City | 2 | All Maps","name_short":"nyc-2","host":"nyc-1.us.uncletopia.com","port":27025,"enabled":true,"region":"us-east","cc":"us","latitude":40.73061,"longitude":-73.93524,"reserved":0,"last_update":"0001-01-01T00:00:00Z","name_a2s":"Uncletopia | New York City | 2 | All Maps","protocol":17,"map":"koth_lakeside_final","folder":"tf","game":"Team Fortress","app_id":440,"player_count":0,"max_players":24,"Bots":0,"server_type":"Dedicated","server_os":"Linux","password":true,"vac":true,"version":"7882260","steam_id":85568392924469994,"keywords":["cp","nocrits","nodmgspread","uncletopia"],"game_id":440,"stv_port":27026,"stv_name":"Uncletopia | New York City | 2 | All Maps | STV","players":null},{"server_id":15,"name":"Uncletopia | New York City | 3 | Stopwatch Beta","name_short":"nyc-3","host":"nyc-1.us.uncletopia.com","port":27035,"enabled":true,"region":"us-east","cc":"us","latitude":40.73061,"longitude":-73.93524,"reserved":0,"last_update":"0001-01-01T00:00:00Z","name_a2s":"Uncletopia | New York City | 3 | Stopwatch Beta","protocol":17,"map":"pl_borneo","folder":"tf","game":"Team Fortress","app_id":440,"player_count":0,"max_players":24,"Bots":0,"server_type":"Dedicated","server_os":"Linux","password":true,"vac":true,"version":"7882260","steam_id":85568392924742820,"keywords":["nocrits","nodmgspread","payload","uncletopia"],"game_id":440,"stv_port":27036,"stv_name":"Uncletopia | New York City | 3 | Stopwatch Beta | STV","players":null},{"server_id":16,"name":"Uncletopia | New York City | 4 | Community","name_short":"nyc-4","host":"nyc-1.us.uncletopia.com","port":27045,"enabled":true,"region":"us-east","cc":"us","latitude":40.73061,"longitude":-73.93524,"reserved":0,"last_update":"0001-01-01T00:00:00Z","name_a2s":"Uncletopia | New York City | 4 | Community","protocol":17,"map":"cp_altitude","folder":"tf","game":"Team Fortress","app_id":440,"player_count":0,"max_players":24,"Bots":0,"server_type":"Dedicated","server_os":"Linux","password":true,"vac":true,"version":"7882260","steam_id":85568392924742821,"keywords":["cp","nocrits","nodmgspread","uncletopia"],"game_id":440,"stv_port":27046,"stv_name":"Uncletopia | New York City | 4 | Community | STV","players":null},{"server_id":142,"name":"Uncletopia | São Paulo | 1 | All Maps","name_short":"sao-1","host":"sao-1.br.uncletopia.com","port":27015,"enabled":true,"region":"sa","cc":"br","latitude":-23.533773,"longitude":-46.62529,"reserved":0,"last_update":"0001-01-01T00:00:00Z","name_a2s":"Uncletopia | São Paulo | 1 | All Maps","protocol":17,"map":"koth_highpass","folder":"tf","game":"Team Fortress","app_id":440,"player_count":0,"max_players":24,"Bots":0,"server_type":"Dedicated","server_os":"Linux","password":true,"vac":true,"version":"7882260","steam_id":85568392924469996,"keywords":["cp","nocrits","nodmgspread","uncletopia"],"game_id":440,"stv_port":27016,"stv_name":"Uncletopia | São Paulo | 1 | All Maps | STV","players":null},{"server_id":143,"name":"Uncletopia | São Paulo | 2 | All Maps","name_short":"sao-2","host":"sao-2.br.uncletopia.com","port":27015,"enabled":true,"region":"sa","cc":"br","latitude":-23.533773,"longitude":-46.62529,"reserved":0,"last_update":"0001-01-01T00:00:00Z","name_a2s":"Uncletopia | São Paulo | 2 | All Maps","protocol":17,"map":"pl_barnblitz","folder":"tf","game":"Team Fortress","app_id":440,"player_count":7,"max_players":24,"Bots":0,"server_type":"Dedicated","server_os":"Linux","password":true,"vac":true,"version":"7882260","steam_id":85568392924485349,"keywords":["nocrits","nodmgspread","payload","uncletopia"],"game_id":440,"stv_port":27016,"stv_name":"Uncletopia | São Paulo | 2 | All Maps | STV","players":[{"user_id":72,"name":"PoLT","steam_id":76561198078111823,"connected_time":498000000000,"state":"active","ping":59},{"user_id":71,"name":"SupLemon","steam_id":76561199147537491,"connected_time":535000000000,"state":"active","ping":288},{"user_id":32,"name":"Edge prince (a F2P)","steam_id":76561199076658868,"connected_time":5283000000000,"state":"active","ping":185},{"user_id":10,"name":"Regal ancestor spirit","steam_id":76561199369619865,"connected_time":9555000000000,"state":"active","ping":48},{"user_id":73,"name":"Thibedapro","steam_id":76561199236986064,"connected_time":143000000000,"state":"active","ping":256},{"user_id":51,"name":"Family board night","steam_id":76561199440578631,"connected_time":2652000000000,"state":"active","ping":215},{"user_id":39,"name":"Heavy's sandwicheria","steam_id":76561199434489438,"connected_time":4563000000000,"state":"active","ping":78}]},{"server_id":7,"name":"Uncletopia | Seattle | 1 | All Maps","name_short":"sea-1","host":"sea-1.us.uncletopia.com","port":27015,"enabled":true,"region":"us-west","cc":"us","latitude":47.608013,"longitude":-122.33517,"reserved":0,"last_update":"0001-01-01T00:00:00Z","name_a2s":"Uncletopia | Seattle | 1 | All Maps","protocol":17,"map":"cp_process_final","folder":"tf","game":"Team Fortress","app_id":440,"player_count":17,"max_players":24,"Bots":0,"server_type":"Dedicated","server_os":"Linux","password":true,"vac":true,"version":"7882260","steam_id":85568392924469997,"keywords":["cp","nocrits","nodmgspread","uncletopia"],"game_id":440,"stv_port":27016,"stv_name":"Uncletopia | Seattle | 1 | All Maps | STV","players":[{"user_id":321,"name":"suicide in fragments","steam_id":76561198071430182,"connected_time":956000000000,"state":"active","ping":101},{"user_id":316,"name":"Corzap","steam_id":76561198086030373,"connected_time":1239000000000,"state":"active","ping":55},{"user_id":314,"name":"Bishuhp","steam_id":76561198015062850,"connected_time":1426000000000,"state":"active","ping":53},{"user_id":330,"name":"WaffleWithNoToppings","steam_id":76561199088280111,"connected_time":137000000000,"state":"active","ping":48},{"user_id":281,"name":"Lesbian Futa Mommy","steam_id":76561198130479030,"connected_time":3363000000000,"state":"active","ping":54},{"user_id":317,"name":"Definitely Not A Cat","steam_id":76561198123464621,"connected_time":1164000000000,"state":"active","ping":106},{"user_id":328,"name":"Joe Biden Butt Soothsayer","steam_id":76561198056331193,"connected_time":536000000000,"state":"active","ping":45},{"user_id":284,"name":"SilverMango","steam_id":76561198091243252,"connected_time":3119000000000,"state":"active","ping":83},{"user_id":226,"name":"lox","steam_id":76561198288531493,"connected_time":6225000000000,"state":"active","ping":53},{"user_id":318,"name":"Sunshine","steam_id":76561198885528098,"connected_time":1125000000000,"state":"active","ping":119},{"user_id":326,"name":"lol","steam_id":76561198026491738,"connected_time":649000000000,"state":"active","ping":80},{"user_id":274,"name":"EggPencil","steam_id":76561198043633284,"connected_time":3724000000000,"state":"active","ping":90},{"user_id":324,"name":"Vortiger","steam_id":76561198275813176,"connected_time":879000000000,"state":"active","ping":73},{"user_id":313,"name":"Scorpianswag","steam_id":76561198260651036,"connected_time":1467000000000,"state":"active","ping":60},{"user_id":325,"name":"clammy egg","steam_id":76561198151876384,"connected_time":874000000000,"state":"active","ping":114},{"user_id":219,"name":"CryshireWithAK","steam_id":76561198857908089,"connected_time":7290000000000,"state":"active","ping":119},{"user_id":329,"name":"Dr. Zoidburg","steam_id":76561198174593497,"connected_time":150000000000,"state":"active","ping":71}]},{"server_id":119,"name":"Uncletopia | Seattle | 2 | All Maps","name_short":"sea-2","host":"sea-1.us.uncletopia.com","port":27025,"enabled":true,"region":"us-west","cc":"us","latitude":47.608013,"longitude":-122.33517,"reserved":0,"last_update":"0001-01-01T00:00:00Z","name_a2s":"Uncletopia | Seattle | 2 | All Maps","protocol":17,"map":"pl_badwater","folder":"tf","game":"Team Fortress","app_id":440,"player_count":23,"max_players":24,"Bots":0,"server_type":"Dedicated","server_os":"Linux","password":true,"vac":true,"version":"7882260","steam_id":85568392924469998,"keywords":["nocrits","nodmgspread","payload","uncletopia"],"game_id":440,"stv_port":27026,"stv_name":"Uncletopia | Seattle | 2 | All Maps | STV","players":[{"user_id":104,"name":"Gnome Chompski","steam_id":76561198003130703,"connected_time":154000000000,"state":"active","ping":118},{"user_id":105,"name":"Dr. Karl, the AUS Science Guy","steam_id":76561198031278747,"connected_time":82000000000,"state":"active","ping":46},{"user_id":50,"name":"Strikerbolt","steam_id":76561199095622897,"connected_time":4085000000000,"state":"active","ping":76},{"user_id":99,"name":"sun","steam_id":76561198011329825,"connected_time":729000000000,"state":"active","ping":66},{"user_id":93,"name":"Rango","steam_id":76561198067275912,"connected_time":971000000000,"state":"active","ping":88},{"user_id":91,"name":"Mr. Computer","steam_id":76561198136878831,"connected_time":1113000000000,"state":"active","ping":56},{"user_id":90,"name":"hellfighter6666","steam_id":76561198057944237,"connected_time":1316000000000,"state":"active","ping":108},{"user_id":80,"name":"TheOdds","steam_id":76561198867256650,"connected_time":1630000000000,"state":"active","ping":119},{"user_id":76,"name":"dog","steam_id":76561198090737207,"connected_time":1703000000000,"state":"active","ping":43},{"user_id":71,"name":"kiv","steam_id":76561198838223023,"connected_time":1765000000000,"state":"active","ping":101},{"user_id":51,"name":"Nibotshooter","steam_id":76561199284825579,"connected_time":3168000000000,"state":"active","ping":89},{"user_id":106,"name":"garfield","steam_id":76561198114119308,"connected_time":77000000000,"state":"active","ping":105},{"user_id":55,"name":"Jolly","steam_id":76561198116357972,"connected_time":3014000000000,"state":"active","ping":69},{"user_id":107,"name":"reverie","steam_id":76561198168158637,"connected_time":57000000000,"state":"active","ping":87},{"user_id":29,"name":"BoX_hEaD101","steam_id":76561198200875467,"connected_time":4772000000000,"state":"active","ping":94},{"user_id":108,"name":"The Entire Population of Canada","steam_id":76561198090187112,"connected_time":51000000000,"state":"active","ping":108},{"user_id":31,"name":"McLovin","steam_id":76561198114934503,"connected_time":4689000000000,"state":"active","ping":54},{"user_id":102,"name":"Wolfer","steam_id":76561198098153246,"connected_time":235000000000,"state":"active","ping":117},{"user_id":57,"name":"shadow wizard money gang","steam_id":76561198418414338,"connected_time":2955000000000,"state":"active","ping":113},{"user_id":58,"name":"salad","steam_id":76561198022225618,"connected_time":2934000000000,"state":"active","ping":69},{"user_id":98,"name":"BurdBrain","steam_id":76561197962097737,"connected_time":791000000000,"state":"active","ping":88},{"user_id":97,"name":"OH YEAH, WE BALLIN'","steam_id":76561198050554712,"connected_time":876000000000,"state":"active","ping":138},{"user_id":101,"name":"Luna","steam_id":76561198082944789,"connected_time":403000000000,"state":"active","ping":82}]},{"server_id":406,"name":"Uncletopia | Seattle | 3 | Stopwatch Beta","name_short":"sea-3","host":"sea-1.us.uncletopia.com","port":27035,"enabled":true,"region":"us-west","cc":"us","latitude":47.608013,"longitude":-122.33517,"reserved":0,"last_update":"0001-01-01T00:00:00Z","name_a2s":"Uncletopia | Seattle | 3 | Stopwatch Beta","protocol":17,"map":"koth_viaduct","folder":"tf","game":"Team Fortress","app_id":440,"player_count":0,"max_players":24,"Bots":0,"server_type":"Dedicated","server_os":"Linux","password":true,"vac":true,"version":"7882260","steam_id":85568392924515217,"keywords":["cp","nocrits","nodmgspread","uncletopia"],"game_id":440,"stv_port":27036,"stv_name":"Uncletopia | Seattle | 3 | Stopwatch Beta | STV","players":null},{"server_id":17,"name":"Uncletopia | San Francisco | 1 | All Maps","name_short":"sfo-1","host":"sfo-1.us.uncletopia.com","port":27015,"enabled":true,"region":"us-west","cc":"us","latitude":37.77397,"longitude":-122.4313,"reserved":0,"last_update":"0001-01-01T00:00:00Z","name_a2s":"Uncletopia | San Francisco | 1 | All Maps","protocol":17,"map":"koth_cascade","folder":"tf","game":"Team Fortress","app_id":440,"player_count":0,"max_players":24,"Bots":0,"server_type":"Dedicated","server_os":"Linux","password":true,"vac":true,"version":"7882260","steam_id":85568392924469999,"keywords":["cp","nocrits","nodmgspread","uncletopia"],"game_id":440,"stv_port":27016,"stv_name":"Uncletopia | San Francisco | 1 | All Maps | STV","players":null},{"server_id":18,"name":"Uncletopia | San Francisco | 2 | All Maps","name_short":"sfo-2","host":"sfo-1.us.uncletopia.com","port":27025,"enabled":true,"region":"us-west","cc":"us","latitude":37.77397,"longitude":-122.4313,"reserved":0,"last_update":"0001-01-01T00:00:00Z","name_a2s":"Uncletopia | San Francisco | 2 | All Maps","protocol":17,"map":"pl_frontier_final","folder":"tf","game":"Team Fortress","app_id":440,"player_count":0,"max_players":24,"Bots":0,"server_type":"Dedicated","server_os":"Linux","password":true,"vac":true,"version":"7882260","steam_id":85568392924470000,"keywords":["nocrits","nodmgspread","payload","uncletopia"],"game_id":440,"stv_port":27026,"stv_name":"Uncletopia | San Francisco | 2 | All Maps | STV","players":null},{"server_id":19,"name":"Uncletopia | San Francisco | 3 | Stopwatch Beta","name_short":"sfo-3","host":"sfo-1.us.uncletopia.com","port":27035,"enabled":true,"region":"us-west","cc":"us","latitude":37.77397,"longitude":-122.4313,"reserved":0,"last_update":"0001-01-01T00:00:00Z","name_a2s":"Uncletopia | San Francisco | 3 | Stopwatch Beta","protocol":17,"map":"pl_snowycoast","folder":"tf","game":"Team Fortress","app_id":440,"player_count":0,"max_players":24,"Bots":0,"server_type":"Dedicated","server_os":"Linux","password":true,"vac":true,"version":"7882260","steam_id":85568392924742824,"keywords":["nocrits","nodmgspread","payload","uncletopia"],"game_id":440,"stv_port":27036,"stv_name":"Uncletopia | San Francisco | 3 | Stopwatch Beta | STV","players":null},{"server_id":20,"name":"Uncletopia | San Francisco | 4 | Community","name_short":"sfo-4","host":"sfo-1.us.uncletopia.com","port":27045,"enabled":true,"region":"us-west","cc":"us","latitude":37.77397,"longitude":-122.4313,"reserved":0,"last_update":"0001-01-01T00:00:00Z","name_a2s":"Uncletopia | San Francisco | 4 | Community","protocol":17,"map":"workshop/koth_ramjam_rc1.ugc459778887","folder":"tf","game":"Team Fortress","app_id":440,"player_count":0,"max_players":24,"Bots":0,"server_type":"Dedicated","server_os":"Linux","password":true,"vac":true,"version":"7882260","steam_id":85568392924742826,"keywords":["cp","nocrits","nodmgspread","uncletopia"],"game_id":440,"stv_port":27046,"stv_name":"Uncletopia | San Francisco | 4 | Community | STV","players":null},{"server_id":141,"name":"Uncletopia | Sydney | 1 | All Maps","name_short":"syd-1","host":"syd-1.au.uncletopia.com","port":27015,"enabled":true,"region":"au","cc":"au","latitude":-33.865143,"longitude":151.2099,"reserved":0,"last_update":"0001-01-01T00:00:00Z","name_a2s":"Uncletopia | Sydney | 1 | All Maps","protocol":17,"map":"cp_altitude","folder":"tf","game":"Team Fortress","app_id":440,"player_count":0,"max_players":24,"Bots":0,"server_type":"Dedicated","server_os":"Linux","password":true,"vac":true,"version":"7882260","steam_id":85568392924470001,"keywords":["cp","nocrits","nodmgspread","uncletopia"],"game_id":440,"stv_port":27016,"stv_name":"Uncletopia | Sydney | 1 | All Maps | STV","players":null},{"server_id":123,"name":"Uncletopia | Sydney | 2 | All Maps","name_short":"syd-2","host":"syd-1.au.uncletopia.com","port":27025,"enabled":true,"region":"au","cc":"au","latitude":-33.865143,"longitude":151.2099,"reserved":0,"last_update":"0001-01-01T00:00:00Z","name_a2s":"Uncletopia | Sydney | 2 | All Maps","protocol":17,"map":"cp_snakewater_final1","folder":"tf","game":"Team Fortress","app_id":440,"player_count":0,"max_players":24,"Bots":0,"server_type":"Dedicated","server_os":"Linux","password":true,"vac":true,"version":"7882260","steam_id":85568392924470002,"keywords":["cp","nocrits","nodmgspread","uncletopia"],"game_id":440,"stv_port":27026,"stv_name":"Uncletopia | Sydney | 2 | All Maps | STV","players":null},{"server_id":395,"name":"Uncletopia | Sydney | 3 | All Maps","name_short":"syd-3","host":"syd-1.au.uncletopia.com","port":27035,"enabled":true,"region":"au","cc":"au","latitude":-33.865143,"longitude":151.2099,"reserved":0,"last_update":"0001-01-01T00:00:00Z","name_a2s":"Uncletopia | Sydney | 3 | All Maps","protocol":17,"map":"pl_badwater","folder":"tf","game":"Team Fortress","app_id":440,"player_count":0,"max_players":24,"Bots":0,"server_type":"Dedicated","server_os":"Linux","password":true,"vac":true,"version":"7882260","steam_id":85568392925194467,"keywords":["nocrits","nodmgspread","payload","uncletopia"],"game_id":440,"stv_port":27036,"stv_name":"Uncletopia | Sydney | 3 | All Maps | STV","players":null},{"server_id":396,"name":"Uncletopia | Sydney | 4 | All Maps","name_short":"syd-4","host":"syd-1.au.uncletopia.com","port":27045,"enabled":true,"region":"au","cc":"au","latitude":-33.865143,"longitude":151.2099,"reserved":0,"last_update":"0001-01-01T00:00:00Z","name_a2s":"Uncletopia | Sydney | 4 | All Maps","protocol":17,"map":"cp_altitude","folder":"tf","game":"Team Fortress","app_id":440,"player_count":0,"max_players":24,"Bots":0,"server_type":"Dedicated","server_os":"Linux","password":true,"vac":true,"version":"7882260","steam_id":85568392925397958,"keywords":["cp","nocrits","nodmgspread","uncletopia"],"game_id":440,"stv_port":27046,"stv_name":"Uncletopia | Sydney | 4 | All Maps | STV","players":null},{"server_id":58,"name":"Uncletopia | Sydney | 5 | Stopwatch Beta","name_short":"syd-5","host":"syd-1.au.uncletopia.com","port":27055,"enabled":true,"region":"au","cc":"au","latitude":-33.865143,"longitude":151.2099,"reserved":0,"last_update":"0001-01-01T00:00:00Z","name_a2s":"Uncletopia | Sydney | 5 | Stopwatch Beta","protocol":17,"map":"koth_viaduct","folder":"tf","game":"Team Fortress","app_id":440,"player_count":0,"max_players":24,"Bots":0,"server_type":"Dedicated","server_os":"Linux","password":true,"vac":true,"version":"7882260","steam_id":85568392925397959,"keywords":["cp","nocrits","nodmgspread","uncletopia"],"game_id":440,"stv_port":27056,"stv_name":"Uncletopia | Sydney | 5 | Stopwatch Beta | STV","players":null},{"server_id":59,"name":"Uncletopia | Sydney | 6 | Community","name_short":"syd-6","host":"syd-1.au.uncletopia.com","port":27065,"enabled":true,"region":"au","cc":"au","latitude":-33.865143,"longitude":151.2099,"reserved":0,"last_update":"0001-01-01T00:00:00Z","name_a2s":"Uncletopia | Sydney | 6 | Community","protocol":17,"map":"pl_upward","folder":"tf","game":"Team Fortress","app_id":440,"player_count":0,"max_players":24,"Bots":0,"server_type":"Dedicated","server_os":"Linux","password":true,"vac":true,"version":"7882260","steam_id":85568392925397960,"keywords":["nocrits","nodmgspread","payload","uncletopia"],"game_id":440,"stv_port":27066,"stv_name":"Uncletopia | Sydney | 6 | Community | STV","players":null},{"server_id":49,"name":"Uncletopia | Warsaw | 1 | All Maps","name_short":"waw-1","host":"waw-1.pl.uncletopia.com","port":27015,"enabled":true,"region":"eu","cc":"pl","latitude":52.2297,"longitude":21.017532,"reserved":0,"last_update":"0001-01-01T00:00:00Z","name_a2s":"","protocol":0,"map":"","folder":"","game":"","app_id":0,"player_count":0,"max_players":0,"Bots":0,"server_type":"","server_os":"","password":false,"vac":false,"version":"","steam_id":0,"keywords":null,"game_id":0,"stv_port":0,"stv_name":"","players":null},{"server_id":50,"name":"Uncletopia | Warsaw | 2 | All Maps","name_short":"waw-2","host":"waw-1.pl.uncletopia.com","port":27025,"enabled":true,"region":"eu","cc":"pl","latitude":52.2297,"longitude":21.017532,"reserved":0,"last_update":"0001-01-01T00:00:00Z","name_a2s":"Uncletopia | Warsaw | 2 | All Maps","protocol":17,"map":"pl_barnblitz","folder":"tf","game":"Team Fortress","app_id":440,"player_count":0,"max_players":24,"Bots":0,"server_type":"Dedicated","server_os":"Linux","password":true,"vac":true,"version":"7882260","steam_id":85568392925397851,"keywords":["nocrits","nodmgspread","payload","uncletopia"],"game_id":440,"stv_port":27026,"stv_name":"Uncletopia | Warsaw | 2 | All Maps | STV","players":null},{"server_id":51,"name":"Uncletopia | Warsaw | 3 | All Maps","name_short":"waw-3","host":"waw-1.pl.uncletopia.com","port":27035,"enabled":true,"region":"eu","cc":"pl","latitude":52.2297,"longitude":21.017532,"reserved":0,"last_update":"0001-01-01T00:00:00Z","name_a2s":"Uncletopia | Warsaw | 3 | All Maps","protocol":17,"map":"pl_badwater","folder":"tf","game":"Team Fortress","app_id":440,"player_count":24,"max_players":24,"Bots":0,"server_type":"Dedicated","server_os":"Linux","password":true,"vac":true,"version":"7882260","steam_id":85568392925397852,"keywords":["nocrits","nodmgspread","payload","uncletopia"],"game_id":440,"stv_port":27036,"stv_name":"Uncletopia | Warsaw | 3 | All Maps | STV","players":[{"user_id":244,"name":"The Engineer TF2","steam_id":76561198065506317,"connected_time":208000000000,"state":"active","ping":65},{"user_id":233,"name":"Arecibo","steam_id":76561198014359615,"connected_time":759000000000,"state":"active","ping":77},{"user_id":243,"name":"Mailman Mat","steam_id":76561198341801948,"connected_time":213000000000,"state":"active","ping":57},{"user_id":219,"name":"BlinkedUp","steam_id":76561198249985618,"connected_time":1560000000000,"state":"active","ping":37},{"user_id":203,"name":"Gilbert","steam_id":76561198127732887,"connected_time":2205000000000,"state":"active","ping":82},{"user_id":245,"name":"Dark Wizart","steam_id":76561198377689439,"connected_time":196000000000,"state":"active","ping":59},{"user_id":246,"name":"Noob_with_source","steam_id":76561198870362103,"connected_time":156000000000,"state":"active","ping":66},{"user_id":234,"name":"hardway","steam_id":76561198272529254,"connected_time":696000000000,"state":"active","ping":75},{"user_id":238,"name":"Adamgroźny","steam_id":76561198175443903,"connected_time":440000000000,"state":"active","ping":85},{"user_id":237,"name":"nesag","steam_id":76561198041483314,"connected_time":573000000000,"state":"active","ping":72},{"user_id":247,"name":"wicked","steam_id":76561198164376035,"connected_time":154000000000,"state":"active","ping":89},{"user_id":248,"name":"VARVAR","steam_id":76561197991154205,"connected_time":143000000000,"state":"active","ping":68},{"user_id":249,"name":"tshirt","steam_id":76561198040757844,"connected_time":136000000000,"state":"active","ping":99},{"user_id":250,"name":"zircon226","steam_id":76561198332529555,"connected_time":117000000000,"state":"active","ping":82},{"user_id":204,"name":"Holo","steam_id":76561198348567663,"connected_time":2195000000000,"state":"active","ping":55},{"user_id":227,"name":"Mr. Mundy","steam_id":76561198132008918,"connected_time":1328000000000,"state":"active","ping":90},{"user_id":228,"name":"Joe12000","steam_id":76561198160817969,"connected_time":1320000000000,"state":"active","ping":76},{"user_id":208,"name":"rets","steam_id":76561198061551392,"connected_time":2110000000000,"state":"active","ping":68},{"user_id":241,"name":"PORNO WARRIOR","steam_id":76561198113863344,"connected_time":331000000000,"state":"active","ping":99},{"user_id":251,"name":"vurtun","steam_id":76561198857395274,"connected_time":101000000000,"state":"active","ping":70},{"user_id":98,"name":"eva.","steam_id":76561198054474684,"connected_time":9378000000000,"state":"active","ping":75},{"user_id":252,"name":"76531198198177417","steam_id":76561198086304421,"connected_time":73000000000,"state":"active","ping":85},{"user_id":213,"name":"LOBZIK","steam_id":76561198114830120,"connected_time":2042000000000,"state":"active","ping":46},{"user_id":230,"name":"Timpanojnoj","steam_id":76561197970334448,"connected_time":1268000000000,"state":"active","ping":76}]},{"server_id":52,"name":"Uncletopia | Warsaw | 4 | All Maps","name_short":"waw-4","host":"waw-1.pl.uncletopia.com","port":27045,"enabled":true,"region":"eu","cc":"pl","latitude":52.2297,"longitude":21.017532,"reserved":0,"last_update":"0001-01-01T00:00:00Z","name_a2s":"Uncletopia | Warsaw | 4 | All Maps","protocol":17,"map":"koth_cascade","folder":"tf","game":"Team Fortress","app_id":440,"player_count":0,"max_players":24,"Bots":0,"server_type":"Dedicated","server_os":"Linux","password":true,"vac":true,"version":"7882260","steam_id":85568392925397853,"keywords":["cp","nocrits","nodmgspread","uncletopia"],"game_id":440,"stv_port":27046,"stv_name":"Uncletopia | Warsaw | 4 | All Maps | STV","players":null},{"server_id":53,"name":"Uncletopia | Warsaw | 5 | Stopwatch Beta","name_short":"waw-5","host":"waw-1.pl.uncletopia.com","port":27055,"enabled":true,"region":"eu","cc":"pl","latitude":52.2297,"longitude":21.017532,"reserved":0,"last_update":"0001-01-01T00:00:00Z","name_a2s":"Uncletopia | Warsaw | 5 | Stopwatch Beta","protocol":17,"map":"koth_highpass","folder":"tf","game":"Team Fortress","app_id":440,"player_count":0,"max_players":24,"Bots":0,"server_type":"Dedicated","server_os":"Linux","password":true,"vac":true,"version":"7882260","steam_id":85568392925397854,"keywords":["cp","nocrits","nodmgspread","uncletopia"],"game_id":440,"stv_port":27056,"stv_name":"Uncletopia | Warsaw | 5 | Stopwatch Beta | STV","players":null},{"server_id":54,"name":"Uncletopia | Warsaw | 6 | Community","name_short":"waw-6","host":"waw-1.pl.uncletopia.com","port":27065,"enabled":true,"region":"eu","cc":"pl","latitude":52.2297,"longitude":21.017532,"reserved":0,"last_update":"0001-01-01T00:00:00Z","name_a2s":"Uncletopia | Warsaw | 6 | Community","protocol":17,"map":"cp_dustbowl","folder":"tf","game":"Team Fortress","app_id":440,"player_count":0,"max_players":24,"Bots":0,"server_type":"Dedicated","server_os":"Linux","password":true,"vac":true,"version":"7882260","steam_id":85568392925397856,"keywords":["cp","nocrits","nodmgspread","uncletopia"],"game_id":440,"stv_port":27066,"stv_name":"Uncletopia | Warsaw | 6 | Community | STV","players":null}]}