{"status":true,"message":"","result":[{"server_id":9,"name":"Uncletopia | Atlanta | 1 | All Maps","name_short":"atl-1","host":"atl-1.us.uncletopia.com","port":27015,"enabled":true,"region":"us-east","cc":"us","latitude":33.753746,"longitude":-84.38633,"reserved":0,"last_update":"0001-01-01T00:00:00Z","name_a2s":"Uncletopia | Atlanta | 1 | All Maps","protocol":17,"map":"cp_mercenarypark","folder":"tf","game":"Team Fortress","app_id":440,"player_count":24,"max_players":24,"Bots":0,"server_type":"Dedicated","server_os":"Linux","password":true,"vac":true,"version":"7961495","steam_id":85568392924469982,"keywords":["cp","nocrits","nodmgspread","uncletopia"],"game_id":440,"stv_port":27016,"stv_name":"Uncletopia | Atlanta | 1 | All Maps | STV","players":[{"user_id":39,"name":"fandomAlgamation","steam_id":76561198151466860,"connected_time":1111000000000,"state":"active","ping":65},{"user_id":6,"name":"Obelisk","steam_id":76561198049416866,"connected_time":2630000000000,"state":"active","ping":52},{"user_id":10,"name":"BatMatt","steam_id":76561198045910433,"connected_time":2322000000000,"state":"active","ping":65},{"user_id":9,"name":"MARIOPARTYDSFAN","steam_id":76561198872122117,"connected_time":2355000000000,"state":"active","ping":77},{"user_id":34,"name":"real gs public enemies","steam_id":76561198111259720,"connected_time":1412000000000,"state":"active","ping":84},{"user_id":12,"name":"That Girl With A K","steam_id":76561198317602350,"connected_time":2309000000000,"state":"active","ping":92},{"user_id":40,"name":"Redux","steam_id":76561199447074695,"connected_time":1106000000000,"state":"active","ping":53},{"user_id":14,"name":"WaywardFinn","steam_id":76561198040391296,"connected_time":2192000000000,"state":"active","ping":72},{"user_id":45,"name":"Peter griffin","steam_id":76561198277602752,"connected_time":504000000000,"state":"active","ping":155},{"user_id":16,"name":"Hans","steam_id":76561199153433318,"connected_time":2044000000000,"state":"active","ping":60},{"user_id":17,"name":"Mr. Trolle Gaming","steam_id":76561199162533951,"connected_time":2037000000000,"state":"active","ping":54},{"user_id":18,"name":"Electroid","steam_id":76561199092263960,"connected_time":2019000000000,"state":"active","ping":41},{"user_id":41,"name":"Sprrw","steam_id":76561198060380419,"connected_time":953000000000,"state":"active","ping":56},{"user_id":44,"name":"Gimme your Teeth","steam_id":76561198240523882,"connected_time":583000000000,"state":"active","ping":101},{"user_id":21,"name":"gretchling","steam_id":76561198046111695,"connected_time":1917000000000,"state":"active","ping":58},{"user_id":33,"name":"oh yes","steam_id":76561199403427527,"connected_time":1489000000000,"state":"active","ping":71},{"user_id":47,"name":"rat","steam_id":76561198272622003,"connected_time":21000000000,"state":"active","ping":61},{"user_id":25,"name":"iHarvest","steam_id":76561198821639766,"connected_time":1748000000000,"state":"active","ping":60},{"user_id":42,"name":"vv","steam_id":76561198134813102,"connected_time":756000000000,"state":"active","ping":85},{"user_id":32,"name":"Ditto","steam_id":76561198259871363,"connected_time":1554000000000,"state":"active","ping":116},{"user_id":28,"name":"·óúÀ¨·óú","steam_id":76561198831996918,"connected_time":1654000000000,"state":"active","ping":90},{"user_id":29,"name":"monsterkill4567","steam_id":76561198272986367,"connected_time":1635000000000,"state":"active","ping":92},{"user_id":30,"name":"Ramen","steam_id":76561198152762458,"connected_time":1620000000000,"state":"active","ping":95},{"user_id":31,"name":"Maestro","steam_id":76561198157325020,"connected_time":1591000000000,"state":"active","ping":62}]},{"server_id":104,"name":"Uncletopia | Atlanta | 2 | All Maps","name_short":"atl-2","host":"atl-1.us.uncletopia.com","port":27025,"enabled":true,"region":"us-east","cc":"us","latitude":33.753746,"longitude":-84.38633,"reserved":0,"last_update":"0001-01-01T00:00:00Z","name_a2s":"Uncletopia | Atlanta | 2 | All Maps","protocol":17,"map":"koth_lakeside_final","folder":"tf","game":"Team Fortress","app_id":440,"player_count":0,"max_players":24,"Bots":0,"server_type":"Dedicated","server_os":"Linux","password":true,"vac":true,"version":"7961495","steam_id":85568392924469983,"keywords":["cp","nocrits","nodmgspread","uncletopia"],"game_id":440,"stv_port":27026,"stv_name":"Uncletopia | Atlanta | 2 | All Maps | STV","players":null},{"server_id":400,"name":"Uncletopia | Atlanta | 3 | Stopwatch","name_short":"atl-3","host":"atl-1.us.uncletopia.com","port":27035,"enabled":true,"region":"us-east","cc":"us","latitude":33.753746,"longitude":-84.38633,"reserved":0,"last_update":"0001-01-01T00:00:00Z","name_a2s":"Uncletopia | Atlanta | 3 | Stopwatch","protocol":17,"map":"workshop/koth_ashville_final.ugc2130459942","folder":"tf","game":"Team Fortress","app_id":440,"player_count":0,"max_players":24,"Bots":0,"server_type":"Dedicated","server_os":"Linux","password":true,"vac":true,"version":"7961495","steam_id":85568392924515187,"keywords":["cp","nocrits","nodmgspread","uncletopia"],"game_id":440,"stv_port":27036,"stv_name":"Uncletopia | Atlanta | 3 | Stopwatch | STV","players":null},{"server_id":401,"name":"Uncletopia | Atlanta | 4 | Community","name_short":"atl-4","host":"atl-1.us.uncletopia.com","port":27045,"enabled":true,"region":"us-east","cc":"us","latitude":33.753746,"longitude":-84.38633,"reserved":0,"last_update":"0001-01-01T00:00:00Z","name_a2s":"Uncletopia | Atlanta | 4 | Community","protocol":17,"map":"workshop/pl_badwater_pro_v12.ugc2142942074","folder":"tf","game":"Team Fortress","app_id":440,"player_count":0,"max_players":24,"Bots":0,"server_type":"Dedicated","server_os":"Linux","password":true,"vac":true,"version":"7961495","steam_id":85568392924515188,"keywords":["nocrits","nodmgspread","payload","uncletopia"],"game_id":440,"stv_port":27046,"stv_name":"Uncletopia | Atlanta | 4 | Community | STV","players":null},{"server_id":2,"name":"Uncletopia | Chicago | 1 | All Maps","name_short":"chi-1","host":"chi-1.us.uncletopia.com","port":27015,"enabled":true,"region":"us-central","cc":"us","latitude":41.881832,"longitude":-87.62318,"reserved":0,"last_update":"0001-01-01T00:00:00Z","name_a2s":"Uncletopia | Chicago | 1 | All Maps","protocol":17,"map":"pl_barnblitz","folder":"tf","game":"Team Fortress","app_id":440,"player_count":24,"max_players":24,"Bots":0,"server_type":"Dedicated","server_os":"Linux","password":true,"vac":true,"version":"7961495","steam_id":85568392924469984,"keywords":["nocrits","nodmgspread","payload","uncletopia"],"game_id":440,"stv_port":27016,"stv_name":"Uncletopia | Chicago | 1 | All Maps | STV","players":[{"user_id":268,"name":"metalfan666","steam_id":76561198386344068,"connected_time":2995000000000,"state":"active","ping":81},{"user_id":273,"name":"VX Ghost","steam_id":76561198072541436,"connected_time":2667000000000,"state":"active","ping":45},{"user_id":271,"name":"Alpha","steam_id":76561199482290132,"connected_time":2925000000000,"state":"active","ping":69},{"user_id":283,"name":"GuyGoom","steam_id":76561198254522178,"connected_time":1372000000000,"state":"active","ping":54},{"user_id":290,"name":"skullface","steam_id":76561198353704776,"connected_time":458000000000,"state":"active","ping":63},{"user_id":281,"name":"AckWhack","steam_id":76561199060503258,"connected_time":1571000000000,"state":"active","ping":91},{"user_id":261,"name":"SandHanitizer","steam_id":76561198234676500,"connected_time":3157000000000,"state":"active","ping":60},{"user_id":257,"name":"goallpeashooters222","steam_id":76561199443722096,"connected_time":3359000000000,"state":"active","ping":39},{"user_id":272,"name":"Siz","steam_id":76561198072962154,"connected_time":2695000000000,"state":"active","ping":63},{"user_id":286,"name":"rat eater","steam_id":76561199216874750,"connected_time":817000000000,"state":"active","ping":44},{"user_id":262,"name":"HORROR","steam_id":76561198018622305,"connected_time":3112000000000,"state":"active","ping":59},{"user_id":242,"name":"Lennu","steam_id":76561198060730154,"connected_time":4286000000000,"state":"active","ping":73},{"user_id":288,"name":"Kronk","steam_id":76561198063092125,"connected_time":472000000000,"state":"active","ping":75},{"user_id":249,"name":"Xavibite","steam_id":76561198209380493,"connected_time":4094000000000,"state":"active","ping":60},{"user_id":245,"name":"The Nikocado Enjoyer","steam_id":76561198263154374,"connected_time":4229000000000,"state":"active","ping":66},{"user_id":270,"name":"denzell05","steam_id":76561198086987061,"connected_time":2958000000000,"state":"active","ping":97},{"user_id":289,"name":"Rornir","steam_id":76561198081829615,"connected_time":469000000000,"state":"active","ping":39},{"user_id":233,"name":"ting ting johnson","steam_id":76561198063099828,"connected_time":5239000000000,"state":"active","ping":51},{"user_id":277,"name":"psychiclion","steam_id":76561198201974900,"connected_time":1845000000000,"state":"active","ping":61},{"user_id":285,"name":"BlitzStrike","steam_id":76561199143825445,"connected_time":1296000000000,"state":"active","ping":67},{"user_id":275,"name":"Stacks63bs","steam_id":76561198067797130,"connected_time":1891000000000,"state":"active","ping":74},{"user_id":279,"name":"MrDragadon","steam_id":76561199058815749,"connected_time":1824000000000,"state":"active","ping":98},{"user_id":287,"name":"Password is Taco","steam_id":76561198026092945,"connected_time":475000000000,"state":"active","ping":81},{"user_id":267,"name":"kite","steam_id":76561198346516392,"connected_time":3007000000000,"state":"active","ping":73}]},{"server_id":106,"name":"Uncletopia | Chicago | 2 | All Maps","name_short":"chi-2","host":"chi-1.us.uncletopia.com","port":27025,"enabled":true,"region":"us-central","cc":"us","latitude":41.881832,"longitude":-87.62318,"reserved":0,"last_update":"0001-01-01T00:00:00Z","name_a2s":"Uncletopia | Chicago | 2 | All Maps","protocol":17,"map":"cp_gorge","folder":"tf","game":"Team Fortress","app_id":440,"player_count":0,"max_players":24,"Bots":0,"server_type":"Dedicated","server_os":"Linux","password":true,"vac":true,"version":"7961495","steam_id":85568392924469985,"keywords":["cp","nocrits","nodmgspread","uncletopia"],"game_id":440,"stv_port":27026,"stv_name":"Uncletopia | Chicago | 2 | All Maps | STV","players":null},{"server_id":402,"name":"Uncletopia | Chicago | 3 | All Maps","name_short":"chi-3","host":"chi-1.us.uncletopia.com","port":27035,"enabled":true,"region":"us-central","cc":"us","latitude":41.881832,"longitude":-87.62318,"reserved":0,"last_update":"0001-01-01T00:00:00Z","name_a2s":"Uncletopia | Chicago | 3 | All Maps","protocol":17,"map":"koth_viaduct","folder":"tf","game":"Team Fortress","app_id":440,"player_count":0,"max_players":24,"Bots":0,"server_type":"Dedicated","server_os":"Linux","password":true,"vac":true,"version":"7961495","steam_id":85568392924515191,"keywords":["cp","nocrits","nodmgspread","uncletopia"],"game_id":440,"stv_port":27036,"stv_name":"Uncletopia | Chicago | 3 | All Maps | STV","players":null},{"server_id":403,"name":"Uncletopia | Chicago | 4 | All Maps","name_short":"chi-4","host":"chi-1.us.uncletopia.com","port":27045,"enabled":true,"region":"us-central","cc":"us","latitude":41.881832,"longitude":-87.62318,"reserved":0,"last_update":"0001-01-01T00:00:00Z","name_a2s":"Uncletopia | Chicago | 4 | All Maps","protocol":17,"map":"pl_snowycoast","folder":"tf","game":"Team Fortress","app_id":440,"player_count":24,"max_players":24,"Bots":0,"server_type":"Dedicated","server_os":"Linux","password":true,"vac":true,"version":"7961495","steam_id":85568392924515193,"keywords":["nocrits","nodmgspread","payload","uncletopia"],"game_id":440,"stv_port":27046,"stv_name":"Uncletopia | Chicago | 4 | All Maps | STV","players":[{"user_id":108,"name":"ya ya breathe","steam_id":76561198075858067,"connected_time":4771000000000,"state":"active","ping":61},{"user_id":157,"name":"BumpofNight","steam_id":76561198011581312,"connected_time":294000000000,"state":"active","ping":75},{"user_id":129,"name":"Tomm","steam_id":76561198798158647,"connected_time":2402000000000,"state":"active","ping":95},{"user_id":146,"name":"Scribble","steam_id":76561198046115675,"connected_time":1386000000000,"state":"active","ping":60},{"user_id":151,"name":"johnsmeader","steam_id":76561199466538693,"connected_time":830000000000,"state":"active","ping":69},{"user_id":159,"name":"Waesel","steam_id":76561198069188177,"connected_time":286000000000,"state":"active","ping":72},{"user_id":160,"name":"Mister Panic","steam_id":76561198373404338,"connected_time":255000000000,"state":"active","ping":100},{"user_id":162,"name":"n√Æsh√©‚Ñ¢ #saveTF2","steam_id":76561198046869760,"connected_time":179000000000,"state":"active","ping":45},{"user_id":154,"name":"HUMBY","steam_id":76561198065045867,"connected_time":433000000000,"state":"active","ping":82},{"user_id":153,"name":"Zeek","steam_id":76561197987204351,"connected_time":468000000000,"state":"active","ping":60},{"user_id":144,"name":"Jamie (controller)","steam_id":76561198058840477,"connected_time":1441000000000,"state":"active","ping":96},{"user_id":112,"name":"Grimprr","steam_id":76561198275816797,"connected_time":3897000000000,"state":"active","ping":60},{"user_id":155,"name":"Chimpish","steam_id":76561199263493270,"connected_time":302000000000,"state":"active","ping":81},{"user_id":163,"name":"Lyfull (Rip Rick May)","steam_id":76561198273398361,"connected_time":177000000000,"state":"active","ping":60},{"user_id":124,"name":"BurgerPizza","steam_id":76561198151256410,"connected_time":3216000000000,"state":"active","ping":135},{"user_id":87,"name":"Dog Hands Phone","steam_id":76561198090419068,"connected_time":6187000000000,"state":"active","ping":117},{"user_id":137,"name":"kicks","steam_id":76561199228854923,"connected_time":1982000000000,"state":"active","ping":47},{"user_id":156,"name":"pea ttv/peabeanz","steam_id":76561198119551968,"connected_time":300000000000,"state":"active","ping":65},{"user_id":145,"name":"Artgrendadier","steam_id":76561198063305359,"connected_time":1434000000000,"state":"active","ping":60},{"user_id":120,"name":"Squope","steam_id":76561198983129293,"connected_time":3502000000000,"state":"active","ping":79},{"user_id":127,"name":"redwarden","steam_id":76561198052483205,"connected_time":2616000000000,"state":"active","ping":60},{"user_id":126,"name":"tlar","steam_id":76561198060117460,"connected_time":3014000000000,"state":"active","ping":45},{"user_id":164,"name":"godofmeth","steam_id":76561199049857290,"connected_time":176000000000,"state":"active","ping":124},{"user_id":139,"name":"Ranger","steam_id":76561198064096654,"connected_time":1909000000000,"state":"active","ping":45}]},{"server_id":36,"name":"Uncletopia | Chicago | 5 | All Maps","name_short":"chi-5","host":"chi-2.us.uncletopia.com","port":27015,"enabled":true,"region":"us-central","cc":"us","latitude":41.881832,"longitude":-87.62318,"reserved":0,"last_update":"0001-01-01T00:00:00Z","name_a2s":"Uncletopia | Chicago | 5 | All Maps","protocol":17,"map":"pl_borneo","folder":"tf","game":"Team Fortress","app_id":440,"player_count":0,"max_players":24,"Bots":0,"server_type":"Dedicated","server_os":"Linux","password":true,"vac":true,"version":"7961495","steam_id":85568392924866362,"keywords":["nocrits","nodmgspread","payload","uncletopia"],"game_id":440,"stv_port":27016,"stv_name":"Uncletopia | Chicago | 5 | All Maps | STV","players":null},{"server_id":37,"name":"Uncletopia | Chicago | 6 | All Maps","name_short":"chi-6","host":"chi-2.us.uncletopia.com","port":27025,"enabled":true,"region":"us-central","cc":"us","latitude":41.881832,"longitude":-87.62318,"reserved":0,"last_update":"0001-01-01T00:00:00Z","name_a2s":"Uncletopia | Chicago | 6 | All Maps","protocol":17,"map":"ctf_turbine","folder":"tf","game":"Team Fortress","app_id":440,"player_count":0,"max_players":24,"Bots":0,"server_type":"Dedicated","server_os":"Linux","password":true,"vac":true,"version":"7961495","steam_id":85568392924866363,"keywords":["ctf","nocrits","nodmgspread","uncletopia"],"game_id":440,"stv_port":27026,"stv_name":"Uncletopia | Chicago | 6 | All Maps | STV","players":null},{"server_id":38,"name":"Uncletopia | Chicago | 7 | Stopwatch","name_short":"chi-7","host":"chi-2.us.uncletopia.com","port":27035,"enabled":true,"region":"us-central","cc":"us","latitude":41.881832,"longitude":-87.62318,"reserved":0,"last_update":"0001-01-01T00:00:00Z","name_a2s":"Uncletopia | Chicago | 7 | Stopwatch","protocol":17,"map":"workshop/koth_clearcut_b15.ugc2107050255","folder":"tf","game":"Team Fortress","app_id":440,"player_count":0,"max_players":24,"Bots":0,"server_type":"Dedicated","server_os":"Linux","password":true,"vac":true,"version":"7961495","steam_id":85568392924866364,"keywords":["cp","nocrits","nodmgspread","uncletopia"],"game_id":440,"stv_port":27036,"stv_name":"Uncletopia | Chicago | 7 | Stopwatch | STV","players":null},{"server_id":39,"name":"Uncletopia | Chicago | 8 | Community","name_short":"chi-8","host":"chi-2.us.uncletopia.com","port":27045,"enabled":true,"region":"us-central","cc":"us","latitude":41.881832,"longitude":-87.62318,"reserved":0,"last_update":"0001-01-01T00:00:00Z","name_a2s":"Uncletopia | Chicago | 8 | Community","protocol":17,"map":"workshop/koth_slaughter_rc1.ugc1712845210","folder":"tf","game":"Team Fortress","app_id":440,"player_count":0,"max_players":24,"Bots":0,"server_type":"Dedicated","server_os":"Linux","password":true,"vac":true,"version":"7961495","steam_id":85568392924866365,"keywords":["cp","nocrits","nodmgspread","uncletopia"],"game_id":440,"stv_port":27046,"stv_name":"Uncletopia | Chicago | 8 | Community | STV","players":null},{"server_id":8,"name":"Uncletopia | Dallas | 1 | All Maps","name_short":"dal-1","host":"dal-1.us.uncletopia.com","port":27015,"enabled":true,"region":"us-central","cc":"us","latitude":32.779167,"longitude":-96.80889,"reserved":0,"last_update":"0001-01-01T00:00:00Z","name_a2s":"Uncletopia | Dallas | 1 | All Maps","protocol":17,"map":"pl_thundermountain","folder":"tf","game":"Team Fortress","app_id":440,"player_count":24,"max_players":24,"Bots":0,"server_type":"Dedicated","server_os":"Linux","password":true,"vac":true,"version":"7961495","steam_id":85568392924469986,"keywords":["nocrits","nodmgspread","payload","uncletopia"],"game_id":440,"stv_port":27016,"stv_name":"Uncletopia | Dallas | 1 | All Maps | STV","players":[{"user_id":192,"name":"Hot Milk + Big Slappies","steam_id":76561197988989149,"connected_time":23000000000,"state":"active","ping":80},{"user_id":138,"name":"Boring","steam_id":76561198827219701,"connected_time":5044000000000,"state":"active","ping":189},{"user_id":158,"name":"Topaz Tom","steam_id":76561199214479904,"connected_time":2727000000000,"state":"active","ping":90},{"user_id":186,"name":"popfulmail","steam_id":76561198865971290,"connected_time":502000000000,"state":"active","ping":88},{"user_id":189,"name":"motherfucker 2.0","steam_id":76561198141189209,"connected_time":276000000000,"state":"active","ping":55},{"user_id":184,"name":"keffers","steam_id":76561198202338796,"connected_time":1087000000000,"state":"active","ping":79},{"user_id":180,"name":"TrashPanda (she/her)","steam_id":76561198447864095,"connected_time":1282000000000,"state":"active","ping":53},{"user_id":190,"name":"ZodiacThundaga","steam_id":76561199025117814,"connected_time":136000000000,"state":"active","ping":100},{"user_id":181,"name":"Scrux","steam_id":76561198129763115,"connected_time":1236000000000,"state":"active","ping":73},{"user_id":145,"name":"Wengatang","steam_id":76561198021747059,"connected_time":3801000000000,"state":"active","ping":72},{"user_id":111,"name":"Megatron G","steam_id":76561198168864083,"connected_time":7402000000000,"state":"active","ping":106},{"user_id":191,"name":"Caeso","steam_id":76561198075570341,"connected_time":117000000000,"state":"active","ping":53},{"user_id":154,"name":"American freedom bird","steam_id":76561198366142388,"connected_time":2913000000000,"state":"active","ping":87},{"user_id":178,"name":"hecca_oof","steam_id":76561199226471681,"connected_time":1374000000000,"state":"active","ping":91},{"user_id":162,"name":"Kaladin Stormblessed","steam_id":76561198047668469,"connected_time":2489000000000,"state":"active","ping":74},{"user_id":175,"name":"Vid","steam_id":76561198380766587,"connected_time":1545000000000,"state":"active","ping":69},{"user_id":156,"name":"meo ‚ô•","steam_id":76561197992719272,"connected_time":2890000000000,"state":"active","ping":74},{"user_id":187,"name":"Impresio","steam_id":76561198129127347,"connected_time":473000000000,"state":"active","ping":77},{"user_id":143,"name":"Certified Hood Classic","steam_id":76561199086159354,"connected_time":4074000000000,"state":"active","ping":58},{"user_id":164,"name":"Nathan Yeet","steam_id":76561198883966591,"connected_time":2352000000000,"state":"active","ping":86},{"user_id":182,"name":"Dogfanll","steam_id":76561199025610773,"connected_time":1142000000000,"state":"active","ping":61},{"user_id":168,"name":"CEO of burger","steam_id":76561198973438214,"connected_time":2042000000000,"state":"active","ping":66},{"user_id":169,"name":"owl","steam_id":76561198088403016,"connected_time":1933000000000,"state":"active","ping":177},{"user_id":188,"name":"ihave80hp","steam_id":76561199251621911,"connected_time":471000000000,"state":"active","ping":58}]},{"server_id":108,"name":"Uncletopia | Dallas | 2 | All Maps","name_short":"dal-2","host":"dal-1.us.uncletopia.com","port":27025,"enabled":true,"region":"us-central","cc":"us","latitude":32.779167,"longitude":-96.80889,"reserved":0,"last_update":"0001-01-01T00:00:00Z","name_a2s":"Uncletopia | Dallas | 2 | All Maps","protocol":17,"map":"cp_dustbowl","folder":"tf","game":"Team Fortress","app_id":440,"player_count":0,"max_players":24,"Bots":0,"server_type":"Dedicated","server_os":"Linux","password":true,"vac":true,"version":"7961495","steam_id":85568392924469988,"keywords":["cp","nocrits","nodmgspread","uncletopia"],"game_id":440,"stv_port":27026,"stv_name":"Uncletopia | Dallas | 2 | All Maps | STV","players":null},{"server_id":404,"name":"Uncletopia | Dallas | 3 | All Maps","name_short":"dal-3","host":"dal-1.us.uncletopia.com","port":27035,"enabled":true,"region":"us-central","cc":"us","latitude":32.779167,"longitude":-96.80889,"reserved":0,"last_update":"0001-01-01T00:00:00Z","name_a2s":"Uncletopia | Dallas | 3 | All Maps","protocol":17,"map":"pl_borneo","folder":"tf","game":"Team Fortress","app_id":440,"player_count":0,"max_players":24,"Bots":0,"server_type":"Dedicated","server_os":"Linux","password":true,"vac":true,"version":"7961495","steam_id":85568392924515219,"keywords":["nocrits","nodmgspread","payload","uncletopia"],"game_id":440,"stv_port":27036,"stv_name":"Uncletopia | Dallas | 3 | All Maps | STV","players":null},{"server_id":405,"name":"Uncletopia | Dallas | 4 | Community","name_short":"dal-4","host":"dal-1.us.uncletopia.com","port":27045,"enabled":true,"region":"us-central","cc":"us","latitude":32.779167,"longitude":-96.80889,"reserved":0,"last_update":"0001-01-01T00:00:00Z","name_a2s":"Uncletopia | Dallas | 4 | Community","protocol":17,"map":"workshop/koth_synthetic_rc6a.ugc1549817316","folder":"tf","game":"Team Fortress","app_id":440,"player_count":0,"max_players":24,"Bots":0,"server_type":"Dedicated","server_os":"Linux","password":true,"vac":true,"version":"7961495","steam_id":85568392924515220,"keywords":["cp","nocrits","nodmgspread","uncletopia"],"game_id":440,"stv_port":27046,"stv_name":"Uncletopia | Dallas | 4 | Community | STV","players":null},{"server_id":5,"name":"Uncletopia | Frankfurt | 1 | All Maps","name_short":"frk-1","host":"frk-1.de.uncletopia.com","port":27015,"enabled":true,"region":"eu","cc":"de","latitude":50.110924,"longitude":8.682127,"reserved":0,"last_update":"0001-01-01T00:00:00Z","name_a2s":"Uncletopia | Frankfurt | 1 | All Maps","protocol":17,"map":"pl_badwater","folder":"tf","game":"Team Fortress","app_id":440,"player_count":24,"max_players":24,"Bots":0,"server_type":"Dedicated","server_os":"Linux","password":true,"vac":true,"version":"7961495","steam_id":85568392924469989,"keywords":["nocrits","nodmgspread","payload","uncletopia"],"game_id":440,"stv_port":27016,"stv_name":"Uncletopia | Frankfurt | 1 | All Maps | STV","players":[{"user_id":350,"name":"Lazor","steam_id":76561198310376869,"connected_time":1251000000000,"state":"active","ping":110},{"user_id":358,"name":"xansior","steam_id":76561198211785403,"connected_time":465000000000,"state":"active","ping":73},{"user_id":337,"name":"Skyrider of Spaceways","steam_id":76561197991678236,"connected_time":2826000000000,"state":"active","ping":120},{"user_id":324,"name":"cheriberry","steam_id":76561198093577036,"connected_time":3569000000000,"state":"active","ping":60},{"user_id":326,"name":"JohnTraveltime","steam_id":76561199244281754,"connected_time":3506000000000,"state":"active","ping":65},{"user_id":354,"name":"manure merchant","steam_id":76561198010109316,"connected_time":667000000000,"state":"active","ping":52},{"user_id":251,"name":"yush","steam_id":76561198121688934,"connected_time":8687000000000,"state":"active","ping":75},{"user_id":325,"name":"You slumber","steam_id":76561198344639692,"connected_time":3550000000000,"state":"active","ping":78},{"user_id":363,"name":"Master coitus","steam_id":76561198050416948,"connected_time":62000000000,"state":"active","ping":43},{"user_id":360,"name":"jur","steam_id":76561198096189399,"connected_time":353000000000,"state":"active","ping":47},{"user_id":343,"name":"Storm's Foreshadow","steam_id":76561198098462526,"connected_time":2159000000000,"state":"active","ping":60},{"user_id":361,"name":"Pineyüíô","steam_id":76561198050910939,"connected_time":294000000000,"state":"active","ping":69},{"user_id":328,"name":"Carl","steam_id":76561198045638738,"connected_time":3204000000000,"state":"active","ping":56},{"user_id":315,"name":"Roman","steam_id":76561198138140596,"connected_time":4033000000000,"state":"active","ping":147},{"user_id":316,"name":"Rae","steam_id":76561198171461153,"connected_time":4026000000000,"state":"active","ping":145},{"user_id":352,"name":"Monkey Friend","steam_id":76561198144403074,"connected_time":912000000000,"state":"active","ping":45},{"user_id":351,"name":"else1","steam_id":76561197996558319,"connected_time":1113000000000,"state":"active","ping":76},{"user_id":353,"name":"Sputnik","steam_id":76561198138660241,"connected_time":716000000000,"state":"active","ping":60},{"user_id":357,"name":"baver","steam_id":76561198135293142,"connected_time":527000000000,"state":"active","ping":62},{"user_id":344,"name":"Yodawg","steam_id":76561198261933946,"connected_time":2068000000000,"state":"active","ping":51},{"user_id":345,"name":"Big Trader","steam_id":76561197992364667,"connected_time":1951000000000,"state":"active","ping":48},{"user_id":329,"name":"tallen","steam_id":76561198061708595,"connected_time":3124000000000,"state":"active","ping":84},{"user_id":346,"name":"FancyRancy","steam_id":76561198415354519,"connected_time":1945000000000,"state":"active","ping":60},{"user_id":323,"name":"Sicronici","steam_id":76561199054534566,"connected_time":3630000000000,"state":"active","ping":57}]},{"server_id":110,"name":"Uncletopia | Frankfurt | 2 | All Maps","name_short":"frk-2","host":"frk-1.de.uncletopia.com","port":27025,"enabled":true,"region":"eu","cc":"de","latitude":50.110924,"longitude":8.682127,"reserved":0,"last_update":"0001-01-01T00:00:00Z","name_a2s":"Uncletopia | Frankfurt | 2 | All Maps","protocol":17,"map":"cp_fastlane","folder":"tf","game":"Team Fortress","app_id":440,"player_count":23,"max_players":24,"Bots":0,"server_type":"Dedicated","server_os":"Linux","password":true,"vac":true,"version":"7961495","steam_id":85568392924469990,"keywords":["cp","nocrits","nodmgspread","uncletopia"],"game_id":440,"stv_port":27026,"stv_name":"Uncletopia | Frankfurt | 2 | All Maps | STV","players":[{"user_id":504,"name":"Molty","steam_id":76561198004360335,"connected_time":4255000000000,"state":"active","ping":51},{"user_id":542,"name":"Jone","steam_id":76561198955248352,"connected_time":1118000000000,"state":"active","ping":62},{"user_id":548,"name":"xx_soy_xx","steam_id":76561198333779084,"connected_time":617000000000,"state":"active","ping":54},{"user_id":545,"name":"Alice","steam_id":76561198052410860,"connected_time":973000000000,"state":"active","ping":135},{"user_id":550,"name":"Fpaoullis","steam_id":76561198897866131,"connected_time":568000000000,"state":"active","ping":88},{"user_id":525,"name":"finbar","steam_id":76561198056812396,"connected_time":2540000000000,"state":"active","ping":76},{"user_id":536,"name":"Playback_time","steam_id":76561198349426598,"connected_time":1469000000000,"state":"active","ping":48},{"user_id":532,"name":"BurningJoke","steam_id":76561199014358707,"connected_time":1968000000000,"state":"active","ping":47},{"user_id":556,"name":"Pilaarius","steam_id":76561198120273212,"connected_time":354000000000,"state":"active","ping":91},{"user_id":558,"name":"Milk","steam_id":76561198125876588,"connected_time":202000000000,"state":"active","ping":53},{"user_id":560,"name":"Alfred Shroom","steam_id":76561198117990411,"connected_time":78000000000,"state":"active","ping":60},{"user_id":529,"name":"Doecheldorf","steam_id":76561198291628630,"connected_time":2170000000000,"state":"active","ping":53},{"user_id":557,"name":"rubicus","steam_id":76561198823847982,"connected_time":320000000000,"state":"active","ping":75},{"user_id":552,"name":"Haghehog","steam_id":76561198075729793,"connected_time":533000000000,"state":"active","ping":106},{"user_id":553,"name":"‚ùñ RazzorBee","steam_id":76561198092493838,"connected_time":530000000000,"state":"active","ping":97},{"user_id":509,"name":"A Pigeon","steam_id":76561198114090555,"connected_time":4061000000000,"state":"active","ping":72},{"user_id":513,"name":"QuantumFox","steam_id":76561198125912648,"connected_time":3677000000000,"state":"active","ping":65},{"user_id":561,"name":"Asocial","steam_id":76561198328594578,"connected_time":1000000000,"state":"connecting","ping":0},{"user_id":514,"name":"..","steam_id":76561198380752444,"connected_time":3619000000000,"state":"active","ping":45},{"user_id":534,"name":"Jedunahoru","steam_id":76561199508744635,"connected_time":1730000000000,"state":"active","ping":60},{"user_id":482,"name":"hagrididude","steam_id":76561199126255153,"connected_time":5819000000000,"state":"active","ping":61},{"user_id":559,"name":"Mr Lemon","steam_id":76561198054685254,"connected_time":120000000000,"state":"active","ping":57},{"user_id":522,"name":"Udinese Dion","steam_id":76561198067931573,"connected_time":2632000000000,"state":"active","ping":60}]},{"server_id":308,"name":"Uncletopia | Frankfurt | 3 | All Maps","name_short":"frk-3","host":"frk-1.de.uncletopia.com","port":27035,"enabled":true,"region":"eu","cc":"de","latitude":50.110924,"longitude":8.682127,"reserved":0,"last_update":"0001-01-01T00:00:00Z","name_a2s":"Uncletopia | Frankfurt | 3 | All Maps","protocol":17,"map":"pl_frontier_final","folder":"tf","game":"Team Fortress","app_id":440,"player_count":1,"max_players":24,"Bots":0,"server_type":"Dedicated","server_os":"Linux","password":true,"vac":true,"version":"7961495","steam_id":85568392924504274,"keywords":["nocrits","nodmgspread","payload","uncletopia"],"game_id":440,"stv_port":27036,"stv_name":"Uncletopia | Frankfurt | 3 | All Maps | STV","players":[{"user_id":30,"name":"Dumb Bosnian Terrorist","steam_id":76561199070787153,"connected_time":116000000000,"state":"active","ping":49}]},{"server_id":309,"name":"Uncletopia | Frankfurt | 4 | All Maps","name_short":"frk-4","host":"frk-1.de.uncletopia.com","port":27045,"enabled":true,"region":"eu","cc":"de","latitude":50.110924,"longitude":8.682127,"reserved":0,"last_update":"0001-01-01T00:00:00Z","name_a2s":"Uncletopia | Frankfurt | 4 | All Maps","protocol":17,"map":"pl_upward","folder":"tf","game":"Team Fortress","app_id":440,"player_count":24,"max_players":24,"Bots":0,"server_type":"Dedicated","server_os":"Linux","password":true,"vac":true,"version":"7961495","steam_id":85568392924504275,"keywords":["nocrits","nodmgspread","payload","uncletopia"],"game_id":440,"stv_port":27046,"stv_name":"Uncletopia | Frankfurt | 4 | All Maps | STV","players":[{"user_id":376,"name":"Sang","steam_id":76561198008510868,"connected_time":126000000000,"state":"active","ping":63},{"user_id":335,"name":"CrackleHead","steam_id":76561198158835908,"connected_time":2602000000000,"state":"active","ping":98},{"user_id":345,"name":"GMsU | Smiley","steam_id":76561198121494414,"connected_time":1762000000000,"state":"active","ping":86},{"user_id":350,"name":"ggwp","steam_id":76561199141037141,"connected_time":1387000000000,"state":"active","ping":70},{"user_id":359,"name":"Keroz1n","steam_id":76561197998681491,"connected_time":954000000000,"state":"active","ping":66},{"user_id":367,"name":"AnanasGerste","steam_id":76561198133825211,"connected_time":748000000000,"state":"active","ping":45},{"user_id":346,"name":"Doctor Mobius","steam_id":76561197971281806,"connected_time":1713000000000,"state":"active","ping":48},{"user_id":352,"name":"WarAndroid","steam_id":76561198873727435,"connected_time":1246000000000,"state":"active","ping":59},{"user_id":360,"name":"jill sandwich","steam_id":76561198075068529,"connected_time":946000000000,"state":"active","ping":56},{"user_id":374,"name":"Taez","steam_id":76561198261820803,"connected_time":456000000000,"state":"active","ping":69},{"user_id":370,"name":"frosty","steam_id":76561198094560834,"connected_time":612000000000,"state":"active","ping":56},{"user_id":375,"name":"Flank","steam_id":76561198098731156,"connected_time":310000000000,"state":"active","ping":86},{"user_id":372,"name":"Herbal Remedy","steam_id":76561197960451181,"connected_time":588000000000,"state":"active","ping":91},{"user_id":377,"name":"Dan","steam_id":76561198438672658,"connected_time":57000000000,"state":"active","ping":56},{"user_id":368,"name":"Acro","steam_id":76561198080097071,"connected_time":745000000000,"state":"active","ping":64},{"user_id":313,"name":"Fedm","steam_id":76561199020090514,"connected_time":3711000000000,"state":"active","ping":72},{"user_id":366,"name":"Xerxes","steam_id":76561198105520278,"connected_time":782000000000,"state":"active","ping":71},{"user_id":340,"name":"‚ù§Speedbump‚ù§","steam_id":76561198388690313,"connected_time":2447000000000,"state":"active","ping":56},{"user_id":314,"name":"hide","steam_id":76561198918282467,"connected_time":3690000000000,"state":"active","ping":55},{"user_id":324,"name":"heddwch","steam_id":76561198076097983,"connected_time":3198000000000,"state":"active","ping":88},{"user_id":373,"name":"Red Mimi Sentry","steam_id":76561197967502407,"connected_time":581000000000,"state":"active","ping":56},{"user_id":356,"name":"sheep","steam_id":76561199220109827,"connected_time":1112000000000,"state":"active","ping":61},{"user_id":369,"name":"Cencut","steam_id":76561198989449047,"connected_time":734000000000,"state":"active","ping":121},{"user_id":358,"name":"Mike","steam_id":76561198228455736,"connected_time":1034000000000,"state":"active","ping":67}]},{"server_id":310,"name":"Uncletopia | Frankfurt | 5 | All Maps","name_short":"frk-5","host":"frk-1.de.uncletopia.com","port":27055,"enabled":true,"region":"eu","cc":"de","latitude":50.110924,"longitude":8.682127,"reserved":0,"last_update":"0001-01-01T00:00:00Z","name_a2s":"Uncletopia | Frankfurt | 5 | All Maps","protocol":17,"map":"pl_swiftwater_final1","folder":"tf","game":"Team Fortress","app_id":440,"player_count":24,"max_players":24,"Bots":0,"server_type":"Dedicated","server_os":"Linux","password":true,"vac":true,"version":"7961495","steam_id":85568392924504277,"keywords":["nocrits","nodmgspread","payload","uncletopia"],"game_id":440,"stv_port":27056,"stv_name":"Uncletopia | Frankfurt | 5 | All Maps | STV","players":[{"user_id":646,"name":"tete","steam_id":76561198045222850,"connected_time":639000000000,"state":"active","ping":122},{"user_id":636,"name":"Marty‚Ñ¢","steam_id":76561198060073673,"connected_time":1238000000000,"state":"spawning","ping":63},{"user_id":645,"name":"citronous","steam_id":76561198093290934,"connected_time":689000000000,"state":"active","ping":56},{"user_id":511,"name":"KALACH","steam_id":76561198028664460,"connected_time":8355000000000,"state":"active","ping":105},{"user_id":594,"name":"Andy","steam_id":76561198046918834,"connected_time":2323000000000,"state":"active","ping":86},{"user_id":637,"name":"leminsc8","steam_id":76561198825084995,"connected_time":1212000000000,"state":"spawning","ping":46},{"user_id":624,"name":"G√ºnther","steam_id":76561198333417038,"connected_time":1619000000000,"state":"spawning","ping":75},{"user_id":635,"name":"Panchol√≠n","steam_id":76561198262777640,"connected_time":1265000000000,"state":"active","ping":205},{"user_id":643,"name":"mr Ananasik","steam_id":76561198099757669,"connected_time":838000000000,"state":"spawning","ping":102},{"user_id":647,"name":"GrosFumiste","steam_id":76561198850134909,"connected_time":627000000000,"state":"active","ping":72},{"user_id":626,"name":"meeper","steam_id":76561199131260257,"connected_time":1562000000000,"state":"active","ping":54},{"user_id":657,"name":"lulu","steam_id":76561199147764133,"connected_time":193000000000,"state":"active","ping":72},{"user_id":641,"name":"fish","steam_id":76561198092096689,"connected_time":1064000000000,"state":"active","ping":54},{"user_id":649,"name":"Nyoom","steam_id":76561198054585002,"connected_time":593000000000,"state":"spawning","ping":53},{"user_id":650,"name":"Solid Snake holding a pepsi","steam_id":76561198348396493,"connected_time":590000000000,"state":"active","ping":91},{"user_id":654,"name":"Lyncurion","steam_id":76561199260022725,"connected_time":360000000000,"state":"active","ping":96},{"user_id":655,"name":"sloppy transgirl toppy","steam_id":76561198057092208,"connected_time":243000000000,"state":"spawning","ping":51},{"user_id":625,"name":"Larry Penus","steam_id":76561198207546233,"connected_time":1609000000000,"state":"active","ping":55},{"user_id":515,"name":"Sunduchek","steam_id":76561198067934157,"connected_time":7829000000000,"state":"active","ping":145},{"user_id":627,"name":"shooryukami","steam_id":76561199466594692,"connected_time":1559000000000,"state":"active","ping":172},{"user_id":656,"name":"Rex Z'Beq","steam_id":76561199300590000,"connected_time":237000000000,"state":"active","ping":64},{"user_id":629,"name":"cirrem","steam_id":76561198265192382,"connected_time":1484000000000,"state":"active","ping":63},{"user_id":653,"name":"Rock with Internet","steam_id":76561199142284412,"connected_time":534000000000,"state":"active","ping":96}]},{"server_id":311,"name":"Uncletopia | Frankfurt | 6 | All Maps","name_short":"frk-6","host":"frk-1.de.uncletopia.com","port":27065,"enabled":true,"region":"eu","cc":"de","latitude":50.110924,"longitude":8.682127,"reserved":0,"last_update":"0001-01-01T00:00:00Z","name_a2s":"Uncletopia | Frankfurt | 6 | All Maps","protocol":17,"map":"pl_hoodoo_final","folder":"tf","game":"Team Fortress","app_id":440,"player_count":25,"max_players":24,"Bots":0,"server_type":"Dedicated","server_os":"Linux","password":true,"vac":true,"version":"7961495","steam_id":85568392924504278,"keywords":["nocrits","nodmgspread","payload","uncletopia"],"game_id":440,"stv_port":27066,"stv_name":"Uncletopia | Frankfurt | 6 | All Maps | STV","players":[{"user_id":185,"name":"MGE MONSTER228","steam_id":76561198796600155,"connected_time":6693000000000,"state":"active","ping":75},{"user_id":272,"name":"Medic gaming","steam_id":76561199024383167,"connected_time":704000000000,"state":"active","ping":202},{"user_id":274,"name":"Engineer gaming","steam_id":76561198841957202,"connected_time":620000000000,"state":"active","ping":89},{"user_id":275,"name":"Spy gaming","steam_id":76561198449901604,"connected_time":589000000000,"state":"active","ping":77},{"user_id":186,"name":"Purrplehaze","steam_id":76561198297604298,"connected_time":6679000000000,"state":"active","ping":59},{"user_id":283,"name":"Kingcat123 (F2P)","steam_id":76561199010422431,"connected_time":354000000000,"state":"active","ping":58},{"user_id":264,"name":"literallyjasonx","steam_id":76561198835895387,"connected_time":1074000000000,"state":"active","ping":64},{"user_id":277,"name":"–º–ª–∞–¥—à–∏–π –ø–∞–ª–∫–æ–≤–Ω–∏","steam_id":76561199086075982,"connected_time":582000000000,"state":"active","ping":101},{"user_id":269,"name":"EGirl | Klarra","steam_id":76561198077745407,"connected_time":826000000000,"state":"active","ping":61},{"user_id":278,"name":"Soldier gaming","steam_id":76561199204695891,"connected_time":569000000000,"state":"active","ping":92},{"user_id":279,"name":"Fikus","steam_id":76561198351444483,"connected_time":514000000000,"state":"active","ping":69},{"user_id":281,"name":"Hyperwizard of Space Conquest","steam_id":76561198953210459,"connected_time":403000000000,"state":"active","ping":88},{"user_id":282,"name":"Ftimexp","steam_id":76561199217152757,"connected_time":385000000000,"state":"active","ping":46},{"user_id":248,"name":"pepsimus_maximus (pepsi/max)","steam_id":76561198062425104,"connected_time":2143000000000,"state":"active","ping":66},{"user_id":204,"name":"Ephix","steam_id":76561197977164055,"connected_time":5803000000000,"state":"active","ping":45},{"user_id":284,"name":"Andreus","steam_id":76561199403926001,"connected_time":342000000000,"state":"active","ping":61},{"user_id":285,"name":"100 hundred bucks","steam_id":76561198126896711,"connected_time":323000000000,"state":"active","ping":78},{"user_id":286,"name":"Totally Something","steam_id":76561198916824935,"connected_time":286000000000,"state":"active","ping":59},{"user_id":293,"name":"Xander","steam_id":76561198994815903,"connected_time":134000000000,"state":"active","ping":95},{"user_id":291,"name":"alibi","steam_id":76561198079490000,"connected_time":184000000000,"state":"active","ping":70},{"user_id":289,"name":"KAZAM | Tervez","steam_id":76561198045459068,"connected_time":221000000000,"state":"active","ping":76},{"user_id":290,"name":"iv_700","steam_id":76561199405771264,"connected_time":194000000000,"state":"active","ping":71},{"user_id":171,"name":"Snowy","steam_id":76561198169992461,"connected_time":8114000000000,"state":"active","ping":58},{"user_id":198,"name":"BD[PL]","steam_id":76561198115995871,"connected_time":6345000000000,"state":"active","ping":68},{"user_id":296,"name":"monky ‚ôø","steam_id":76561198064440542,"connected_time":5000000000,"state":"spawning","ping":46}]},{"server_id":23,"name":"Uncletopia | Frankfurt | 7 | Stopwatch","name_short":"frk-7","host":"frk-1.de.uncletopia.com","port":27075,"enabled":true,"region":"eu","cc":"de","latitude":50.110924,"longitude":8.682127,"reserved":0,"last_update":"0001-01-01T00:00:00Z","name_a2s":"Uncletopia | Frankfurt | 7 | Stopwatch","protocol":17,"map":"workshop/koth_bagel_rc6.ugc2514036946","folder":"tf","game":"Team Fortress","app_id":440,"player_count":0,"max_players":24,"Bots":0,"server_type":"Dedicated","server_os":"Linux","password":true,"vac":true,"version":"7961495","steam_id":85568392924742827,"keywords":["cp","nocrits","nodmgspread","uncletopia"],"game_id":440,"stv_port":27076,"stv_name":"Uncletopia | Frankfurt | 7 | Stopwatch | STV","players":null},{"server_id":24,"name":"Uncletopia | Frankfurt | 8 | Community","name_short":"frk-8","host":"frk-1.de.uncletopia.com","port":27085,"enabled":true,"region":"eu","cc":"de","latitude":50.110924,"longitude":8.682127,"reserved":0,"last_update":"0001-01-01T00:00:00Z","name_a2s":"Uncletopia | Frankfurt | 8 | Community","protocol":17,"map":"workshop/pl_fifthcurve_rc1.ugc648227046","folder":"tf","game":"Team Fortress","app_id":440,"player_count":0,"max_players":24,"Bots":0,"server_type":"Dedicated","server_os":"Linux","password":true,"vac":true,"version":"7961495","steam_id":85568392924742828,"keywords":["nocrits","nodmgspread","payload","uncletopia"],"game_id":440,"stv_port":27086,"stv_name":"Uncletopia | Frankfurt | 8 | Community | STV","players":null},{"server_id":202,"name":"Uncletopia | Hong Kong | 1 | All Maps","name_short":"hgk-1","host":"hgk-1.hk.uncletopia.com","port":27015,"enabled":true,"region":"asia","cc":"hk","latitude":22.302711,"longitude":114.177216,"reserved":0,"last_update":"0001-01-01T00:00:00Z","name_a2s":"Uncletopia | Hong Kong | 1 | All Maps","protocol":17,"map":"cp_dustbowl","folder":"tf","game":"Team Fortress","app_id":440,"player_count":0,"max_players":24,"Bots":0,"server_type":"Dedicated","server_os":"Linux","password":true,"vac":true,"version":"7961495","steam_id":85568392924494504,"keywords":["cp","nocrits","nodmgspread","uncletopia"],"game_id":440,"stv_port":27016,"stv_name":"Uncletopia | Hong Kong | 1 | All Maps | STV","players":null},{"server_id":1,"name":"Uncletopia | Los Angeles | 1 | All Maps","name_short":"lax-1","host":"lax-1.us.uncletopia.com","port":27015,"enabled":true,"region":"us-west","cc":"us","latitude":33.94279,"longitude":-118.41004,"reserved":0,"last_update":"0001-01-01T00:00:00Z","name_a2s":"Uncletopia | Los Angeles | 1 | All Maps","protocol":17,"map":"cp_gorge","folder":"tf","game":"Team Fortress","app_id":440,"player_count":0,"max_players":24,"Bots":0,"server_type":"Dedicated","server_os":"Linux","password":true,"vac":true,"version":"7961495","steam_id":85568392924469991,"keywords":["cp","nocrits","nodmgspread","uncletopia"],"game_id":440,"stv_port":27016,"stv_name":"Uncletopia | Los Angeles | 1 | All Maps | STV","players":null},{"server_id":112,"name":"Uncletopia | Los Angeles | 2 | All Maps","name_short":"lax-2","host":"lax-1.us.uncletopia.com","port":27025,"enabled":true,"region":"us-west","cc":"us","latitude":33.94279,"longitude":-118.41004,"reserved":0,"last_update":"0001-01-01T00:00:00Z","name_a2s":"Uncletopia | Los Angeles | 2 | All Maps","protocol":17,"map":"koth_cascade","folder":"tf","game":"Team Fortress","app_id":440,"player_count":0,"max_players":24,"Bots":0,"server_type":"Dedicated","server_os":"Linux","password":true,"vac":true,"version":"7961495","steam_id":85568392924469992,"keywords":["cp","nocrits","nodmgspread","uncletopia"],"game_id":440,"stv_port":27026,"stv_name":"Uncletopia | Los Angeles | 2 | All Maps | STV","players":null},{"server_id":324,"name":"Uncletopia | Los Angeles | 3 | All Maps","name_short":"lax-3","host":"lax-1.us.uncletopia.com","port":27035,"enabled":true,"region":"us-west","cc":"us","latitude":33.94279,"longitude":-118.41004,"reserved":0,"last_update":"0001-01-01T00:00:00Z","name_a2s":"Uncletopia | Los Angeles | 3 | All Maps","protocol":17,"map":"pl_pier","folder":"tf","game":"Team Fortress","app_id":440,"player_count":23,"max_players":24,"Bots":0,"server_type":"Dedicated","server_os":"Linux","password":true,"vac":true,"version":"7961495","steam_id":85568392924510198,"keywords":["nocrits","nodmgspread","payload","uncletopia"],"game_id":440,"stv_port":27036,"stv_name":"Uncletopia | Los Angeles | 3 | All Maps | STV","players":[{"user_id":58,"name":"Irritated Duck","steam_id":76561198247792076,"connected_time":484000000000,"state":"active","ping":87},{"user_id":59,"name":"Reaganomics","steam_id":76561199106877333,"connected_time":415000000000,"state":"active","ping":87},{"user_id":56,"name":"Call me the sleeps","steam_id":76561198121245586,"connected_time":596000000000,"state":"active","ping":84},{"user_id":27,"name":"ORANGE","steam_id":76561198000401769,"connected_time":2088000000000,"state":"active","ping":74},{"user_id":55,"name":"Hasterberg","steam_id":76561198968097614,"connected_time":697000000000,"state":"active","ping":60},{"user_id":32,"name":"Poop sock","steam_id":76561198957996236,"connected_time":1504000000000,"state":"active","ping":117},{"user_id":30,"name":"no vc no c","steam_id":76561197989503095,"connected_time":1669000000000,"state":"active","ping":161},{"user_id":45,"name":"kool_aids3","steam_id":76561198314435679,"connected_time":1074000000000,"state":"active","ping":45},{"user_id":39,"name":"slugcat","steam_id":76561198808205021,"connected_time":1348000000000,"state":"active","ping":91},{"user_id":46,"name":"Wang of Wall St","steam_id":76561198047460598,"connected_time":1030000000000,"state":"active","ping":107},{"user_id":60,"name":"lorient","steam_id":76561198150831438,"connected_time":261000000000,"state":"active","ping":76},{"user_id":33,"name":"Waluigi","steam_id":76561199147980900,"connected_time":1501000000000,"state":"active","ping":84},{"user_id":54,"name":"Guwop","steam_id":76561197970425737,"connected_time":700000000000,"state":"active","ping":90},{"user_id":35,"name":"Director","steam_id":76561199025546030,"connected_time":1472000000000,"state":"active","ping":87},{"user_id":50,"name":"willow","steam_id":76561198049481773,"connected_time":789000000000,"state":"active","ping":90},{"user_id":47,"name":"Long range puro","steam_id":76561199186496740,"connected_time":1029000000000,"state":"active","ping":136},{"user_id":57,"name":"you just got dyked on","steam_id":76561198018977723,"connected_time":580000000000,"state":"active","ping":187},{"user_id":63,"name":"Ulrich Stern","steam_id":76561198101739682,"connected_time":166000000000,"state":"active","ping":94},{"user_id":44,"name":"hey! lighten up buddy! :3","steam_id":76561198333985626,"connected_time":1082000000000,"state":"active","ping":72},{"user_id":64,"name":"Shitty Pilot","steam_id":76561198042723469,"connected_time":81000000000,"state":"active","ping":75},{"user_id":49,"name":"BL√òRG","steam_id":76561198036126673,"connected_time":807000000000,"state":"active","ping":92},{"user_id":51,"name":"Brastion","steam_id":76561198257707303,"connected_time":778000000000,"state":"active","ping":84},{"user_id":52,"name":"King Cotton","steam_id":76561198292444376,"connected_time":771000000000,"state":"active","ping":90}]},{"server_id":25,"name":"Uncletopia | Los Angeles | 4 | Stopwatch","name_short":"lax-4","host":"lax-1.us.uncletopia.com","port":27045,"enabled":true,"region":"us-west","cc":"us","latitude":33.94279,"longitude":-118.41004,"reserved":0,"last_update":"0001-01-01T00:00:00Z","name_a2s":"Uncletopia | Los Angeles | 4 | Stopwatch","protocol":17,"map":"workshop/koth_product_final.ugc454272353","folder":"tf","game":"Team Fortress","app_id":440,"player_count":0,"max_players":24,"Bots":0,"server_type":"Dedicated","server_os":"Linux","password":true,"vac":true,"version":"7961495","steam_id":85568392924510199,"keywords":["cp","nocrits","nodmgspread","uncletopia"],"game_id":440,"stv_port":27046,"stv_name":"Uncletopia | Los Angeles | 4 | Stopwatch | STV","players":null},{"server_id":11,"name":"Uncletopia | London | 1 | All Maps","name_short":"lon-1","host":"lon-1.uk.uncletopia.com","port":27015,"enabled":true,"region":"eu","cc":"gb","latitude":51.509865,"longitude":-0.118092,"reserved":0,"last_update":"0001-01-01T00:00:00Z","name_a2s":"Uncletopia | London | 1 | All Maps","protocol":17,"map":"pl_barnblitz","folder":"tf","game":"Team Fortress","app_id":440,"player_count":23,"max_players":24,"Bots":0,"server_type":"Dedicated","server_os":"Linux","password":true,"vac":true,"version":"7961495","steam_id":85568392924367362,"keywords":["nocrits","nodmgspread","payload","uncletopia"],"game_id":440,"stv_port":27016,"stv_name":"Uncletopia | London | 1 | All Maps | STV","players":[{"user_id":403,"name":"√áodar","steam_id":76561198235518444,"connected_time":676000000000,"state":"active","ping":37},{"user_id":414,"name":"Hox","steam_id":76561198977801115,"connected_time":91000000000,"state":"active","ping":82},{"user_id":404,"name":"etc","steam_id":76561197998394797,"connected_time":659000000000,"state":"active","ping":46},{"user_id":331,"name":"Dan Dan the Furious","steam_id":76561198091032527,"connected_time":5585000000000,"state":"active","ping":42},{"user_id":367,"name":"Explosive Poptart","steam_id":76561198023918830,"connected_time":3118000000000,"state":"active","ping":57},{"user_id":362,"name":"HIGHER THE KING OF THE SKY","steam_id":76561198173218318,"connected_time":3464000000000,"state":"active","ping":55},{"user_id":345,"name":"Agnolotti","steam_id":76561198038827937,"connected_time":4643000000000,"state":"active","ping":50},{"user_id":413,"name":"GMsU | Rebikas","steam_id":76561198077053764,"connected_time":261000000000,"state":"active","ping":53},{"user_id":393,"name":"maren #transrights","steam_id":76561199125727569,"connected_time":2117000000000,"state":"active","ping":73},{"user_id":406,"name":"Nuuskis","steam_id":76561198084042012,"connected_time":600000000000,"state":"active","ping":93},{"user_id":410,"name":"HGTEDACFL","steam_id":76561198047468140,"connected_time":444000000000,"state":"active","ping":148},{"user_id":400,"name":"Onions","steam_id":76561198150195195,"connected_time":1167000000000,"state":"active","ping":64},{"user_id":401,"name":"Aaron","steam_id":76561197990046953,"connected_time":731000000000,"state":"active","ping":59},{"user_id":395,"name":"Frito","steam_id":76561198373177622,"connected_time":2049000000000,"state":"active","ping":89},{"user_id":384,"name":"despikee","steam_id":76561198029805750,"connected_time":2381000000000,"state":"active","ping":76},{"user_id":369,"name":"ghoulette","steam_id":76561198019802176,"connected_time":3071000000000,"state":"active","ping":59},{"user_id":385,"name":"Optimist 50","steam_id":76561198039631442,"connected_time":2378000000000,"state":"active","ping":84},{"user_id":396,"name":"MarioThePlumber","steam_id":76561198314229530,"connected_time":1491000000000,"state":"active","ping":80},{"user_id":394,"name":"LadyMissfit","steam_id":76561198042236349,"connected_time":2108000000000,"state":"active","ping":74},{"user_id":386,"name":"finn","steam_id":76561198366652456,"connected_time":2366000000000,"state":"active","ping":69},{"user_id":365,"name":"MASKINER","steam_id":76561198011854314,"connected_time":3211000000000,"state":"active","ping":54},{"user_id":408,"name":"waitrose gaming","steam_id":76561198011450253,"connected_time":569000000000,"state":"active","ping":38},{"user_id":409,"name":"C√∂ffee","steam_id":76561198115131952,"connected_time":508000000000,"state":"active","ping":99}]},{"server_id":114,"name":"Uncletopia | London | 2 | All Maps","name_short":"lon-2","host":"lon-1.uk.uncletopia.com","port":27025,"enabled":true,"region":"eu","cc":"gb","latitude":51.509865,"longitude":-0.118092,"reserved":0,"last_update":"0001-01-01T00:00:00Z","name_a2s":"Uncletopia | London | 2 | All Maps","protocol":17,"map":"pl_frontier_final","folder":"tf","game":"Team Fortress","app_id":440,"player_count":24,"max_players":24,"Bots":0,"server_type":"Dedicated","server_os":"Linux","password":true,"vac":true,"version":"7961495","steam_id":85568392924470941,"keywords":["nocrits","nodmgspread","payload","uncletopia"],"game_id":440,"stv_port":27026,"stv_name":"Uncletopia | London | 2 | All Maps | STV","players":[{"user_id":91,"name":"sword machine","steam_id":76561198895235231,"connected_time":1281000000000,"state":"active","ping":51},{"user_id":85,"name":"Firearms","steam_id":76561197989867612,"connected_time":1935000000000,"state":"active","ping":48},{"user_id":95,"name":"Dzieciol","steam_id":76561198160237556,"connected_time":913000000000,"state":"active","ping":75},{"user_id":105,"name":"UpsyDizzy \u003c3","steam_id":76561198029843142,"connected_time":476000000000,"state":"active","ping":34},{"user_id":93,"name":"baby's first domination","steam_id":76561198325898181,"connected_time":1104000000000,"state":"active","ping":56},{"user_id":77,"name":"Kamikrazy","steam_id":76561198044254918,"connected_time":2656000000000,"state":"active","ping":47},{"user_id":106,"name":"dumo dumo","steam_id":76561198346638308,"connected_time":464000000000,"state":"active","ping":52},{"user_id":101,"name":"Ballistic","steam_id":76561198089589050,"connected_time":726000000000,"state":"active","ping":147},{"user_id":75,"name":"Seal","steam_id":76561198244988552,"connected_time":2944000000000,"state":"active","ping":70},{"user_id":103,"name":"Juan.Gonzalez.2005","steam_id":76561198805184411,"connected_time":500000000000,"state":"active","ping":64},{"user_id":97,"name":"BepisR47","steam_id":76561198084515716,"connected_time":882000000000,"state":"active","ping":35},{"user_id":49,"name":"pau≈Ç√≥","steam_id":76561198286747891,"connected_time":5413000000000,"state":"active","ping":78},{"user_id":90,"name":"[kot.bob]","steam_id":76561198990993971,"connected_time":1450000000000,"state":"active","ping":135},{"user_id":33,"name":"thog","steam_id":76561198219901556,"connected_time":5855000000000,"state":"active","ping":99},{"user_id":89,"name":"please do not the cat","steam_id":76561198089003514,"connected_time":1469000000000,"state":"active","ping":59},{"user_id":87,"name":"XJ9","steam_id":76561198349648942,"connected_time":1742000000000,"state":"active","ping":79},{"user_id":59,"name":"lark","steam_id":76561198091724522,"connected_time":4982000000000,"state":"active","ping":57},{"user_id":108,"name":"cister0","steam_id":76561198130195469,"connected_time":171000000000,"state":"active","ping":74},{"user_id":104,"name":"Scr0b  ï·µî·¥•·µî î","steam_id":76561198100855323,"connected_time":493000000000,"state":"active","ping":61},{"user_id":94,"name":"ender45","steam_id":76561198840955715,"connected_time":1043000000000,"state":"active","ping":30},{"user_id":99,"name":"fernandobmwm355555","steam_id":76561198086609447,"connected_time":847000000000,"state":"active","ping":63},{"user_id":56,"name":"cropping","steam_id":76561198026586456,"connected_time":5274000000000,"state":"active","ping":60},{"user_id":81,"name":"Jaflampe","steam_id":76561198175827647,"connected_time":2531000000000,"state":"active","ping":145}]},{"server_id":320,"name":"Uncletopia | London | 3 | All Maps","name_short":"lon-3","host":"lon-1.uk.uncletopia.com","port":27035,"enabled":true,"region":"eu","cc":"gb","latitude":51.509865,"longitude":-0.118092,"reserved":0,"last_update":"0001-01-01T00:00:00Z","name_a2s":"Uncletopia | London | 3 | All Maps","protocol":17,"map":"koth_lakeside_final","folder":"tf","game":"Team Fortress","app_id":440,"player_count":0,"max_players":24,"Bots":0,"server_type":"Dedicated","server_os":"Linux","password":true,"vac":true,"version":"7961495","steam_id":85568392924510192,"keywords":["cp","nocrits","nodmgspread","uncletopia"],"game_id":440,"stv_port":27036,"stv_name":"Uncletopia | London | 3 | All Maps | STV","players":null},{"server_id":321,"name":"Uncletopia | London | 4 | All Maps","name_short":"lon-4","host":"lon-1.uk.uncletopia.com","port":27045,"enabled":true,"region":"eu","cc":"gb","latitude":51.509865,"longitude":-0.118092,"reserved":0,"last_update":"0001-01-01T00:00:00Z","name_a2s":"Uncletopia | London | 4 | All Maps","protocol":17,"map":"koth_brazil","folder":"tf","game":"Team Fortress","app_id":440,"player_count":24,"max_players":24,"Bots":0,"server_type":"Dedicated","server_os":"Linux","password":true,"vac":true,"version":"7961495","steam_id":85568392924510193,"keywords":["cp","nocrits","nodmgspread","uncletopia"],"game_id":440,"stv_port":27046,"stv_name":"Uncletopia | London | 4 | All Maps | STV","players":[{"user_id":208,"name":"Xx_LudZip_xX","steam_id":76561198321008764,"connected_time":1687000000000,"state":"active","ping":60},{"user_id":227,"name":"0pelkenobi","steam_id":76561199155185736,"connected_time":772000000000,"state":"active","ping":67},{"user_id":222,"name":"NatP","steam_id":76561198012083811,"connected_time":999000000000,"state":"active","ping":66},{"user_id":218,"name":"Key Lyor Selph","steam_id":76561198256704286,"connected_time":1170000000000,"state":"active","ping":63},{"user_id":178,"name":"dopamine overdose","steam_id":76561199032511302,"connected_time":4159000000000,"state":"active","ping":105},{"user_id":170,"name":"katana on the trains","steam_id":76561198202464032,"connected_time":4911000000000,"state":"active","ping":50},{"user_id":230,"name":"PandaSaysHi","steam_id":76561199223233297,"connected_time":2000000000,"state":"spawning","ping":48},{"user_id":215,"name":"silicon based life form","steam_id":76561199127121346,"connected_time":1412000000000,"state":"active","ping":44},{"user_id":213,"name":"Charlie Brown","steam_id":76561199378865926,"connected_time":1575000000000,"state":"active","ping":89},{"user_id":216,"name":"i try to be soldier.","steam_id":76561198244153804,"connected_time":1356000000000,"state":"active","ping":77},{"user_id":228,"name":"Cezaru7252","steam_id":76561198815955374,"connected_time":608000000000,"state":"active","ping":87},{"user_id":207,"name":"jeff","steam_id":76561198272815746,"connected_time":1702000000000,"state":"active","ping":47},{"user_id":209,"name":"Fus in Boots","steam_id":76561198053897722,"connected_time":1680000000000,"state":"active","ping":44},{"user_id":197,"name":"[Sheep] Tomco","steam_id":76561198388549261,"connected_time":2606000000000,"state":"active","ping":45},{"user_id":223,"name":"Tibbs","steam_id":76561197987980406,"connected_time":995000000000,"state":"active","ping":60},{"user_id":118,"name":"Dirty goblin","steam_id":76561198153207632,"connected_time":8522000000000,"state":"active","ping":56},{"user_id":186,"name":"Aeinzalot","steam_id":76561198195288449,"connected_time":3596000000000,"state":"active","ping":45},{"user_id":191,"name":"ducks","steam_id":76561198166148685,"connected_time":3041000000000,"state":"active","ping":36},{"user_id":146,"name":"Personano","steam_id":76561198994355577,"connected_time":6468000000000,"state":"active","ping":44},{"user_id":185,"name":"Zamorocian","steam_id":76561198076604017,"connected_time":3822000000000,"state":"active","ping":39},{"user_id":229,"name":"≈†tƒõp√°n","steam_id":76561198275742101,"connected_time":424000000000,"state":"active","ping":73},{"user_id":198,"name":"Leituga","steam_id":76561198051127598,"connected_time":2556000000000,"state":"active","ping":82},{"user_id":212,"name":"dank pank","steam_id":76561198995052713,"connected_time":1584000000000,"state":"active","ping":61},{"user_id":224,"name":"agruk","steam_id":76561198082516068,"connected_time":974000000000,"state":"active","ping":83}]},{"server_id":21,"name":"Uncletopia | London | 5 | All Maps","name_short":"lon-5","host":"lon-1.uk.uncletopia.com","port":27055,"enabled":true,"region":"eu","cc":"gb","latitude":51.509865,"longitude":-0.118092,"reserved":0,"last_update":"0001-01-01T00:00:00Z","name_a2s":"Uncletopia | London | 5 | All Maps","protocol":17,"map":"cp_mercenarypark","folder":"tf","game":"Team Fortress","app_id":440,"player_count":12,"max_players":24,"Bots":0,"server_type":"Dedicated","server_os":"Linux","password":true,"vac":true,"version":"7961495","steam_id":85568392924742829,"keywords":["cp","nocrits","nodmgspread","uncletopia"],"game_id":440,"stv_port":27056,"stv_name":"Uncletopia | London | 5 | All Maps | STV","players":[{"user_id":52,"name":"MarCivil","steam_id":76561198190149347,"connected_time":80000000000,"state":"active","ping":69},{"user_id":53,"name":"Joe","steam_id":76561198061717026,"connected_time":55000000000,"state":"active","ping":42},{"user_id":10,"name":"Lucky_Bambr","steam_id":76561198401330527,"connected_time":3306000000000,"state":"active","ping":107},{"user_id":27,"name":"Tavish","steam_id":76561197971486686,"connected_time":2389000000000,"state":"active","ping":46},{"user_id":48,"name":"H the Creator","steam_id":76561198335971475,"connected_time":909000000000,"state":"active","ping":40},{"user_id":11,"name":"Keelan","steam_id":76561198013665543,"connected_time":3288000000000,"state":"active","ping":58},{"user_id":47,"name":"ScienceBeaver","steam_id":76561198823038512,"connected_time":1125000000000,"state":"active","ping":34},{"user_id":13,"name":"HOBO","steam_id":76561198094590374,"connected_time":3020000000000,"state":"active","ping":60},{"user_id":16,"name":"TOEANDFEETFLEXER","steam_id":76561198115382239,"connected_time":2981000000000,"state":"active","ping":75},{"user_id":18,"name":"Bags.","steam_id":76561198045708372,"connected_time":2950000000000,"state":"active","ping":47},{"user_id":31,"name":"Yoshikage Kira","steam_id":76561198326041272,"connected_time":2291000000000,"state":"active","ping":73},{"user_id":40,"name":"burritoeater","steam_id":76561199124197813,"connected_time":2104000000000,"state":"active","ping":69}]},{"server_id":22,"name":"Uncletopia | London | 6 | All Maps","name_short":"lon-6","host":"lon-1.uk.uncletopia.com","port":27065,"enabled":true,"region":"eu","cc":"gb","latitude":51.509865,"longitude":-0.118092,"reserved":0,"last_update":"0001-01-01T00:00:00Z","name_a2s":"Uncletopia | London | 6 | All Maps","protocol":17,"map":"koth_viaduct","folder":"tf","game":"Team Fortress","app_id":440,"player_count":0,"max_players":24,"Bots":0,"server_type":"Dedicated","server_os":"Linux","password":true,"vac":true,"version":"7961495","steam_id":85568392924742830,"keywords":["cp","nocrits","nodmgspread","uncletopia"],"game_id":440,"stv_port":27066,"stv_name":"Uncletopia | London | 6 | All Maps | STV","players":null},{"server_id":40,"name":"Uncletopia | London | 7 | Stopwatch","name_short":"lon-7","host":"lon-1.uk.uncletopia.com","port":27075,"enabled":true,"region":"eu","cc":"gb","latitude":51.509865,"longitude":-0.118092,"reserved":0,"last_update":"0001-01-01T00:00:00Z","name_a2s":"Uncletopia | London | 7 | Stopwatch","protocol":17,"map":"workshop/koth_ashville_final.ugc2130459942","folder":"tf","game":"Team Fortress","app_id":440,"player_count":0,"max_players":24,"Bots":0,"server_type":"Dedicated","server_os":"Linux","password":true,"vac":true,"version":"7961495","steam_id":85568392924964314,"keywords":["cp","nocrits","nodmgspread","uncletopia"],"game_id":440,"stv_port":27076,"stv_name":"Uncletopia | London | 7 | Stopwatch | STV","players":null},{"server_id":41,"name":"Uncletopia | London | 8 | Community","name_short":"lon-8","host":"lon-1.uk.uncletopia.com","port":27085,"enabled":true,"region":"eu","cc":"gb","latitude":51.509865,"longitude":-0.118092,"reserved":0,"last_update":"0001-01-01T00:00:00Z","name_a2s":"Uncletopia | London | 8 | Community","protocol":17,"map":"workshop/pl_shoreleave_rc2.ugc1238849347","folder":"tf","game":"Team Fortress","app_id":440,"player_count":0,"max_players":24,"Bots":0,"server_type":"Dedicated","server_os":"Linux","password":true,"vac":true,"version":"7961495","steam_id":85568392924964315,"keywords":["nocrits","nodmgspread","payload","uncletopia"],"game_id":440,"stv_port":27086,"stv_name":"Uncletopia | London | 8 | Community | STV","players":null},{"server_id":300,"name":"Uncletopia | Montr√©al | 1 | One Thousand Uncles","name_short":"mtl-1","host":"mtl-1.ca.uncletopia.com","port":27015,"enabled":true,"region":"us-east","cc":"ca","latitude":45.50889,"longitude":-73.56167,"reserved":0,"last_update":"0001-01-01T00:00:00Z","name_a2s":"Uncletopia | Montr√©al | 1 | One Thousand Uncles","protocol":17,"map":"pl_chilly","folder":"tf","game":"Team Fortress","app_id":440,"player_count":0,"max_players":32,"Bots":0,"server_type":"Dedicated","server_os":"Linux","password":true,"vac":true,"version":"7961495","steam_id":85568392924500087,"keywords":["alltalk","danepve","increased_maxplayers","norespawntime","payload","uncletopia"],"game_id":440,"stv_port":0,"stv_name":"","players":null},{"server_id":301,"name":"Uncletopia | Montr√©al | 2 | One Thousand Uncles","name_short":"mtl-2","host":"mtl-1.ca.uncletopia.com","port":27025,"enabled":true,"region":"us-east","cc":"ca","latitude":45.50889,"longitude":-73.56167,"reserved":0,"last_update":"0001-01-01T00:00:00Z","name_a2s":"Uncletopia | Montr√©al | 2 | One Thousand Uncles","protocol":17,"map":"pl_snowycoast","folder":"tf","game":"Team Fortress","app_id":440,"player_count":0,"max_players":32,"Bots":0,"server_type":"Dedicated","server_os":"Linux","password":true,"vac":true,"version":"7961495","steam_id":85568392924500088,"keywords":["alltalk","danepve","increased_maxplayers","norespawntime","payload","uncletopia"],"game_id":440,"stv_port":0,"stv_name":"","players":null},{"server_id":302,"name":"Uncletopia | Montr√©al | 3 | One Thousand Uncles","name_short":"mtl-3","host":"mtl-1.ca.uncletopia.com","port":27035,"enabled":true,"region":"us-east","cc":"ca","latitude":45.50889,"longitude":-73.56167,"reserved":0,"last_update":"0001-01-01T00:00:00Z","name_a2s":"Uncletopia | Montr√©al | 3 | One Thousand Uncles","protocol":17,"map":"pl_upward","folder":"tf","game":"Team Fortress","app_id":440,"player_count":22,"max_players":32,"Bots":16,"server_type":"Dedicated","server_os":"Linux","password":true,"vac":true,"version":"7961495","steam_id":85568392924500089,"keywords":["alltalk","bots","danepve","increased_maxplayers","norespawntime","payload","uncletopia"],"game_id":440,"stv_port":0,"stv_name":"","players":[{"user_id":32,"name":"princess fern \u003c3333","steam_id":76561198881792140,"connected_time":880000000000,"state":"active","ping":54},{"user_id":33,"name":"Peppy","steam_id":76561198866629645,"connected_time":500000000000,"state":"active","ping":102},{"user_id":22,"name":"Why not Zoidberg?","steam_id":76561197982207556,"connected_time":3574000000000,"state":"active","ping":76},{"user_id":37,"name":"Nicoarn121","steam_id":76561198156297440,"connected_time":52000000000,"state":"spawning","ping":74},{"user_id":35,"name":"tau0976","steam_id":76561199149015168,"connected_time":363000000000,"state":"active","ping":76},{"user_id":36,"name":"luigifan","steam_id":76561199428693962,"connected_time":254000000000,"state":"active","ping":73}]},{"server_id":13,"name":"Uncletopia | New York City | 1 | All Maps","name_short":"nyc-1","host":"nyc-1.us.uncletopia.com","port":27015,"enabled":true,"region":"us-east","cc":"us","latitude":40.73061,"longitude":-73.93524,"reserved":0,"last_update":"0001-01-01T00:00:00Z","name_a2s":"Uncletopia | New York City | 1 | All Maps","protocol":17,"map":"koth_brazil","folder":"tf","game":"Team Fortress","app_id":440,"player_count":3,"max_players":24,"Bots":0,"server_type":"Dedicated","server_os":"Linux","password":true,"vac":true,"version":"7961495","steam_id":85568392924469993,"keywords":["cp","nocrits","nodmgspread","uncletopia"],"game_id":440,"stv_port":27016,"stv_name":"Uncletopia | New York City | 1 | All Maps | STV","players":[{"user_id":12,"name":"GOLDIE","steam_id":76561199375258674,"connected_time":738000000000,"state":"active","ping":92},{"user_id":14,"name":"the pest","steam_id":76561198826298849,"connected_time":461000000000,"state":"active","ping":67},{"user_id":15,"name":"kdhbuilder","steam_id":76561199058095193,"connected_time":261000000000,"state":"active","ping":73}]},{"server_id":14,"name":"Uncletopia | New York City | 2 | All Maps","name_short":"nyc-2","host":"nyc-1.us.uncletopia.com","port":27025,"enabled":true,"region":"us-east","cc":"us","latitude":40.73061,"longitude":-73.93524,"reserved":0,"last_update":"0001-01-01T00:00:00Z","name_a2s":"Uncletopia | New York City | 2 | All Maps","protocol":17,"map":"pl_pier","folder":"tf","game":"Team Fortress","app_id":440,"player_count":24,"max_players":24,"Bots":0,"server_type":"Dedicated","server_os":"Linux","password":true,"vac":true,"version":"7961495","steam_id":85568392924469994,"keywords":["nocrits","nodmgspread","payload","uncletopia"],"game_id":440,"stv_port":27026,"stv_name":"Uncletopia | New York City | 2 | All Maps | STV","players":[{"user_id":48,"name":"He rolls his own","steam_id":76561198058162684,"connected_time":6530000000000,"state":"active","ping":48},{"user_id":139,"name":"FaeTheNefarious","steam_id":76561198133218035,"connected_time":255000000000,"state":"active","ping":74},{"user_id":95,"name":"Big Weeb Man","steam_id":76561198127819973,"connected_time":3304000000000,"state":"active","ping":75},{"user_id":114,"name":"BeefClapper420","steam_id":76561198080892634,"connected_time":2437000000000,"state":"active","ping":46},{"user_id":138,"name":"indi","steam_id":76561198045917538,"connected_time":269000000000,"state":"active","ping":73},{"user_id":118,"name":"Kraftlos","steam_id":76561198074350350,"connected_time":2209000000000,"state":"active","ping":48},{"user_id":135,"name":"‚ÜëSlimbro","steam_id":76561198088926489,"connected_time":459000000000,"state":"active","ping":51},{"user_id":136,"name":"Captain Demytri","steam_id":76561198097998607,"connected_time":431000000000,"state":"active","ping":78},{"user_id":134,"name":"ndvr (femboy (REAL))","steam_id":76561199379200102,"connected_time":470000000000,"state":"active","ping":43},{"user_id":140,"name":"swagerman90020 from oblock","steam_id":76561199196918355,"connected_time":117000000000,"state":"active","ping":71},{"user_id":129,"name":"muhammed","steam_id":76561198872251615,"connected_time":1046000000000,"state":"active","ping":79},{"user_id":130,"name":"Harry S. Truman","steam_id":76561197993339757,"connected_time":853000000000,"state":"active","ping":56},{"user_id":141,"name":"Sly","steam_id":76561198046116172,"connected_time":88000000000,"state":"active","ping":59},{"user_id":93,"name":"loscemo","steam_id":76561197994884609,"connected_time":3446000000000,"state":"active","ping":70},{"user_id":125,"name":"the puncher","steam_id":76561199140679685,"connected_time":1298000000000,"state":"active","ping":39},{"user_id":133,"name":"Colossal Falafel","steam_id":76561198108086245,"connected_time":477000000000,"state":"active","ping":58},{"user_id":116,"name":"Jason","steam_id":76561198107058140,"connected_time":2401000000000,"state":"active","ping":48},{"user_id":128,"name":"Emzial","steam_id":76561198048129750,"connected_time":1151000000000,"state":"active","ping":77},{"user_id":111,"name":"starfungus","steam_id":76561198158312789,"connected_time":2766000000000,"state":"active","ping":78},{"user_id":127,"name":"IceBreaker","steam_id":76561198056881701,"connected_time":1180000000000,"state":"active","ping":58},{"user_id":100,"name":"Nice21","steam_id":76561199427548141,"connected_time":3225000000000,"state":"active","ping":62},{"user_id":66,"name":"Big Yoshi","steam_id":76561199160576376,"connected_time":5501000000000,"state":"active","ping":130},{"user_id":126,"name":"Berb","steam_id":76561198193911899,"connected_time":1213000000000,"state":"active","ping":74},{"user_id":113,"name":"draining to stay happy","steam_id":76561198797823116,"connected_time":2467000000000,"state":"active","ping":47}]},{"server_id":15,"name":"Uncletopia | New York City | 3 | Stopwatch","name_short":"nyc-3","host":"nyc-1.us.uncletopia.com","port":27035,"enabled":true,"region":"us-east","cc":"us","latitude":40.73061,"longitude":-73.93524,"reserved":0,"last_update":"0001-01-01T00:00:00Z","name_a2s":"Uncletopia | New York City | 3 | Stopwatch","protocol":17,"map":"workshop/cp_reckoner_rc6.ugc674719999","folder":"tf","game":"Team Fortress","app_id":440,"player_count":0,"max_players":24,"Bots":0,"server_type":"Dedicated","server_os":"Linux","password":true,"vac":true,"version":"7961495","steam_id":85568392924742820,"keywords":["cp","nocrits","nodmgspread","uncletopia"],"game_id":440,"stv_port":27036,"stv_name":"Uncletopia | New York City | 3 | Stopwatch | STV","players":null},{"server_id":16,"name":"Uncletopia | New York City | 4 | Community","name_short":"nyc-4","host":"nyc-1.us.uncletopia.com","port":27045,"enabled":true,"region":"us-east","cc":"us","latitude":40.73061,"longitude":-73.93524,"reserved":0,"last_update":"0001-01-01T00:00:00Z","name_a2s":"Uncletopia | New York City | 4 | Community","protocol":17,"map":"workshop/cp_indulge.ugc528106646","folder":"tf","game":"Team Fortress","app_id":440,"player_count":0,"max_players":24,"Bots":0,"server_type":"Dedicated","server_os":"Linux","password":true,"vac":true,"version":"7961495","steam_id":85568392924742821,"keywords":["cp","nocrits","nodmgspread","uncletopia"],"game_id":440,"stv_port":27046,"stv_name":"Uncletopia | New York City | 4 | Community | STV","players":null},{"server_id":142,"name":"Uncletopia | S√£o Paulo | 1 | All Maps","name_short":"sao-1","host":"sao-1.br.uncletopia.com","port":27015,"enabled":true,"region":"sa","cc":"br","latitude":-23.533773,"longitude":-46.62529,"reserved":0,"last_update":"0001-01-01T00:00:00Z","name_a2s":"Uncletopia | S√£o Paulo | 1 | All Maps","protocol":17,"map":"koth_highpass","folder":"tf","game":"Team Fortress","app_id":440,"player_count":0,"max_players":24,"Bots":0,"server_type":"Dedicated","server_os":"Linux","password":true,"vac":true,"version":"7961495","steam_id":85568392924469996,"keywords":["cp","nocrits","nodmgspread","uncletopia"],"game_id":440,"stv_port":27016,"stv_name":"Uncletopia | S√£o Paulo | 1 | All Maps | STV","players":null},{"server_id":143,"name":"Uncletopia | S√£o Paulo | 2 | Community","name_short":"sao-2","host":"sao-2.br.uncletopia.com","port":27015,"enabled":true,"region":"sa","cc":"br","latitude":-23.533773,"longitude":-46.62529,"reserved":0,"last_update":"0001-01-01T00:00:00Z","name_a2s":"Uncletopia | S√£o Paulo | 2 | Community","protocol":17,"map":"workshop/koth_jamram_rc1a.ugc2964065613","folder":"tf","game":"Team Fortress","app_id":440,"player_count":0,"max_players":24,"Bots":0,"server_type":"Dedicated","server_os":"Linux","password":true,"vac":true,"version":"7961495","steam_id":85568392924485349,"keywords":["cp","nocrits","nodmgspread","uncletopia"],"game_id":440,"stv_port":27016,"stv_name":"Uncletopia | S√£o Paulo | 2 | Community | STV","players":null},{"server_id":7,"name":"Uncletopia | Seattle | 1 | All Maps","name_short":"sea-1","host":"sea-1.us.uncletopia.com","port":27015,"enabled":true,"region":"us-west","cc":"us","latitude":47.608013,"longitude":-122.33517,"reserved":0,"last_update":"0001-01-01T00:00:00Z","name_a2s":"Uncletopia | Seattle | 1 | All Maps","protocol":17,"map":"koth_viaduct","folder":"tf","game":"Team Fortress","app_id":440,"player_count":0,"max_players":24,"Bots":0,"server_type":"Dedicated","server_os":"Linux","password":true,"vac":true,"version":"7961495","steam_id":85568392924469997,"keywords":["cp","nocrits","nodmgspread","uncletopia"],"game_id":440,"stv_port":27016,"stv_name":"Uncletopia | Seattle | 1 | All Maps | STV","players":null},{"server_id":119,"name":"Uncletopia | Seattle | 2 | All Maps","name_short":"sea-2","host":"sea-1.us.uncletopia.com","port":27025,"enabled":true,"region":"us-west","cc":"us","latitude":47.608013,"longitude":-122.33517,"reserved":0,"last_update":"0001-01-01T00:00:00Z","name_a2s":"Uncletopia | Seattle | 2 | All Maps","protocol":17,"map":"koth_lakeside_final","folder":"tf","game":"Team Fortress","app_id":440,"player_count":0,"max_players":24,"Bots":0,"server_type":"Dedicated","server_os":"Linux","password":true,"vac":true,"version":"7961495","steam_id":85568392924469998,"keywords":["cp","nocrits","nodmgspread","uncletopia"],"game_id":440,"stv_port":27026,"stv_name":"Uncletopia | Seattle | 2 | All Maps | STV","players":null},{"server_id":406,"name":"Uncletopia | Seattle | 3 | Stopwatch","name_short":"sea-3","host":"sea-1.us.uncletopia.com","port":27035,"enabled":true,"region":"us-west","cc":"us","latitude":47.608013,"longitude":-122.33517,"reserved":0,"last_update":"0001-01-01T00:00:00Z","name_a2s":"Uncletopia | Seattle | 3 | Stopwatch","protocol":17,"map":"cp_gullywash_final1","folder":"tf","game":"Team Fortress","app_id":440,"player_count":0,"max_players":24,"Bots":0,"server_type":"Dedicated","server_os":"Linux","password":true,"vac":true,"version":"7961495","steam_id":85568392924515217,"keywords":["cp","nocrits","nodmgspread","uncletopia"],"game_id":440,"stv_port":27036,"stv_name":"Uncletopia | Seattle | 3 | Stopwatch | STV","players":null},{"server_id":17,"name":"Uncletopia | San Francisco | 1 | All Maps","name_short":"sfo-1","host":"sfo-1.us.uncletopia.com","port":27015,"enabled":true,"region":"us-west","cc":"us","latitude":37.77397,"longitude":-122.4313,"reserved":0,"last_update":"0001-01-01T00:00:00Z","name_a2s":"Uncletopia | San Francisco | 1 | All Maps","protocol":17,"map":"pl_borneo","folder":"tf","game":"Team Fortress","app_id":440,"player_count":24,"max_players":24,"Bots":0,"server_type":"Dedicated","server_os":"Linux","password":true,"vac":true,"version":"7961495","steam_id":85568392924469999,"keywords":["nocrits","nodmgspread","payload","uncletopia"],"game_id":440,"stv_port":27016,"stv_name":"Uncletopia | San Francisco | 1 | All Maps | STV","players":[{"user_id":108,"name":"The Grungler","steam_id":76561198126561438,"connected_time":2890000000000,"state":"active","ping":51},{"user_id":137,"name":"-_-","steam_id":76561199190800520,"connected_time":136000000000,"state":"active","ping":58},{"user_id":130,"name":"Sylvain","steam_id":76561198113385271,"connected_time":1050000000000,"state":"active","ping":111},{"user_id":121,"name":"Bunni","steam_id":76561198065169997,"connected_time":2045000000000,"state":"active","ping":126},{"user_id":37,"name":"LeFunnyMan","steam_id":76561199081645289,"connected_time":8397000000000,"state":"active","ping":84},{"user_id":117,"name":"Blons","steam_id":76561198370402302,"connected_time":2258000000000,"state":"active","ping":91},{"user_id":131,"name":"Lord Shmeck","steam_id":76561198023851456,"connected_time":1004000000000,"state":"active","ping":67},{"user_id":129,"name":"ParmeSean","steam_id":76561198116021770,"connected_time":1491000000000,"state":"active","ping":51},{"user_id":96,"name":"I_drinkmilk","steam_id":76561198128886110,"connected_time":3405000000000,"state":"active","ping":56},{"user_id":69,"name":"Sudsen","steam_id":76561198370603787,"connected_time":4754000000000,"state":"active","ping":90},{"user_id":125,"name":"rumidog","steam_id":76561198046896005,"connected_time":1855000000000,"state":"active","ping":113},{"user_id":106,"name":"Anyar","steam_id":76561198160174097,"connected_time":2980000000000,"state":"active","ping":94},{"user_id":78,"name":"felon","steam_id":76561199100342013,"connected_time":4494000000000,"state":"active","ping":60},{"user_id":138,"name":"Question Mark","steam_id":76561198046854832,"connected_time":124000000000,"state":"active","ping":72},{"user_id":72,"name":"carly","steam_id":76561198094118479,"connected_time":4639000000000,"state":"active","ping":52},{"user_id":102,"name":"Leonardo Decappaccino","steam_id":76561198829737019,"connected_time":3023000000000,"state":"active","ping":87},{"user_id":73,"name":"bloody fruit shop owner","steam_id":76561198017228729,"connected_time":4602000000000,"state":"active","ping":104},{"user_id":136,"name":"snoopie","steam_id":76561198316441887,"connected_time":521000000000,"state":"active","ping":74},{"user_id":120,"name":"Supersonic","steam_id":76561198042167127,"connected_time":2224000000000,"state":"active","ping":73},{"user_id":134,"name":"Kid named download","steam_id":76561199192074448,"connected_time":804000000000,"state":"active","ping":125},{"user_id":124,"name":"scrimblo","steam_id":76561199150833796,"connected_time":1924000000000,"state":"active","ping":61},{"user_id":139,"name":"Honorable Chairman Meow","steam_id":76561198059060552,"connected_time":57000000000,"state":"active","ping":89},{"user_id":101,"name":"amagicowl","steam_id":76561199060487814,"connected_time":3103000000000,"state":"active","ping":69},{"user_id":104,"name":"Open Mailbox","steam_id":76561198051933580,"connected_time":3021000000000,"state":"active","ping":118}]},{"server_id":18,"name":"Uncletopia | San Francisco | 2 | All Maps","name_short":"sfo-2","host":"sfo-1.us.uncletopia.com","port":27025,"enabled":true,"region":"us-west","cc":"us","latitude":37.77397,"longitude":-122.4313,"reserved":0,"last_update":"0001-01-01T00:00:00Z","name_a2s":"Uncletopia | San Francisco | 2 | All Maps","protocol":17,"map":"cp_freight_final1","folder":"tf","game":"Team Fortress","app_id":440,"player_count":0,"max_players":24,"Bots":0,"server_type":"Dedicated","server_os":"Linux","password":true,"vac":true,"version":"7961495","steam_id":85568392924470000,"keywords":["cp","nocrits","nodmgspread","uncletopia"],"game_id":440,"stv_port":27026,"stv_name":"Uncletopia | San Francisco | 2 | All Maps | STV","players":null},{"server_id":19,"name":"Uncletopia | San Francisco | 3 | Stopwatch","name_short":"sfo-3","host":"sfo-1.us.uncletopia.com","port":27035,"enabled":true,"region":"us-west","cc":"us","latitude":37.77397,"longitude":-122.4313,"reserved":0,"last_update":"0001-01-01T00:00:00Z","name_a2s":"Uncletopia | San Francisco | 3 | Stopwatch","protocol":17,"map":"workshop/koth_product_final.ugc454272353","folder":"tf","game":"Team Fortress","app_id":440,"player_count":0,"max_players":24,"Bots":0,"server_type":"Dedicated","server_os":"Linux","password":true,"vac":true,"version":"7961495","steam_id":85568392924742824,"keywords":["cp","nocrits","nodmgspread","uncletopia"],"game_id":440,"stv_port":27036,"stv_name":"Uncletopia | San Francisco | 3 | Stopwatch | STV","players":null},{"server_id":20,"name":"Uncletopia | San Francisco | 4 | Community","name_short":"sfo-4","host":"sfo-1.us.uncletopia.com","port":27045,"enabled":true,"region":"us-west","cc":"us","latitude":37.77397,"longitude":-122.4313,"reserved":0,"last_update":"0001-01-01T00:00:00Z","name_a2s":"Uncletopia | San Francisco | 4 | Community","protocol":17,"map":"workshop/pl_cactuscanyon_redux_final2.ugc2579644293","folder":"tf","game":"Team Fortress","app_id":440,"player_count":0,"max_players":24,"Bots":0,"server_type":"Dedicated","server_os":"Linux","password":true,"vac":true,"version":"7961495","steam_id":85568392924742826,"keywords":["nocrits","nodmgspread","payload","uncletopia"],"game_id":440,"stv_port":27046,"stv_name":"Uncletopia | San Francisco | 4 | Community | STV","players":null},{"server_id":141,"name":"Uncletopia | Sydney | 1 | All Maps","name_short":"syd-1","host":"syd-1.au.uncletopia.com","port":27015,"enabled":true,"region":"au","cc":"au","latitude":-33.865143,"longitude":151.2099,"reserved":0,"last_update":"0001-01-01T00:00:00Z","name_a2s":"Uncletopia | Sydney | 1 | All Maps","protocol":17,"map":"cp_sunshine","folder":"tf","game":"Team Fortress","app_id":440,"player_count":0,"max_players":24,"Bots":0,"server_type":"Dedicated","server_os":"Linux","password":true,"vac":true,"version":"7961495","steam_id":85568392924470001,"keywords":["cp","nocrits","nodmgspread","uncletopia"],"game_id":440,"stv_port":27016,"stv_name":"Uncletopia | Sydney | 1 | All Maps | STV","players":null},{"server_id":123,"name":"Uncletopia | Sydney | 2 | All Maps","name_short":"syd-2","host":"syd-1.au.uncletopia.com","port":27025,"enabled":true,"region":"au","cc":"au","latitude":-33.865143,"longitude":151.2099,"reserved":0,"last_update":"0001-01-01T00:00:00Z","name_a2s":"Uncletopia | Sydney | 2 | All Maps","protocol":17,"map":"koth_cascade","folder":"tf","game":"Team Fortress","app_id":440,"player_count":0,"max_players":24,"Bots":0,"server_type":"Dedicated","server_os":"Linux","password":true,"vac":true,"version":"7961495","steam_id":85568392924470002,"keywords":["cp","nocrits","nodmgspread","uncletopia"],"game_id":440,"stv_port":27026,"stv_name":"Uncletopia | Sydney | 2 | All Maps | STV","players":null},{"server_id":395,"name":"Uncletopia | Sydney | 3 | All Maps","name_short":"syd-3","host":"syd-1.au.uncletopia.com","port":27035,"enabled":true,"region":"au","cc":"au","latitude":-33.865143,"longitude":151.2099,"reserved":0,"last_update":"0001-01-01T00:00:00Z","name_a2s":"Uncletopia | Sydney | 3 | All Maps","protocol":17,"map":"cp_mountainlab","folder":"tf","game":"Team Fortress","app_id":440,"player_count":0,"max_players":24,"Bots":0,"server_type":"Dedicated","server_os":"Linux","password":true,"vac":true,"version":"7961495","steam_id":85568392925194467,"keywords":["cp","nocrits","nodmgspread","uncletopia"],"game_id":440,"stv_port":27036,"stv_name":"Uncletopia | Sydney | 3 | All Maps | STV","players":null},{"server_id":396,"name":"Uncletopia | Sydney | 4 | All Maps","name_short":"syd-4","host":"syd-1.au.uncletopia.com","port":27045,"enabled":true,"region":"au","cc":"au","latitude":-33.865143,"longitude":151.2099,"reserved":0,"last_update":"0001-01-01T00:00:00Z","name_a2s":"Uncletopia | Sydney | 4 | All Maps","protocol":17,"map":"koth_lakeside_final","folder":"tf","game":"Team Fortress","app_id":440,"player_count":0,"max_players":24,"Bots":0,"server_type":"Dedicated","server_os":"Linux","password":true,"vac":true,"version":"7961495","steam_id":85568392925397958,"keywords":["cp","nocrits","nodmgspread","uncletopia"],"game_id":440,"stv_port":27046,"stv_name":"Uncletopia | Sydney | 4 | All Maps | STV","players":null},{"server_id":58,"name":"Uncletopia | Sydney | 5 | Stopwatch","name_short":"syd-5","host":"syd-1.au.uncletopia.com","port":27055,"enabled":true,"region":"au","cc":"au","latitude":-33.865143,"longitude":151.2099,"reserved":0,"last_update":"0001-01-01T00:00:00Z","name_a2s":"Uncletopia | Sydney | 5 | Stopwatch","protocol":17,"map":"workshop/pl_summercoast_rc8e.ugc1761528829","folder":"tf","game":"Team Fortress","app_id":440,"player_count":0,"max_players":24,"Bots":0,"server_type":"Dedicated","server_os":"Linux","password":true,"vac":true,"version":"7961495","steam_id":85568392925397959,"keywords":["nocrits","nodmgspread","payload","uncletopia"],"game_id":440,"stv_port":27056,"stv_name":"Uncletopia | Sydney | 5 | Stopwatch | STV","players":null},{"server_id":59,"name":"Uncletopia | Sydney | 6 | Community","name_short":"syd-6","host":"syd-1.au.uncletopia.com","port":27065,"enabled":true,"region":"au","cc":"au","latitude":-33.865143,"longitude":151.2099,"reserved":0,"last_update":"0001-01-01T00:00:00Z","name_a2s":"Uncletopia | Sydney | 6 | Community","protocol":17,"map":"workshop/koth_trenchfoot_ab1.ugc731436616","folder":"tf","game":"Team Fortress","app_id":440,"player_count":0,"max_players":24,"Bots":0,"server_type":"Dedicated","server_os":"Linux","password":true,"vac":true,"version":"7961495","steam_id":85568392925397960,"keywords":["cp","nocrits","nodmgspread","uncletopia"],"game_id":440,"stv_port":27066,"stv_name":"Uncletopia | Sydney | 6 | Community | STV","players":null},{"server_id":49,"name":"Uncletopia | Warsaw | 1 | One Thousand Uncles","name_short":"waw-1","host":"waw-1.pl.uncletopia.com","port":27015,"enabled":true,"region":"eu","cc":"pl","latitude":52.2297,"longitude":21.017532,"reserved":0,"last_update":"0001-01-01T00:00:00Z","name_a2s":"Uncletopia | Warsaw | 1 | One Thousand Uncles","protocol":17,"map":"cp_dustbowl","folder":"tf","game":"Team Fortress","app_id":440,"player_count":28,"max_players":32,"Bots":16,"server_type":"Dedicated","server_os":"Linux","password":true,"vac":true,"version":"7961495","steam_id":85568392925397850,"keywords":["alltalk","bots","cp","danepve","increased_maxplayers","norespawntime","uncletopia"],"game_id":440,"stv_port":0,"stv_name":"","players":[{"user_id":563,"name":"Noyesnogo","steam_id":76561199117087235,"connected_time":964000000000,"state":"active","ping":96},{"user_id":564,"name":"loveylo","steam_id":76561198300592801,"connected_time":788000000000,"state":"active","ping":86},{"user_id":571,"name":"luckyastroman","steam_id":76561199027500574,"connected_time":86000000000,"state":"active","ping":36},{"user_id":488,"name":"Max","steam_id":76561198080956366,"connected_time":8091000000000,"state":"active","ping":54},{"user_id":502,"name":"Rusk","steam_id":76561198982057397,"connected_time":6342000000000,"state":"active","ping":60},{"user_id":568,"name":"dvarfoo","steam_id":76561198361245865,"connected_time":204000000000,"state":"active","ping":59},{"user_id":513,"name":"–ú–∏—Å—Ç–µ—Ä –ø–µ–Ω–∏—Å","steam_id":76561198208035376,"connected_time":4803000000000,"state":"active","ping":54},{"user_id":545,"name":"UNCLE SEM (MADNESS EDGE)","steam_id":76561199026872580,"connected_time":2782000000000,"state":"active","ping":113},{"user_id":570,"name":"Kotlin","steam_id":76561198443331716,"connected_time":99000000000,"state":"active","ping":75},{"user_id":522,"name":"G.L.O.R.I.","steam_id":76561198134414380,"connected_time":3573000000000,"state":"active","ping":72},{"user_id":549,"name":"_ALZGAMER420_","steam_id":76561198069530746,"connected_time":2279000000000,"state":"active","ping":128},{"user_id":572,"name":"decasu","steam_id":76561198830651352,"connected_time":66000000000,"state":"active","ping":42}]},{"server_id":50,"name":"Uncletopia | Warsaw | 2 | One Thousand Uncles","name_short":"waw-2","host":"waw-1.pl.uncletopia.com","port":27025,"enabled":true,"region":"eu","cc":"pl","latitude":52.2297,"longitude":21.017532,"reserved":0,"last_update":"0001-01-01T00:00:00Z","name_a2s":"Uncletopia | Warsaw | 2 | One Thousand Uncles","protocol":17,"map":"pl_goldrush","folder":"tf","game":"Team Fortress","app_id":440,"player_count":0,"max_players":32,"Bots":0,"server_type":"Dedicated","server_os":"Linux","password":true,"vac":true,"version":"7961495","steam_id":85568392925397851,"keywords":["alltalk","danepve","increased_maxplayers","norespawntime","payload","uncletopia"],"game_id":440,"stv_port":0,"stv_name":"","players":null},{"server_id":51,"name":"Uncletopia | Warsaw | 3 | All Maps","name_short":"waw-3","host":"waw-1.pl.uncletopia.com","port":27035,"enabled":true,"region":"eu","cc":"pl","latitude":52.2297,"longitude":21.017532,"reserved":0,"last_update":"0001-01-01T00:00:00Z","name_a2s":"Uncletopia | Warsaw | 3 | All Maps","protocol":17,"map":"koth_lakeside_final","folder":"tf","game":"Team Fortress","app_id":440,"player_count":0,"max_players":24,"Bots":0,"server_type":"Dedicated","server_os":"Linux","password":true,"vac":true,"version":"7961495","steam_id":85568392925397852,"keywords":["cp","nocrits","nodmgspread","uncletopia"],"game_id":440,"stv_port":27036,"stv_name":"Uncletopia | Warsaw | 3 | All Maps | STV","players":null},{"server_id":52,"name":"Uncletopia | Warsaw | 4 | All Maps","name_short":"waw-4","host":"waw-1.pl.uncletopia.com","port":27045,"enabled":true,"region":"eu","cc":"pl","latitude":52.2297,"longitude":21.017532,"reserved":0,"last_update":"0001-01-01T00:00:00Z","name_a2s":"Uncletopia | Warsaw | 4 | All Maps","protocol":17,"map":"koth_lakeside_final","folder":"tf","game":"Team Fortress","app_id":440,"player_count":0,"max_players":24,"Bots":0,"server_type":"Dedicated","server_os":"Linux","password":true,"vac":true,"version":"7961495","steam_id":85568392925397853,"keywords":["cp","nocrits","nodmgspread","uncletopia"],"game_id":440,"stv_port":27046,"stv_name":"Uncletopia | Warsaw | 4 | All Maps | STV","players":null},{"server_id":53,"name":"Uncletopia | Warsaw | 5 | Stopwatch","name_short":"waw-5","host":"waw-1.pl.uncletopia.com","port":27055,"enabled":true,"region":"eu","cc":"pl","latitude":52.2297,"longitude":21.017532,"reserved":0,"last_update":"0001-01-01T00:00:00Z","name_a2s":"Uncletopia | Warsaw | 5 | Stopwatch","protocol":17,"map":"workshop/koth_bagel_rc6.ugc2514036946","folder":"tf","game":"Team Fortress","app_id":440,"player_count":0,"max_players":24,"Bots":0,"server_type":"Dedicated","server_os":"Linux","password":true,"vac":true,"version":"7961495","steam_id":85568392925397854,"keywords":["cp","nocrits","nodmgspread","uncletopia"],"game_id":440,"stv_port":27056,"stv_name":"Uncletopia | Warsaw | 5 | Stopwatch | STV","players":null},{"server_id":54,"name":"Uncletopia | Warsaw | 6 | Community","name_short":"waw-6","host":"waw-1.pl.uncletopia.com","port":27065,"enabled":true,"region":"eu","cc":"pl","latitude":52.2297,"longitude":21.017532,"reserved":0,"last_update":"0001-01-01T00:00:00Z","name_a2s":"Uncletopia | Warsaw | 6 | Community","protocol":17,"map":"workshop/rd_asteroid_redux_b1.ugc2154902912","folder":"tf","game":"Team Fortress","app_id":440,"player_count":0,"max_players":24,"Bots":0,"server_type":"Dedicated","server_os":"Linux","password":true,"vac":true,"version":"7961495","steam_id":85568392925397856,"keywords":["beta","nocrits","nodmgspread","rd","uncletopia"],"game_id":440,"stv_port":27066,"stv_name":"Uncletopia | Warsaw | 6 | Community | STV","players":null}]}