{"status":true,"message":"","result":[{"server_id":9,"name":"Uncletopia | Atlanta | 1 | All Maps","name_short":"atl-1","host":"atl-1.us.uncletopia.com","port":27015,"enabled":true,"region":"us-east","cc":"us","latitude":33.753746,"longitude":-84.38633,"reserved":0,"last_update":"0001-01-01T00:00:00Z","name_a2s":"Uncletopia | Atlanta | 1 | All Maps","protocol":17,"map":"pl_borneo","folder":"tf","game":"Team Fortress","app_id":440,"player_count":24,"max_players":24,"Bots":0,"server_type":"Dedicated","server_os":"Linux","password":true,"vac":true,"version":"7757534","steam_id":85568392924469982,"keywords":["nocrits","nodmgspread","payload","uncletopia"],"game_id":440,"stv_port":27016,"stv_name":"Uncletopia | Atlanta | 1 | All Maps | STV","players":[{"user_id":117,"name":"ammo delivery","steam_id":76561198328618417,"connected_time":4148000000000,"state":"active","ping":96},{"user_id":146,"name":"Sauce Boss","steam_id":76561198000156997,"connected_time":1628000000000,"state":"active","ping":64},{"user_id":197,"name":"The Son of Jenova","steam_id":76561198388948918,"connected_time":25000000000,"state":"active","ping":60},{"user_id":170,"name":"[BBW] Justario","steam_id":76561198016095410,"connected_time":280000000000,"state":"active","ping":64},{"user_id":185,"name":"Digi;Man","steam_id":76561198035679260,"connected_time":258000000000,"state":"active","ping":59},{"user_id":186,"name":"Jeeper","steam_id":76561198155583692,"connected_time":248000000000,"state":"active","ping":65},{"user_id":162,"name":"Mikael_01","steam_id":76561199080253129,"connected_time":1082000000000,"state":"active","ping":181},{"user_id":113,"name":"Ignatius J. Reilly","steam_id":76561198066958868,"connected_time":4888000000000,"state":"active","ping":73},{"user_id":150,"name":"spc1","steam_id":76561198050136796,"connected_time":1484000000000,"state":"active","ping":90},{"user_id":160,"name":"Duckywinner","steam_id":76561198254828139,"connected_time":1165000000000,"state":"active","ping":65},{"user_id":143,"name":"Caught a Thundah","steam_id":76561198054495572,"connected_time":2225000000000,"state":"active","ping":73},{"user_id":154,"name":"Albino Jellyfish","steam_id":76561198208561097,"connected_time":1344000000000,"state":"active","ping":66},{"user_id":155,"name":"NovaSc6ut","steam_id":76561198277163301,"connected_time":1321000000000,"state":"active","ping":83},{"user_id":166,"name":"i eat stickers","steam_id":76561198040602075,"connected_time":814000000000,"state":"active","ping":100},{"user_id":124,"name":"‚ñ≤‚ñº‚ñ≤ Paul Atreideeznuts","steam_id":76561198015714075,"connected_time":3705000000000,"state":"active","ping":86},{"user_id":187,"name":"Marc G","steam_id":76561198062650363,"connected_time":241000000000,"state":"active","ping":67},{"user_id":168,"name":"Mink Crazy","steam_id":76561198373943918,"connected_time":361000000000,"state":"active","ping":71},{"user_id":158,"name":"shidass","steam_id":76561199067950904,"connected_time":1237000000000,"state":"active","ping":71},{"user_id":167,"name":"Big Ears","steam_id":76561198851363077,"connected_time":546000000000,"state":"active","ping":54},{"user_id":37,"name":"creepycrawler","steam_id":76561198352016831,"connected_time":10247000000000,"state":"active","ping":76},{"user_id":161,"name":"!! BRO IS FLABBERGASTED !!","steam_id":76561198135036396,"connected_time":1158000000000,"state":"active","ping":71},{"user_id":188,"name":"cleopatra","steam_id":76561199382129166,"connected_time":225000000000,"state":"active","ping":68},{"user_id":144,"name":"luxin","steam_id":76561198399383047,"connected_time":1960000000000,"state":"active","ping":51},{"user_id":194,"name":"dewd","steam_id":76561198813574552,"connected_time":60000000000,"state":"active","ping":51}]},{"server_id":104,"name":"Uncletopia | Atlanta | 2 | All Maps","name_short":"atl-2","host":"atl-1.us.uncletopia.com","port":27025,"enabled":true,"region":"us-east","cc":"us","latitude":33.753746,"longitude":-84.38633,"reserved":0,"last_update":"0001-01-01T00:00:00Z","name_a2s":"Uncletopia | Atlanta | 2 | All Maps","protocol":17,"map":"cp_steel","folder":"tf","game":"Team Fortress","app_id":440,"player_count":12,"max_players":24,"Bots":0,"server_type":"Dedicated","server_os":"Linux","password":true,"vac":true,"version":"7757534","steam_id":85568392924469983,"keywords":["cp","nocrits","nodmgspread","uncletopia"],"game_id":440,"stv_port":27026,"stv_name":"Uncletopia | Atlanta | 2 | All Maps | STV","players":[{"user_id":5,"name":"Mega","steam_id":76561198015987010,"connected_time":2723000000000,"state":"active","ping":80},{"user_id":6,"name":"copium addict","steam_id":76561199401665282,"connected_time":2579000000000,"state":"active","ping":192},{"user_id":7,"name":"chiswola","steam_id":76561198046920142,"connected_time":1588000000000,"state":"active","ping":86},{"user_id":8,"name":"A_Malebolgia","steam_id":76561198097722818,"connected_time":937000000000,"state":"active","ping":88},{"user_id":13,"name":"chikimoco","steam_id":76561198145320480,"connected_time":442000000000,"state":"active","ping":84},{"user_id":12,"name":"Snapdragron","steam_id":76561198348485302,"connected_time":459000000000,"state":"active","ping":75},{"user_id":14,"name":"Asanez3","steam_id":76561198037381436,"connected_time":332000000000,"state":"active","ping":72},{"user_id":15,"name":"Stomp","steam_id":76561198167765748,"connected_time":283000000000,"state":"active","ping":60},{"user_id":16,"name":"SuperFresh","steam_id":76561198200723198,"connected_time":271000000000,"state":"active","ping":56},{"user_id":17,"name":"Plague Roach","steam_id":76561198037953356,"connected_time":205000000000,"state":"active","ping":91},{"user_id":18,"name":"Chaos Phoenix","steam_id":76561198121866418,"connected_time":78000000000,"state":"active","ping":136},{"user_id":20,"name":"Eugene SunScreen","steam_id":76561198344119204,"connected_time":67000000000,"state":"active","ping":118}]},{"server_id":400,"name":"Uncletopia | Atlanta | 3 | Community","name_short":"atl-3","host":"atl-1.us.uncletopia.com","port":27035,"enabled":true,"region":"us-east","cc":"us","latitude":33.753746,"longitude":-84.38633,"reserved":0,"last_update":"0001-01-01T00:00:00Z","name_a2s":"Uncletopia | Atlanta | 3 | Community","protocol":17,"map":"cp_snakewater_final1","folder":"tf","game":"Team Fortress","app_id":440,"player_count":0,"max_players":24,"Bots":0,"server_type":"Dedicated","server_os":"Linux","password":true,"vac":true,"version":"7757534","steam_id":85568392924515187,"keywords":["cp","nocrits","nodmgspread","uncletopia"],"game_id":440,"stv_port":27036,"stv_name":"Uncletopia | Atlanta | 3 | Community | STV","players":null},{"server_id":401,"name":"Uncletopia | Atlanta | 4 | No Payload","name_short":"atl-4","host":"atl-1.us.uncletopia.com","port":27045,"enabled":true,"region":"us-east","cc":"us","latitude":33.753746,"longitude":-84.38633,"reserved":0,"last_update":"0001-01-01T00:00:00Z","name_a2s":"","protocol":0,"map":"","folder":"","game":"","app_id":0,"player_count":0,"max_players":0,"Bots":0,"server_type":"","server_os":"","password":false,"vac":false,"version":"","steam_id":0,"keywords":null,"game_id":0,"stv_port":0,"stv_name":"","players":null},{"server_id":2,"name":"Uncletopia | Chicago | 1 | All Maps","name_short":"chi-1","host":"chi-1.us.uncletopia.com","port":27015,"enabled":true,"region":"us-central","cc":"us","latitude":41.881832,"longitude":-87.62318,"reserved":0,"last_update":"0001-01-01T00:00:00Z","name_a2s":"Uncletopia | Chicago | 1 | All Maps","protocol":17,"map":"pl_pier","folder":"tf","game":"Team Fortress","app_id":440,"player_count":24,"max_players":24,"Bots":0,"server_type":"Dedicated","server_os":"Linux","password":true,"vac":true,"version":"7757534","steam_id":85568392924469984,"keywords":["nocrits","nodmgspread","payload","uncletopia"],"game_id":440,"stv_port":27016,"stv_name":"Uncletopia | Chicago | 1 | All Maps | STV","players":[{"user_id":258,"name":"i really like this dog :)","steam_id":76561198882404753,"connected_time":518000000000,"state":"active","ping":77},{"user_id":244,"name":"Prsm","steam_id":76561198053344995,"connected_time":1956000000000,"state":"active","ping":53},{"user_id":180,"name":"Acehay14","steam_id":76561198052373291,"connected_time":5170000000000,"state":"active","ping":56},{"user_id":250,"name":"Buswolley","steam_id":76561197995205571,"connected_time":1109000000000,"state":"active","ping":99},{"user_id":200,"name":"Fred the Beard","steam_id":76561198009310649,"connected_time":4414000000000,"state":"active","ping":59},{"user_id":251,"name":"TI-83 Plus","steam_id":76561198316134443,"connected_time":923000000000,"state":"active","ping":85},{"user_id":265,"name":"Penrose42","steam_id":76561198288577396,"connected_time":209000000000,"state":"active","ping":88},{"user_id":249,"name":"Ciela","steam_id":76561198799403828,"connected_time":1320000000000,"state":"active","ping":47},{"user_id":163,"name":"Resh420","steam_id":76561198066619792,"connected_time":7457000000000,"state":"active","ping":64},{"user_id":223,"name":"Florence Jenkins","steam_id":76561198023894049,"connected_time":3402000000000,"state":"active","ping":98},{"user_id":261,"name":"Chinese \"Weather\" Balloon","steam_id":76561198031675881,"connected_time":294000000000,"state":"active","ping":47},{"user_id":260,"name":"LerN","steam_id":76561198083463877,"connected_time":353000000000,"state":"active","ping":60},{"user_id":262,"name":"Gnarly Shark Bite","steam_id":76561198004058342,"connected_time":262000000000,"state":"active","ping":74},{"user_id":255,"name":"Bread Slice","steam_id":76561199075936060,"connected_time":698000000000,"state":"active","ping":71},{"user_id":263,"name":"poe","steam_id":76561198155720118,"connected_time":228000000000,"state":"active","ping":47},{"user_id":240,"name":"Acro Banwagon","steam_id":76561198092451804,"connected_time":2094000000000,"state":"active","ping":68},{"user_id":165,"name":"enmgxcltayiqoacx","steam_id":76561197974965536,"connected_time":7139000000000,"state":"active","ping":60},{"user_id":248,"name":"Mixomin","steam_id":76561198295061570,"connected_time":1546000000000,"state":"active","ping":56},{"user_id":242,"name":"SmallAngryCrow","steam_id":76561199188941225,"connected_time":2074000000000,"state":"active","ping":63},{"user_id":264,"name":"27 blends","steam_id":76561197997100185,"connected_time":221000000000,"state":"active","ping":90},{"user_id":233,"name":"sqerkbo","steam_id":76561198080012700,"connected_time":2271000000000,"state":"active","ping":61},{"user_id":252,"name":"PoisonIvy","steam_id":76561198072384574,"connected_time":740000000000,"state":"active","ping":50},{"user_id":256,"name":"B·µ¢g B‚Çí‚Çõ‚Çõ","steam_id":76561198090271815,"connected_time":696000000000,"state":"active","ping":118},{"user_id":253,"name":"Missing Minus","steam_id":76561198120822928,"connected_time":740000000000,"state":"active","ping":60}]},{"server_id":106,"name":"Uncletopia | Chicago | 2 | All Maps","name_short":"chi-2","host":"chi-1.us.uncletopia.com","port":27025,"enabled":true,"region":"us-central","cc":"us","latitude":41.881832,"longitude":-87.62318,"reserved":0,"last_update":"0001-01-01T00:00:00Z","name_a2s":"Uncletopia | Chicago | 2 | All Maps","protocol":17,"map":"pl_borneo","folder":"tf","game":"Team Fortress","app_id":440,"player_count":23,"max_players":24,"Bots":0,"server_type":"Dedicated","server_os":"Linux","password":true,"vac":true,"version":"7757534","steam_id":85568392924469985,"keywords":["nocrits","nodmgspread","payload","uncletopia"],"game_id":440,"stv_port":27026,"stv_name":"Uncletopia | Chicago | 2 | All Maps | STV","players":[{"user_id":286,"name":"peppion spaghet","steam_id":76561199220539460,"connected_time":118000000000,"state":"active","ping":69},{"user_id":283,"name":"James Dong","steam_id":76561198130434298,"connected_time":637000000000,"state":"active","ping":99},{"user_id":220,"name":"SanitysEdge","steam_id":76561198130732813,"connected_time":6245000000000,"state":"active","ping":103},{"user_id":259,"name":"Satori Komeiji","steam_id":76561198158211423,"connected_time":2832000000000,"state":"active","ping":101},{"user_id":282,"name":"∆ê’å—¥∆≥","steam_id":76561198099470277,"connected_time":733000000000,"state":"active","ping":82},{"user_id":287,"name":"Gaskranx","steam_id":76561198020269547,"connected_time":54000000000,"state":"active","ping":65},{"user_id":249,"name":"evil autistic","steam_id":76561198367954353,"connected_time":3511000000000,"state":"active","ping":49},{"user_id":224,"name":"E4Estrogen","steam_id":76561198085813708,"connected_time":6101000000000,"state":"active","ping":65},{"user_id":240,"name":"aiden","steam_id":76561198449527009,"connected_time":4838000000000,"state":"active","ping":94},{"user_id":278,"name":"Worst Scenario","steam_id":76561199052130229,"connected_time":1040000000000,"state":"active","ping":57},{"user_id":284,"name":"D0VE","steam_id":76561198151618566,"connected_time":480000000000,"state":"active","ping":83},{"user_id":269,"name":"SirJellyRolls","steam_id":76561198119277244,"connected_time":1573000000000,"state":"active","ping":74},{"user_id":281,"name":"gl1tchr","steam_id":76561198302661983,"connected_time":860000000000,"state":"active","ping":76},{"user_id":288,"name":"Be Positive's Brother","steam_id":76561198131288571,"connected_time":45000000000,"state":"active","ping":102},{"user_id":187,"name":"PEPPINO SPAGHETTI","steam_id":76561198084849541,"connected_time":8712000000000,"state":"active","ping":56},{"user_id":260,"name":"Marisa Kirasame","steam_id":76561198337692867,"connected_time":2203000000000,"state":"active","ping":65},{"user_id":279,"name":"cooked chicken enjoyer","steam_id":76561198278282836,"connected_time":1008000000000,"state":"active","ping":47},{"user_id":280,"name":"CamZGamer7","steam_id":76561199405045529,"connected_time":999000000000,"state":"active","ping":118},{"user_id":285,"name":"Wahooka","steam_id":76561197962240925,"connected_time":475000000000,"state":"active","ping":54},{"user_id":252,"name":"Evolution","steam_id":76561198144767370,"connected_time":3258000000000,"state":"active","ping":47},{"user_id":273,"name":"PixelPeril | Twitch","steam_id":76561198096221632,"connected_time":1298000000000,"state":"active","ping":61},{"user_id":267,"name":"Provocator","steam_id":76561197961830410,"connected_time":1932000000000,"state":"active","ping":75},{"user_id":271,"name":"Cottontail","steam_id":76561198213634567,"connected_time":1394000000000,"state":"active","ping":95}]},{"server_id":402,"name":"Uncletopia | Chicago | 3 | All Maps","name_short":"chi-3","host":"chi-1.us.uncletopia.com","port":27035,"enabled":true,"region":"us-central","cc":"us","latitude":41.881832,"longitude":-87.62318,"reserved":0,"last_update":"0001-01-01T00:00:00Z","name_a2s":"Uncletopia | Chicago | 3 | All Maps","protocol":17,"map":"koth_lakeside_final","folder":"tf","game":"Team Fortress","app_id":440,"player_count":0,"max_players":24,"Bots":0,"server_type":"Dedicated","server_os":"Linux","password":true,"vac":true,"version":"7757534","steam_id":85568392924515191,"keywords":["cp","nocrits","nodmgspread","uncletopia"],"game_id":440,"stv_port":27036,"stv_name":"Uncletopia | Chicago | 3 | All Maps | STV","players":null},{"server_id":403,"name":"Uncletopia | Chicago | 4 | All Maps","name_short":"chi-4","host":"chi-1.us.uncletopia.com","port":27045,"enabled":true,"region":"us-central","cc":"us","latitude":41.881832,"longitude":-87.62318,"reserved":0,"last_update":"0001-01-01T00:00:00Z","name_a2s":"Uncletopia | Chicago | 4 | All Maps","protocol":17,"map":"cp_dustbowl","folder":"tf","game":"Team Fortress","app_id":440,"player_count":24,"max_players":24,"Bots":0,"server_type":"Dedicated","server_os":"Linux","password":true,"vac":true,"version":"7757534","steam_id":85568392924515193,"keywords":["cp","nocrits","nodmgspread","uncletopia"],"game_id":440,"stv_port":27046,"stv_name":"Uncletopia | Chicago | 4 | All Maps | STV","players":[{"user_id":60,"name":"KingKata","steam_id":76561198289610011,"connected_time":1556000000000,"state":"active","ping":136},{"user_id":63,"name":"‚òºBarracuda‚òº","steam_id":76561198013022083,"connected_time":1228000000000,"state":"active","ping":59},{"user_id":29,"name":"I will consume your furniture","steam_id":76561198799704762,"connected_time":3157000000000,"state":"active","ping":58},{"user_id":70,"name":"Captain Leonidas","steam_id":76561198276710158,"connected_time":919000000000,"state":"active","ping":83},{"user_id":42,"name":"Miach","steam_id":76561198150062640,"connected_time":1920000000000,"state":"active","ping":80},{"user_id":52,"name":"*_*","steam_id":76561198937717599,"connected_time":1679000000000,"state":"active","ping":59},{"user_id":74,"name":"Gamba","steam_id":76561198069264650,"connected_time":522000000000,"state":"active","ping":59},{"user_id":75,"name":"Mr. DemoBones","steam_id":76561198044127250,"connected_time":332000000000,"state":"active","ping":88},{"user_id":69,"name":"heavyArmor","steam_id":76561198191056059,"connected_time":959000000000,"state":"active","ping":69},{"user_id":36,"name":"Onyiun","steam_id":76561199124107338,"connected_time":2708000000000,"state":"active","ping":98},{"user_id":71,"name":"phenom811","steam_id":76561199236145358,"connected_time":917000000000,"state":"active","ping":68},{"user_id":64,"name":"Unicorn","steam_id":76561198119261280,"connected_time":1191000000000,"state":"active","ping":93},{"user_id":43,"name":"Birdbern","steam_id":76561198122383177,"connected_time":1919000000000,"state":"active","ping":72},{"user_id":68,"name":"qwerg","steam_id":76561198107191794,"connected_time":1027000000000,"state":"active","ping":75},{"user_id":45,"name":"PBxJAY","steam_id":76561198402471788,"connected_time":1859000000000,"state":"active","ping":124},{"user_id":46,"name":"FortHunter","steam_id":76561198262391126,"connected_time":1859000000000,"state":"active","ping":76},{"user_id":61,"name":"The Business Man","steam_id":76561198059907124,"connected_time":1407000000000,"state":"active","ping":64},{"user_id":49,"name":"Pyro Of The Lake","steam_id":76561199149576897,"connected_time":1790000000000,"state":"active","ping":71},{"user_id":72,"name":"„Ç™„É†„Éã„Éà„É™„ÉÉ„ÇØ„Çπ","steam_id":76561198841016072,"connected_time":917000000000,"state":"active","ping":106},{"user_id":53,"name":"Dylan","steam_id":76561198265522923,"connected_time":1655000000000,"state":"active","ping":67},{"user_id":66,"name":"GojoPreto","steam_id":76561198979348045,"connected_time":1138000000000,"state":"active","ping":87},{"user_id":56,"name":"PheebsyDeebsy","steam_id":76561198101509436,"connected_time":1640000000000,"state":"active","ping":93},{"user_id":73,"name":"Sly Marbo","steam_id":76561198056476987,"connected_time":803000000000,"state":"active","ping":79},{"user_id":76,"name":"Lionel Messi","steam_id":76561198226207032,"connected_time":286000000000,"state":"active","ping":56}]},{"server_id":36,"name":"Uncletopia | Chicago | 5 | All Maps","name_short":"chi-5","host":"chi-2.us.uncletopia.com","port":27015,"enabled":true,"region":"us-central","cc":"us","latitude":41.881832,"longitude":-87.62318,"reserved":0,"last_update":"0001-01-01T00:00:00Z","name_a2s":"Uncletopia | Chicago | 5 | All Maps","protocol":17,"map":"koth_cascade","folder":"tf","game":"Team Fortress","app_id":440,"player_count":0,"max_players":24,"Bots":0,"server_type":"Dedicated","server_os":"Linux","password":true,"vac":true,"version":"7757534","steam_id":85568392924866362,"keywords":["cp","nocrits","nodmgspread","uncletopia"],"game_id":440,"stv_port":27016,"stv_name":"Uncletopia | Chicago | 5 | All Maps | STV","players":null},{"server_id":37,"name":"Uncletopia | Chicago | 6 | All Maps","name_short":"chi-6","host":"chi-2.us.uncletopia.com","port":27025,"enabled":true,"region":"us-central","cc":"us","latitude":41.881832,"longitude":-87.62318,"reserved":0,"last_update":"0001-01-01T00:00:00Z","name_a2s":"Uncletopia | Chicago | 6 | All Maps","protocol":17,"map":"koth_cascade","folder":"tf","game":"Team Fortress","app_id":440,"player_count":0,"max_players":24,"Bots":0,"server_type":"Dedicated","server_os":"Linux","password":true,"vac":true,"version":"7757534","steam_id":85568392924866363,"keywords":["cp","nocrits","nodmgspread","uncletopia"],"game_id":440,"stv_port":27026,"stv_name":"Uncletopia | Chicago | 6 | All Maps | STV","players":null},{"server_id":38,"name":"Uncletopia | Chicago | 7 | Stopwatch Beta","name_short":"chi-7","host":"chi-2.us.uncletopia.com","port":27035,"enabled":true,"region":"us-central","cc":"us","latitude":41.881832,"longitude":-87.62318,"reserved":0,"last_update":"0001-01-01T00:00:00Z","name_a2s":"Uncletopia | Chicago | 7 | Stopwatch Beta","protocol":17,"map":"pl_barnblitz","folder":"tf","game":"Team Fortress","app_id":440,"player_count":0,"max_players":24,"Bots":0,"server_type":"Dedicated","server_os":"Linux","password":true,"vac":true,"version":"7757534","steam_id":85568392924866364,"keywords":["nocrits","nodmgspread","payload","uncletopia"],"game_id":440,"stv_port":27036,"stv_name":"Uncletopia | Chicago | 7 | Stopwatch Beta | STV","players":null},{"server_id":39,"name":"Uncletopia | Chicago | 8 | Community","name_short":"chi-8","host":"chi-2.us.uncletopia.com","port":27045,"enabled":true,"region":"us-central","cc":"us","latitude":41.881832,"longitude":-87.62318,"reserved":0,"last_update":"0001-01-01T00:00:00Z","name_a2s":"Uncletopia | Chicago | 8 | Community","protocol":17,"map":"koth_cascade","folder":"tf","game":"Team Fortress","app_id":440,"player_count":0,"max_players":24,"Bots":0,"server_type":"Dedicated","server_os":"Linux","password":true,"vac":true,"version":"7757534","steam_id":85568392924866365,"keywords":["cp","nocrits","nodmgspread","uncletopia"],"game_id":440,"stv_port":27046,"stv_name":"Uncletopia | Chicago | 8 | Community | STV","players":null},{"server_id":8,"name":"Uncletopia | Dallas | 1 | All Maps","name_short":"dal-1","host":"dal-1.us.uncletopia.com","port":27015,"enabled":true,"region":"us-central","cc":"us","latitude":32.779167,"longitude":-96.80889,"reserved":0,"last_update":"0001-01-01T00:00:00Z","name_a2s":"Uncletopia | Dallas | 1 | All Maps","protocol":17,"map":"koth_cascade","folder":"tf","game":"Team Fortress","app_id":440,"player_count":0,"max_players":24,"Bots":0,"server_type":"Dedicated","server_os":"Linux","password":true,"vac":true,"version":"7757534","steam_id":85568392924469986,"keywords":["cp","nocrits","nodmgspread","uncletopia"],"game_id":440,"stv_port":27016,"stv_name":"Uncletopia | Dallas | 1 | All Maps | STV","players":null},{"server_id":108,"name":"Uncletopia | Dallas | 2 | All Maps","name_short":"dal-2","host":"dal-1.us.uncletopia.com","port":27025,"enabled":true,"region":"us-central","cc":"us","latitude":32.779167,"longitude":-96.80889,"reserved":0,"last_update":"0001-01-01T00:00:00Z","name_a2s":"Uncletopia | Dallas | 2 | All Maps","protocol":17,"map":"pl_swiftwater_final1","folder":"tf","game":"Team Fortress","app_id":440,"player_count":0,"max_players":24,"Bots":0,"server_type":"Dedicated","server_os":"Linux","password":true,"vac":true,"version":"7757534","steam_id":85568392924469988,"keywords":["nocrits","nodmgspread","payload","uncletopia"],"game_id":440,"stv_port":27026,"stv_name":"Uncletopia | Dallas | 2 | All Maps | STV","players":null},{"server_id":5,"name":"Uncletopia | Frankfurt | 1 | All Maps","name_short":"frk-1","host":"frk-1.de.uncletopia.com","port":27015,"enabled":true,"region":"eu","cc":"de","latitude":50.110924,"longitude":8.682127,"reserved":0,"last_update":"0001-01-01T00:00:00Z","name_a2s":"Uncletopia | Frankfurt | 1 | All Maps","protocol":17,"map":"pl_badwater","folder":"tf","game":"Team Fortress","app_id":440,"player_count":24,"max_players":24,"Bots":0,"server_type":"Dedicated","server_os":"Linux","password":true,"vac":true,"version":"7757534","steam_id":85568392924469989,"keywords":["nocrits","nodmgspread","payload","uncletopia"],"game_id":440,"stv_port":27016,"stv_name":"Uncletopia | Frankfurt | 1 | All Maps | STV","players":[{"user_id":85,"name":"HentaiHaven","steam_id":76561198453168933,"connected_time":2049000000000,"state":"active","ping":171},{"user_id":107,"name":"Pajtara Fajtara","steam_id":76561198207323635,"connected_time":1089000000000,"state":"active","ping":86},{"user_id":112,"name":"Burbie","steam_id":76561198046069449,"connected_time":790000000000,"state":"active","ping":60},{"user_id":84,"name":"neJ","steam_id":76561198003397488,"connected_time":2109000000000,"state":"active","ping":74},{"user_id":89,"name":"someone","steam_id":76561198377208758,"connected_time":1895000000000,"state":"active","ping":94},{"user_id":104,"name":"Wyrm","steam_id":76561198314778145,"connected_time":1432000000000,"state":"active","ping":153},{"user_id":109,"name":"Liko","steam_id":76561197994660517,"connected_time":890000000000,"state":"active","ping":75},{"user_id":102,"name":"/ff¬™ rilookp","steam_id":76561198143529110,"connected_time":1463000000000,"state":"active","ping":45},{"user_id":117,"name":"Kolanciasty ‚ô•","steam_id":76561198020042179,"connected_time":386000000000,"state":"active","ping":85},{"user_id":82,"name":"Joel!","steam_id":76561198155422742,"connected_time":2390000000000,"state":"active","ping":52},{"user_id":47,"name":"Practice","steam_id":76561198104765420,"connected_time":4201000000000,"state":"active","ping":59},{"user_id":87,"name":"Remembrance","steam_id":76561199229247163,"connected_time":1995000000000,"state":"active","ping":57},{"user_id":90,"name":"Walter Hartwell White","steam_id":76561198833826885,"connected_time":1878000000000,"state":"active","ping":77},{"user_id":91,"name":"loland","steam_id":76561199013542706,"connected_time":1845000000000,"state":"active","ping":71},{"user_id":54,"name":"imthegerman","steam_id":76561198053401077,"connected_time":4019000000000,"state":"active","ping":104},{"user_id":92,"name":"eziochesscom","steam_id":76561199480616022,"connected_time":1841000000000,"state":"active","ping":66},{"user_id":118,"name":"LOBZIK","steam_id":76561198114830120,"connected_time":366000000000,"state":"active","ping":75},{"user_id":119,"name":"Yrj√∂ Koskinen Yrj√∂-Koskinen","steam_id":76561198368181145,"connected_time":362000000000,"state":"active","ping":73},{"user_id":111,"name":"Gruby","steam_id":76561198879745824,"connected_time":816000000000,"state":"active","ping":63},{"user_id":120,"name":"Jeeworth","steam_id":76561198797972504,"connected_time":7000000000,"state":"active","ping":83},{"user_id":97,"name":"Saab enjoyer","steam_id":76561199405893396,"connected_time":1731000000000,"state":"active","ping":179},{"user_id":115,"name":"I am piss man","steam_id":76561198039209685,"connected_time":458000000000,"state":"active","ping":59},{"user_id":116,"name":"PAN","steam_id":76561198118671779,"connected_time":425000000000,"state":"active","ping":60},{"user_id":106,"name":"LiterallyRyanGosling","steam_id":76561199017856691,"connected_time":1398000000000,"state":"active","ping":66}]},{"server_id":110,"name":"Uncletopia | Frankfurt | 2 | All Maps","name_short":"frk-2","host":"frk-1.de.uncletopia.com","port":27025,"enabled":true,"region":"eu","cc":"de","latitude":50.110924,"longitude":8.682127,"reserved":0,"last_update":"0001-01-01T00:00:00Z","name_a2s":"Uncletopia | Frankfurt | 2 | All Maps","protocol":17,"map":"cp_mountainlab","folder":"tf","game":"Team Fortress","app_id":440,"player_count":24,"max_players":24,"Bots":0,"server_type":"Dedicated","server_os":"Linux","password":true,"vac":true,"version":"7757534","steam_id":85568392924469990,"keywords":["cp","nocrits","nodmgspread","uncletopia"],"game_id":440,"stv_port":27026,"stv_name":"Uncletopia | Frankfurt | 2 | All Maps | STV","players":[{"user_id":350,"name":"Acanda","steam_id":76561198123246537,"connected_time":195000000000,"state":"active","ping":54},{"user_id":335,"name":"Xx_EpicGaymer_xX","steam_id":76561198846784757,"connected_time":1277000000000,"state":"active","ping":73},{"user_id":332,"name":"korn","steam_id":76561198894300385,"connected_time":1335000000000,"state":"active","ping":165},{"user_id":351,"name":"Puck :))","steam_id":76561198378295653,"connected_time":187000000000,"state":"active","ping":53},{"user_id":279,"name":"Nemi","steam_id":76561198076797716,"connected_time":3567000000000,"state":"active","ping":59},{"user_id":317,"name":"IVAN","steam_id":76561199013333685,"connected_time":1749000000000,"state":"active","ping":78},{"user_id":340,"name":"Neon","steam_id":76561198089944674,"connected_time":871000000000,"state":"active","ping":66},{"user_id":286,"name":"Birgerz","steam_id":76561198034565424,"connected_time":3271000000000,"state":"active","ping":70},{"user_id":345,"name":"Zenssei","steam_id":76561198209895623,"connected_time":750000000000,"state":"active","ping":103},{"user_id":289,"name":"finbar","steam_id":76561198056812396,"connected_time":3203000000000,"state":"active","ping":72},{"user_id":346,"name":"ScottishWolf141","steam_id":76561199122304112,"connected_time":731000000000,"state":"active","ping":75},{"user_id":338,"name":"T der Ba","steam_id":76561198091189185,"connected_time":1052000000000,"state":"active","ping":47},{"user_id":302,"name":"Dr. Feelgood","steam_id":76561199173885103,"connected_time":2741000000000,"state":"active","ping":183},{"user_id":342,"name":"O-linked Œ≤-N-acetylglucosamine","steam_id":76561198150034145,"connected_time":822000000000,"state":"active","ping":56},{"user_id":314,"name":"maria.","steam_id":76561198398126607,"connected_time":2187000000000,"state":"active","ping":61},{"user_id":334,"name":"MaximusTheFish","steam_id":76561199025652089,"connected_time":1311000000000,"state":"active","ping":62},{"user_id":315,"name":"DarkFady","steam_id":76561198179099523,"connected_time":2126000000000,"state":"active","ping":117},{"user_id":354,"name":"maxi opossum","steam_id":76561198800637336,"connected_time":69000000000,"state":"active","ping":53},{"user_id":297,"name":"Hoff","steam_id":76561198138540938,"connected_time":2906000000000,"state":"active","ping":79},{"user_id":343,"name":"EGirlGang","steam_id":76561198257435792,"connected_time":816000000000,"state":"active","ping":70},{"user_id":353,"name":"zoinks!","steam_id":76561198068645362,"connected_time":85000000000,"state":"active","ping":54},{"user_id":352,"name":"sam-","steam_id":76561198013770973,"connected_time":163000000000,"state":"active","ping":72},{"user_id":355,"name":"Hanako","steam_id":76561198133272179,"connected_time":69000000000,"state":"active","ping":82},{"user_id":347,"name":"Vel0city","steam_id":76561198049687798,"connected_time":723000000000,"state":"active","ping":59}]},{"server_id":308,"name":"Uncletopia | Frankfurt | 3 | All Maps","name_short":"frk-3","host":"frk-1.de.uncletopia.com","port":27035,"enabled":true,"region":"eu","cc":"de","latitude":50.110924,"longitude":8.682127,"reserved":0,"last_update":"0001-01-01T00:00:00Z","name_a2s":"Uncletopia | Frankfurt | 3 | All Maps","protocol":17,"map":"cp_process_final","folder":"tf","game":"Team Fortress","app_id":440,"player_count":0,"max_players":24,"Bots":0,"server_type":"Dedicated","server_os":"Linux","password":true,"vac":true,"version":"7757534","steam_id":85568392924504274,"keywords":["cp","nocrits","nodmgspread","uncletopia"],"game_id":440,"stv_port":27036,"stv_name":"Uncletopia | Frankfurt | 3 | All Maps | STV","players":null},{"server_id":309,"name":"Uncletopia | Frankfurt | 4 | All Maps","name_short":"frk-4","host":"frk-1.de.uncletopia.com","port":27045,"enabled":true,"region":"eu","cc":"de","latitude":50.110924,"longitude":8.682127,"reserved":0,"last_update":"0001-01-01T00:00:00Z","name_a2s":"Uncletopia | Frankfurt | 4 | All Maps","protocol":17,"map":"pl_thundermountain","folder":"tf","game":"Team Fortress","app_id":440,"player_count":24,"max_players":24,"Bots":0,"server_type":"Dedicated","server_os":"Linux","password":true,"vac":true,"version":"7757534","steam_id":85568392924504275,"keywords":["nocrits","nodmgspread","payload","uncletopia"],"game_id":440,"stv_port":27046,"stv_name":"Uncletopia | Frankfurt | 4 | All Maps | STV","players":[{"user_id":649,"name":"JaneDoe","steam_id":76561198067081506,"connected_time":4081000000000,"state":"active","ping":85},{"user_id":679,"name":"AnonTron","steam_id":76561199031895493,"connected_time":1685000000000,"state":"active","ping":158},{"user_id":650,"name":"Marcos","steam_id":76561198798925721,"connected_time":4007000000000,"state":"active","ping":71},{"user_id":686,"name":"cloud","steam_id":76561198179768931,"connected_time":730000000000,"state":"active","ping":47},{"user_id":693,"name":"hisham","steam_id":76561198414437290,"connected_time":350000000000,"state":"active","ping":102},{"user_id":634,"name":"ijustsmokeandcry","steam_id":76561198044189114,"connected_time":4560000000000,"state":"active","ping":57},{"user_id":674,"name":"Doecheldorf","steam_id":76561198291628630,"connected_time":2124000000000,"state":"active","ping":61},{"user_id":670,"name":"Professional facestab","steam_id":76561198258721056,"connected_time":2258000000000,"state":"active","ping":46},{"user_id":688,"name":"ZeeKwamKwammer","steam_id":76561198366377647,"connected_time":704000000000,"state":"active","ping":44},{"user_id":694,"name":"Egor Pomidor","steam_id":76561199175688390,"connected_time":340000000000,"state":"active","ping":75},{"user_id":665,"name":"Dr. Mike Litoris","steam_id":76561197991205793,"connected_time":2361000000000,"state":"active","ping":85},{"user_id":690,"name":"Garmin of Salivation","steam_id":76561197995163245,"connected_time":676000000000,"state":"active","ping":67},{"user_id":676,"name":"Mrakan","steam_id":76561199239780769,"connected_time":2056000000000,"state":"active","ping":58},{"user_id":697,"name":"Spectral Sloth","steam_id":76561198170083139,"connected_time":106000000000,"state":"active","ping":82},{"user_id":684,"name":"Homosapien","steam_id":76561197972035953,"connected_time":1373000000000,"state":"active","ping":59},{"user_id":659,"name":"Pershing[GER]","steam_id":76561197970330818,"connected_time":2890000000000,"state":"active","ping":60},{"user_id":668,"name":"Zmora","steam_id":76561199057422095,"connected_time":2295000000000,"state":"active","ping":73},{"user_id":692,"name":"Yes I Main Pyro","steam_id":76561199429934014,"connected_time":623000000000,"state":"active","ping":67},{"user_id":685,"name":"frostbrooka","steam_id":76561199411161766,"connected_time":961000000000,"state":"active","ping":169},{"user_id":682,"name":"SaltyCupcakes","steam_id":76561198256386417,"connected_time":1525000000000,"state":"active","ping":57},{"user_id":656,"name":"KNARRER","steam_id":76561199130777953,"connected_time":3258000000000,"state":"active","ping":53},{"user_id":695,"name":"Field Marshal Hansk","steam_id":76561198107999646,"connected_time":237000000000,"state":"active","ping":81},{"user_id":696,"name":"lore","steam_id":76561198120984188,"connected_time":199000000000,"state":"active","ping":57},{"user_id":673,"name":"Syll","steam_id":76561198040736202,"connected_time":2164000000000,"state":"active","ping":97}]},{"server_id":310,"name":"Uncletopia | Frankfurt | 5 | All Maps","name_short":"frk-5","host":"frk-1.de.uncletopia.com","port":27055,"enabled":true,"region":"eu","cc":"de","latitude":50.110924,"longitude":8.682127,"reserved":0,"last_update":"0001-01-01T00:00:00Z","name_a2s":"Uncletopia | Frankfurt | 5 | All Maps","protocol":17,"map":"pl_pier","folder":"tf","game":"Team Fortress","app_id":440,"player_count":0,"max_players":24,"Bots":0,"server_type":"Dedicated","server_os":"Linux","password":true,"vac":true,"version":"7757534","steam_id":85568392924504277,"keywords":["nocrits","nodmgspread","payload","uncletopia"],"game_id":440,"stv_port":27056,"stv_name":"Uncletopia | Frankfurt | 5 | All Maps | STV","players":null},{"server_id":311,"name":"Uncletopia | Frankfurt | 6 | All Maps","name_short":"frk-6","host":"frk-1.de.uncletopia.com","port":27065,"enabled":true,"region":"eu","cc":"de","latitude":50.110924,"longitude":8.682127,"reserved":0,"last_update":"0001-01-01T00:00:00Z","name_a2s":"Uncletopia | Frankfurt | 6 | All Maps","protocol":17,"map":"pl_borneo","folder":"tf","game":"Team Fortress","app_id":440,"player_count":24,"max_players":24,"Bots":0,"server_type":"Dedicated","server_os":"Linux","password":true,"vac":true,"version":"7757534","steam_id":85568392924504278,"keywords":["nocrits","nodmgspread","payload","uncletopia"],"game_id":440,"stv_port":27066,"stv_name":"Uncletopia | Frankfurt | 6 | All Maps | STV","players":[{"user_id":255,"name":"Hercules","steam_id":76561198041164170,"connected_time":1043000000000,"state":"active","ping":58},{"user_id":247,"name":"MrDimka","steam_id":76561199214148332,"connected_time":1542000000000,"state":"active","ping":81},{"user_id":269,"name":"Adrenaline","steam_id":76561197970852048,"connected_time":473000000000,"state":"active","ping":66},{"user_id":249,"name":"jt7","steam_id":76561198073655162,"connected_time":1344000000000,"state":"active","ping":68},{"user_id":219,"name":"GuSkand","steam_id":76561198043775605,"connected_time":3074000000000,"state":"active","ping":84},{"user_id":266,"name":"drifter","steam_id":76561197998271149,"connected_time":606000000000,"state":"active","ping":61},{"user_id":261,"name":"L1RG0","steam_id":76561198329274068,"connected_time":976000000000,"state":"active","ping":60},{"user_id":185,"name":"gamer","steam_id":76561198869564327,"connected_time":4363000000000,"state":"active","ping":162},{"user_id":203,"name":"Kodutah","steam_id":76561198203405574,"connected_time":3250000000000,"state":"active","ping":82},{"user_id":278,"name":"lol wantatack mr hitman grib f2","steam_id":76561198105121641,"connected_time":73000000000,"state":"active","ping":66},{"user_id":256,"name":"Driver's drunkest God","steam_id":76561198969373800,"connected_time":1021000000000,"state":"active","ping":75},{"user_id":196,"name":"twitch.tv/vision515","steam_id":76561198065293729,"connected_time":3758000000000,"state":"active","ping":171},{"user_id":254,"name":"Dj Wadon","steam_id":76561198194327061,"connected_time":1058000000000,"state":"active","ping":58},{"user_id":272,"name":"Carrot Arc","steam_id":76561198164957006,"connected_time":282000000000,"state":"active","ping":99},{"user_id":262,"name":"result","steam_id":76561198269200388,"connected_time":975000000000,"state":"active","ping":75},{"user_id":177,"name":"***** ***","steam_id":76561198048037379,"connected_time":4658000000000,"state":"active","ping":81},{"user_id":276,"name":"Vectillion","steam_id":76561198074292454,"connected_time":204000000000,"state":"active","ping":73},{"user_id":160,"name":"yush","steam_id":76561198121688934,"connected_time":6870000000000,"state":"active","ping":75},{"user_id":274,"name":"$n√òw","steam_id":76561198238781028,"connected_time":253000000000,"state":"active","ping":104},{"user_id":263,"name":"REN","steam_id":76561198000596385,"connected_time":686000000000,"state":"active","ping":80},{"user_id":239,"name":"Dio","steam_id":76561198117685434,"connected_time":1969000000000,"state":"active","ping":90},{"user_id":277,"name":"Cypher","steam_id":76561197996967254,"connected_time":167000000000,"state":"active","ping":61},{"user_id":184,"name":"GrzMik","steam_id":76561198061951968,"connected_time":4517000000000,"state":"active","ping":92},{"user_id":268,"name":"Gabys","steam_id":76561198282892553,"connected_time":577000000000,"state":"active","ping":75}]},{"server_id":23,"name":"Uncletopia | Frankfurt | 7 | Stopwatch Beta","name_short":"frk-7","host":"frk-1.de.uncletopia.com","port":27075,"enabled":true,"region":"eu","cc":"de","latitude":50.110924,"longitude":8.682127,"reserved":0,"last_update":"0001-01-01T00:00:00Z","name_a2s":"Uncletopia | Frankfurt | 7 | Stopwatch Beta","protocol":17,"map":"cp_sunshine","folder":"tf","game":"Team Fortress","app_id":440,"player_count":0,"max_players":24,"Bots":0,"server_type":"Dedicated","server_os":"Linux","password":true,"vac":true,"version":"7757534","steam_id":85568392924742827,"keywords":["cp","nocrits","nodmgspread","uncletopia"],"game_id":440,"stv_port":27076,"stv_name":"Uncletopia | Frankfurt | 7 | Stopwatch Beta | STV","players":null},{"server_id":24,"name":"Uncletopia | Frankfurt | 8 | Community","name_short":"frk-8","host":"frk-1.de.uncletopia.com","port":27085,"enabled":true,"region":"eu","cc":"de","latitude":50.110924,"longitude":8.682127,"reserved":0,"last_update":"0001-01-01T00:00:00Z","name_a2s":"Uncletopia | Frankfurt | 8 | Community","protocol":17,"map":"koth_lakeside_final","folder":"tf","game":"Team Fortress","app_id":440,"player_count":2,"max_players":24,"Bots":0,"server_type":"Dedicated","server_os":"Linux","password":true,"vac":true,"version":"7757534","steam_id":85568392924742828,"keywords":["cp","nocrits","nodmgspread","uncletopia"],"game_id":440,"stv_port":27086,"stv_name":"Uncletopia | Frankfurt | 8 | Community | STV","players":[{"user_id":18,"name":"i heal gay people","steam_id":76561198032167311,"connected_time":70000000000,"state":"active","ping":96},{"user_id":19,"name":"(can't chat)mafutbolero","steam_id":76561199233664005,"connected_time":23000000000,"state":"spawning","ping":59}]},{"server_id":202,"name":"Uncletopia | Hong Kong | 1 | All Maps","name_short":"hgk-1","host":"hgk-1.hk.uncletopia.com","port":27015,"enabled":true,"region":"asia","cc":"hk","latitude":22.302711,"longitude":114.177216,"reserved":0,"last_update":"0001-01-01T00:00:00Z","name_a2s":"Uncletopia | Hong Kong | 1 | All Maps","protocol":17,"map":"koth_cascade","folder":"tf","game":"Team Fortress","app_id":440,"player_count":0,"max_players":24,"Bots":0,"server_type":"Dedicated","server_os":"Linux","password":true,"vac":true,"version":"7757534","steam_id":85568392924494504,"keywords":["cp","nocrits","nodmgspread","uncletopia"],"game_id":440,"stv_port":27016,"stv_name":"Uncletopia | Hong Kong | 1 | All Maps | STV","players":null},{"server_id":1,"name":"Uncletopia | Los Angeles | 1 | All Maps","name_short":"lax-1","host":"lax-1.us.uncletopia.com","port":27015,"enabled":true,"region":"us-west","cc":"us","latitude":33.94279,"longitude":-118.41004,"reserved":0,"last_update":"0001-01-01T00:00:00Z","name_a2s":"Uncletopia | Los Angeles | 1 | All Maps","protocol":17,"map":"koth_lakeside_final","folder":"tf","game":"Team Fortress","app_id":440,"player_count":0,"max_players":24,"Bots":0,"server_type":"Dedicated","server_os":"Linux","password":true,"vac":true,"version":"7757534","steam_id":85568392924469991,"keywords":["cp","nocrits","nodmgspread","uncletopia"],"game_id":440,"stv_port":27016,"stv_name":"Uncletopia | Los Angeles | 1 | All Maps | STV","players":null},{"server_id":112,"name":"Uncletopia | Los Angeles | 2 | All Maps","name_short":"lax-2","host":"lax-1.us.uncletopia.com","port":27025,"enabled":true,"region":"us-west","cc":"us","latitude":33.94279,"longitude":-118.41004,"reserved":0,"last_update":"0001-01-01T00:00:00Z","name_a2s":"Uncletopia | Los Angeles | 2 | All Maps","protocol":17,"map":"pl_frontier_final","folder":"tf","game":"Team Fortress","app_id":440,"player_count":0,"max_players":24,"Bots":0,"server_type":"Dedicated","server_os":"Linux","password":true,"vac":true,"version":"7757534","steam_id":85568392924469992,"keywords":["nocrits","nodmgspread","payload","uncletopia"],"game_id":440,"stv_port":27026,"stv_name":"Uncletopia | Los Angeles | 2 | All Maps | STV","players":null},{"server_id":324,"name":"Uncletopia | Los Angeles | 3 | All Maps","name_short":"lax-3","host":"lax-1.us.uncletopia.com","port":27035,"enabled":true,"region":"us-west","cc":"us","latitude":33.94279,"longitude":-118.41004,"reserved":0,"last_update":"0001-01-01T00:00:00Z","name_a2s":"Uncletopia | Los Angeles | 3 | All Maps","protocol":17,"map":"pl_barnblitz","folder":"tf","game":"Team Fortress","app_id":440,"player_count":0,"max_players":24,"Bots":0,"server_type":"Dedicated","server_os":"Linux","password":true,"vac":true,"version":"7757534","steam_id":85568392924510198,"keywords":["nocrits","nodmgspread","payload","uncletopia"],"game_id":440,"stv_port":27036,"stv_name":"Uncletopia | Los Angeles | 3 | All Maps | STV","players":null},{"server_id":25,"name":"Uncletopia | Los Angeles | 4 | Stopwatch Beta","name_short":"lax-4","host":"lax-1.us.uncletopia.com","port":27045,"enabled":true,"region":"us-west","cc":"us","latitude":33.94279,"longitude":-118.41004,"reserved":0,"last_update":"0001-01-01T00:00:00Z","name_a2s":"Uncletopia | Los Angeles | 4 | Stopwatch Beta","protocol":17,"map":"pl_swiftwater_final1","folder":"tf","game":"Team Fortress","app_id":440,"player_count":0,"max_players":24,"Bots":0,"server_type":"Dedicated","server_os":"Linux","password":true,"vac":true,"version":"7757534","steam_id":85568392924510199,"keywords":["nocrits","nodmgspread","payload","uncletopia"],"game_id":440,"stv_port":27046,"stv_name":"Uncletopia | Los Angeles | 4 | Stopwatch Beta | STV","players":null},{"server_id":11,"name":"Uncletopia | London | 1 | All Maps","name_short":"lon-1","host":"lon-1.uk.uncletopia.com","port":27015,"enabled":true,"region":"eu","cc":"gb","latitude":51.509865,"longitude":-0.118092,"reserved":0,"last_update":"0001-01-01T00:00:00Z","name_a2s":"Uncletopia | London | 1 | All Maps","protocol":17,"map":"pl_upward","folder":"tf","game":"Team Fortress","app_id":440,"player_count":24,"max_players":24,"Bots":0,"server_type":"Dedicated","server_os":"Linux","password":true,"vac":true,"version":"7757534","steam_id":85568392924367362,"keywords":["nocrits","nodmgspread","payload","uncletopia"],"game_id":440,"stv_port":27016,"stv_name":"Uncletopia | London | 1 | All Maps | STV","players":[{"user_id":488,"name":"jimmy bob","steam_id":76561198319583692,"connected_time":2000000000,"state":"spawning","ping":48},{"user_id":437,"name":"Lyra","steam_id":76561198190583242,"connected_time":2555000000000,"state":"active","ping":86},{"user_id":425,"name":"rigel_","steam_id":76561198148640847,"connected_time":4140000000000,"state":"active","ping":80},{"user_id":477,"name":"Pilaarius","steam_id":76561198120273212,"connected_time":409000000000,"state":"active","ping":93},{"user_id":476,"name":"Jesus Enjoyer","steam_id":76561198840259819,"connected_time":414000000000,"state":"active","ping":45},{"user_id":489,"name":"Reult","steam_id":76561199444524084,"connected_time":2000000000,"state":"spawning","ping":45},{"user_id":395,"name":"shooer! :D \u003e\u003c(((¬∫\u003e","steam_id":76561198110531281,"connected_time":7837000000000,"state":"active","ping":90},{"user_id":478,"name":"ùëíùí∂ùìáùìâùíΩùìá","steam_id":76561199026097466,"connected_time":401000000000,"state":"active","ping":69},{"user_id":487,"name":"sinologist","steam_id":76561198080912087,"connected_time":15000000000,"state":"active","ping":64},{"user_id":427,"name":"eblanovic","steam_id":76561198106049954,"connected_time":4134000000000,"state":"active","ping":73},{"user_id":481,"name":"Kyle","steam_id":76561198071181745,"connected_time":301000000000,"state":"active","ping":60},{"user_id":408,"name":"Caerot","steam_id":76561198839000676,"connected_time":6553000000000,"state":"active","ping":67},{"user_id":479,"name":"agony","steam_id":76561199192434258,"connected_time":400000000000,"state":"active","ping":85},{"user_id":454,"name":"Ted Kaczynski","steam_id":76561198064795519,"connected_time":1262000000000,"state":"active","ping":67},{"user_id":480,"name":"static","steam_id":76561198836825741,"connected_time":381000000000,"state":"active","ping":36},{"user_id":433,"name":"Alexandre","steam_id":76561198121784446,"connected_time":2933000000000,"state":"active","ping":35},{"user_id":471,"name":"Garfield Senpai","steam_id":76561198253809458,"connected_time":527000000000,"state":"active","ping":79},{"user_id":485,"name":"76561198444734173","steam_id":76561198444734173,"connected_time":58000000000,"state":"active","ping":116},{"user_id":460,"name":"goblinninja110","steam_id":76561198269159354,"connected_time":927000000000,"state":"active","ping":57},{"user_id":472,"name":"sareena","steam_id":76561198810194062,"connected_time":518000000000,"state":"active","ping":73},{"user_id":458,"name":"Son Goku","steam_id":76561199383437138,"connected_time":995000000000,"state":"active","ping":117},{"user_id":424,"name":"aibohpsnart","steam_id":76561198168207306,"connected_time":4290000000000,"state":"active","ping":99},{"user_id":400,"name":"Rose","steam_id":76561198043601838,"connected_time":6784000000000,"state":"active","ping":67},{"user_id":475,"name":"Dr Ludwig","steam_id":76561198426522902,"connected_time":433000000000,"state":"active","ping":157}]},{"server_id":114,"name":"Uncletopia | London | 2 | All Maps","name_short":"lon-2","host":"lon-1.uk.uncletopia.com","port":27025,"enabled":true,"region":"eu","cc":"gb","latitude":51.509865,"longitude":-0.118092,"reserved":0,"last_update":"0001-01-01T00:00:00Z","name_a2s":"Uncletopia | London | 2 | All Maps","protocol":17,"map":"pl_barnblitz","folder":"tf","game":"Team Fortress","app_id":440,"player_count":24,"max_players":24,"Bots":0,"server_type":"Dedicated","server_os":"Linux","password":true,"vac":true,"version":"7757534","steam_id":85568392924470941,"keywords":["nocrits","nodmgspread","payload","uncletopia"],"game_id":440,"stv_port":27026,"stv_name":"Uncletopia | London | 2 | All Maps | STV","players":[{"user_id":259,"name":"Princess Fluffy Butt","steam_id":76561198060033696,"connected_time":55000000000,"state":"active","ping":52},{"user_id":167,"name":"sape (huntsman enjoyer)","steam_id":76561198089322416,"connected_time":5322000000000,"state":"active","ping":96},{"user_id":258,"name":"Andreus","steam_id":76561199403926001,"connected_time":382000000000,"state":"active","ping":69},{"user_id":244,"name":"strohkopf9","steam_id":76561198059349860,"connected_time":1566000000000,"state":"active","ping":68},{"user_id":254,"name":"24/7 lofi hip hop beats","steam_id":76561198130597374,"connected_time":574000000000,"state":"active","ping":65},{"user_id":255,"name":"sirdudalot","steam_id":76561198050298635,"connected_time":562000000000,"state":"active","ping":183},{"user_id":261,"name":"Fabgi.Fr","steam_id":76561198178357445,"connected_time":8000000000,"state":"active","ping":96},{"user_id":240,"name":"British Disapproval","steam_id":76561198001375260,"connected_time":1722000000000,"state":"active","ping":56},{"user_id":260,"name":"[T]aKer","steam_id":76561198001778013,"connected_time":46000000000,"state":"active","ping":52},{"user_id":214,"name":"Ape","steam_id":76561198322703872,"connected_time":3264000000000,"state":"active","ping":74},{"user_id":257,"name":"‚ô• aura ‚ô•","steam_id":76561198066258544,"connected_time":400000000000,"state":"active","ping":62},{"user_id":233,"name":"homeinvasion$","steam_id":76561199111905021,"connected_time":2130000000000,"state":"active","ping":126},{"user_id":228,"name":"SnowShot","steam_id":76561198004766638,"connected_time":2751000000000,"state":"active","ping":78},{"user_id":226,"name":"mental moron","steam_id":76561198152983322,"connected_time":2886000000000,"state":"active","ping":125},{"user_id":262,"name":"Smilez","steam_id":76561197999353870,"connected_time":3000000000,"state":"spawning","ping":39},{"user_id":185,"name":"Persephone \u003c3","steam_id":76561198045694137,"connected_time":4896000000000,"state":"active","ping":77},{"user_id":238,"name":"Mecha","steam_id":76561198014927379,"connected_time":1747000000000,"state":"active","ping":137},{"user_id":251,"name":"Oki (Bon)","steam_id":76561199047748534,"connected_time":953000000000,"state":"active","ping":54},{"user_id":241,"name":"Nummi","steam_id":76561198980901935,"connected_time":1701000000000,"state":"active","ping":74},{"user_id":263,"name":"cherry coal","steam_id":76561198822725169,"connected_time":1000000000,"state":"spawning","ping":30},{"user_id":248,"name":"Ben UFO","steam_id":76561198001648348,"connected_time":1194000000000,"state":"active","ping":55},{"user_id":252,"name":"Huhso","steam_id":76561198219443271,"connected_time":931000000000,"state":"active","ping":73},{"user_id":243,"name":"Dolcelatte","steam_id":76561198038501770,"connected_time":1652000000000,"state":"active","ping":61},{"user_id":245,"name":"pfear","steam_id":76561197999207328,"connected_time":1548000000000,"state":"active","ping":84}]},{"server_id":320,"name":"Uncletopia | London | 3 | All Maps","name_short":"lon-3","host":"lon-1.uk.uncletopia.com","port":27035,"enabled":true,"region":"eu","cc":"gb","latitude":51.509865,"longitude":-0.118092,"reserved":0,"last_update":"0001-01-01T00:00:00Z","name_a2s":"Uncletopia | London | 3 | All Maps","protocol":17,"map":"pl_badwater","folder":"tf","game":"Team Fortress","app_id":440,"player_count":23,"max_players":24,"Bots":0,"server_type":"Dedicated","server_os":"Linux","password":true,"vac":true,"version":"7757534","steam_id":85568392924510192,"keywords":["nocrits","nodmgspread","payload","uncletopia"],"game_id":440,"stv_port":27036,"stv_name":"Uncletopia | London | 3 | All Maps | STV","players":[{"user_id":420,"name":"Tomo -∆í$-","steam_id":76561199015097595,"connected_time":2297000000000,"state":"active","ping":45},{"user_id":462,"name":"Nukizo_giska #SkinsMonkey","steam_id":76561198107008213,"connected_time":6000000000,"state":"spawning","ping":74},{"user_id":424,"name":"DrExplosive","steam_id":76561198063678579,"connected_time":2113000000000,"state":"active","ping":52},{"user_id":422,"name":"Wardruna96","steam_id":76561199057083828,"connected_time":2207000000000,"state":"active","ping":89},{"user_id":460,"name":"MEDiUM","steam_id":76561198112328561,"connected_time":628000000000,"state":"active","ping":86},{"user_id":443,"name":"go play rimworld","steam_id":76561199397932924,"connected_time":1658000000000,"state":"active","ping":84},{"user_id":452,"name":"Desp4","steam_id":76561198040767473,"connected_time":1055000000000,"state":"active","ping":75},{"user_id":454,"name":"RocketBoy08","steam_id":76561198833978944,"connected_time":976000000000,"state":"active","ping":110},{"user_id":447,"name":"–ú—è–∫–∏—à(—Ö–ª–µ–±–Ω—ã–π)","steam_id":76561199223895282,"connected_time":1570000000000,"state":"active","ping":102},{"user_id":413,"name":"quickfast","steam_id":76561199438900919,"connected_time":2815000000000,"state":"active","ping":42},{"user_id":453,"name":"Mr T√∏ffifee","steam_id":76561199122299750,"connected_time":1030000000000,"state":"active","ping":55},{"user_id":425,"name":"Wujek Cacek","steam_id":76561198010267943,"connected_time":2016000000000,"state":"active","ping":63},{"user_id":415,"name":"Gstef","steam_id":76561198172044222,"connected_time":2639000000000,"state":"active","ping":86},{"user_id":456,"name":"beheading video from 2009","steam_id":76561198834897089,"connected_time":968000000000,"state":"active","ping":67},{"user_id":405,"name":":)","steam_id":76561198039964082,"connected_time":3867000000000,"state":"active","ping":71},{"user_id":407,"name":"0xDEADBEEF","steam_id":76561199075416111,"connected_time":3816000000000,"state":"active","ping":75},{"user_id":383,"name":"Envy","steam_id":76561198132723219,"connected_time":5262000000000,"state":"active","ping":104},{"user_id":461,"name":"Cookies and Bakies","steam_id":76561198017442928,"connected_time":477000000000,"state":"active","ping":64},{"user_id":457,"name":"le big mac #queue4passtime","steam_id":76561199026378253,"connected_time":830000000000,"state":"active","ping":64},{"user_id":442,"name":"IVE PEAKED IN KINDERGARDEN","steam_id":76561198983676702,"connected_time":1673000000000,"state":"active","ping":60},{"user_id":436,"name":"Haha?","steam_id":76561198056882245,"connected_time":1757000000000,"state":"active","ping":35},{"user_id":438,"name":"Lil Ari","steam_id":76561198218178180,"connected_time":1740000000000,"state":"active","ping":84},{"user_id":450,"name":"Pan Piotr","steam_id":76561198140016126,"connected_time":1553000000000,"state":"active","ping":75}]},{"server_id":321,"name":"Uncletopia | London | 4 | All Maps","name_short":"lon-4","host":"lon-1.uk.uncletopia.com","port":27045,"enabled":true,"region":"eu","cc":"gb","latitude":51.509865,"longitude":-0.118092,"reserved":0,"last_update":"0001-01-01T00:00:00Z","name_a2s":"Uncletopia | London | 4 | All Maps","protocol":17,"map":"pl_pier","folder":"tf","game":"Team Fortress","app_id":440,"player_count":24,"max_players":24,"Bots":0,"server_type":"Dedicated","server_os":"Linux","password":true,"vac":true,"version":"7757534","steam_id":85568392924510193,"keywords":["nocrits","nodmgspread","payload","uncletopia"],"game_id":440,"stv_port":27046,"stv_name":"Uncletopia | London | 4 | All Maps | STV","players":[{"user_id":170,"name":"RAINZ","steam_id":76561198335370929,"connected_time":47000000000,"state":"active","ping":163},{"user_id":156,"name":"yer_nerd","steam_id":76561199435454093,"connected_time":1564000000000,"state":"active","ping":128},{"user_id":157,"name":"DelT","steam_id":76561198204007537,"connected_time":1543000000000,"state":"active","ping":60},{"user_id":161,"name":"n-ski","steam_id":76561198020550849,"connected_time":1509000000000,"state":"active","ping":86},{"user_id":165,"name":"Solymr ibn Wali Barad","steam_id":76561198044008976,"connected_time":807000000000,"state":"active","ping":59},{"user_id":169,"name":"disposablesuperbread","steam_id":76561199074703607,"connected_time":60000000000,"state":"active","ping":83},{"user_id":171,"name":"Dabman","steam_id":76561199207417437,"connected_time":45000000000,"state":"spawning","ping":96},{"user_id":64,"name":"brokenphilip","steam_id":76561198080960604,"connected_time":7117000000000,"state":"active","ping":77},{"user_id":146,"name":"Mannequin","steam_id":76561198128833974,"connected_time":2158000000000,"state":"active","ping":52},{"user_id":172,"name":"KnugenIV","steam_id":76561198127091993,"connected_time":42000000000,"state":"active","ping":55},{"user_id":173,"name":"Private Sex","steam_id":76561199007574830,"connected_time":41000000000,"state":"active","ping":71},{"user_id":137,"name":"General Petrov","steam_id":76561198027204104,"connected_time":3021000000000,"state":"active","ping":79},{"user_id":174,"name":"Chambersite","steam_id":76561198197022399,"connected_time":39000000000,"state":"active","ping":74},{"user_id":175,"name":"zvekan","steam_id":76561198381101196,"connected_time":38000000000,"state":"active","ping":72},{"user_id":166,"name":"Michael","steam_id":76561198003146906,"connected_time":474000000000,"state":"active","ping":42},{"user_id":111,"name":"Smash hit enjoyer","steam_id":76561198311322738,"connected_time":4496000000000,"state":"active","ping":68},{"user_id":159,"name":"GMsU | AuxiliusM","steam_id":76561198071903356,"connected_time":1533000000000,"state":"active","ping":51},{"user_id":150,"name":"Hey, I¬¥m Andy!","steam_id":76561198060337777,"connected_time":1706000000000,"state":"active","ping":85},{"user_id":45,"name":"DiscoTraveler","steam_id":76561199240168088,"connected_time":8350000000000,"state":"active","ping":115},{"user_id":160,"name":"NANOS","steam_id":76561198986670306,"connected_time":1531000000000,"state":"active","ping":99},{"user_id":48,"name":"syndenz","steam_id":76561198176063813,"connected_time":8311000000000,"state":"active","ping":75},{"user_id":132,"name":"noellemeow","steam_id":76561198159622003,"connected_time":3233000000000,"state":"active","ping":158},{"user_id":176,"name":"Superiumentarius","steam_id":76561198081642249,"connected_time":13000000000,"state":"active","ping":60},{"user_id":162,"name":"Dunya","steam_id":76561198041371314,"connected_time":1505000000000,"state":"active","ping":134}]},{"server_id":21,"name":"Uncletopia | London | 5 | All Maps","name_short":"lon-5","host":"lon-1.uk.uncletopia.com","port":27055,"enabled":true,"region":"eu","cc":"gb","latitude":51.509865,"longitude":-0.118092,"reserved":0,"last_update":"0001-01-01T00:00:00Z","name_a2s":"Uncletopia | London | 5 | All Maps","protocol":17,"map":"pl_upward","folder":"tf","game":"Team Fortress","app_id":440,"player_count":24,"max_players":24,"Bots":0,"server_type":"Dedicated","server_os":"Linux","password":true,"vac":true,"version":"7757534","steam_id":85568392924742829,"keywords":["nocrits","nodmgspread","payload","uncletopia"],"game_id":440,"stv_port":27056,"stv_name":"Uncletopia | London | 5 | All Maps | STV","players":[{"user_id":125,"name":"flange","steam_id":76561198040182692,"connected_time":137000000000,"state":"active","ping":42},{"user_id":122,"name":"bayzoes","steam_id":76561198117472639,"connected_time":177000000000,"state":"active","ping":45},{"user_id":98,"name":"MelioiBoi","steam_id":76561198929188491,"connected_time":2210000000000,"state":"active","ping":198},{"user_id":53,"name":"TeaFlavouredCoffee","steam_id":76561198925306032,"connected_time":5734000000000,"state":"active","ping":65},{"user_id":123,"name":"on1on (fried)","steam_id":76561197995304137,"connected_time":175000000000,"state":"active","ping":73},{"user_id":106,"name":"dunduu","steam_id":76561198875240717,"connected_time":1380000000000,"state":"active","ping":76},{"user_id":99,"name":"Wuli","steam_id":76561198056928284,"connected_time":2192000000000,"state":"active","ping":117},{"user_id":81,"name":"Dzieciol","steam_id":76561198160237556,"connected_time":3188000000000,"state":"active","ping":75},{"user_id":109,"name":"Not Clickbait (Real)","steam_id":76561198951275407,"connected_time":1304000000000,"state":"active","ping":84},{"user_id":116,"name":"‚ú†snupdoguuV_02‚ò™","steam_id":76561198375885833,"connected_time":433000000000,"state":"active","ping":94},{"user_id":107,"name":"Noob_with_source","steam_id":76561198870362103,"connected_time":1379000000000,"state":"active","ping":55},{"user_id":117,"name":"ILDPRUT","steam_id":76561198024545611,"connected_time":419000000000,"state":"active","ping":53},{"user_id":118,"name":"Avitz","steam_id":76561197986150359,"connected_time":409000000000,"state":"active","ping":43},{"user_id":119,"name":"SaphriX","steam_id":76561198092239262,"connected_time":386000000000,"state":"active","ping":56},{"user_id":91,"name":"Big Al","steam_id":76561198067692439,"connected_time":2630000000000,"state":"active","ping":106},{"user_id":124,"name":"Tywhip","steam_id":76561199207545191,"connected_time":148000000000,"state":"active","ping":55},{"user_id":120,"name":"fifrok","steam_id":76561198799267621,"connected_time":363000000000,"state":"active","ping":78},{"user_id":86,"name":"Thing","steam_id":76561197997904403,"connected_time":2847000000000,"state":"active","ping":109},{"user_id":97,"name":"–¢—Ä—É–ø –í–æ–ª–æ–¥—è","steam_id":76561198035718457,"connected_time":2290000000000,"state":"active","ping":91},{"user_id":103,"name":"IronHawk‚ú®","steam_id":76561198008959448,"connected_time":1395000000000,"state":"active","ping":72},{"user_id":113,"name":"Kleiner Engel","steam_id":76561198009922500,"connected_time":1006000000000,"state":"active","ping":72},{"user_id":96,"name":"RIFT","steam_id":76561198991622379,"connected_time":2322000000000,"state":"active","ping":38},{"user_id":35,"name":"bird (trans rights)","steam_id":76561198393596975,"connected_time":6675000000000,"state":"active","ping":48},{"user_id":40,"name":"Urfangonultasadana","steam_id":76561199389286151,"connected_time":6572000000000,"state":"active","ping":95}]},{"server_id":22,"name":"Uncletopia | London | 6 | All Maps","name_short":"lon-6","host":"lon-1.uk.uncletopia.com","port":27065,"enabled":true,"region":"eu","cc":"gb","latitude":51.509865,"longitude":-0.118092,"reserved":0,"last_update":"0001-01-01T00:00:00Z","name_a2s":"Uncletopia | London | 6 | All Maps","protocol":17,"map":"koth_viaduct","folder":"tf","game":"Team Fortress","app_id":440,"player_count":0,"max_players":24,"Bots":0,"server_type":"Dedicated","server_os":"Linux","password":true,"vac":true,"version":"7757534","steam_id":85568392924742830,"keywords":["cp","nocrits","nodmgspread","uncletopia"],"game_id":440,"stv_port":27066,"stv_name":"Uncletopia | London | 6 | All Maps | STV","players":null},{"server_id":40,"name":"Uncletopia | London | 7 | No Payload","name_short":"lon-7","host":"lon-1.uk.uncletopia.com","port":27075,"enabled":true,"region":"eu","cc":"gb","latitude":51.509865,"longitude":-0.118092,"reserved":0,"last_update":"0001-01-01T00:00:00Z","name_a2s":"Uncletopia | London | 7 | No Payload","protocol":17,"map":"koth_lazarus","folder":"tf","game":"Team Fortress","app_id":440,"player_count":1,"max_players":24,"Bots":0,"server_type":"Dedicated","server_os":"Linux","password":true,"vac":true,"version":"7757534","steam_id":85568392924964314,"keywords":["cp","nocrits","nodmgspread","uncletopia"],"game_id":440,"stv_port":27076,"stv_name":"Uncletopia | London | 7 | No Payload | STV","players":[{"user_id":10,"name":"ran is running","steam_id":76561199443185667,"connected_time":1295000000000,"state":"active","ping":142}]},{"server_id":41,"name":"Uncletopia | London | 8 | Community","name_short":"lon-8","host":"lon-1.uk.uncletopia.com","port":27085,"enabled":true,"region":"eu","cc":"gb","latitude":51.509865,"longitude":-0.118092,"reserved":0,"last_update":"0001-01-01T00:00:00Z","name_a2s":"Uncletopia | London | 8 | Community","protocol":17,"map":"pl_barnblitz","folder":"tf","game":"Team Fortress","app_id":440,"player_count":0,"max_players":24,"Bots":0,"server_type":"Dedicated","server_os":"Linux","password":true,"vac":true,"version":"7757534","steam_id":85568392924964315,"keywords":["nocrits","nodmgspread","payload","uncletopia"],"game_id":440,"stv_port":27086,"stv_name":"Uncletopia | London | 8 | Community | STV","players":null},{"server_id":300,"name":"Uncletopia | Montr√©al | 1 | All Maps","name_short":"mtl-1","host":"mtl-1.ca.uncletopia.com","port":27015,"enabled":true,"region":"us-east","cc":"ca","latitude":45.50889,"longitude":-73.56167,"reserved":0,"last_update":"0001-01-01T00:00:00Z","name_a2s":"Uncletopia | Montr√©al | 1 | All Maps","protocol":17,"map":"cp_sunshine","folder":"tf","game":"Team Fortress","app_id":440,"player_count":0,"max_players":24,"Bots":0,"server_type":"Dedicated","server_os":"Linux","password":true,"vac":true,"version":"7757534","steam_id":85568392924500087,"keywords":["cp","nocrits","nodmgspread","uncletopia"],"game_id":440,"stv_port":27016,"stv_name":"Uncletopia | Montr√©al | 1 | All Maps | STV","players":null},{"server_id":301,"name":"Uncletopia | Montr√©al | 2 | All Maps","name_short":"mtl-2","host":"mtl-1.ca.uncletopia.com","port":27025,"enabled":true,"region":"us-east","cc":"ca","latitude":45.50889,"longitude":-73.56167,"reserved":0,"last_update":"0001-01-01T00:00:00Z","name_a2s":"Uncletopia | Montr√©al | 2 | All Maps","protocol":17,"map":"pl_snowycoast","folder":"tf","game":"Team Fortress","app_id":440,"player_count":0,"max_players":24,"Bots":0,"server_type":"Dedicated","server_os":"Linux","password":true,"vac":true,"version":"7757534","steam_id":85568392924500088,"keywords":["nocrits","nodmgspread","payload","uncletopia"],"game_id":440,"stv_port":27026,"stv_name":"Uncletopia | Montr√©al | 2 | All Maps | STV","players":null},{"server_id":302,"name":"Uncletopia | Montr√©al | 3 | All Maps","name_short":"mtl-3","host":"mtl-1.ca.uncletopia.com","port":27035,"enabled":true,"region":"us-east","cc":"ca","latitude":45.50889,"longitude":-73.56167,"reserved":0,"last_update":"0001-01-01T00:00:00Z","name_a2s":"Uncletopia | Montr√©al | 3 | All Maps","protocol":17,"map":"pl_swiftwater_final1","folder":"tf","game":"Team Fortress","app_id":440,"player_count":0,"max_players":24,"Bots":0,"server_type":"Dedicated","server_os":"Linux","password":true,"vac":true,"version":"7757534","steam_id":85568392924500089,"keywords":["nocrits","nodmgspread","payload","uncletopia"],"game_id":440,"stv_port":27036,"stv_name":"Uncletopia | Montr√©al | 3 | All Maps | STV","players":null},{"server_id":303,"name":"Uncletopia | Montr√©al | 4 | No Payload","name_short":"mtl-4","host":"mtl-1.ca.uncletopia.com","port":27045,"enabled":true,"region":"us-east","cc":"ca","latitude":45.50889,"longitude":-73.56167,"reserved":0,"last_update":"0001-01-01T00:00:00Z","name_a2s":"Uncletopia | Montr√©al | 4 | No Payload","protocol":17,"map":"cp_steel","folder":"tf","game":"Team Fortress","app_id":440,"player_count":0,"max_players":24,"Bots":0,"server_type":"Dedicated","server_os":"Linux","password":true,"vac":true,"version":"7757534","steam_id":85568392924500090,"keywords":["cp","nocrits","nodmgspread","uncletopia"],"game_id":440,"stv_port":27046,"stv_name":"Uncletopia | Montr√©al | 4 | No Payload | STV","players":null},{"server_id":13,"name":"Uncletopia | New York City | 1 | All Maps","name_short":"nyc-1","host":"nyc-1.us.uncletopia.com","port":27015,"enabled":true,"region":"us-east","cc":"us","latitude":40.73061,"longitude":-73.93524,"reserved":0,"last_update":"0001-01-01T00:00:00Z","name_a2s":"Uncletopia | New York City | 1 | All Maps","protocol":17,"map":"pl_badwater","folder":"tf","game":"Team Fortress","app_id":440,"player_count":23,"max_players":24,"Bots":0,"server_type":"Dedicated","server_os":"Linux","password":true,"vac":true,"version":"7757534","steam_id":85568392924469993,"keywords":["nocrits","nodmgspread","payload","uncletopia"],"game_id":440,"stv_port":27016,"stv_name":"Uncletopia | New York City | 1 | All Maps | STV","players":[{"user_id":156,"name":"50 Cent","steam_id":76561199023726004,"connected_time":2555000000000,"state":"active","ping":95},{"user_id":170,"name":"hydrationing","steam_id":76561199429069267,"connected_time":1362000000000,"state":"active","ping":62},{"user_id":151,"name":"ùô¥ ùö° ùöå ùöé ùöï ùöï \ufffd","steam_id":76561198011887958,"connected_time":2804000000000,"state":"active","ping":48},{"user_id":14,"name":"ror!","steam_id":76561198021227843,"connected_time":12141000000000,"state":"active","ping":69},{"user_id":165,"name":"corpach","steam_id":76561198150418268,"connected_time":1578000000000,"state":"active","ping":74},{"user_id":83,"name":"Mrs.Frizzle","steam_id":76561198117157085,"connected_time":7897000000000,"state":"active","ping":46},{"user_id":153,"name":"Gourm","steam_id":76561198892036159,"connected_time":2744000000000,"state":"active","ping":61},{"user_id":174,"name":"Primal","steam_id":76561197983118203,"connected_time":755000000000,"state":"active","ping":85},{"user_id":166,"name":"Yankee_Pirate","steam_id":76561198260667117,"connected_time":1563000000000,"state":"active","ping":62},{"user_id":116,"name":"DavidBowiesPackage","steam_id":76561198148729253,"connected_time":5404000000000,"state":"active","ping":82},{"user_id":179,"name":"Homura Simp","steam_id":76561198246080762,"connected_time":385000000000,"state":"active","ping":41},{"user_id":180,"name":"Fuse","steam_id":76561198047018079,"connected_time":361000000000,"state":"active","ping":101},{"user_id":163,"name":"Dylanardo","steam_id":76561198294726950,"connected_time":1867000000000,"state":"active","ping":78},{"user_id":161,"name":"Simply-Vincenzo","steam_id":76561198044580842,"connected_time":2062000000000,"state":"active","ping":104},{"user_id":119,"name":"Fiendish Frog","steam_id":76561198029478821,"connected_time":5053000000000,"state":"active","ping":60},{"user_id":181,"name":"barbara","steam_id":76561198072417792,"connected_time":288000000000,"state":"active","ping":130},{"user_id":159,"name":"Schmingus","steam_id":76561199476148332,"connected_time":2329000000000,"state":"active","ping":101},{"user_id":140,"name":"need a dispenser here","steam_id":76561198060912995,"connected_time":4020000000000,"state":"active","ping":41},{"user_id":182,"name":"dimble","steam_id":76561198084699691,"connected_time":34000000000,"state":"active","ping":55},{"user_id":123,"name":"Panic Opossum","steam_id":76561198043838227,"connected_time":5004000000000,"state":"active","ping":60},{"user_id":175,"name":"A Trigger Happy Chipmunk","steam_id":76561198013608736,"connected_time":566000000000,"state":"active","ping":59},{"user_id":169,"name":"oxbudy","steam_id":76561198022120207,"connected_time":1446000000000,"state":"active","ping":86},{"user_id":176,"name":"kris the deer (lagging)","steam_id":76561198170928310,"connected_time":563000000000,"state":"active","ping":66}]},{"server_id":14,"name":"Uncletopia | New York City | 2 | All Maps","name_short":"nyc-2","host":"nyc-1.us.uncletopia.com","port":27025,"enabled":true,"region":"us-east","cc":"us","latitude":40.73061,"longitude":-73.93524,"reserved":0,"last_update":"0001-01-01T00:00:00Z","name_a2s":"Uncletopia | New York City | 2 | All Maps","protocol":17,"map":"pl_swiftwater_final1","folder":"tf","game":"Team Fortress","app_id":440,"player_count":24,"max_players":24,"Bots":0,"server_type":"Dedicated","server_os":"Linux","password":true,"vac":true,"version":"7757534","steam_id":85568392924469994,"keywords":["nocrits","nodmgspread","payload","uncletopia"],"game_id":440,"stv_port":27026,"stv_name":"Uncletopia | New York City | 2 | All Maps | STV","players":[{"user_id":92,"name":"Evil Table Corner","steam_id":76561198045499333,"connected_time":1036000000000,"state":"active","ping":84},{"user_id":102,"name":"Scorp","steam_id":76561198070619615,"connected_time":407000000000,"state":"active","ping":70},{"user_id":105,"name":"wahooka","steam_id":76561197981211922,"connected_time":190000000000,"state":"active","ping":55},{"user_id":55,"name":"ARGON OttoDogX","steam_id":76561198042007578,"connected_time":4400000000000,"state":"active","ping":120},{"user_id":42,"name":"bonehead","steam_id":76561198090002944,"connected_time":4860000000000,"state":"active","ping":66},{"user_id":110,"name":"DeepCarryGalactic","steam_id":76561198295280927,"connected_time":5000000000,"state":"spawning","ping":89},{"user_id":99,"name":"Paro","steam_id":76561198865314657,"connected_time":857000000000,"state":"active","ping":64},{"user_id":108,"name":"GaiBerd","steam_id":76561198177100634,"connected_time":159000000000,"state":"active","ping":46},{"user_id":109,"name":"BigDeac","steam_id":76561198091237274,"connected_time":84000000000,"state":"active","ping":69},{"user_id":34,"name":"El_Jackso","steam_id":76561198126121555,"connected_time":5047000000000,"state":"active","ping":75},{"user_id":103,"name":"Tlaloc","steam_id":76561198375215983,"connected_time":406000000000,"state":"active","ping":118},{"user_id":67,"name":"zzzz","steam_id":76561199413388036,"connected_time":3254000000000,"state":"active","ping":126},{"user_id":90,"name":"NV_6155 (twitch.tv)","steam_id":76561198085696816,"connected_time":1165000000000,"state":"active","ping":64},{"user_id":59,"name":"Smoke","steam_id":76561198140627349,"connected_time":4090000000000,"state":"active","ping":71},{"user_id":54,"name":"THEDINKY","steam_id":76561198190077399,"connected_time":4439000000000,"state":"active","ping":60},{"user_id":104,"name":"TLG, Certified Gamer Mom","steam_id":76561198076669951,"connected_time":405000000000,"state":"active","ping":63},{"user_id":85,"name":"Aviyarn","steam_id":76561199074194652,"connected_time":1439000000000,"state":"active","ping":77},{"user_id":83,"name":"Slashes","steam_id":76561197968573499,"connected_time":1621000000000,"state":"active","ping":41},{"user_id":91,"name":"ChebJeb","steam_id":76561198981377081,"connected_time":1116000000000,"state":"active","ping":60},{"user_id":86,"name":"Swifgz","steam_id":76561198162875756,"connected_time":1422000000000,"state":"active","ping":44},{"user_id":48,"name":"tookalook","steam_id":76561198108046923,"connected_time":4729000000000,"state":"active","ping":45},{"user_id":65,"name":"Titus Tyrwitt","steam_id":76561197990779673,"connected_time":3337000000000,"state":"active","ping":77},{"user_id":70,"name":"LunarrD","steam_id":76561198811220107,"connected_time":3060000000000,"state":"active","ping":65},{"user_id":98,"name":"custodian","steam_id":76561198058793778,"connected_time":944000000000,"state":"active","ping":59}]},{"server_id":15,"name":"Uncletopia | New York City | 3 | Stopwatch Beta","name_short":"nyc-3","host":"nyc-1.us.uncletopia.com","port":27035,"enabled":true,"region":"us-east","cc":"us","latitude":40.73061,"longitude":-73.93524,"reserved":0,"last_update":"0001-01-01T00:00:00Z","name_a2s":"Uncletopia | New York City | 3 | Stopwatch Beta","protocol":17,"map":"workshop/koth_clearcut_b15.ugc2107050255","folder":"tf","game":"Team Fortress","app_id":440,"player_count":6,"max_players":24,"Bots":0,"server_type":"Dedicated","server_os":"Linux","password":true,"vac":true,"version":"7757534","steam_id":85568392924742820,"keywords":["cp","nocrits","nodmgspread","uncletopia"],"game_id":440,"stv_port":27036,"stv_name":"Uncletopia | New York City | 3 | Stopwatch Beta | STV","players":[{"user_id":10,"name":"goldgardian","steam_id":76561198319471339,"connected_time":2202000000000,"state":"active","ping":91},{"user_id":11,"name":"SENTRY_COP687","steam_id":76561199217344643,"connected_time":2178000000000,"state":"active","ping":83},{"user_id":12,"name":"Senko","steam_id":76561198092102097,"connected_time":1197000000000,"state":"active","ping":95},{"user_id":13,"name":"comfy and cozy","steam_id":76561198860068961,"connected_time":1063000000000,"state":"active","ping":44},{"user_id":14,"name":"cat (real)","steam_id":76561198885041703,"connected_time":534000000000,"state":"active","ping":74},{"user_id":15,"name":"SnatchyGoblin69","steam_id":76561199276295259,"connected_time":282000000000,"state":"active","ping":59}]},{"server_id":16,"name":"Uncletopia | New York City | 4 | Community","name_short":"nyc-4","host":"nyc-1.us.uncletopia.com","port":27045,"enabled":true,"region":"us-east","cc":"us","latitude":40.73061,"longitude":-73.93524,"reserved":0,"last_update":"0001-01-01T00:00:00Z","name_a2s":"Uncletopia | New York City | 4 | Community","protocol":17,"map":"workshop/koth_ramjam_rc1.ugc459778887","folder":"tf","game":"Team Fortress","app_id":440,"player_count":0,"max_players":24,"Bots":0,"server_type":"Dedicated","server_os":"Linux","password":true,"vac":true,"version":"7757534","steam_id":85568392924742821,"keywords":["cp","nocrits","nodmgspread","uncletopia"],"game_id":440,"stv_port":27046,"stv_name":"Uncletopia | New York City | 4 | Community | STV","players":null},{"server_id":142,"name":"Uncletopia | S√£o Paulo | 1 | All Maps","name_short":"sao-1","host":"sao-1.br.uncletopia.com","port":27015,"enabled":true,"region":"sa","cc":"br","latitude":-23.533773,"longitude":-46.62529,"reserved":0,"last_update":"0001-01-01T00:00:00Z","name_a2s":"Uncletopia | S√£o Paulo | 1 | All Maps","protocol":17,"map":"koth_lakeside_final","folder":"tf","game":"Team Fortress","app_id":440,"player_count":3,"max_players":24,"Bots":0,"server_type":"Dedicated","server_os":"Linux","password":true,"vac":true,"version":"7757534","steam_id":85568392924469996,"keywords":["cp","nocrits","nodmgspread","uncletopia"],"game_id":440,"stv_port":27016,"stv_name":"Uncletopia | S√£o Paulo | 1 | All Maps | STV","players":[{"user_id":5,"name":"FutanariGirl","steam_id":76561199479462702,"connected_time":1511000000000,"state":"active","ping":43},{"user_id":10,"name":"The impostor","steam_id":76561198877970675,"connected_time":541000000000,"state":"active","ping":40},{"user_id":9,"name":"rhongomyviado","steam_id":76561199070259867,"connected_time":545000000000,"state":"active","ping":38}]},{"server_id":143,"name":"Uncletopia | S√£o Paulo | 2 | All Maps","name_short":"sao-2","host":"sao-2.br.uncletopia.com","port":27015,"enabled":true,"region":"sa","cc":"br","latitude":-23.533773,"longitude":-46.62529,"reserved":0,"last_update":"0001-01-01T00:00:00Z","name_a2s":"Uncletopia | S√£o Paulo | 2 | All Maps","protocol":17,"map":"koth_cascade","folder":"tf","game":"Team Fortress","app_id":440,"player_count":0,"max_players":24,"Bots":0,"server_type":"Dedicated","server_os":"Linux","password":true,"vac":true,"version":"7757534","steam_id":85568392924485349,"keywords":["cp","nocrits","nodmgspread","uncletopia"],"game_id":440,"stv_port":27016,"stv_name":"Uncletopia | S√£o Paulo | 2 | All Maps | STV","players":null},{"server_id":7,"name":"Uncletopia | Seattle | 1 | All Maps","name_short":"sea-1","host":"sea-1.us.uncletopia.com","port":27015,"enabled":true,"region":"us-west","cc":"us","latitude":47.608013,"longitude":-122.33517,"reserved":0,"last_update":"0001-01-01T00:00:00Z","name_a2s":"Uncletopia | Seattle | 1 | All Maps","protocol":17,"map":"cp_mercenarypark","folder":"tf","game":"Team Fortress","app_id":440,"player_count":24,"max_players":24,"Bots":0,"server_type":"Dedicated","server_os":"Linux","password":true,"vac":true,"version":"7757534","steam_id":85568392924469997,"keywords":["cp","nocrits","nodmgspread","uncletopia"],"game_id":440,"stv_port":27016,"stv_name":"Uncletopia | Seattle | 1 | All Maps | STV","players":[{"user_id":187,"name":"AmiableNebula","steam_id":76561198094306627,"connected_time":1179000000000,"state":"active","ping":74},{"user_id":197,"name":"ally of big tobacco","steam_id":76561198169927835,"connected_time":367000000000,"state":"active","ping":88},{"user_id":157,"name":"Tea","steam_id":76561198004133638,"connected_time":4901000000000,"state":"active","ping":80},{"user_id":188,"name":"BraxBird","steam_id":76561199262535082,"connected_time":1043000000000,"state":"active","ping":81},{"user_id":172,"name":"monkey squirts","steam_id":76561197983101644,"connected_time":2614000000000,"state":"active","ping":65},{"user_id":183,"name":"matt_rolltide","steam_id":76561198796727164,"connected_time":1681000000000,"state":"active","ping":63},{"user_id":46,"name":"Highground","steam_id":76561199197544789,"connected_time":14799000000000,"state":"active","ping":144},{"user_id":195,"name":"Meth Goblin","steam_id":76561198086355221,"connected_time":543000000000,"state":"active","ping":129},{"user_id":179,"name":"AlphaDog205","steam_id":76561199088958771,"connected_time":2114000000000,"state":"active","ping":86},{"user_id":151,"name":"o o o o o o o o o","steam_id":76561197993757506,"connected_time":5402000000000,"state":"active","ping":70},{"user_id":194,"name":"NOTWALTER","steam_id":76561198125464744,"connected_time":580000000000,"state":"active","ping":136},{"user_id":100,"name":"Kick Down Door 6:00AM TUCK‚òÉRO","steam_id":76561197976146738,"connected_time":8854000000000,"state":"active","ping":128},{"user_id":193,"name":"Frank (#ripJimmyCarter)","steam_id":76561198126681511,"connected_time":639000000000,"state":"active","ping":80},{"user_id":189,"name":"BurntBacon","steam_id":76561198409008960,"connected_time":1009000000000,"state":"active","ping":93},{"user_id":175,"name":"LeBron James Ferraro","steam_id":76561197995200743,"connected_time":2550000000000,"state":"active","ping":61},{"user_id":191,"name":"Scoron","steam_id":76561198062099305,"connected_time":877000000000,"state":"active","ping":80},{"user_id":192,"name":"An Unhappy Clown","steam_id":76561198175516514,"connected_time":798000000000,"state":"active","ping":98},{"user_id":199,"name":"MeatShield 2000","steam_id":76561199375192850,"connected_time":296000000000,"state":"active","ping":105},{"user_id":180,"name":"Literal Vampire Potbelly Goblin","steam_id":76561197970527356,"connected_time":1981000000000,"state":"active","ping":67},{"user_id":176,"name":"emit AHHHHHHHHHHHHHHHHHHHHHHHHH","steam_id":76561198367778550,"connected_time":2528000000000,"state":"active","ping":113},{"user_id":200,"name":"Cloud","steam_id":76561198272454184,"connected_time":173000000000,"state":"active","ping":171},{"user_id":181,"name":"the world is watching","steam_id":76561198875376206,"connected_time":1809000000000,"state":"active","ping":77},{"user_id":170,"name":"Skinny Pete","steam_id":76561198801608576,"connected_time":3647000000000,"state":"active","ping":118},{"user_id":178,"name":"700,000 raw papers","steam_id":76561198424248616,"connected_time":2368000000000,"state":"active","ping":75}]},{"server_id":119,"name":"Uncletopia | Seattle | 2 | All Maps","name_short":"sea-2","host":"sea-1.us.uncletopia.com","port":27025,"enabled":true,"region":"us-west","cc":"us","latitude":47.608013,"longitude":-122.33517,"reserved":0,"last_update":"0001-01-01T00:00:00Z","name_a2s":"Uncletopia | Seattle | 2 | All Maps","protocol":17,"map":"cp_dustbowl","folder":"tf","game":"Team Fortress","app_id":440,"player_count":22,"max_players":24,"Bots":0,"server_type":"Dedicated","server_os":"Linux","password":true,"vac":true,"version":"7757534","steam_id":85568392924469998,"keywords":["cp","nocrits","nodmgspread","uncletopia"],"game_id":440,"stv_port":27026,"stv_name":"Uncletopia | Seattle | 2 | All Maps | STV","players":[{"user_id":90,"name":"mobe","steam_id":76561198121633820,"connected_time":755000000000,"state":"active","ping":77},{"user_id":30,"name":"mafia is mafia","steam_id":76561198042574722,"connected_time":4586000000000,"state":"active","ping":46},{"user_id":89,"name":"ground control","steam_id":76561198044265737,"connected_time":771000000000,"state":"active","ping":91},{"user_id":96,"name":"Thermo","steam_id":76561198978967412,"connected_time":690000000000,"state":"active","ping":97},{"user_id":104,"name":"T . T","steam_id":76561198041907345,"connected_time":68000000000,"state":"active","ping":80},{"user_id":71,"name":"Thequirka","steam_id":76561198968058652,"connected_time":1873000000000,"state":"active","ping":49},{"user_id":105,"name":"Maker‚Äôs_Mark","steam_id":76561198198371445,"connected_time":54000000000,"state":"active","ping":126},{"user_id":91,"name":"dotZero","steam_id":76561197993299088,"connected_time":742000000000,"state":"active","ping":59},{"user_id":92,"name":"Nick3wn","steam_id":76561198059345805,"connected_time":742000000000,"state":"active","ping":118},{"user_id":100,"name":"Tyler\u0026Fingers","steam_id":76561198085154485,"connected_time":299000000000,"state":"active","ping":135},{"user_id":103,"name":"2Tailed","steam_id":76561199056776091,"connected_time":143000000000,"state":"active","ping":86},{"user_id":51,"name":"Little Linguine","steam_id":76561198816986370,"connected_time":2840000000000,"state":"active","ping":60},{"user_id":99,"name":"lew","steam_id":76561198088682495,"connected_time":551000000000,"state":"active","ping":193},{"user_id":94,"name":"weenie hut jr","steam_id":76561198206922028,"connected_time":728000000000,"state":"active","ping":78},{"user_id":106,"name":"SomeRandomBetaFish","steam_id":76561198827731399,"connected_time":51000000000,"state":"active","ping":66},{"user_id":95,"name":"sassy loli","steam_id":76561198402316065,"connected_time":725000000000,"state":"active","ping":134},{"user_id":67,"name":"turkeysarefriendsz","steam_id":76561199074521322,"connected_time":2084000000000,"state":"active","ping":87},{"user_id":70,"name":"bean3d","steam_id":76561198285786989,"connected_time":1949000000000,"state":"active","ping":74},{"user_id":79,"name":"Rat (real)","steam_id":76561198302366619,"connected_time":1703000000000,"state":"active","ping":75},{"user_id":80,"name":"DatFluffyPancake","steam_id":76561198271958697,"connected_time":1699000000000,"state":"active","ping":66},{"user_id":81,"name":"PadrePockets","steam_id":76561197993251606,"connected_time":1662000000000,"state":"active","ping":157},{"user_id":102,"name":"The Pepsi¬Æ Superbowl¬Æ!","steam_id":76561198080828981,"connected_time":256000000000,"state":"active","ping":78}]},{"server_id":406,"name":"Uncletopia | Seattle | 3 | Stopwatch Beta","name_short":"sea-3","host":"sea-1.us.uncletopia.com","port":27035,"enabled":true,"region":"us-west","cc":"us","latitude":47.608013,"longitude":-122.33517,"reserved":0,"last_update":"0001-01-01T00:00:00Z","name_a2s":"Uncletopia | Seattle | 3 | Stopwatch Beta","protocol":17,"map":"cp_dustbowl","folder":"tf","game":"Team Fortress","app_id":440,"player_count":0,"max_players":24,"Bots":0,"server_type":"Dedicated","server_os":"Linux","password":true,"vac":true,"version":"7757534","steam_id":85568392924515217,"keywords":["cp","nocrits","nodmgspread","uncletopia"],"game_id":440,"stv_port":27036,"stv_name":"Uncletopia | Seattle | 3 | Stopwatch Beta | STV","players":null},{"server_id":17,"name":"Uncletopia | San Francisco | 1 | All Maps","name_short":"sfo-1","host":"sfo-1.us.uncletopia.com","port":27015,"enabled":true,"region":"us-west","cc":"us","latitude":37.77397,"longitude":-122.4313,"reserved":0,"last_update":"0001-01-01T00:00:00Z","name_a2s":"Uncletopia | San Francisco | 1 | All Maps","protocol":17,"map":"pl_badwater","folder":"tf","game":"Team Fortress","app_id":440,"player_count":0,"max_players":24,"Bots":0,"server_type":"Dedicated","server_os":"Linux","password":true,"vac":true,"version":"7757534","steam_id":85568392924469999,"keywords":["nocrits","nodmgspread","payload","uncletopia"],"game_id":440,"stv_port":27016,"stv_name":"Uncletopia | San Francisco | 1 | All Maps | STV","players":null},{"server_id":18,"name":"Uncletopia | San Francisco | 2 | All Maps","name_short":"sfo-2","host":"sfo-1.us.uncletopia.com","port":27025,"enabled":true,"region":"us-west","cc":"us","latitude":37.77397,"longitude":-122.4313,"reserved":0,"last_update":"0001-01-01T00:00:00Z","name_a2s":"Uncletopia | San Francisco | 2 | All Maps","protocol":17,"map":"koth_highpass","folder":"tf","game":"Team Fortress","app_id":440,"player_count":0,"max_players":24,"Bots":0,"server_type":"Dedicated","server_os":"Linux","password":true,"vac":true,"version":"7757534","steam_id":85568392924470000,"keywords":["cp","nocrits","nodmgspread","uncletopia"],"game_id":440,"stv_port":27026,"stv_name":"Uncletopia | San Francisco | 2 | All Maps | STV","players":null},{"server_id":19,"name":"Uncletopia | San Francisco | 3 | Stopwatch Beta","name_short":"sfo-3","host":"sfo-1.us.uncletopia.com","port":27035,"enabled":true,"region":"us-west","cc":"us","latitude":37.77397,"longitude":-122.4313,"reserved":0,"last_update":"0001-01-01T00:00:00Z","name_a2s":"Uncletopia | San Francisco | 3 | Stopwatch Beta","protocol":17,"map":"koth_lakeside_final","folder":"tf","game":"Team Fortress","app_id":440,"player_count":0,"max_players":24,"Bots":0,"server_type":"Dedicated","server_os":"Linux","password":true,"vac":true,"version":"7757534","steam_id":85568392924742824,"keywords":["cp","nocrits","nodmgspread","uncletopia"],"game_id":440,"stv_port":27036,"stv_name":"Uncletopia | San Francisco | 3 | Stopwatch Beta | STV","players":null},{"server_id":20,"name":"Uncletopia | San Francisco | 4 | Community","name_short":"sfo-4","host":"sfo-1.us.uncletopia.com","port":27045,"enabled":true,"region":"us-west","cc":"us","latitude":37.77397,"longitude":-122.4313,"reserved":0,"last_update":"0001-01-01T00:00:00Z","name_a2s":"Uncletopia | San Francisco | 4 | Community","protocol":17,"map":"cp_altitude","folder":"tf","game":"Team Fortress","app_id":440,"player_count":0,"max_players":24,"Bots":0,"server_type":"Dedicated","server_os":"Linux","password":true,"vac":true,"version":"7757534","steam_id":85568392924742826,"keywords":["cp","nocrits","nodmgspread","uncletopia"],"game_id":440,"stv_port":27046,"stv_name":"Uncletopia | San Francisco | 4 | Community | STV","players":null},{"server_id":141,"name":"Uncletopia | Sydney | 1 | All Maps","name_short":"syd-1","host":"syd-1.au.uncletopia.com","port":27015,"enabled":true,"region":"au","cc":"au","latitude":-33.865143,"longitude":151.2099,"reserved":0,"last_update":"0001-01-01T00:00:00Z","name_a2s":"Uncletopia | Sydney | 1 | All Maps","protocol":17,"map":"cp_mountainlab","folder":"tf","game":"Team Fortress","app_id":440,"player_count":0,"max_players":24,"Bots":0,"server_type":"Dedicated","server_os":"Linux","password":true,"vac":true,"version":"7757534","steam_id":85568392924470001,"keywords":["cp","nocrits","nodmgspread","uncletopia"],"game_id":440,"stv_port":27016,"stv_name":"Uncletopia | Sydney | 1 | All Maps | STV","players":null},{"server_id":123,"name":"Uncletopia | Sydney | 2 | All Maps","name_short":"syd-2","host":"syd-1.au.uncletopia.com","port":27025,"enabled":true,"region":"au","cc":"au","latitude":-33.865143,"longitude":151.2099,"reserved":0,"last_update":"0001-01-01T00:00:00Z","name_a2s":"Uncletopia | Sydney | 2 | All Maps","protocol":17,"map":"cp_sunshine","folder":"tf","game":"Team Fortress","app_id":440,"player_count":0,"max_players":24,"Bots":0,"server_type":"Dedicated","server_os":"Linux","password":true,"vac":true,"version":"7757534","steam_id":85568392924470002,"keywords":["cp","nocrits","nodmgspread","uncletopia"],"game_id":440,"stv_port":27026,"stv_name":"Uncletopia | Sydney | 2 | All Maps | STV","players":null},{"server_id":395,"name":"Uncletopia | Sydney | 3 | All Maps","name_short":"syd-3","host":"syd-1.au.uncletopia.com","port":27035,"enabled":true,"region":"au","cc":"au","latitude":-33.865143,"longitude":151.2099,"reserved":0,"last_update":"0001-01-01T00:00:00Z","name_a2s":"Uncletopia | Sydney | 3 | All Maps","protocol":17,"map":"koth_viaduct","folder":"tf","game":"Team Fortress","app_id":440,"player_count":0,"max_players":24,"Bots":0,"server_type":"Dedicated","server_os":"Linux","password":true,"vac":true,"version":"7757534","steam_id":85568392925194467,"keywords":["cp","nocrits","nodmgspread","uncletopia"],"game_id":440,"stv_port":27036,"stv_name":"Uncletopia | Sydney | 3 | All Maps | STV","players":null},{"server_id":396,"name":"Uncletopia | Sydney | 4 | All Maps","name_short":"syd-4","host":"syd-1.au.uncletopia.com","port":27045,"enabled":true,"region":"au","cc":"au","latitude":-33.865143,"longitude":151.2099,"reserved":0,"last_update":"0001-01-01T00:00:00Z","name_a2s":"Uncletopia | Sydney | 4 | All Maps","protocol":17,"map":"koth_highpass","folder":"tf","game":"Team Fortress","app_id":440,"player_count":0,"max_players":24,"Bots":0,"server_type":"Dedicated","server_os":"Linux","password":true,"vac":true,"version":"7757534","steam_id":85568392925397958,"keywords":["cp","nocrits","nodmgspread","uncletopia"],"game_id":440,"stv_port":27046,"stv_name":"Uncletopia | Sydney | 4 | All Maps | STV","players":null},{"server_id":58,"name":"Uncletopia | Sydney | 5 | Stopwatch Beta","name_short":"syd-5","host":"syd-1.au.uncletopia.com","port":27055,"enabled":true,"region":"au","cc":"au","latitude":-33.865143,"longitude":151.2099,"reserved":0,"last_update":"0001-01-01T00:00:00Z","name_a2s":"Uncletopia | Sydney | 5 | Stopwatch Beta","protocol":17,"map":"workshop/cp_reckoner_rc6.ugc674719999","folder":"tf","game":"Team Fortress","app_id":440,"player_count":0,"max_players":24,"Bots":0,"server_type":"Dedicated","server_os":"Linux","password":true,"vac":true,"version":"7757534","steam_id":85568392925397959,"keywords":["cp","nocrits","nodmgspread","uncletopia"],"game_id":440,"stv_port":27056,"stv_name":"Uncletopia | Sydney | 5 | Stopwatch Beta | STV","players":null},{"server_id":59,"name":"Uncletopia | Sydney | 6 | Community","name_short":"syd-6","host":"syd-1.au.uncletopia.com","port":27065,"enabled":true,"region":"au","cc":"au","latitude":-33.865143,"longitude":151.2099,"reserved":0,"last_update":"0001-01-01T00:00:00Z","name_a2s":"Uncletopia | Sydney | 6 | Community","protocol":17,"map":"workshop/pl_vigil_rc9.ugc1266210012","folder":"tf","game":"Team Fortress","app_id":440,"player_count":0,"max_players":24,"Bots":0,"server_type":"Dedicated","server_os":"Linux","password":true,"vac":true,"version":"7757534","steam_id":85568392925397960,"keywords":["nocrits","nodmgspread","payload","uncletopia"],"game_id":440,"stv_port":27066,"stv_name":"Uncletopia | Sydney | 6 | Community | STV","players":null},{"server_id":49,"name":"Uncletopia | Warsaw | 1 | All Maps","name_short":"waw-1","host":"waw-1.pl.uncletopia.com","port":27015,"enabled":true,"region":"eu","cc":"pl","latitude":52.2297,"longitude":21.017532,"reserved":0,"last_update":"0001-01-01T00:00:00Z","name_a2s":"","protocol":0,"map":"","folder":"","game":"","app_id":0,"player_count":0,"max_players":0,"Bots":0,"server_type":"","server_os":"","password":false,"vac":false,"version":"","steam_id":0,"keywords":null,"game_id":0,"stv_port":0,"stv_name":"","players":null},{"server_id":50,"name":"Uncletopia | Warsaw | 2 | All Maps","name_short":"waw-2","host":"waw-1.pl.uncletopia.com","port":27025,"enabled":true,"region":"eu","cc":"pl","latitude":52.2297,"longitude":21.017532,"reserved":0,"last_update":"0001-01-01T00:00:00Z","name_a2s":"Uncletopia | Warsaw | 2 | All Maps","protocol":17,"map":"pl_frontier_final","folder":"tf","game":"Team Fortress","app_id":440,"player_count":0,"max_players":24,"Bots":0,"server_type":"Dedicated","server_os":"Linux","password":true,"vac":true,"version":"7757534","steam_id":85568392925397851,"keywords":["nocrits","nodmgspread","payload","uncletopia"],"game_id":440,"stv_port":27026,"stv_name":"Uncletopia | Warsaw | 2 | All Maps | STV","players":null},{"server_id":51,"name":"Uncletopia | Warsaw | 3 | All Maps","name_short":"waw-3","host":"waw-1.pl.uncletopia.com","port":27035,"enabled":true,"region":"eu","cc":"pl","latitude":52.2297,"longitude":21.017532,"reserved":0,"last_update":"0001-01-01T00:00:00Z","name_a2s":"Uncletopia | Warsaw | 3 | All Maps","protocol":17,"map":"pl_badwater","folder":"tf","game":"Team Fortress","app_id":440,"player_count":0,"max_players":24,"Bots":0,"server_type":"Dedicated","server_os":"Linux","password":true,"vac":true,"version":"7757534","steam_id":85568392925397852,"keywords":["nocrits","nodmgspread","payload","uncletopia"],"game_id":440,"stv_port":27036,"stv_name":"Uncletopia | Warsaw | 3 | All Maps | STV","players":null},{"server_id":52,"name":"Uncletopia | Warsaw | 4 | All Maps","name_short":"waw-4","host":"waw-1.pl.uncletopia.com","port":27045,"enabled":true,"region":"eu","cc":"pl","latitude":52.2297,"longitude":21.017532,"reserved":0,"last_update":"0001-01-01T00:00:00Z","name_a2s":"Uncletopia | Warsaw | 4 | All Maps","protocol":17,"map":"koth_lakeside_final","folder":"tf","game":"Team Fortress","app_id":440,"player_count":0,"max_players":24,"Bots":0,"server_type":"Dedicated","server_os":"Linux","password":true,"vac":true,"version":"7757534","steam_id":85568392925397853,"keywords":["cp","nocrits","nodmgspread","uncletopia"],"game_id":440,"stv_port":27046,"stv_name":"Uncletopia | Warsaw | 4 | All Maps | STV","players":null},{"server_id":53,"name":"Uncletopia | Warsaw | 5 | Stopwatch Beta","name_short":"waw-5","host":"waw-1.pl.uncletopia.com","port":27055,"enabled":true,"region":"eu","cc":"pl","latitude":52.2297,"longitude":21.017532,"reserved":0,"last_update":"0001-01-01T00:00:00Z","name_a2s":"Uncletopia | Warsaw | 5 | Stopwatch Beta","protocol":17,"map":"pl_borneo","folder":"tf","game":"Team Fortress","app_id":440,"player_count":0,"max_players":24,"Bots":0,"server_type":"Dedicated","server_os":"Linux","password":true,"vac":true,"version":"7757534","steam_id":85568392925397854,"keywords":["nocrits","nodmgspread","payload","uncletopia"],"game_id":440,"stv_port":27056,"stv_name":"Uncletopia | Warsaw | 5 | Stopwatch Beta | STV","players":null},{"server_id":54,"name":"Uncletopia | Warsaw | 6 | Community","name_short":"waw-6","host":"waw-1.pl.uncletopia.com","port":27065,"enabled":true,"region":"eu","cc":"pl","latitude":52.2297,"longitude":21.017532,"reserved":0,"last_update":"0001-01-01T00:00:00Z","name_a2s":"Uncletopia | Warsaw | 6 | Community","protocol":17,"map":"koth_lakeside_final","folder":"tf","game":"Team Fortress","app_id":440,"player_count":0,"max_players":24,"Bots":0,"server_type":"Dedicated","server_os":"Linux","password":true,"vac":true,"version":"7757534","steam_id":85568392925397856,"keywords":["cp","nocrits","nodmgspread","uncletopia"],"game_id":440,"stv_port":27066,"stv_name":"Uncletopia | Warsaw | 6 | Community | STV","players":null}]}