{"status":true,"message":"","result":[{"server_id":9,"name":"Uncletopia | Atlanta | 1 | All Maps","name_short":"atl-1","host":"atl-1.us.uncletopia.com","port":27015,"enabled":true,"region":"us-east","cc":"us","latitude":33.753746,"longitude":-84.38633,"reserved":0,"last_update":"0001-01-01T00:00:00Z","name_a2s":"Uncletopia | Atlanta | 1 | All Maps","protocol":17,"map":"pl_snowycoast","folder":"tf","game":"Team Fortress","app_id":440,"player_count":0,"max_players":24,"Bots":0,"server_type":"Dedicated","server_os":"Linux","password":true,"vac":true,"version":"7882260","steam_id":85568392924469982,"keywords":["nocrits","nodmgspread","payload","uncletopia"],"game_id":440,"stv_port":27016,"stv_name":"Uncletopia | Atlanta | 1 | All Maps | STV","players":null},{"server_id":104,"name":"Uncletopia | Atlanta | 2 | All Maps","name_short":"atl-2","host":"atl-1.us.uncletopia.com","port":27025,"enabled":true,"region":"us-east","cc":"us","latitude":33.753746,"longitude":-84.38633,"reserved":0,"last_update":"0001-01-01T00:00:00Z","name_a2s":"Uncletopia | Atlanta | 2 | All Maps","protocol":17,"map":"pl_swiftwater_final1","folder":"tf","game":"Team Fortress","app_id":440,"player_count":0,"max_players":24,"Bots":0,"server_type":"Dedicated","server_os":"Linux","password":true,"vac":true,"version":"7882260","steam_id":85568392924469983,"keywords":["nocrits","nodmgspread","payload","uncletopia"],"game_id":440,"stv_port":27026,"stv_name":"Uncletopia | Atlanta | 2 | All Maps | STV","players":null},{"server_id":400,"name":"Uncletopia | Atlanta | 3 | Community","name_short":"atl-3","host":"atl-1.us.uncletopia.com","port":27035,"enabled":true,"region":"us-east","cc":"us","latitude":33.753746,"longitude":-84.38633,"reserved":0,"last_update":"0001-01-01T00:00:00Z","name_a2s":"Uncletopia | Atlanta | 3 | Community","protocol":17,"map":"workshop/koth_ramjam_rc1.ugc459778887","folder":"tf","game":"Team Fortress","app_id":440,"player_count":0,"max_players":24,"Bots":0,"server_type":"Dedicated","server_os":"Linux","password":true,"vac":true,"version":"7882260","steam_id":85568392924515187,"keywords":["cp","nocrits","nodmgspread","uncletopia"],"game_id":440,"stv_port":27036,"stv_name":"Uncletopia | Atlanta | 3 | Community | STV","players":null},{"server_id":401,"name":"Uncletopia | Atlanta | 4 | No Payload","name_short":"atl-4","host":"atl-1.us.uncletopia.com","port":27045,"enabled":true,"region":"us-east","cc":"us","latitude":33.753746,"longitude":-84.38633,"reserved":0,"last_update":"0001-01-01T00:00:00Z","name_a2s":"","protocol":0,"map":"","folder":"","game":"","app_id":0,"player_count":0,"max_players":0,"Bots":0,"server_type":"","server_os":"","password":false,"vac":false,"version":"","steam_id":0,"keywords":null,"game_id":0,"stv_port":0,"stv_name":"","players":null},{"server_id":2,"name":"Uncletopia | Chicago | 1 | All Maps","name_short":"chi-1","host":"chi-1.us.uncletopia.com","port":27015,"enabled":true,"region":"us-central","cc":"us","latitude":41.881832,"longitude":-87.62318,"reserved":0,"last_update":"0001-01-01T00:00:00Z","name_a2s":"Uncletopia | Chicago | 1 | All Maps","protocol":17,"map":"pl_barnblitz","folder":"tf","game":"Team Fortress","app_id":440,"player_count":20,"max_players":24,"Bots":0,"server_type":"Dedicated","server_os":"Linux","password":true,"vac":true,"version":"7882260","steam_id":85568392924469984,"keywords":["nocrits","nodmgspread","payload","uncletopia"],"game_id":440,"stv_port":27016,"stv_name":"Uncletopia | Chicago | 1 | All Maps | STV","players":[{"user_id":956,"name":"cc","steam_id":76561199215821942,"connected_time":4613000000000,"state":"active","ping":68},{"user_id":989,"name":"Urbanzpinapple","steam_id":76561198115426938,"connected_time":2368000000000,"state":"active","ping":75},{"user_id":1013,"name":"Bree","steam_id":76561198060193542,"connected_time":660000000000,"state":"active","ping":70},{"user_id":1018,"name":"Team Fartpiss Poo","steam_id":76561199163591880,"connected_time":242000000000,"state":"active","ping":94},{"user_id":1016,"name":"lettuceVEVO","steam_id":76561198245130196,"connected_time":565000000000,"state":"active","ping":115},{"user_id":1019,"name":"gromit","steam_id":76561198037746805,"connected_time":224000000000,"state":"active","ping":69},{"user_id":993,"name":"Ermine","steam_id":76561198072831312,"connected_time":2118000000000,"state":"active","ping":56},{"user_id":1020,"name":"Stick","steam_id":76561198127495278,"connected_time":221000000000,"state":"active","ping":119},{"user_id":1021,"name":"eredyn lft rgb","steam_id":76561198868116439,"connected_time":192000000000,"state":"active","ping":65},{"user_id":994,"name":"playguy carter","steam_id":76561198080679337,"connected_time":2105000000000,"state":"active","ping":48},{"user_id":1022,"name":"XxChocola20xX","steam_id":76561199108579557,"connected_time":77000000000,"state":"active","ping":106},{"user_id":1011,"name":"LerN","steam_id":76561198083463877,"connected_time":824000000000,"state":"active","ping":59},{"user_id":968,"name":"frank","steam_id":76561198137777483,"connected_time":3842000000000,"state":"active","ping":61},{"user_id":1007,"name":"Takyon","steam_id":76561198172075186,"connected_time":1199000000000,"state":"active","ping":172},{"user_id":1023,"name":"frozenwasanokmovie","steam_id":76561198157407952,"connected_time":66000000000,"state":"active","ping":112},{"user_id":900,"name":"Mank","steam_id":76561198189421005,"connected_time":8741000000000,"state":"active","ping":59},{"user_id":960,"name":"Allegro","steam_id":76561198084599587,"connected_time":4160000000000,"state":"active","ping":74},{"user_id":1004,"name":"OPINION SILENCER (CANCEL GUY)","steam_id":76561198041017977,"connected_time":1680000000000,"state":"active","ping":71},{"user_id":1000,"name":"pear","steam_id":76561199051738441,"connected_time":2043000000000,"state":"active","ping":84}]},{"server_id":106,"name":"Uncletopia | Chicago | 2 | All Maps","name_short":"chi-2","host":"chi-1.us.uncletopia.com","port":27025,"enabled":true,"region":"us-central","cc":"us","latitude":41.881832,"longitude":-87.62318,"reserved":0,"last_update":"0001-01-01T00:00:00Z","name_a2s":"Uncletopia | Chicago | 2 | All Maps","protocol":17,"map":"koth_highpass","folder":"tf","game":"Team Fortress","app_id":440,"player_count":0,"max_players":24,"Bots":0,"server_type":"Dedicated","server_os":"Linux","password":true,"vac":true,"version":"7882260","steam_id":85568392924469985,"keywords":["cp","nocrits","nodmgspread","uncletopia"],"game_id":440,"stv_port":27026,"stv_name":"Uncletopia | Chicago | 2 | All Maps | STV","players":null},{"server_id":402,"name":"Uncletopia | Chicago | 3 | All Maps","name_short":"chi-3","host":"chi-1.us.uncletopia.com","port":27035,"enabled":true,"region":"us-central","cc":"us","latitude":41.881832,"longitude":-87.62318,"reserved":0,"last_update":"0001-01-01T00:00:00Z","name_a2s":"Uncletopia | Chicago | 3 | All Maps","protocol":17,"map":"cp_mountainlab","folder":"tf","game":"Team Fortress","app_id":440,"player_count":0,"max_players":24,"Bots":0,"server_type":"Dedicated","server_os":"Linux","password":true,"vac":true,"version":"7882260","steam_id":85568392924515191,"keywords":["cp","nocrits","nodmgspread","uncletopia"],"game_id":440,"stv_port":27036,"stv_name":"Uncletopia | Chicago | 3 | All Maps | STV","players":null},{"server_id":403,"name":"Uncletopia | Chicago | 4 | All Maps","name_short":"chi-4","host":"chi-1.us.uncletopia.com","port":27045,"enabled":true,"region":"us-central","cc":"us","latitude":41.881832,"longitude":-87.62318,"reserved":0,"last_update":"0001-01-01T00:00:00Z","name_a2s":"Uncletopia | Chicago | 4 | All Maps","protocol":17,"map":"pl_swiftwater_final1","folder":"tf","game":"Team Fortress","app_id":440,"player_count":24,"max_players":24,"Bots":0,"server_type":"Dedicated","server_os":"Linux","password":true,"vac":true,"version":"7882260","steam_id":85568392924515193,"keywords":["nocrits","nodmgspread","payload","uncletopia"],"game_id":440,"stv_port":27046,"stv_name":"Uncletopia | Chicago | 4 | All Maps | STV","players":[{"user_id":475,"name":"Node⋄","steam_id":76561198219359475,"connected_time":1390000000000,"state":"active","ping":82},{"user_id":443,"name":"ozbulu! troutsupply.net","steam_id":76561198067176829,"connected_time":2839000000000,"state":"active","ping":108},{"user_id":487,"name":"Blorgh","steam_id":76561197990534924,"connected_time":324000000000,"state":"active","ping":102},{"user_id":482,"name":"s-9","steam_id":76561198065339248,"connected_time":500000000000,"state":"active","ping":91},{"user_id":483,"name":"TERRASITE","steam_id":76561199124341459,"connected_time":499000000000,"state":"active","ping":86},{"user_id":484,"name":"Zesty Italian","steam_id":76561198117835053,"connected_time":487000000000,"state":"active","ping":69},{"user_id":469,"name":"RickyGangs26","steam_id":76561198351453925,"connected_time":1637000000000,"state":"active","ping":114},{"user_id":218,"name":"Elias","steam_id":76561198106431732,"connected_time":19802000000000,"state":"active","ping":38},{"user_id":451,"name":"IMYS","steam_id":76561198096223200,"connected_time":2708000000000,"state":"active","ping":48},{"user_id":460,"name":"Totally not CIA","steam_id":76561198237827742,"connected_time":2332000000000,"state":"active","ping":60},{"user_id":433,"name":"Sgt. Dornan","steam_id":76561198063308122,"connected_time":3420000000000,"state":"active","ping":78},{"user_id":457,"name":"Wookiee","steam_id":76561198139642742,"connected_time":2430000000000,"state":"active","ping":84},{"user_id":488,"name":"Blargh","steam_id":76561198044095816,"connected_time":321000000000,"state":"active","ping":60},{"user_id":476,"name":"uncle pain","steam_id":76561198136642793,"connected_time":1382000000000,"state":"active","ping":66},{"user_id":481,"name":"The Caretaker","steam_id":76561198125241411,"connected_time":518000000000,"state":"active","ping":114},{"user_id":477,"name":"Neo Kojiro","steam_id":76561198000967076,"connected_time":1142000000000,"state":"active","ping":76},{"user_id":416,"name":"dahperson","steam_id":76561198067207467,"connected_time":4750000000000,"state":"active","ping":56},{"user_id":480,"name":"BIG HOG","steam_id":76561198079923652,"connected_time":882000000000,"state":"active","ping":75},{"user_id":435,"name":"Mastermind","steam_id":76561198127783432,"connected_time":3323000000000,"state":"active","ping":73},{"user_id":458,"name":"Rat","steam_id":76561198128926034,"connected_time":2422000000000,"state":"active","ping":69},{"user_id":467,"name":"shake","steam_id":76561198150251944,"connected_time":1964000000000,"state":"active","ping":73},{"user_id":486,"name":"Missing Minus","steam_id":76561198120822928,"connected_time":470000000000,"state":"active","ping":68},{"user_id":474,"name":"Dot.","steam_id":76561198149463984,"connected_time":1500000000000,"state":"active","ping":51},{"user_id":489,"name":"sweaterfan","steam_id":76561199389567214,"connected_time":285000000000,"state":"active","ping":63}]},{"server_id":36,"name":"Uncletopia | Chicago | 5 | All Maps","name_short":"chi-5","host":"chi-2.us.uncletopia.com","port":27015,"enabled":true,"region":"us-central","cc":"us","latitude":41.881832,"longitude":-87.62318,"reserved":0,"last_update":"0001-01-01T00:00:00Z","name_a2s":"Uncletopia | Chicago | 5 | All Maps","protocol":17,"map":"cp_mountainlab","folder":"tf","game":"Team Fortress","app_id":440,"player_count":0,"max_players":24,"Bots":0,"server_type":"Dedicated","server_os":"Linux","password":true,"vac":true,"version":"7882260","steam_id":85568392924866362,"keywords":["cp","nocrits","nodmgspread","uncletopia"],"game_id":440,"stv_port":27016,"stv_name":"Uncletopia | Chicago | 5 | All Maps | STV","players":null},{"server_id":37,"name":"Uncletopia | Chicago | 6 | All Maps","name_short":"chi-6","host":"chi-2.us.uncletopia.com","port":27025,"enabled":true,"region":"us-central","cc":"us","latitude":41.881832,"longitude":-87.62318,"reserved":0,"last_update":"0001-01-01T00:00:00Z","name_a2s":"Uncletopia | Chicago | 6 | All Maps","protocol":17,"map":"koth_highpass","folder":"tf","game":"Team Fortress","app_id":440,"player_count":0,"max_players":24,"Bots":0,"server_type":"Dedicated","server_os":"Linux","password":true,"vac":true,"version":"7882260","steam_id":85568392924866363,"keywords":["cp","nocrits","nodmgspread","uncletopia"],"game_id":440,"stv_port":27026,"stv_name":"Uncletopia | Chicago | 6 | All Maps | STV","players":null},{"server_id":38,"name":"Uncletopia | Chicago | 7 | Stopwatch Beta","name_short":"chi-7","host":"chi-2.us.uncletopia.com","port":27035,"enabled":true,"region":"us-central","cc":"us","latitude":41.881832,"longitude":-87.62318,"reserved":0,"last_update":"0001-01-01T00:00:00Z","name_a2s":"Uncletopia | Chicago | 7 | Stopwatch Beta","protocol":17,"map":"workshop/koth_clearcut_b15.ugc2107050255","folder":"tf","game":"Team Fortress","app_id":440,"player_count":0,"max_players":24,"Bots":0,"server_type":"Dedicated","server_os":"Linux","password":true,"vac":true,"version":"7882260","steam_id":85568392924866364,"keywords":["cp","nocrits","nodmgspread","uncletopia"],"game_id":440,"stv_port":27036,"stv_name":"Uncletopia | Chicago | 7 | Stopwatch Beta | STV","players":null},{"server_id":39,"name":"Uncletopia | Chicago | 8 | Community","name_short":"chi-8","host":"chi-2.us.uncletopia.com","port":27045,"enabled":true,"region":"us-central","cc":"us","latitude":41.881832,"longitude":-87.62318,"reserved":0,"last_update":"0001-01-01T00:00:00Z","name_a2s":"Uncletopia | Chicago | 8 | Community","protocol":17,"map":"workshop/cp_bruhstbowl_b5.ugc2878604990","folder":"tf","game":"Team Fortress","app_id":440,"player_count":0,"max_players":24,"Bots":0,"server_type":"Dedicated","server_os":"Linux","password":true,"vac":true,"version":"7882260","steam_id":85568392924866365,"keywords":["cp","nocrits","nodmgspread","uncletopia"],"game_id":440,"stv_port":27046,"stv_name":"Uncletopia | Chicago | 8 | Community | STV","players":null},{"server_id":8,"name":"Uncletopia | Dallas | 1 | All Maps","name_short":"dal-1","host":"dal-1.us.uncletopia.com","port":27015,"enabled":true,"region":"us-central","cc":"us","latitude":32.779167,"longitude":-96.80889,"reserved":0,"last_update":"0001-01-01T00:00:00Z","name_a2s":"Uncletopia | Dallas | 1 | All Maps","protocol":17,"map":"cp_sunshine","folder":"tf","game":"Team Fortress","app_id":440,"player_count":23,"max_players":24,"Bots":0,"server_type":"Dedicated","server_os":"Linux","password":true,"vac":true,"version":"7882260","steam_id":85568392924469986,"keywords":["cp","nocrits","nodmgspread","uncletopia"],"game_id":440,"stv_port":27016,"stv_name":"Uncletopia | Dallas | 1 | All Maps | STV","players":[{"user_id":798,"name":"god's silliest puppygirl","steam_id":76561198128164970,"connected_time":389000000000,"state":"active","ping":77},{"user_id":775,"name":"BENIS  BOI","steam_id":76561198813112341,"connected_time":2292000000000,"state":"active","ping":51},{"user_id":799,"name":"Out Like a Light","steam_id":76561198410957728,"connected_time":384000000000,"state":"active","ping":67},{"user_id":806,"name":"Bomberman6868","steam_id":76561198101086506,"connected_time":94000000000,"state":"active","ping":66},{"user_id":742,"name":"I throw a lot","steam_id":76561198209650964,"connected_time":4579000000000,"state":"active","ping":111},{"user_id":777,"name":"Chef Quote","steam_id":76561198062017897,"connected_time":2094000000000,"state":"active","ping":44},{"user_id":805,"name":"FI LO","steam_id":76561198976530881,"connected_time":179000000000,"state":"active","ping":72},{"user_id":802,"name":"GoldtoothFour","steam_id":76561198055529332,"connected_time":267000000000,"state":"active","ping":71},{"user_id":796,"name":"Phosu","steam_id":76561198180162801,"connected_time":423000000000,"state":"active","ping":63},{"user_id":779,"name":"glowstickles","steam_id":76561198110578228,"connected_time":2001000000000,"state":"active","ping":98},{"user_id":793,"name":"Grimm","steam_id":76561199242664677,"connected_time":1049000000000,"state":"active","ping":60},{"user_id":804,"name":"MR.PussInBoots12345!","steam_id":76561198077934343,"connected_time":260000000000,"state":"active","ping":49},{"user_id":787,"name":"NexFrost","steam_id":76561197985774837,"connected_time":1765000000000,"state":"active","ping":35},{"user_id":781,"name":"I AM Malik","steam_id":76561198322021485,"connected_time":1908000000000,"state":"active","ping":82},{"user_id":782,"name":"WANTED DEAD OR ALIVE","steam_id":76561199249491333,"connected_time":1853000000000,"state":"active","ping":77},{"user_id":783,"name":"bolainassr0","steam_id":76561199079078845,"connected_time":1848000000000,"state":"active","ping":88},{"user_id":790,"name":"PILLO1_3","steam_id":76561199474911135,"connected_time":1668000000000,"state":"active","ping":91},{"user_id":785,"name":"Save","steam_id":76561198032740584,"connected_time":1777000000000,"state":"active","ping":95},{"user_id":786,"name":"kurt cobain shotgun","steam_id":76561198887610246,"connected_time":1775000000000,"state":"active","ping":90},{"user_id":808,"name":"malicious ball","steam_id":76561198010743348,"connected_time":48000000000,"state":"active","ping":47},{"user_id":809,"name":"Flex Pexico","steam_id":76561198041838930,"connected_time":40000000000,"state":"active","ping":77},{"user_id":792,"name":"MrCap","steam_id":76561198327270163,"connected_time":1099000000000,"state":"active","ping":53},{"user_id":789,"name":"RIP_RUBEN","steam_id":76561199311833937,"connected_time":1708000000000,"state":"active","ping":98}]},{"server_id":108,"name":"Uncletopia | Dallas | 2 | All Maps","name_short":"dal-2","host":"dal-1.us.uncletopia.com","port":27025,"enabled":true,"region":"us-central","cc":"us","latitude":32.779167,"longitude":-96.80889,"reserved":0,"last_update":"0001-01-01T00:00:00Z","name_a2s":"Uncletopia | Dallas | 2 | All Maps","protocol":17,"map":"cp_sunshine","folder":"tf","game":"Team Fortress","app_id":440,"player_count":24,"max_players":24,"Bots":0,"server_type":"Dedicated","server_os":"Linux","password":true,"vac":true,"version":"7882260","steam_id":85568392924469988,"keywords":["cp","nocrits","nodmgspread","uncletopia"],"game_id":440,"stv_port":27026,"stv_name":"Uncletopia | Dallas | 2 | All Maps | STV","players":[{"user_id":996,"name":"duane (stinks good)","steam_id":76561198149565822,"connected_time":1131000000000,"state":"active","ping":82},{"user_id":948,"name":"Spinch","steam_id":76561198296224166,"connected_time":4313000000000,"state":"active","ping":77},{"user_id":949,"name":"Publo","steam_id":76561198161777140,"connected_time":4283000000000,"state":"active","ping":53},{"user_id":997,"name":"Bonterbonter","steam_id":76561198238155164,"connected_time":929000000000,"state":"active","ping":48},{"user_id":998,"name":"✿ Flores","steam_id":76561198106938500,"connected_time":887000000000,"state":"active","ping":73},{"user_id":1001,"name":"Dunce","steam_id":76561198421107500,"connected_time":854000000000,"state":"active","ping":73},{"user_id":906,"name":"postgres","steam_id":76561198011204750,"connected_time":7554000000000,"state":"active","ping":79},{"user_id":1000,"name":"jumbi","steam_id":76561198353456379,"connected_time":869000000000,"state":"active","ping":73},{"user_id":990,"name":"kira","steam_id":76561198277979851,"connected_time":1581000000000,"state":"active","ping":89},{"user_id":1002,"name":"denim repair service","steam_id":76561198075666613,"connected_time":854000000000,"state":"active","ping":83},{"user_id":994,"name":"Boot Scootin Boogie","steam_id":76561198059171120,"connected_time":1202000000000,"state":"active","ping":84},{"user_id":1006,"name":"Mr.Crabapples","steam_id":76561199082148884,"connected_time":739000000000,"state":"active","ping":105},{"user_id":1003,"name":"CURSED_ROKIM","steam_id":76561199120016510,"connected_time":837000000000,"state":"active","ping":99},{"user_id":1007,"name":"Kidjays","steam_id":76561198124941901,"connected_time":717000000000,"state":"active","ping":89},{"user_id":989,"name":"MG.Z-Blitz","steam_id":76561198028577473,"connected_time":1801000000000,"state":"active","ping":72},{"user_id":1004,"name":"harlowng","steam_id":76561198060542928,"connected_time":834000000000,"state":"active","ping":80},{"user_id":972,"name":"mirrorcult","steam_id":76561198062263639,"connected_time":3154000000000,"state":"active","ping":56},{"user_id":1005,"name":"souljaboytellem.com","steam_id":76561198095824426,"connected_time":801000000000,"state":"active","ping":69},{"user_id":1008,"name":"pull up on a kid","steam_id":76561198101038832,"connected_time":611000000000,"state":"active","ping":70},{"user_id":986,"name":"catnap","steam_id":76561199128135362,"connected_time":2393000000000,"state":"active","ping":74},{"user_id":970,"name":"kermeeee","steam_id":76561198106278670,"connected_time":3201000000000,"state":"active","ping":66},{"user_id":1009,"name":"FemFem","steam_id":76561198100162199,"connected_time":582000000000,"state":"active","ping":55},{"user_id":987,"name":"it's peanut time","steam_id":76561198236028020,"connected_time":2392000000000,"state":"active","ping":154},{"user_id":1010,"name":"Ptolemy","steam_id":76561198066673647,"connected_time":547000000000,"state":"active","ping":71}]},{"server_id":5,"name":"Uncletopia | Frankfurt | 1 | All Maps","name_short":"frk-1","host":"frk-1.de.uncletopia.com","port":27015,"enabled":true,"region":"eu","cc":"de","latitude":50.110924,"longitude":8.682127,"reserved":0,"last_update":"0001-01-01T00:00:00Z","name_a2s":"Uncletopia | Frankfurt | 1 | All Maps","protocol":17,"map":"pl_snowycoast","folder":"tf","game":"Team Fortress","app_id":440,"player_count":0,"max_players":24,"Bots":0,"server_type":"Dedicated","server_os":"Linux","password":true,"vac":true,"version":"7882260","steam_id":85568392924469989,"keywords":["nocrits","nodmgspread","payload","uncletopia"],"game_id":440,"stv_port":27016,"stv_name":"Uncletopia | Frankfurt | 1 | All Maps | STV","players":null},{"server_id":110,"name":"Uncletopia | Frankfurt | 2 | All Maps","name_short":"frk-2","host":"frk-1.de.uncletopia.com","port":27025,"enabled":true,"region":"eu","cc":"de","latitude":50.110924,"longitude":8.682127,"reserved":0,"last_update":"0001-01-01T00:00:00Z","name_a2s":"Uncletopia | Frankfurt | 2 | All Maps","protocol":17,"map":"pl_upward","folder":"tf","game":"Team Fortress","app_id":440,"player_count":0,"max_players":24,"Bots":0,"server_type":"Dedicated","server_os":"Linux","password":true,"vac":true,"version":"7882260","steam_id":85568392924469990,"keywords":["nocrits","nodmgspread","payload","uncletopia"],"game_id":440,"stv_port":27026,"stv_name":"Uncletopia | Frankfurt | 2 | All Maps | STV","players":null},{"server_id":308,"name":"Uncletopia | Frankfurt | 3 | All Maps","name_short":"frk-3","host":"frk-1.de.uncletopia.com","port":27035,"enabled":true,"region":"eu","cc":"de","latitude":50.110924,"longitude":8.682127,"reserved":0,"last_update":"0001-01-01T00:00:00Z","name_a2s":"Uncletopia | Frankfurt | 3 | All Maps","protocol":17,"map":"cp_process_final","folder":"tf","game":"Team Fortress","app_id":440,"player_count":0,"max_players":24,"Bots":0,"server_type":"Dedicated","server_os":"Linux","password":true,"vac":true,"version":"7882260","steam_id":85568392924504274,"keywords":["cp","nocrits","nodmgspread","uncletopia"],"game_id":440,"stv_port":27036,"stv_name":"Uncletopia | Frankfurt | 3 | All Maps | STV","players":null},{"server_id":309,"name":"Uncletopia | Frankfurt | 4 | All Maps","name_short":"frk-4","host":"frk-1.de.uncletopia.com","port":27045,"enabled":true,"region":"eu","cc":"de","latitude":50.110924,"longitude":8.682127,"reserved":0,"last_update":"0001-01-01T00:00:00Z","name_a2s":"Uncletopia | Frankfurt | 4 | All Maps","protocol":17,"map":"pl_swiftwater_final1","folder":"tf","game":"Team Fortress","app_id":440,"player_count":0,"max_players":24,"Bots":0,"server_type":"Dedicated","server_os":"Linux","password":true,"vac":true,"version":"7882260","steam_id":85568392924504275,"keywords":["nocrits","nodmgspread","payload","uncletopia"],"game_id":440,"stv_port":27046,"stv_name":"Uncletopia | Frankfurt | 4 | All Maps | STV","players":null},{"server_id":310,"name":"Uncletopia | Frankfurt | 5 | All Maps","name_short":"frk-5","host":"frk-1.de.uncletopia.com","port":27055,"enabled":true,"region":"eu","cc":"de","latitude":50.110924,"longitude":8.682127,"reserved":0,"last_update":"0001-01-01T00:00:00Z","name_a2s":"Uncletopia | Frankfurt | 5 | All Maps","protocol":17,"map":"pl_borneo","folder":"tf","game":"Team Fortress","app_id":440,"player_count":0,"max_players":24,"Bots":0,"server_type":"Dedicated","server_os":"Linux","password":true,"vac":true,"version":"7882260","steam_id":85568392924504277,"keywords":["nocrits","nodmgspread","payload","uncletopia"],"game_id":440,"stv_port":27056,"stv_name":"Uncletopia | Frankfurt | 5 | All Maps | STV","players":null},{"server_id":311,"name":"Uncletopia | Frankfurt | 6 | All Maps","name_short":"frk-6","host":"frk-1.de.uncletopia.com","port":27065,"enabled":true,"region":"eu","cc":"de","latitude":50.110924,"longitude":8.682127,"reserved":0,"last_update":"0001-01-01T00:00:00Z","name_a2s":"Uncletopia | Frankfurt | 6 | All Maps","protocol":17,"map":"cp_snakewater_final1","folder":"tf","game":"Team Fortress","app_id":440,"player_count":0,"max_players":24,"Bots":0,"server_type":"Dedicated","server_os":"Linux","password":true,"vac":true,"version":"7882260","steam_id":85568392924504278,"keywords":["cp","nocrits","nodmgspread","uncletopia"],"game_id":440,"stv_port":27066,"stv_name":"Uncletopia | Frankfurt | 6 | All Maps | STV","players":null},{"server_id":23,"name":"Uncletopia | Frankfurt | 7 | Stopwatch Beta","name_short":"frk-7","host":"frk-1.de.uncletopia.com","port":27075,"enabled":true,"region":"eu","cc":"de","latitude":50.110924,"longitude":8.682127,"reserved":0,"last_update":"0001-01-01T00:00:00Z","name_a2s":"Uncletopia | Frankfurt | 7 | Stopwatch Beta","protocol":17,"map":"cp_snakewater_final1","folder":"tf","game":"Team Fortress","app_id":440,"player_count":0,"max_players":24,"Bots":0,"server_type":"Dedicated","server_os":"Linux","password":true,"vac":true,"version":"7882260","steam_id":85568392924742827,"keywords":["cp","nocrits","nodmgspread","uncletopia"],"game_id":440,"stv_port":27076,"stv_name":"Uncletopia | Frankfurt | 7 | Stopwatch Beta | STV","players":null},{"server_id":24,"name":"Uncletopia | Frankfurt | 8 | Community","name_short":"frk-8","host":"frk-1.de.uncletopia.com","port":27085,"enabled":true,"region":"eu","cc":"de","latitude":50.110924,"longitude":8.682127,"reserved":0,"last_update":"0001-01-01T00:00:00Z","name_a2s":"Uncletopia | Frankfurt | 8 | Community","protocol":17,"map":"cp_mountainlab","folder":"tf","game":"Team Fortress","app_id":440,"player_count":0,"max_players":24,"Bots":0,"server_type":"Dedicated","server_os":"Linux","password":true,"vac":true,"version":"7882260","steam_id":85568392924742828,"keywords":["cp","nocrits","nodmgspread","uncletopia"],"game_id":440,"stv_port":27086,"stv_name":"Uncletopia | Frankfurt | 8 | Community | STV","players":null},{"server_id":202,"name":"Uncletopia | Hong Kong | 1 | All Maps","name_short":"hgk-1","host":"hgk-1.hk.uncletopia.com","port":27015,"enabled":true,"region":"asia","cc":"hk","latitude":22.302711,"longitude":114.177216,"reserved":0,"last_update":"0001-01-01T00:00:00Z","name_a2s":"Uncletopia | Hong Kong | 1 | All Maps","protocol":17,"map":"pl_upward","folder":"tf","game":"Team Fortress","app_id":440,"player_count":17,"max_players":24,"Bots":0,"server_type":"Dedicated","server_os":"Linux","password":true,"vac":true,"version":"7882260","steam_id":85568392924494504,"keywords":["nocrits","nodmgspread","payload","uncletopia"],"game_id":440,"stv_port":27016,"stv_name":"Uncletopia | Hong Kong | 1 | All Maps | STV","players":[{"user_id":45,"name":"Waysub","steam_id":76561199289743676,"connected_time":947000000000,"state":"active","ping":160},{"user_id":46,"name":"\"SKS\"","steam_id":76561198187995386,"connected_time":869000000000,"state":"active","ping":84},{"user_id":54,"name":"bob","steam_id":76561199085790568,"connected_time":86000000000,"state":"active","ping":124},{"user_id":47,"name":"Chomer","steam_id":76561199034546642,"connected_time":721000000000,"state":"active","ping":97},{"user_id":38,"name":"MSIsaf","steam_id":76561198880011093,"connected_time":1642000000000,"state":"active","ping":89},{"user_id":55,"name":"Superjackman#SaveTF2","steam_id":76561199137727688,"connected_time":11000000000,"state":"spawning","ping":76},{"user_id":50,"name":"Plumsy","steam_id":76561198831812465,"connected_time":362000000000,"state":"active","ping":80},{"user_id":22,"name":"water tastes good","steam_id":76561199375947670,"connected_time":3325000000000,"state":"active","ping":83},{"user_id":23,"name":"Geecoz","steam_id":76561199466006054,"connected_time":3102000000000,"state":"active","ping":58},{"user_id":51,"name":"BAD PYRO PLAYER","steam_id":76561198074339034,"connected_time":276000000000,"state":"active","ping":75},{"user_id":26,"name":"♱  I LuV Loona  ♱","steam_id":76561199020745258,"connected_time":2773000000000,"state":"active","ping":86},{"user_id":52,"name":"\u003c\u003cDunce](:-P)-|--\u003c","steam_id":76561199190321580,"connected_time":273000000000,"state":"active","ping":64},{"user_id":30,"name":"Vortex Swagger","steam_id":76561198833527091,"connected_time":2408000000000,"state":"active","ping":91},{"user_id":36,"name":"screaming sniper","steam_id":76561199085568674,"connected_time":1714000000000,"state":"active","ping":68},{"user_id":39,"name":"monkeyman536","steam_id":76561197997717737,"connected_time":1571000000000,"state":"active","ping":130},{"user_id":43,"name":"Icantgaming","steam_id":76561199480234606,"connected_time":1116000000000,"state":"active","ping":207},{"user_id":42,"name":"Pinkfluffyant","steam_id":76561198379078731,"connected_time":1134000000000,"state":"active","ping":202}]},{"server_id":1,"name":"Uncletopia | Los Angeles | 1 | All Maps","name_short":"lax-1","host":"lax-1.us.uncletopia.com","port":27015,"enabled":true,"region":"us-west","cc":"us","latitude":33.94279,"longitude":-118.41004,"reserved":0,"last_update":"0001-01-01T00:00:00Z","name_a2s":"Uncletopia | Los Angeles | 1 | All Maps","protocol":17,"map":"cp_granary","folder":"tf","game":"Team Fortress","app_id":440,"player_count":0,"max_players":24,"Bots":0,"server_type":"Dedicated","server_os":"Linux","password":true,"vac":true,"version":"7882260","steam_id":85568392924469991,"keywords":["cp","nocrits","nodmgspread","uncletopia"],"game_id":440,"stv_port":27016,"stv_name":"Uncletopia | Los Angeles | 1 | All Maps | STV","players":null},{"server_id":112,"name":"Uncletopia | Los Angeles | 2 | All Maps","name_short":"lax-2","host":"lax-1.us.uncletopia.com","port":27025,"enabled":true,"region":"us-west","cc":"us","latitude":33.94279,"longitude":-118.41004,"reserved":0,"last_update":"0001-01-01T00:00:00Z","name_a2s":"Uncletopia | Los Angeles | 2 | All Maps","protocol":17,"map":"cp_snakewater_final1","folder":"tf","game":"Team Fortress","app_id":440,"player_count":13,"max_players":24,"Bots":0,"server_type":"Dedicated","server_os":"Linux","password":true,"vac":true,"version":"7882260","steam_id":85568392924469992,"keywords":["cp","nocrits","nodmgspread","uncletopia"],"game_id":440,"stv_port":27026,"stv_name":"Uncletopia | Los Angeles | 2 | All Maps | STV","players":[{"user_id":411,"name":"Beino","steam_id":76561198107120351,"connected_time":21000000000,"state":"spawning","ping":38},{"user_id":405,"name":"Seanthebomb","steam_id":76561198017117648,"connected_time":337000000000,"state":"active","ping":44},{"user_id":399,"name":"imp","steam_id":76561198046951853,"connected_time":797000000000,"state":"active","ping":45},{"user_id":396,"name":"Tocha","steam_id":76561198119725400,"connected_time":1490000000000,"state":"active","ping":97},{"user_id":400,"name":"F3RRAL","steam_id":76561198172279275,"connected_time":764000000000,"state":"active","ping":42},{"user_id":401,"name":"nosieman","steam_id":76561198068307876,"connected_time":659000000000,"state":"active","ping":61},{"user_id":402,"name":"Taco+Taco=Burrito","steam_id":76561198063128663,"connected_time":612000000000,"state":"active","ping":40},{"user_id":312,"name":"SleeplessCollin","steam_id":76561198968140914,"connected_time":9328000000000,"state":"active","ping":47},{"user_id":407,"name":"_Pai","steam_id":76561198108196753,"connected_time":226000000000,"state":"active","ping":41},{"user_id":368,"name":"Chicken","steam_id":76561199118530334,"connected_time":5111000000000,"state":"active","ping":126},{"user_id":408,"name":"DAYTONA","steam_id":76561198061975847,"connected_time":203000000000,"state":"active","ping":62},{"user_id":409,"name":"KonJac","steam_id":76561198027812652,"connected_time":196000000000,"state":"active","ping":46},{"user_id":294,"name":"[ØWQJØ]chubacaalatake","steam_id":76561198136201697,"connected_time":10220000000000,"state":"active","ping":78}]},{"server_id":324,"name":"Uncletopia | Los Angeles | 3 | All Maps","name_short":"lax-3","host":"lax-1.us.uncletopia.com","port":27035,"enabled":true,"region":"us-west","cc":"us","latitude":33.94279,"longitude":-118.41004,"reserved":0,"last_update":"0001-01-01T00:00:00Z","name_a2s":"Uncletopia | Los Angeles | 3 | All Maps","protocol":17,"map":"koth_highpass","folder":"tf","game":"Team Fortress","app_id":440,"player_count":0,"max_players":24,"Bots":0,"server_type":"Dedicated","server_os":"Linux","password":true,"vac":true,"version":"7882260","steam_id":85568392924510198,"keywords":["cp","nocrits","nodmgspread","uncletopia"],"game_id":440,"stv_port":27036,"stv_name":"Uncletopia | Los Angeles | 3 | All Maps | STV","players":null},{"server_id":25,"name":"Uncletopia | Los Angeles | 4 | Stopwatch Beta","name_short":"lax-4","host":"lax-1.us.uncletopia.com","port":27045,"enabled":true,"region":"us-west","cc":"us","latitude":33.94279,"longitude":-118.41004,"reserved":0,"last_update":"0001-01-01T00:00:00Z","name_a2s":"Uncletopia | Los Angeles | 4 | Stopwatch Beta","protocol":17,"map":"koth_viaduct","folder":"tf","game":"Team Fortress","app_id":440,"player_count":0,"max_players":24,"Bots":0,"server_type":"Dedicated","server_os":"Linux","password":true,"vac":true,"version":"7882260","steam_id":85568392924510199,"keywords":["cp","nocrits","nodmgspread","uncletopia"],"game_id":440,"stv_port":27046,"stv_name":"Uncletopia | Los Angeles | 4 | Stopwatch Beta | STV","players":null},{"server_id":11,"name":"Uncletopia | London | 1 | All Maps","name_short":"lon-1","host":"lon-1.uk.uncletopia.com","port":27015,"enabled":true,"region":"eu","cc":"gb","latitude":51.509865,"longitude":-0.118092,"reserved":0,"last_update":"0001-01-01T00:00:00Z","name_a2s":"Uncletopia | London | 1 | All Maps","protocol":17,"map":"pl_snowycoast","folder":"tf","game":"Team Fortress","app_id":440,"player_count":0,"max_players":24,"Bots":0,"server_type":"Dedicated","server_os":"Linux","password":true,"vac":true,"version":"7882260","steam_id":85568392924367362,"keywords":["nocrits","nodmgspread","payload","uncletopia"],"game_id":440,"stv_port":27016,"stv_name":"Uncletopia | London | 1 | All Maps | STV","players":null},{"server_id":114,"name":"Uncletopia | London | 2 | All Maps","name_short":"lon-2","host":"lon-1.uk.uncletopia.com","port":27025,"enabled":true,"region":"eu","cc":"gb","latitude":51.509865,"longitude":-0.118092,"reserved":0,"last_update":"0001-01-01T00:00:00Z","name_a2s":"Uncletopia | London | 2 | All Maps","protocol":17,"map":"koth_highpass","folder":"tf","game":"Team Fortress","app_id":440,"player_count":0,"max_players":24,"Bots":0,"server_type":"Dedicated","server_os":"Linux","password":true,"vac":true,"version":"7882260","steam_id":85568392924470941,"keywords":["cp","nocrits","nodmgspread","uncletopia"],"game_id":440,"stv_port":27026,"stv_name":"Uncletopia | London | 2 | All Maps | STV","players":null},{"server_id":320,"name":"Uncletopia | London | 3 | All Maps","name_short":"lon-3","host":"lon-1.uk.uncletopia.com","port":27035,"enabled":true,"region":"eu","cc":"gb","latitude":51.509865,"longitude":-0.118092,"reserved":0,"last_update":"0001-01-01T00:00:00Z","name_a2s":"Uncletopia | London | 3 | All Maps","protocol":17,"map":"pl_upward","folder":"tf","game":"Team Fortress","app_id":440,"player_count":0,"max_players":24,"Bots":0,"server_type":"Dedicated","server_os":"Linux","password":true,"vac":true,"version":"7882260","steam_id":85568392924510192,"keywords":["nocrits","nodmgspread","payload","uncletopia"],"game_id":440,"stv_port":27036,"stv_name":"Uncletopia | London | 3 | All Maps | STV","players":null},{"server_id":321,"name":"Uncletopia | London | 4 | All Maps","name_short":"lon-4","host":"lon-1.uk.uncletopia.com","port":27045,"enabled":true,"region":"eu","cc":"gb","latitude":51.509865,"longitude":-0.118092,"reserved":0,"last_update":"0001-01-01T00:00:00Z","name_a2s":"Uncletopia | London | 4 | All Maps","protocol":17,"map":"pl_borneo","folder":"tf","game":"Team Fortress","app_id":440,"player_count":16,"max_players":24,"Bots":0,"server_type":"Dedicated","server_os":"Linux","password":true,"vac":true,"version":"7882260","steam_id":85568392924510193,"keywords":["nocrits","nodmgspread","payload","uncletopia"],"game_id":440,"stv_port":27046,"stv_name":"Uncletopia | London | 4 | All Maps | STV","players":[{"user_id":48,"name":"Luigi Gaming","steam_id":76561199054738276,"connected_time":180000000000,"state":"active","ping":131},{"user_id":28,"name":"Stinky","steam_id":76561198032006097,"connected_time":1917000000000,"state":"active","ping":167},{"user_id":29,"name":".::[SerafeTTiN]::.","steam_id":76561198009471724,"connected_time":1916000000000,"state":"active","ping":93},{"user_id":40,"name":"Neimon","steam_id":76561198343485710,"connected_time":1095000000000,"state":"active","ping":125},{"user_id":49,"name":"Topi","steam_id":76561198165732391,"connected_time":19000000000,"state":"active","ping":111},{"user_id":44,"name":"Goblin cock","steam_id":76561198980102679,"connected_time":486000000000,"state":"active","ping":91},{"user_id":43,"name":"[Z7]DrNo","steam_id":76561197969376290,"connected_time":510000000000,"state":"active","ping":66},{"user_id":13,"name":"DoDonPachi","steam_id":76561199085984801,"connected_time":2852000000000,"state":"active","ping":57},{"user_id":45,"name":"Waltuh","steam_id":76561198079334270,"connected_time":393000000000,"state":"active","ping":73},{"user_id":50,"name":"2007HYC","steam_id":76561198027033926,"connected_time":14000000000,"state":"active","ping":47},{"user_id":15,"name":"$t@lker_Tim","steam_id":76561198963658042,"connected_time":2650000000000,"state":"active","ping":114},{"user_id":19,"name":"Enigmus","steam_id":76561197994063627,"connected_time":2365000000000,"state":"active","ping":78},{"user_id":22,"name":"shits in urinals","steam_id":76561199480942903,"connected_time":2205000000000,"state":"active","ping":75},{"user_id":35,"name":"LV TRAPAHOLIKS","steam_id":76561198141151763,"connected_time":1633000000000,"state":"active","ping":90},{"user_id":31,"name":"{YS} simp for catgirls","steam_id":76561198267463398,"connected_time":1840000000000,"state":"active","ping":60},{"user_id":39,"name":"Pinochet","steam_id":76561198194042394,"connected_time":1311000000000,"state":"active","ping":152}]},{"server_id":21,"name":"Uncletopia | London | 5 | All Maps","name_short":"lon-5","host":"lon-1.uk.uncletopia.com","port":27055,"enabled":true,"region":"eu","cc":"gb","latitude":51.509865,"longitude":-0.118092,"reserved":0,"last_update":"0001-01-01T00:00:00Z","name_a2s":"Uncletopia | London | 5 | All Maps","protocol":17,"map":"koth_viaduct","folder":"tf","game":"Team Fortress","app_id":440,"player_count":0,"max_players":24,"Bots":0,"server_type":"Dedicated","server_os":"Linux","password":true,"vac":true,"version":"7882260","steam_id":85568392924742829,"keywords":["cp","nocrits","nodmgspread","uncletopia"],"game_id":440,"stv_port":27056,"stv_name":"Uncletopia | London | 5 | All Maps | STV","players":null},{"server_id":22,"name":"Uncletopia | London | 6 | All Maps","name_short":"lon-6","host":"lon-1.uk.uncletopia.com","port":27065,"enabled":true,"region":"eu","cc":"gb","latitude":51.509865,"longitude":-0.118092,"reserved":0,"last_update":"0001-01-01T00:00:00Z","name_a2s":"Uncletopia | London | 6 | All Maps","protocol":17,"map":"koth_lakeside_final","folder":"tf","game":"Team Fortress","app_id":440,"player_count":0,"max_players":24,"Bots":0,"server_type":"Dedicated","server_os":"Linux","password":true,"vac":true,"version":"7882260","steam_id":85568392924742830,"keywords":["cp","nocrits","nodmgspread","uncletopia"],"game_id":440,"stv_port":27066,"stv_name":"Uncletopia | London | 6 | All Maps | STV","players":null},{"server_id":40,"name":"Uncletopia | London | 7 | No Payload","name_short":"lon-7","host":"lon-1.uk.uncletopia.com","port":27075,"enabled":true,"region":"eu","cc":"gb","latitude":51.509865,"longitude":-0.118092,"reserved":0,"last_update":"0001-01-01T00:00:00Z","name_a2s":"Uncletopia | London | 7 | No Payload","protocol":17,"map":"pl_upward","folder":"tf","game":"Team Fortress","app_id":440,"player_count":0,"max_players":24,"Bots":0,"server_type":"Dedicated","server_os":"Linux","password":true,"vac":true,"version":"7882260","steam_id":85568392924964314,"keywords":["nocrits","nodmgspread","payload","uncletopia"],"game_id":440,"stv_port":27076,"stv_name":"Uncletopia | London | 7 | No Payload | STV","players":null},{"server_id":41,"name":"Uncletopia | London | 8 | Community","name_short":"lon-8","host":"lon-1.uk.uncletopia.com","port":27085,"enabled":true,"region":"eu","cc":"gb","latitude":51.509865,"longitude":-0.118092,"reserved":0,"last_update":"0001-01-01T00:00:00Z","name_a2s":"Uncletopia | London | 8 | Community","protocol":17,"map":"pl_upward","folder":"tf","game":"Team Fortress","app_id":440,"player_count":0,"max_players":24,"Bots":0,"server_type":"Dedicated","server_os":"Linux","password":true,"vac":true,"version":"7882260","steam_id":85568392924964315,"keywords":["nocrits","nodmgspread","payload","uncletopia"],"game_id":440,"stv_port":27086,"stv_name":"Uncletopia | London | 8 | Community | STV","players":null},{"server_id":300,"name":"Uncletopia | Montréal | 1 | All Maps","name_short":"mtl-1","host":"mtl-1.ca.uncletopia.com","port":27015,"enabled":true,"region":"us-east","cc":"ca","latitude":45.50889,"longitude":-73.56167,"reserved":0,"last_update":"0001-01-01T00:00:00Z","name_a2s":"Uncletopia | Montréal | 1 | All Maps","protocol":17,"map":"koth_cascade","folder":"tf","game":"Team Fortress","app_id":440,"player_count":0,"max_players":24,"Bots":0,"server_type":"Dedicated","server_os":"Linux","password":true,"vac":true,"version":"7882260","steam_id":85568392924500087,"keywords":["cp","nocrits","nodmgspread","uncletopia"],"game_id":440,"stv_port":27016,"stv_name":"Uncletopia | Montréal | 1 | All Maps | STV","players":null},{"server_id":301,"name":"Uncletopia | Montréal | 2 | All Maps","name_short":"mtl-2","host":"mtl-1.ca.uncletopia.com","port":27025,"enabled":true,"region":"us-east","cc":"ca","latitude":45.50889,"longitude":-73.56167,"reserved":0,"last_update":"0001-01-01T00:00:00Z","name_a2s":"Uncletopia | Montréal | 2 | All Maps","protocol":17,"map":"pl_snowycoast","folder":"tf","game":"Team Fortress","app_id":440,"player_count":0,"max_players":24,"Bots":0,"server_type":"Dedicated","server_os":"Linux","password":true,"vac":true,"version":"7882260","steam_id":85568392924500088,"keywords":["nocrits","nodmgspread","payload","uncletopia"],"game_id":440,"stv_port":27026,"stv_name":"Uncletopia | Montréal | 2 | All Maps | STV","players":null},{"server_id":302,"name":"Uncletopia | Montréal | 3 | All Maps","name_short":"mtl-3","host":"mtl-1.ca.uncletopia.com","port":27035,"enabled":true,"region":"us-east","cc":"ca","latitude":45.50889,"longitude":-73.56167,"reserved":0,"last_update":"0001-01-01T00:00:00Z","name_a2s":"Uncletopia | Montréal | 3 | All Maps","protocol":17,"map":"koth_viaduct","folder":"tf","game":"Team Fortress","app_id":440,"player_count":0,"max_players":24,"Bots":0,"server_type":"Dedicated","server_os":"Linux","password":true,"vac":true,"version":"7882260","steam_id":85568392924500089,"keywords":["cp","nocrits","nodmgspread","uncletopia"],"game_id":440,"stv_port":27036,"stv_name":"Uncletopia | Montréal | 3 | All Maps | STV","players":null},{"server_id":303,"name":"Uncletopia | Montréal | 4 | No Payload","name_short":"mtl-4","host":"mtl-1.ca.uncletopia.com","port":27045,"enabled":true,"region":"us-east","cc":"ca","latitude":45.50889,"longitude":-73.56167,"reserved":0,"last_update":"0001-01-01T00:00:00Z","name_a2s":"Uncletopia | Montréal | 4 | No Payload","protocol":17,"map":"koth_highpass","folder":"tf","game":"Team Fortress","app_id":440,"player_count":0,"max_players":24,"Bots":0,"server_type":"Dedicated","server_os":"Linux","password":true,"vac":true,"version":"7882260","steam_id":85568392924500090,"keywords":["cp","nocrits","nodmgspread","uncletopia"],"game_id":440,"stv_port":27046,"stv_name":"Uncletopia | Montréal | 4 | No Payload | STV","players":null},{"server_id":13,"name":"Uncletopia | New York City | 1 | All Maps","name_short":"nyc-1","host":"nyc-1.us.uncletopia.com","port":27015,"enabled":true,"region":"us-east","cc":"us","latitude":40.73061,"longitude":-73.93524,"reserved":0,"last_update":"0001-01-01T00:00:00Z","name_a2s":"Uncletopia | New York City | 1 | All Maps","protocol":17,"map":"cp_altitude","folder":"tf","game":"Team Fortress","app_id":440,"player_count":0,"max_players":24,"Bots":0,"server_type":"Dedicated","server_os":"Linux","password":true,"vac":true,"version":"7882260","steam_id":85568392924469993,"keywords":["cp","nocrits","nodmgspread","uncletopia"],"game_id":440,"stv_port":27016,"stv_name":"Uncletopia | New York City | 1 | All Maps | STV","players":null},{"server_id":14,"name":"Uncletopia | New York City | 2 | All Maps","name_short":"nyc-2","host":"nyc-1.us.uncletopia.com","port":27025,"enabled":true,"region":"us-east","cc":"us","latitude":40.73061,"longitude":-73.93524,"reserved":0,"last_update":"0001-01-01T00:00:00Z","name_a2s":"Uncletopia | New York City | 2 | All Maps","protocol":17,"map":"pl_thundermountain","folder":"tf","game":"Team Fortress","app_id":440,"player_count":15,"max_players":24,"Bots":0,"server_type":"Dedicated","server_os":"Linux","password":true,"vac":true,"version":"7882260","steam_id":85568392924469994,"keywords":["nocrits","nodmgspread","payload","uncletopia"],"game_id":440,"stv_port":27026,"stv_name":"Uncletopia | New York City | 2 | All Maps | STV","players":[{"user_id":605,"name":"erf","steam_id":76561198078203677,"connected_time":88000000000,"state":"active","ping":50},{"user_id":606,"name":"telephone001.mdl","steam_id":76561198401236682,"connected_time":48000000000,"state":"active","ping":70},{"user_id":602,"name":"squart guy","steam_id":76561199411560141,"connected_time":320000000000,"state":"active","ping":129},{"user_id":595,"name":"ArnoldGamingﾠٴ","steam_id":76561198040140247,"connected_time":1026000000000,"state":"active","ping":83},{"user_id":581,"name":"Blade","steam_id":76561198153163098,"connected_time":2178000000000,"state":"active","ping":64},{"user_id":585,"name":"com lag","steam_id":76561198019019392,"connected_time":1376000000000,"state":"active","ping":75},{"user_id":566,"name":"Vinnie Gognitti","steam_id":76561198069814977,"connected_time":3568000000000,"state":"active","ping":60},{"user_id":567,"name":"skinnypanda","steam_id":76561198084201779,"connected_time":3566000000000,"state":"active","ping":45},{"user_id":603,"name":"Nekotine ᗜˬᗜ","steam_id":76561198375885194,"connected_time":228000000000,"state":"active","ping":60},{"user_id":598,"name":"C∅RVUS","steam_id":76561198100640019,"connected_time":624000000000,"state":"active","ping":129},{"user_id":600,"name":"Ludcmorais","steam_id":76561198359217809,"connected_time":494000000000,"state":"active","ping":174},{"user_id":552,"name":"tr","steam_id":76561198046944222,"connected_time":4423000000000,"state":"active","ping":117},{"user_id":558,"name":"piss connoisseur","steam_id":76561198061455664,"connected_time":3963000000000,"state":"active","ping":45},{"user_id":560,"name":"Yummy Kabobz","steam_id":76561198067661705,"connected_time":3920000000000,"state":"active","ping":45},{"user_id":584,"name":"highschool drop-out","steam_id":76561198366299848,"connected_time":1610000000000,"state":"active","ping":60}]},{"server_id":15,"name":"Uncletopia | New York City | 3 | Stopwatch Beta","name_short":"nyc-3","host":"nyc-1.us.uncletopia.com","port":27035,"enabled":true,"region":"us-east","cc":"us","latitude":40.73061,"longitude":-73.93524,"reserved":0,"last_update":"0001-01-01T00:00:00Z","name_a2s":"Uncletopia | New York City | 3 | Stopwatch Beta","protocol":17,"map":"pl_borneo","folder":"tf","game":"Team Fortress","app_id":440,"player_count":0,"max_players":24,"Bots":0,"server_type":"Dedicated","server_os":"Linux","password":true,"vac":true,"version":"7882260","steam_id":85568392924742820,"keywords":["nocrits","nodmgspread","payload","uncletopia"],"game_id":440,"stv_port":27036,"stv_name":"Uncletopia | New York City | 3 | Stopwatch Beta | STV","players":null},{"server_id":16,"name":"Uncletopia | New York City | 4 | Community","name_short":"nyc-4","host":"nyc-1.us.uncletopia.com","port":27045,"enabled":true,"region":"us-east","cc":"us","latitude":40.73061,"longitude":-73.93524,"reserved":0,"last_update":"0001-01-01T00:00:00Z","name_a2s":"Uncletopia | New York City | 4 | Community","protocol":17,"map":"workshop/cp_propaganda_b18.ugc1603743849","folder":"tf","game":"Team Fortress","app_id":440,"player_count":0,"max_players":24,"Bots":0,"server_type":"Dedicated","server_os":"Linux","password":true,"vac":true,"version":"7882260","steam_id":85568392924742821,"keywords":["cp","nocrits","nodmgspread","uncletopia"],"game_id":440,"stv_port":27046,"stv_name":"Uncletopia | New York City | 4 | Community | STV","players":null},{"server_id":142,"name":"Uncletopia | São Paulo | 1 | All Maps","name_short":"sao-1","host":"sao-1.br.uncletopia.com","port":27015,"enabled":true,"region":"sa","cc":"br","latitude":-23.533773,"longitude":-46.62529,"reserved":0,"last_update":"0001-01-01T00:00:00Z","name_a2s":"Uncletopia | São Paulo | 1 | All Maps","protocol":17,"map":"pl_barnblitz","folder":"tf","game":"Team Fortress","app_id":440,"player_count":0,"max_players":24,"Bots":0,"server_type":"Dedicated","server_os":"Linux","password":true,"vac":true,"version":"7882260","steam_id":85568392924469996,"keywords":["nocrits","nodmgspread","payload","uncletopia"],"game_id":440,"stv_port":27016,"stv_name":"Uncletopia | São Paulo | 1 | All Maps | STV","players":null},{"server_id":143,"name":"Uncletopia | São Paulo | 2 | All Maps","name_short":"sao-2","host":"sao-2.br.uncletopia.com","port":27015,"enabled":true,"region":"sa","cc":"br","latitude":-23.533773,"longitude":-46.62529,"reserved":0,"last_update":"0001-01-01T00:00:00Z","name_a2s":"Uncletopia | São Paulo | 2 | All Maps","protocol":17,"map":"cp_sunshine","folder":"tf","game":"Team Fortress","app_id":440,"player_count":0,"max_players":24,"Bots":0,"server_type":"Dedicated","server_os":"Linux","password":true,"vac":true,"version":"7882260","steam_id":85568392924485349,"keywords":["cp","nocrits","nodmgspread","uncletopia"],"game_id":440,"stv_port":27016,"stv_name":"Uncletopia | São Paulo | 2 | All Maps | STV","players":null},{"server_id":7,"name":"Uncletopia | Seattle | 1 | All Maps","name_short":"sea-1","host":"sea-1.us.uncletopia.com","port":27015,"enabled":true,"region":"us-west","cc":"us","latitude":47.608013,"longitude":-122.33517,"reserved":0,"last_update":"0001-01-01T00:00:00Z","name_a2s":"Uncletopia | Seattle | 1 | All Maps","protocol":17,"map":"pl_upward","folder":"tf","game":"Team Fortress","app_id":440,"player_count":24,"max_players":24,"Bots":0,"server_type":"Dedicated","server_os":"Linux","password":true,"vac":true,"version":"7882260","steam_id":85568392924469997,"keywords":["nocrits","nodmgspread","payload","uncletopia"],"game_id":440,"stv_port":27016,"stv_name":"Uncletopia | Seattle | 1 | All Maps | STV","players":[{"user_id":703,"name":"gay opossum (Zoey)","steam_id":76561198010230351,"connected_time":2744000000000,"state":"active","ping":45},{"user_id":734,"name":"RURU","steam_id":76561198039758987,"connected_time":281000000000,"state":"active","ping":53},{"user_id":704,"name":"Skoad","steam_id":76561198104650528,"connected_time":2743000000000,"state":"active","ping":67},{"user_id":694,"name":"p i n e ↟ ↟","steam_id":76561198058199952,"connected_time":5880000000000,"state":"active","ping":54},{"user_id":661,"name":"Lord Hater","steam_id":76561199158148782,"connected_time":8727000000000,"state":"active","ping":51},{"user_id":667,"name":"John Calibur","steam_id":76561197999986606,"connected_time":8429000000000,"state":"active","ping":74},{"user_id":637,"name":"NEBULA","steam_id":76561198086878595,"connected_time":10745000000000,"state":"active","ping":71},{"user_id":712,"name":"squash","steam_id":76561198150281353,"connected_time":2316000000000,"state":"active","ping":55},{"user_id":675,"name":"delight","steam_id":76561197980280272,"connected_time":7276000000000,"state":"active","ping":45},{"user_id":735,"name":"koolamundo","steam_id":76561198101705890,"connected_time":258000000000,"state":"active","ping":89},{"user_id":652,"name":"soup","steam_id":76561198043209046,"connected_time":9781000000000,"state":"active","ping":85},{"user_id":723,"name":"smeasly","steam_id":76561198028718812,"connected_time":969000000000,"state":"active","ping":43},{"user_id":716,"name":"oil","steam_id":76561198099980149,"connected_time":2120000000000,"state":"active","ping":80},{"user_id":706,"name":"stick","steam_id":76561198134334367,"connected_time":2716000000000,"state":"active","ping":105},{"user_id":725,"name":"Kc","steam_id":76561198210734407,"connected_time":957000000000,"state":"active","ping":119},{"user_id":721,"name":"00","steam_id":76561198041700636,"connected_time":1878000000000,"state":"active","ping":59},{"user_id":640,"name":"i.love.ants.321","steam_id":76561198169755734,"connected_time":10720000000000,"state":"active","ping":61},{"user_id":722,"name":"hotdog every meal","steam_id":76561198392514273,"connected_time":985000000000,"state":"active","ping":63},{"user_id":732,"name":"Alex :D","steam_id":76561198088131563,"connected_time":400000000000,"state":"active","ping":86},{"user_id":729,"name":"NickoDeeBz","steam_id":76561198294657867,"connected_time":645000000000,"state":"active","ping":94},{"user_id":736,"name":"tobrehto","steam_id":76561198097544038,"connected_time":122000000000,"state":"active","ping":82},{"user_id":730,"name":"ふわふわ毛布","steam_id":76561198088403016,"connected_time":565000000000,"state":"active","ping":154},{"user_id":630,"name":"jorts","steam_id":76561199041179985,"connected_time":11788000000000,"state":"active","ping":60},{"user_id":718,"name":"rorywashere /ᐠ - ˕ -マ Ⳋ","steam_id":76561198065825165,"connected_time":2061000000000,"state":"active","ping":96}]},{"server_id":119,"name":"Uncletopia | Seattle | 2 | All Maps","name_short":"sea-2","host":"sea-1.us.uncletopia.com","port":27025,"enabled":true,"region":"us-west","cc":"us","latitude":47.608013,"longitude":-122.33517,"reserved":0,"last_update":"0001-01-01T00:00:00Z","name_a2s":"Uncletopia | Seattle | 2 | All Maps","protocol":17,"map":"koth_lakeside_final","folder":"tf","game":"Team Fortress","app_id":440,"player_count":24,"max_players":24,"Bots":0,"server_type":"Dedicated","server_os":"Linux","password":true,"vac":true,"version":"7882260","steam_id":85568392924469998,"keywords":["cp","nocrits","nodmgspread","uncletopia"],"game_id":440,"stv_port":27026,"stv_name":"Uncletopia | Seattle | 2 | All Maps | STV","players":[{"user_id":558,"name":"Camohno","steam_id":76561198283519918,"connected_time":1720000000000,"state":"active","ping":70},{"user_id":542,"name":"Faefanger","steam_id":76561198201871002,"connected_time":3065000000000,"state":"active","ping":63},{"user_id":559,"name":"Zorlovo","steam_id":76561198006443283,"connected_time":1685000000000,"state":"active","ping":84},{"user_id":544,"name":"StrangeMachine","steam_id":76561198046628064,"connected_time":2818000000000,"state":"active","ping":52},{"user_id":573,"name":"jadeite","steam_id":76561198022298676,"connected_time":103000000000,"state":"active","ping":31},{"user_id":574,"name":"insane jester","steam_id":76561198079609974,"connected_time":100000000000,"state":"active","ping":84},{"user_id":568,"name":"slindust","steam_id":76561199159928133,"connected_time":334000000000,"state":"active","ping":123},{"user_id":502,"name":"goldhed","steam_id":76561198051751133,"connected_time":5708000000000,"state":"active","ping":61},{"user_id":566,"name":"Scorpianswag","steam_id":76561198260651036,"connected_time":356000000000,"state":"active","ping":69},{"user_id":526,"name":"gnomer","steam_id":76561198046926728,"connected_time":3946000000000,"state":"active","ping":44},{"user_id":543,"name":"gnoblin","steam_id":76561198314221897,"connected_time":3001000000000,"state":"active","ping":46},{"user_id":533,"name":"charm quark","steam_id":76561198098770777,"connected_time":3719000000000,"state":"active","ping":56},{"user_id":545,"name":"Gnarly Bones Real","steam_id":76561198175628151,"connected_time":2814000000000,"state":"active","ping":57},{"user_id":563,"name":"Botanics","steam_id":76561198137966109,"connected_time":976000000000,"state":"active","ping":81},{"user_id":546,"name":"h","steam_id":76561198868164815,"connected_time":2768000000000,"state":"active","ping":49},{"user_id":554,"name":"iKickBabies","steam_id":76561199337400258,"connected_time":1861000000000,"state":"active","ping":77},{"user_id":569,"name":"hemaglox","steam_id":76561198023187633,"connected_time":329000000000,"state":"active","ping":45},{"user_id":564,"name":"Sorry, eh","steam_id":76561198119112987,"connected_time":964000000000,"state":"active","ping":67},{"user_id":555,"name":"seats","steam_id":76561197998756039,"connected_time":1834000000000,"state":"active","ping":72},{"user_id":570,"name":"mike","steam_id":76561198163265338,"connected_time":300000000000,"state":"active","ping":51},{"user_id":557,"name":"HeavenHearst","steam_id":76561198066083947,"connected_time":1805000000000,"state":"active","ping":115},{"user_id":571,"name":"Look at me Ma! No jaw!","steam_id":76561198870122769,"connected_time":268000000000,"state":"active","ping":119},{"user_id":562,"name":"MyMonkeyBaby","steam_id":76561198046896670,"connected_time":1452000000000,"state":"active","ping":59},{"user_id":572,"name":"resh","steam_id":76561198239598834,"connected_time":231000000000,"state":"active","ping":127}]},{"server_id":406,"name":"Uncletopia | Seattle | 3 | Stopwatch Beta","name_short":"sea-3","host":"sea-1.us.uncletopia.com","port":27035,"enabled":true,"region":"us-west","cc":"us","latitude":47.608013,"longitude":-122.33517,"reserved":0,"last_update":"0001-01-01T00:00:00Z","name_a2s":"Uncletopia | Seattle | 3 | Stopwatch Beta","protocol":17,"map":"workshop/pl_barnblitz_pro7.ugc582280235","folder":"tf","game":"Team Fortress","app_id":440,"player_count":0,"max_players":24,"Bots":0,"server_type":"Dedicated","server_os":"Linux","password":true,"vac":true,"version":"7882260","steam_id":85568392924515217,"keywords":["nocrits","nodmgspread","payload","uncletopia"],"game_id":440,"stv_port":27036,"stv_name":"Uncletopia | Seattle | 3 | Stopwatch Beta | STV","players":null},{"server_id":17,"name":"Uncletopia | San Francisco | 1 | All Maps","name_short":"sfo-1","host":"sfo-1.us.uncletopia.com","port":27015,"enabled":true,"region":"us-west","cc":"us","latitude":37.77397,"longitude":-122.4313,"reserved":0,"last_update":"0001-01-01T00:00:00Z","name_a2s":"Uncletopia | San Francisco | 1 | All Maps","protocol":17,"map":"koth_lakeside_final","folder":"tf","game":"Team Fortress","app_id":440,"player_count":24,"max_players":24,"Bots":0,"server_type":"Dedicated","server_os":"Linux","password":true,"vac":true,"version":"7882260","steam_id":85568392924469999,"keywords":["cp","nocrits","nodmgspread","uncletopia"],"game_id":440,"stv_port":27016,"stv_name":"Uncletopia | San Francisco | 1 | All Maps | STV","players":[{"user_id":324,"name":"Bandana Bullet","steam_id":76561198397347120,"connected_time":3180000000000,"state":"active","ping":76},{"user_id":330,"name":"stboncho","steam_id":76561198172275301,"connected_time":2927000000000,"state":"active","ping":54},{"user_id":374,"name":"Sleuth","steam_id":76561198418288939,"connected_time":426000000000,"state":"active","ping":58},{"user_id":373,"name":"smiley","steam_id":76561198240116276,"connected_time":461000000000,"state":"active","ping":102},{"user_id":323,"name":"vanillain","steam_id":76561198058617608,"connected_time":3198000000000,"state":"active","ping":61},{"user_id":363,"name":"crunchy obama","steam_id":76561198044485217,"connected_time":1132000000000,"state":"active","ping":58},{"user_id":375,"name":"Cheesed Burger","steam_id":76561198066425198,"connected_time":420000000000,"state":"active","ping":58},{"user_id":339,"name":"NightCrow","steam_id":76561198083778418,"connected_time":2505000000000,"state":"active","ping":71},{"user_id":217,"name":"riSygneD","steam_id":76561198331618687,"connected_time":12624000000000,"state":"active","ping":46},{"user_id":362,"name":"Giorno Giovanna","steam_id":76561198044106874,"connected_time":1191000000000,"state":"active","ping":62},{"user_id":366,"name":"Nicknacklemore","steam_id":76561198060527551,"connected_time":1037000000000,"state":"active","ping":114},{"user_id":365,"name":"JellyParrot","steam_id":76561199190990163,"connected_time":1092000000000,"state":"active","ping":108},{"user_id":369,"name":"BuncusBeffer","steam_id":76561198285936616,"connected_time":930000000000,"state":"active","ping":54},{"user_id":314,"name":"SPACECOWBOY","steam_id":76561199093645953,"connected_time":3994000000000,"state":"active","ping":64},{"user_id":357,"name":"mela ♡","steam_id":76561198301598124,"connected_time":1445000000000,"state":"active","ping":78},{"user_id":360,"name":"HellaCopter","steam_id":76561198062313698,"connected_time":1262000000000,"state":"active","ping":70},{"user_id":367,"name":"♡ Little Eggrow ♡","steam_id":76561198881583027,"connected_time":1020000000000,"state":"active","ping":69},{"user_id":315,"name":"Drift Stick","steam_id":76561198847048304,"connected_time":3994000000000,"state":"active","ping":80},{"user_id":368,"name":"Nimro","steam_id":76561198049334200,"connected_time":1020000000000,"state":"active","ping":69},{"user_id":377,"name":"Taffy","steam_id":76561198276612538,"connected_time":4000000000,"state":"spawning","ping":43},{"user_id":376,"name":"Darkspiral","steam_id":76561198080807559,"connected_time":132000000000,"state":"active","ping":52},{"user_id":370,"name":"rock gaming","steam_id":76561199402868311,"connected_time":881000000000,"state":"active","ping":70},{"user_id":371,"name":"sandman","steam_id":76561198144772540,"connected_time":832000000000,"state":"active","ping":77},{"user_id":372,"name":"🤨","steam_id":76561199365672047,"connected_time":825000000000,"state":"active","ping":134}]},{"server_id":18,"name":"Uncletopia | San Francisco | 2 | All Maps","name_short":"sfo-2","host":"sfo-1.us.uncletopia.com","port":27025,"enabled":true,"region":"us-west","cc":"us","latitude":37.77397,"longitude":-122.4313,"reserved":0,"last_update":"0001-01-01T00:00:00Z","name_a2s":"Uncletopia | San Francisco | 2 | All Maps","protocol":17,"map":"pl_swiftwater_final1","folder":"tf","game":"Team Fortress","app_id":440,"player_count":2,"max_players":24,"Bots":0,"server_type":"Dedicated","server_os":"Linux","password":true,"vac":true,"version":"7882260","steam_id":85568392924470000,"keywords":["nocrits","nodmgspread","payload","uncletopia"],"game_id":440,"stv_port":27026,"stv_name":"Uncletopia | San Francisco | 2 | All Maps | STV","players":[{"user_id":451,"name":"chocolat3823","steam_id":76561199249875689,"connected_time":131000000000,"state":"active","ping":45},{"user_id":433,"name":"yungevilbruh","steam_id":76561198127631900,"connected_time":1777000000000,"state":"active","ping":67}]},{"server_id":19,"name":"Uncletopia | San Francisco | 3 | Stopwatch Beta","name_short":"sfo-3","host":"sfo-1.us.uncletopia.com","port":27035,"enabled":true,"region":"us-west","cc":"us","latitude":37.77397,"longitude":-122.4313,"reserved":0,"last_update":"0001-01-01T00:00:00Z","name_a2s":"Uncletopia | San Francisco | 3 | Stopwatch Beta","protocol":17,"map":"workshop/pl_barnblitz_pro7.ugc582280235","folder":"tf","game":"Team Fortress","app_id":440,"player_count":0,"max_players":24,"Bots":0,"server_type":"Dedicated","server_os":"Linux","password":true,"vac":true,"version":"7882260","steam_id":85568392924742824,"keywords":["nocrits","nodmgspread","payload","uncletopia"],"game_id":440,"stv_port":27036,"stv_name":"Uncletopia | San Francisco | 3 | Stopwatch Beta | STV","players":null},{"server_id":20,"name":"Uncletopia | San Francisco | 4 | Community","name_short":"sfo-4","host":"sfo-1.us.uncletopia.com","port":27045,"enabled":true,"region":"us-west","cc":"us","latitude":37.77397,"longitude":-122.4313,"reserved":0,"last_update":"0001-01-01T00:00:00Z","name_a2s":"Uncletopia | San Francisco | 4 | Community","protocol":17,"map":"workshop/cp_caldera_rc2.ugc2834196889","folder":"tf","game":"Team Fortress","app_id":440,"player_count":0,"max_players":24,"Bots":0,"server_type":"Dedicated","server_os":"Linux","password":true,"vac":true,"version":"7882260","steam_id":85568392924742826,"keywords":["cp","nocrits","nodmgspread","uncletopia"],"game_id":440,"stv_port":27046,"stv_name":"Uncletopia | San Francisco | 4 | Community | STV","players":null},{"server_id":141,"name":"Uncletopia | Sydney | 1 | All Maps","name_short":"syd-1","host":"syd-1.au.uncletopia.com","port":27015,"enabled":true,"region":"au","cc":"au","latitude":-33.865143,"longitude":151.2099,"reserved":0,"last_update":"0001-01-01T00:00:00Z","name_a2s":"Uncletopia | Sydney | 1 | All Maps","protocol":17,"map":"pl_snowycoast","folder":"tf","game":"Team Fortress","app_id":440,"player_count":24,"max_players":24,"Bots":0,"server_type":"Dedicated","server_os":"Linux","password":true,"vac":true,"version":"7882260","steam_id":85568392924470001,"keywords":["nocrits","nodmgspread","payload","uncletopia"],"game_id":440,"stv_port":27016,"stv_name":"Uncletopia | Sydney | 1 | All Maps | STV","players":[{"user_id":333,"name":"smite","steam_id":76561198845304189,"connected_time":247000000000,"state":"active","ping":75},{"user_id":322,"name":"Chooka","steam_id":76561197992307814,"connected_time":1947000000000,"state":"active","ping":67},{"user_id":312,"name":"BruceWillis235","steam_id":76561198884324029,"connected_time":2280000000000,"state":"active","ping":91},{"user_id":325,"name":"david boeing","steam_id":76561198079351541,"connected_time":1513000000000,"state":"active","ping":47},{"user_id":315,"name":"mc.sleek","steam_id":76561198057602720,"connected_time":2255000000000,"state":"active","ping":72},{"user_id":332,"name":"CypressFluff (She/Her)","steam_id":76561198174667818,"connected_time":258000000000,"state":"active","ping":64},{"user_id":316,"name":"exodia the horrid one ᘛ⁐̤\ufffd","steam_id":76561198061998379,"connected_time":2253000000000,"state":"active","ping":47},{"user_id":324,"name":"alqwnq","steam_id":76561198133867907,"connected_time":1730000000000,"state":"active","ping":64},{"user_id":278,"name":"Kevin Parker","steam_id":76561198060677406,"connected_time":4770000000000,"state":"active","ping":90},{"user_id":336,"name":"Team Fartress Poo","steam_id":76561198139598106,"connected_time":107000000000,"state":"active","ping":61},{"user_id":321,"name":"William Ask Overture","steam_id":76561198031293430,"connected_time":2038000000000,"state":"active","ping":75},{"user_id":326,"name":"no teles 4 u","steam_id":76561198018478297,"connected_time":1053000000000,"state":"active","ping":74},{"user_id":318,"name":"zorbingus blurgorgus","steam_id":76561198063481761,"connected_time":2082000000000,"state":"active","ping":40},{"user_id":302,"name":"vent","steam_id":76561197984081096,"connected_time":3082000000000,"state":"active","ping":64},{"user_id":303,"name":"voxii","steam_id":76561198099698281,"connected_time":3009000000000,"state":"active","ping":68},{"user_id":313,"name":"locust no.2","steam_id":76561198060024585,"connected_time":2278000000000,"state":"active","ping":41},{"user_id":310,"name":"you've left me be Wilbur'd","steam_id":76561198301282416,"connected_time":2565000000000,"state":"active","ping":45},{"user_id":317,"name":"Tantei Rotana","steam_id":76561198041204323,"connected_time":2134000000000,"state":"active","ping":65},{"user_id":335,"name":"Arcueid Brunestud","steam_id":76561199016592990,"connected_time":163000000000,"state":"active","ping":98},{"user_id":320,"name":"ibus","steam_id":76561199026701614,"connected_time":2049000000000,"state":"active","ping":59},{"user_id":306,"name":"whiteshaq","steam_id":76561198131988811,"connected_time":2878000000000,"state":"active","ping":37},{"user_id":280,"name":"Happy Feet (A Tarantino Film)","steam_id":76561198055318716,"connected_time":4741000000000,"state":"active","ping":49},{"user_id":330,"name":"Connor","steam_id":76561198088318589,"connected_time":273000000000,"state":"active","ping":51},{"user_id":331,"name":"Bigrichard","steam_id":76561198032092945,"connected_time":271000000000,"state":"active","ping":86}]},{"server_id":123,"name":"Uncletopia | Sydney | 2 | All Maps","name_short":"syd-2","host":"syd-1.au.uncletopia.com","port":27025,"enabled":true,"region":"au","cc":"au","latitude":-33.865143,"longitude":151.2099,"reserved":0,"last_update":"0001-01-01T00:00:00Z","name_a2s":"Uncletopia | Sydney | 2 | All Maps","protocol":17,"map":"cp_dustbowl","folder":"tf","game":"Team Fortress","app_id":440,"player_count":10,"max_players":24,"Bots":0,"server_type":"Dedicated","server_os":"Linux","password":true,"vac":true,"version":"7882260","steam_id":85568392924470002,"keywords":["cp","nocrits","nodmgspread","uncletopia"],"game_id":440,"stv_port":27026,"stv_name":"Uncletopia | Sydney | 2 | All Maps | STV","players":[{"user_id":23,"name":"Okie Dokie","steam_id":76561198125237921,"connected_time":2492000000000,"state":"active","ping":43},{"user_id":26,"name":"kat","steam_id":76561198253684645,"connected_time":1435000000000,"state":"active","ping":57},{"user_id":30,"name":"sav","steam_id":76561198058760041,"connected_time":676000000000,"state":"active","ping":63},{"user_id":28,"name":"Cardboard!!1! (no mic)","steam_id":76561199099769110,"connected_time":1021000000000,"state":"active","ping":81},{"user_id":29,"name":"BoyBenny","steam_id":76561198163890999,"connected_time":944000000000,"state":"active","ping":59},{"user_id":31,"name":"The Bisoneer (no mic)","steam_id":76561199446773766,"connected_time":627000000000,"state":"active","ping":82},{"user_id":32,"name":"no grass","steam_id":76561198205033844,"connected_time":614000000000,"state":"active","ping":57},{"user_id":35,"name":"Local Femboy \u003c3 (No sound)","steam_id":76561198355333388,"connected_time":106000000000,"state":"active","ping":73},{"user_id":34,"name":"little raw meat boy","steam_id":76561199248254676,"connected_time":266000000000,"state":"active","ping":60},{"user_id":37,"name":"2Frames","steam_id":76561199233498351,"connected_time":77000000000,"state":"active","ping":58}]},{"server_id":395,"name":"Uncletopia | Sydney | 3 | All Maps","name_short":"syd-3","host":"syd-1.au.uncletopia.com","port":27035,"enabled":true,"region":"au","cc":"au","latitude":-33.865143,"longitude":151.2099,"reserved":0,"last_update":"0001-01-01T00:00:00Z","name_a2s":"Uncletopia | Sydney | 3 | All Maps","protocol":17,"map":"koth_viaduct","folder":"tf","game":"Team Fortress","app_id":440,"player_count":0,"max_players":24,"Bots":0,"server_type":"Dedicated","server_os":"Linux","password":true,"vac":true,"version":"7882260","steam_id":85568392925194467,"keywords":["cp","nocrits","nodmgspread","uncletopia"],"game_id":440,"stv_port":27036,"stv_name":"Uncletopia | Sydney | 3 | All Maps | STV","players":null},{"server_id":396,"name":"Uncletopia | Sydney | 4 | All Maps","name_short":"syd-4","host":"syd-1.au.uncletopia.com","port":27045,"enabled":true,"region":"au","cc":"au","latitude":-33.865143,"longitude":151.2099,"reserved":0,"last_update":"0001-01-01T00:00:00Z","name_a2s":"Uncletopia | Sydney | 4 | All Maps","protocol":17,"map":"pl_snowycoast","folder":"tf","game":"Team Fortress","app_id":440,"player_count":0,"max_players":24,"Bots":0,"server_type":"Dedicated","server_os":"Linux","password":true,"vac":true,"version":"7882260","steam_id":85568392925397958,"keywords":["nocrits","nodmgspread","payload","uncletopia"],"game_id":440,"stv_port":27046,"stv_name":"Uncletopia | Sydney | 4 | All Maps | STV","players":null},{"server_id":58,"name":"Uncletopia | Sydney | 5 | Stopwatch Beta","name_short":"syd-5","host":"syd-1.au.uncletopia.com","port":27055,"enabled":true,"region":"au","cc":"au","latitude":-33.865143,"longitude":151.2099,"reserved":0,"last_update":"0001-01-01T00:00:00Z","name_a2s":"Uncletopia | Sydney | 5 | Stopwatch Beta","protocol":17,"map":"koth_viaduct","folder":"tf","game":"Team Fortress","app_id":440,"player_count":0,"max_players":24,"Bots":0,"server_type":"Dedicated","server_os":"Linux","password":true,"vac":true,"version":"7882260","steam_id":85568392925397959,"keywords":["cp","nocrits","nodmgspread","uncletopia"],"game_id":440,"stv_port":27056,"stv_name":"Uncletopia | Sydney | 5 | Stopwatch Beta | STV","players":null},{"server_id":59,"name":"Uncletopia | Sydney | 6 | Community","name_short":"syd-6","host":"syd-1.au.uncletopia.com","port":27065,"enabled":true,"region":"au","cc":"au","latitude":-33.865143,"longitude":151.2099,"reserved":0,"last_update":"0001-01-01T00:00:00Z","name_a2s":"Uncletopia | Sydney | 6 | Community","protocol":17,"map":"workshop/koth_ashville_final.ugc2130459942","folder":"tf","game":"Team Fortress","app_id":440,"player_count":0,"max_players":24,"Bots":0,"server_type":"Dedicated","server_os":"Linux","password":true,"vac":true,"version":"7882260","steam_id":85568392925397960,"keywords":["cp","nocrits","nodmgspread","uncletopia"],"game_id":440,"stv_port":27066,"stv_name":"Uncletopia | Sydney | 6 | Community | STV","players":null},{"server_id":49,"name":"Uncletopia | Warsaw | 1 | All Maps","name_short":"waw-1","host":"waw-1.pl.uncletopia.com","port":27015,"enabled":true,"region":"eu","cc":"pl","latitude":52.2297,"longitude":21.017532,"reserved":0,"last_update":"0001-01-01T00:00:00Z","name_a2s":"","protocol":0,"map":"","folder":"","game":"","app_id":0,"player_count":0,"max_players":0,"Bots":0,"server_type":"","server_os":"","password":false,"vac":false,"version":"","steam_id":0,"keywords":null,"game_id":0,"stv_port":0,"stv_name":"","players":null},{"server_id":50,"name":"Uncletopia | Warsaw | 2 | All Maps","name_short":"waw-2","host":"waw-1.pl.uncletopia.com","port":27025,"enabled":true,"region":"eu","cc":"pl","latitude":52.2297,"longitude":21.017532,"reserved":0,"last_update":"0001-01-01T00:00:00Z","name_a2s":"Uncletopia | Warsaw | 2 | All Maps","protocol":17,"map":"koth_viaduct","folder":"tf","game":"Team Fortress","app_id":440,"player_count":0,"max_players":24,"Bots":0,"server_type":"Dedicated","server_os":"Linux","password":true,"vac":true,"version":"7882260","steam_id":85568392925397851,"keywords":["cp","nocrits","nodmgspread","uncletopia"],"game_id":440,"stv_port":27026,"stv_name":"Uncletopia | Warsaw | 2 | All Maps | STV","players":null},{"server_id":51,"name":"Uncletopia | Warsaw | 3 | All Maps","name_short":"waw-3","host":"waw-1.pl.uncletopia.com","port":27035,"enabled":true,"region":"eu","cc":"pl","latitude":52.2297,"longitude":21.017532,"reserved":0,"last_update":"0001-01-01T00:00:00Z","name_a2s":"Uncletopia | Warsaw | 3 | All Maps","protocol":17,"map":"pl_badwater","folder":"tf","game":"Team Fortress","app_id":440,"player_count":0,"max_players":24,"Bots":0,"server_type":"Dedicated","server_os":"Linux","password":true,"vac":true,"version":"7882260","steam_id":85568392925397852,"keywords":["nocrits","nodmgspread","payload","uncletopia"],"game_id":440,"stv_port":27036,"stv_name":"Uncletopia | Warsaw | 3 | All Maps | STV","players":null},{"server_id":52,"name":"Uncletopia | Warsaw | 4 | All Maps","name_short":"waw-4","host":"waw-1.pl.uncletopia.com","port":27045,"enabled":true,"region":"eu","cc":"pl","latitude":52.2297,"longitude":21.017532,"reserved":0,"last_update":"0001-01-01T00:00:00Z","name_a2s":"Uncletopia | Warsaw | 4 | All Maps","protocol":17,"map":"koth_cascade","folder":"tf","game":"Team Fortress","app_id":440,"player_count":0,"max_players":24,"Bots":0,"server_type":"Dedicated","server_os":"Linux","password":true,"vac":true,"version":"7882260","steam_id":85568392925397853,"keywords":["cp","nocrits","nodmgspread","uncletopia"],"game_id":440,"stv_port":27046,"stv_name":"Uncletopia | Warsaw | 4 | All Maps | STV","players":null},{"server_id":53,"name":"Uncletopia | Warsaw | 5 | Stopwatch Beta","name_short":"waw-5","host":"waw-1.pl.uncletopia.com","port":27055,"enabled":true,"region":"eu","cc":"pl","latitude":52.2297,"longitude":21.017532,"reserved":0,"last_update":"0001-01-01T00:00:00Z","name_a2s":"Uncletopia | Warsaw | 5 | Stopwatch Beta","protocol":17,"map":"cp_dustbowl","folder":"tf","game":"Team Fortress","app_id":440,"player_count":0,"max_players":24,"Bots":0,"server_type":"Dedicated","server_os":"Linux","password":true,"vac":true,"version":"7882260","steam_id":85568392925397854,"keywords":["cp","nocrits","nodmgspread","uncletopia"],"game_id":440,"stv_port":27056,"stv_name":"Uncletopia | Warsaw | 5 | Stopwatch Beta | STV","players":null},{"server_id":54,"name":"Uncletopia | Warsaw | 6 | Community","name_short":"waw-6","host":"waw-1.pl.uncletopia.com","port":27065,"enabled":true,"region":"eu","cc":"pl","latitude":52.2297,"longitude":21.017532,"reserved":0,"last_update":"0001-01-01T00:00:00Z","name_a2s":"Uncletopia | Warsaw | 6 | Community","protocol":17,"map":"cp_dustbowl","folder":"tf","game":"Team Fortress","app_id":440,"player_count":0,"max_players":24,"Bots":0,"server_type":"Dedicated","server_os":"Linux","password":true,"vac":true,"version":"7882260","steam_id":85568392925397856,"keywords":["cp","nocrits","nodmgspread","uncletopia"],"game_id":440,"stv_port":27066,"stv_name":"Uncletopia | Warsaw | 6 | Community | STV","players":null}]}