{"status":true,"message":"","result":[{"server_id":9,"name":"Uncletopia | Atlanta | 1 | All Maps","name_short":"atl-1","host":"atl-1.us.uncletopia.com","port":27015,"enabled":true,"region":"us-east","cc":"us","latitude":33.753746,"longitude":-84.38633,"reserved":0,"last_update":"0001-01-01T00:00:00Z","name_a2s":"Uncletopia | Atlanta | 1 | All Maps","protocol":17,"map":"pl_barnblitz","folder":"tf","game":"Team Fortress","app_id":440,"player_count":21,"max_players":24,"Bots":0,"server_type":"Dedicated","server_os":"Linux","password":true,"vac":true,"version":"7742253","steam_id":85568392924469982,"keywords":["nocrits","nodmgspread","payload","uncletopia"],"game_id":440,"stv_port":27016,"stv_name":"Uncletopia | Atlanta | 1 | All Maps | STV","players":[{"user_id":132,"name":"plutonium isotope","steam_id":76561198319442494,"connected_time":315000000000,"state":"active","ping":98},{"user_id":108,"name":"Tue","steam_id":76561198181668501,"connected_time":3878000000000,"state":"active","ping":56},{"user_id":101,"name":"loot","steam_id":76561198069954956,"connected_time":4674000000000,"state":"active","ping":47},{"user_id":111,"name":"Festive Fire Starting Rock","steam_id":76561198066547582,"connected_time":2709000000000,"state":"active","ping":105},{"user_id":134,"name":"smells like dust and moonlight","steam_id":76561198048110137,"connected_time":92000000000,"state":"active","ping":68},{"user_id":127,"name":"Saul Goodman","steam_id":76561198851033478,"connected_time":993000000000,"state":"active","ping":80},{"user_id":129,"name":"ATL1 | Twa","steam_id":76561198295529541,"connected_time":816000000000,"state":"active","ping":68},{"user_id":103,"name":"nalezinik","steam_id":76561198030026119,"connected_time":4388000000000,"state":"active","ping":81},{"user_id":119,"name":"Riftex","steam_id":76561198124639698,"connected_time":2258000000000,"state":"active","ping":53},{"user_id":122,"name":"will b. gaming","steam_id":76561198101707249,"connected_time":1998000000000,"state":"active","ping":55},{"user_id":135,"name":"Comfy Monkey","steam_id":76561197998434936,"connected_time":28000000000,"state":"active","ping":50},{"user_id":120,"name":"ash","steam_id":76561198127890645,"connected_time":2111000000000,"state":"active","ping":62},{"user_id":114,"name":"ATL0 Dedi Le4n!!!","steam_id":76561198045522596,"connected_time":2685000000000,"state":"active","ping":68},{"user_id":123,"name":"ATL1 | Psionic Present","steam_id":76561198151019322,"connected_time":1996000000000,"state":"active","ping":73},{"user_id":95,"name":"ATL1 | Kramer","steam_id":76561198083595936,"connected_time":4912000000000,"state":"active","ping":83},{"user_id":124,"name":"Luigi4tl","steam_id":76561198051862389,"connected_time":1348000000000,"state":"active","ping":63},{"user_id":131,"name":"IMPACT CPU","steam_id":76561198001344879,"connected_time":712000000000,"state":"active","ping":86},{"user_id":126,"name":"vid_","steam_id":76561198065159053,"connected_time":1315000000000,"state":"active","ping":45},{"user_id":86,"name":"tell me about it","steam_id":76561198277799227,"connected_time":6129000000000,"state":"active","ping":72},{"user_id":112,"name":"Boop","steam_id":76561198376703875,"connected_time":2709000000000,"state":"active","ping":69},{"user_id":133,"name":"Censure","steam_id":76561198850891374,"connected_time":182000000000,"state":"active","ping":75}]},{"server_id":400,"name":"Uncletopia | Atlanta | 3 | Stopwatch Beta","name_short":"atl-3","host":"atl-1.us.uncletopia.com","port":27035,"enabled":true,"region":"us-east","cc":"us","latitude":33.753746,"longitude":-84.38633,"reserved":0,"last_update":"0001-01-01T00:00:00Z","name_a2s":"Uncletopia | Atlanta | 3 | Stopwatch Beta","protocol":17,"map":"workshop/pl_badwater_pro_v12.ugc2142942074","folder":"tf","game":"Team Fortress","app_id":440,"player_count":0,"max_players":24,"Bots":0,"server_type":"Dedicated","server_os":"Linux","password":true,"vac":true,"version":"7742253","steam_id":85568392924515187,"keywords":["nocrits","nodmgspread","payload","uncletopia"],"game_id":440,"stv_port":27036,"stv_name":"Uncletopia | Atlanta | 3 | Stopwatch Beta | STV","players":null},{"server_id":401,"name":"Uncletopia | Atlanta | 4 | No Payload","name_short":"atl-4","host":"atl-1.us.uncletopia.com","port":27045,"enabled":true,"region":"us-east","cc":"us","latitude":33.753746,"longitude":-84.38633,"reserved":0,"last_update":"0001-01-01T00:00:00Z","name_a2s":"Uncletopia | Atlanta | 4 | No Payload","protocol":17,"map":"koth_brazil","folder":"tf","game":"Team Fortress","app_id":440,"player_count":0,"max_players":24,"Bots":0,"server_type":"Dedicated","server_os":"Linux","password":true,"vac":true,"version":"7723704","steam_id":85568392924515188,"keywords":["cp","nocrits","nodmgspread","uncletopia"],"game_id":440,"stv_port":27046,"stv_name":"Uncletopia | Atlanta | 4 | No Payload | STV","players":null},{"server_id":2,"name":"Uncletopia | Chicago | 1 | All Maps","name_short":"chi-1","host":"chi-1.us.uncletopia.com","port":27015,"enabled":true,"region":"us-central","cc":"us","latitude":41.881832,"longitude":-87.62318,"reserved":0,"last_update":"0001-01-01T00:00:00Z","name_a2s":"Uncletopia | Chicago | 1 | All Maps","protocol":17,"map":"pl_pier","folder":"tf","game":"Team Fortress","app_id":440,"player_count":24,"max_players":24,"Bots":0,"server_type":"Dedicated","server_os":"Linux","password":true,"vac":true,"version":"7742253","steam_id":85568392924469984,"keywords":["nocrits","nodmgspread","payload","uncletopia"],"game_id":440,"stv_port":27016,"stv_name":"Uncletopia | Chicago | 1 | All Maps | STV","players":[{"user_id":85,"name":"TheToastingToaster","steam_id":76561198439391966,"connected_time":7260000000000,"state":"active","ping":60},{"user_id":138,"name":"King Cotton","steam_id":76561198292444376,"connected_time":3561000000000,"state":"active","ping":83},{"user_id":154,"name":"Jeb Wins","steam_id":76561198075614895,"connected_time":2129000000000,"state":"active","ping":98},{"user_id":169,"name":"peachy","steam_id":76561198026664629,"connected_time":149000000000,"state":"active","ping":49},{"user_id":170,"name":"A Can of Arizona Green Tea","steam_id":76561198062481133,"connected_time":141000000000,"state":"active","ping":63},{"user_id":168,"name":"three three","steam_id":76561198177354155,"connected_time":157000000000,"state":"active","ping":54},{"user_id":146,"name":"Undertime Slopper","steam_id":76561198396789061,"connected_time":3300000000000,"state":"active","ping":82},{"user_id":123,"name":"stop","steam_id":76561198268686419,"connected_time":4861000000000,"state":"active","ping":54},{"user_id":161,"name":"Woofly132","steam_id":76561199075738626,"connected_time":1084000000000,"state":"active","ping":73},{"user_id":165,"name":"SilentDom","steam_id":76561198008339097,"connected_time":170000000000,"state":"active","ping":49},{"user_id":163,"name":"The Caretaker","steam_id":76561198125241411,"connected_time":741000000000,"state":"active","ping":118},{"user_id":134,"name":"Nickson1","steam_id":76561198175839309,"connected_time":3722000000000,"state":"active","ping":82},{"user_id":172,"name":"Elegant Ejaculation","steam_id":76561198014190878,"connected_time":97000000000,"state":"spawning","ping":126},{"user_id":171,"name":"totally not a pile of beans","steam_id":76561198119851931,"connected_time":136000000000,"state":"active","ping":74},{"user_id":128,"name":"Twilight Princess","steam_id":76561198049460281,"connected_time":4646000000000,"state":"active","ping":67},{"user_id":148,"name":"WitheringLeo","steam_id":76561198046722918,"connected_time":2928000000000,"state":"active","ping":79},{"user_id":173,"name":"Pyromania","steam_id":76561198317028173,"connected_time":59000000000,"state":"active","ping":71},{"user_id":130,"name":"⊰Aero⊱","steam_id":76561198084648457,"connected_time":4584000000000,"state":"active","ping":52},{"user_id":105,"name":"Chode Mode","steam_id":76561198353840477,"connected_time":6843000000000,"state":"active","ping":61},{"user_id":113,"name":"Be Gay, Do Crimes, Smoke Weed!","steam_id":76561198092419868,"connected_time":6212000000000,"state":"active","ping":96},{"user_id":174,"name":"pworple","steam_id":76561199189877104,"connected_time":40000000000,"state":"active","ping":54},{"user_id":119,"name":"[K.Y.L.L.]Drone #0432 (it)","steam_id":76561198027321950,"connected_time":5480000000000,"state":"active","ping":101},{"user_id":175,"name":"bengineer","steam_id":76561198171912174,"connected_time":17000000000,"state":"spawning","ping":89},{"user_id":164,"name":"blob","steam_id":76561198122375328,"connected_time":379000000000,"state":"active","ping":62}]},{"server_id":106,"name":"Uncletopia | Chicago | 2 | All Maps","name_short":"chi-2","host":"chi-1.us.uncletopia.com","port":27025,"enabled":true,"region":"us-central","cc":"us","latitude":41.881832,"longitude":-87.62318,"reserved":0,"last_update":"0001-01-01T00:00:00Z","name_a2s":"Uncletopia | Chicago | 2 | All Maps","protocol":17,"map":"pl_badwater","folder":"tf","game":"Team Fortress","app_id":440,"player_count":24,"max_players":24,"Bots":0,"server_type":"Dedicated","server_os":"Linux","password":true,"vac":true,"version":"7742253","steam_id":85568392924469985,"keywords":["nocrits","nodmgspread","payload","uncletopia"],"game_id":440,"stv_port":27026,"stv_name":"Uncletopia | Chicago | 2 | All Maps | STV","players":[{"user_id":155,"name":"Capt.Swag","steam_id":76561198088340994,"connected_time":1884000000000,"state":"active","ping":73},{"user_id":171,"name":"shaznable","steam_id":76561198101825959,"connected_time":1174000000000,"state":"active","ping":90},{"user_id":182,"name":"Ribbered","steam_id":76561198242118240,"connected_time":414000000000,"state":"active","ping":97},{"user_id":143,"name":"Dittery","steam_id":76561198114899953,"connected_time":3367000000000,"state":"active","ping":71},{"user_id":183,"name":"okuurin gayming","steam_id":76561198114679256,"connected_time":270000000000,"state":"active","ping":65},{"user_id":157,"name":"misterjozo","steam_id":76561198012300755,"connected_time":1419000000000,"state":"active","ping":101},{"user_id":168,"name":"vdfbgstrhrhgy","steam_id":76561198843798720,"connected_time":1279000000000,"state":"active","ping":172},{"user_id":177,"name":"Sarbanes-Oxley","steam_id":76561197975898479,"connected_time":463000000000,"state":"active","ping":77},{"user_id":184,"name":"Giorno_Giovanna","steam_id":76561199014402406,"connected_time":174000000000,"state":"active","ping":85},{"user_id":130,"name":"xXcLaImEd__ReApErXx [F2P]","steam_id":76561198067232540,"connected_time":3877000000000,"state":"active","ping":76},{"user_id":144,"name":"RailRunner66","steam_id":76561198053779091,"connected_time":3346000000000,"state":"active","ping":97},{"user_id":128,"name":"Myracle","steam_id":76561198070916920,"connected_time":3926000000000,"state":"active","ping":46},{"user_id":104,"name":"wepry","steam_id":76561198114091417,"connected_time":5747000000000,"state":"active","ping":77},{"user_id":145,"name":"Jesus","steam_id":76561198018890911,"connected_time":3155000000000,"state":"active","ping":63},{"user_id":164,"name":"Boolet","steam_id":76561198088666151,"connected_time":1308000000000,"state":"active","ping":90},{"user_id":132,"name":"FlakkerSaber","steam_id":76561198103503066,"connected_time":3836000000000,"state":"active","ping":94},{"user_id":175,"name":"Snoopierkid","steam_id":76561198116260303,"connected_time":814000000000,"state":"active","ping":72},{"user_id":134,"name":"jodie.blend","steam_id":76561198140701807,"connected_time":3787000000000,"state":"active","ping":71},{"user_id":165,"name":"Milk","steam_id":76561198796215640,"connected_time":1303000000000,"state":"active","ping":90},{"user_id":181,"name":"Winter the Witchie","steam_id":76561198151971178,"connected_time":417000000000,"state":"active","ping":54},{"user_id":176,"name":"mago","steam_id":76561198880309324,"connected_time":790000000000,"state":"active","ping":59},{"user_id":169,"name":"Necco","steam_id":76561198146262001,"connected_time":1279000000000,"state":"active","ping":95},{"user_id":138,"name":"jincle bels","steam_id":76561198041017977,"connected_time":3710000000000,"state":"active","ping":69},{"user_id":139,"name":"rad killl raccoon","steam_id":76561198980975595,"connected_time":3688000000000,"state":"active","ping":100}]},{"server_id":402,"name":"Uncletopia | Chicago | 3 | All Maps","name_short":"chi-3","host":"chi-1.us.uncletopia.com","port":27035,"enabled":true,"region":"us-central","cc":"us","latitude":41.881832,"longitude":-87.62318,"reserved":0,"last_update":"0001-01-01T00:00:00Z","name_a2s":"Uncletopia | Chicago | 3 | All Maps","protocol":17,"map":"cp_altitude","folder":"tf","game":"Team Fortress","app_id":440,"player_count":24,"max_players":24,"Bots":0,"server_type":"Dedicated","server_os":"Linux","password":true,"vac":true,"version":"7742253","steam_id":85568392924515191,"keywords":["cp","nocrits","nodmgspread","uncletopia"],"game_id":440,"stv_port":27036,"stv_name":"Uncletopia | Chicago | 3 | All Maps | STV","players":[{"user_id":183,"name":"Your Local Queer Librarian","steam_id":76561198013077080,"connected_time":586000000000,"state":"active","ping":50},{"user_id":184,"name":"Jarryl97","steam_id":76561198055451373,"connected_time":391000000000,"state":"active","ping":77},{"user_id":185,"name":"Santa Claus","steam_id":76561199057899661,"connected_time":373000000000,"state":"active","ping":101},{"user_id":170,"name":"E4Estrogen","steam_id":76561198085813708,"connected_time":1303000000000,"state":"active","ping":50},{"user_id":196,"name":"♥ PsychicCellar ♥","steam_id":76561198045923020,"connected_time":86000000000,"state":"active","ping":55},{"user_id":99,"name":"Gilbert","steam_id":76561198377977256,"connected_time":6377000000000,"state":"active","ping":81},{"user_id":176,"name":"Blackwidow2u","steam_id":76561198072995386,"connected_time":973000000000,"state":"active","ping":72},{"user_id":186,"name":"callum","steam_id":76561198070918366,"connected_time":353000000000,"state":"active","ping":71},{"user_id":187,"name":"Devoid","steam_id":76561198254039012,"connected_time":350000000000,"state":"active","ping":72},{"user_id":96,"name":"Shilbert","steam_id":76561199050046612,"connected_time":7094000000000,"state":"active","ping":81},{"user_id":188,"name":"Authentic Tacos","steam_id":76561198092447766,"connected_time":335000000000,"state":"active","ping":82},{"user_id":58,"name":"Dilbert","steam_id":76561198195613682,"connected_time":9819000000000,"state":"active","ping":89},{"user_id":56,"name":"Kilbert","steam_id":76561198254454239,"connected_time":9848000000000,"state":"active","ping":82},{"user_id":189,"name":"toilet snake","steam_id":76561198064422625,"connected_time":335000000000,"state":"active","ping":60},{"user_id":155,"name":"Felwo3","steam_id":76561199217352978,"connected_time":2275000000000,"state":"active","ping":179},{"user_id":197,"name":"sayad","steam_id":76561198080897870,"connected_time":43000000000,"state":"active","ping":65},{"user_id":178,"name":"Raven","steam_id":76561198393887732,"connected_time":950000000000,"state":"active","ping":80},{"user_id":154,"name":"WesternSky","steam_id":76561198042873863,"connected_time":2277000000000,"state":"active","ping":54},{"user_id":144,"name":"Seething Swine","steam_id":76561198079147566,"connected_time":2561000000000,"state":"active","ping":63},{"user_id":164,"name":"sans.","steam_id":76561197987966746,"connected_time":1633000000000,"state":"active","ping":68},{"user_id":167,"name":"robot girl ronday","steam_id":76561198041844815,"connected_time":1536000000000,"state":"active","ping":102},{"user_id":142,"name":"Gunkzilla","steam_id":76561198068228415,"connected_time":3271000000000,"state":"active","ping":62},{"user_id":192,"name":"Beebles","steam_id":76561199183421017,"connected_time":287000000000,"state":"active","ping":52},{"user_id":193,"name":"Zogovro","steam_id":76561199163618880,"connected_time":275000000000,"state":"active","ping":101}]},{"server_id":403,"name":"Uncletopia | Chicago | 4 | All Maps","name_short":"chi-4","host":"chi-1.us.uncletopia.com","port":27045,"enabled":true,"region":"us-central","cc":"us","latitude":41.881832,"longitude":-87.62318,"reserved":0,"last_update":"0001-01-01T00:00:00Z","name_a2s":"Uncletopia | Chicago | 4 | All Maps","protocol":17,"map":"pl_frontier_final","folder":"tf","game":"Team Fortress","app_id":440,"player_count":24,"max_players":24,"Bots":0,"server_type":"Dedicated","server_os":"Linux","password":true,"vac":true,"version":"7742253","steam_id":85568392924515193,"keywords":["nocrits","nodmgspread","payload","uncletopia"],"game_id":440,"stv_port":27046,"stv_name":"Uncletopia | Chicago | 4 | All Maps | STV","players":[{"user_id":142,"name":"Lore","steam_id":76561198098407538,"connected_time":563000000000,"state":"active","ping":48},{"user_id":116,"name":"QuickBeam","steam_id":76561198043677022,"connected_time":2377000000000,"state":"active","ping":75},{"user_id":135,"name":"Dire_vVolf","steam_id":76561198052509176,"connected_time":1043000000000,"state":"active","ping":45},{"user_id":89,"name":"jakegus","steam_id":76561199060022512,"connected_time":4629000000000,"state":"active","ping":141},{"user_id":111,"name":"crimmson","steam_id":76561198416325300,"connected_time":2484000000000,"state":"active","ping":83},{"user_id":104,"name":"shplunker","steam_id":76561198169291327,"connected_time":3689000000000,"state":"active","ping":73},{"user_id":112,"name":"Mr. Sandman","steam_id":76561198065870487,"connected_time":2477000000000,"state":"active","ping":50},{"user_id":133,"name":"Joji - Tick Tock","steam_id":76561198418414338,"connected_time":1107000000000,"state":"active","ping":80},{"user_id":134,"name":"ExplosiveGamer21","steam_id":76561198132370955,"connected_time":1082000000000,"state":"active","ping":110},{"user_id":119,"name":"Admiral Shackleford","steam_id":76561198051952755,"connected_time":2147000000000,"state":"active","ping":79},{"user_id":143,"name":"reis","steam_id":76561199232952016,"connected_time":369000000000,"state":"active","ping":181},{"user_id":71,"name":"Schlurp","steam_id":76561198004467697,"connected_time":6193000000000,"state":"active","ping":113},{"user_id":108,"name":"Simply G","steam_id":76561199221934609,"connected_time":2876000000000,"state":"active","ping":107},{"user_id":105,"name":"Sykes10","steam_id":76561198279623105,"connected_time":3677000000000,"state":"active","ping":104},{"user_id":109,"name":"lemon","steam_id":76561198329179651,"connected_time":2791000000000,"state":"active","ping":108},{"user_id":141,"name":"CrispyToes","steam_id":76561198173624978,"connected_time":644000000000,"state":"active","ping":88},{"user_id":138,"name":"Dr. Z","steam_id":76561198063586119,"connected_time":1011000000000,"state":"active","ping":101},{"user_id":122,"name":"lili.winters","steam_id":76561199391478575,"connected_time":1960000000000,"state":"active","ping":102},{"user_id":123,"name":"Silverkeys","steam_id":76561197986012496,"connected_time":1958000000000,"state":"active","ping":79},{"user_id":124,"name":"SammyShammy ♥","steam_id":76561198048120126,"connected_time":1906000000000,"state":"active","ping":103},{"user_id":125,"name":"Dr. Enforcicle (real)","steam_id":76561198964471859,"connected_time":1867000000000,"state":"active","ping":70},{"user_id":37,"name":"NukaTheRabbit {Fur}","steam_id":76561198058692928,"connected_time":9227000000000,"state":"active","ping":59},{"user_id":126,"name":"Honk If You're Gaming","steam_id":76561198406895347,"connected_time":1857000000000,"state":"active","ping":73},{"user_id":140,"name":"Tokey","steam_id":76561198825943127,"connected_time":944000000000,"state":"active","ping":95}]},{"server_id":36,"name":"Uncletopia | Chicago | 5 | All Maps","name_short":"chi-5","host":"chi-2.us.uncletopia.com","port":27015,"enabled":true,"region":"us-central","cc":"us","latitude":41.881832,"longitude":-87.62318,"reserved":0,"last_update":"0001-01-01T00:00:00Z","name_a2s":"Uncletopia | Chicago | 5 | All Maps","protocol":17,"map":"cp_process_final","folder":"tf","game":"Team Fortress","app_id":440,"player_count":19,"max_players":24,"Bots":0,"server_type":"Dedicated","server_os":"Linux","password":true,"vac":true,"version":"7742253","steam_id":85568392924866362,"keywords":["cp","nocrits","nodmgspread","uncletopia"],"game_id":440,"stv_port":27016,"stv_name":"Uncletopia | Chicago | 5 | All Maps | STV","players":[{"user_id":164,"name":"Ludidas","steam_id":76561198156272124,"connected_time":436000000000,"state":"active","ping":46},{"user_id":147,"name":"LividALX","steam_id":76561198145429015,"connected_time":1152000000000,"state":"active","ping":72},{"user_id":160,"name":"BigOrca54","steam_id":76561198181360271,"connected_time":566000000000,"state":"active","ping":71},{"user_id":168,"name":"choi","steam_id":76561198053669887,"connected_time":0,"state":"spawning","ping":30},{"user_id":156,"name":"Thumbs","steam_id":76561199065890132,"connected_time":658000000000,"state":"active","ping":54},{"user_id":89,"name":"MoopStoop","steam_id":76561198140936620,"connected_time":5617000000000,"state":"active","ping":69},{"user_id":134,"name":"Glass Joe","steam_id":76561198317365741,"connected_time":1869000000000,"state":"active","ping":65},{"user_id":157,"name":"ham gaming","steam_id":76561198072592880,"connected_time":652000000000,"state":"active","ping":45},{"user_id":151,"name":"Mixer","steam_id":76561199020200249,"connected_time":964000000000,"state":"active","ping":60},{"user_id":100,"name":"Ford Truck Gaming","steam_id":76561199042674833,"connected_time":5080000000000,"state":"active","ping":83},{"user_id":136,"name":"BigBubble42","steam_id":76561198136286123,"connected_time":1827000000000,"state":"active","ping":55},{"user_id":140,"name":"Guy","steam_id":76561198054734578,"connected_time":1743000000000,"state":"active","ping":46},{"user_id":90,"name":"KritzKow","steam_id":76561198086164003,"connected_time":5611000000000,"state":"active","ping":79},{"user_id":167,"name":"Sham Cow","steam_id":76561198064556977,"connected_time":256000000000,"state":"active","ping":82},{"user_id":154,"name":"ADHDking","steam_id":76561198116099017,"connected_time":851000000000,"state":"active","ping":60},{"user_id":119,"name":"cirno","steam_id":76561198166081596,"connected_time":3200000000000,"state":"active","ping":104},{"user_id":143,"name":"perochialjoe","steam_id":76561197977074151,"connected_time":1705000000000,"state":"active","ping":81},{"user_id":162,"name":"Passes the Bungus","steam_id":76561198040647717,"connected_time":537000000000,"state":"active","ping":79},{"user_id":166,"name":"Reversed","steam_id":76561198136433466,"connected_time":328000000000,"state":"active","ping":56}]},{"server_id":37,"name":"Uncletopia | Chicago | 6 | All Maps","name_short":"chi-6","host":"chi-2.us.uncletopia.com","port":27025,"enabled":true,"region":"us-central","cc":"us","latitude":41.881832,"longitude":-87.62318,"reserved":0,"last_update":"0001-01-01T00:00:00Z","name_a2s":"Uncletopia | Chicago | 6 | All Maps","protocol":17,"map":"cp_process_final","folder":"tf","game":"Team Fortress","app_id":440,"player_count":22,"max_players":24,"Bots":0,"server_type":"Dedicated","server_os":"Linux","password":true,"vac":true,"version":"7742253","steam_id":85568392924866363,"keywords":["cp","nocrits","nodmgspread","uncletopia"],"game_id":440,"stv_port":27026,"stv_name":"Uncletopia | Chicago | 6 | All Maps | STV","players":[{"user_id":59,"name":"mrshruggie","steam_id":76561198274278694,"connected_time":243000000000,"state":"active","ping":57},{"user_id":47,"name":"Daz","steam_id":76561198041431938,"connected_time":925000000000,"state":"active","ping":73},{"user_id":61,"name":"Nightfall","steam_id":76561198169718867,"connected_time":215000000000,"state":"active","ping":113},{"user_id":60,"name":"Quincunx Ölaavgäärden","steam_id":76561198035618952,"connected_time":238000000000,"state":"active","ping":80},{"user_id":62,"name":"Rockgraham101","steam_id":76561198171740458,"connected_time":208000000000,"state":"active","ping":80},{"user_id":63,"name":"I.C.","steam_id":76561198049256017,"connected_time":208000000000,"state":"active","ping":76},{"user_id":64,"name":"darkjustin54","steam_id":76561198060056280,"connected_time":202000000000,"state":"active","ping":61},{"user_id":20,"name":"Charles Wagon","steam_id":76561198007906671,"connected_time":3091000000000,"state":"active","ping":66},{"user_id":54,"name":"Mad dog of Shimano","steam_id":76561198797266817,"connected_time":535000000000,"state":"active","ping":183},{"user_id":65,"name":"Merry Matches_","steam_id":76561198048925904,"connected_time":201000000000,"state":"active","ping":121},{"user_id":37,"name":"ghostedghost","steam_id":76561198111410905,"connected_time":2436000000000,"state":"active","ping":88},{"user_id":51,"name":"AR1782","steam_id":76561199380738475,"connected_time":729000000000,"state":"active","ping":86},{"user_id":49,"name":"Sir Severus","steam_id":76561198061295188,"connected_time":795000000000,"state":"active","ping":90},{"user_id":67,"name":"honked off the bobo","steam_id":76561198123287268,"connected_time":76000000000,"state":"active","ping":55},{"user_id":27,"name":"United Bank of M O N E Y","steam_id":76561198251647556,"connected_time":2849000000000,"state":"active","ping":96},{"user_id":66,"name":"Beeveelution","steam_id":76561198331526301,"connected_time":134000000000,"state":"active","ping":105},{"user_id":46,"name":"Mouth Tea","steam_id":76561198285054047,"connected_time":1396000000000,"state":"active","ping":82},{"user_id":50,"name":"RedDragon232","steam_id":76561199093424575,"connected_time":767000000000,"state":"active","ping":78},{"user_id":45,"name":"bonk","steam_id":76561198004823930,"connected_time":1794000000000,"state":"active","ping":61},{"user_id":32,"name":"PISSMAN","steam_id":76561198144801416,"connected_time":2745000000000,"state":"active","ping":59},{"user_id":34,"name":"jerma enthusiast","steam_id":76561198359466264,"connected_time":2709000000000,"state":"active","ping":73},{"user_id":35,"name":"MontellWilliams","steam_id":76561198172143015,"connected_time":2624000000000,"state":"active","ping":72}]},{"server_id":38,"name":"Uncletopia | Chicago | 7 | Stopwatch Beta","name_short":"chi-7","host":"chi-2.us.uncletopia.com","port":27035,"enabled":true,"region":"us-central","cc":"us","latitude":41.881832,"longitude":-87.62318,"reserved":0,"last_update":"0001-01-01T00:00:00Z","name_a2s":"Uncletopia | Chicago | 7 | Stopwatch Beta","protocol":17,"map":"cp_altitude","folder":"tf","game":"Team Fortress","app_id":440,"player_count":0,"max_players":24,"Bots":0,"server_type":"Dedicated","server_os":"Linux","password":true,"vac":true,"version":"7742253","steam_id":85568392924866364,"keywords":["cp","nocrits","nodmgspread","uncletopia"],"game_id":440,"stv_port":27036,"stv_name":"Uncletopia | Chicago | 7 | Stopwatch Beta | STV","players":null},{"server_id":39,"name":"Uncletopia | Chicago | 8 | Community","name_short":"chi-8","host":"chi-2.us.uncletopia.com","port":27045,"enabled":true,"region":"us-central","cc":"us","latitude":41.881832,"longitude":-87.62318,"reserved":0,"last_update":"0001-01-01T00:00:00Z","name_a2s":"Uncletopia | Chicago | 8 | Community","protocol":17,"map":"koth_cascade","folder":"tf","game":"Team Fortress","app_id":440,"player_count":2,"max_players":24,"Bots":0,"server_type":"Dedicated","server_os":"Linux","password":true,"vac":true,"version":"7742253","steam_id":85568392924866365,"keywords":["cp","nocrits","nodmgspread","uncletopia"],"game_id":440,"stv_port":27046,"stv_name":"Uncletopia | Chicago | 8 | Community | STV","players":[{"user_id":10,"name":"lquidtoastt","steam_id":76561199096349404,"connected_time":411000000000,"state":"active","ping":36},{"user_id":11,"name":"toxic_raptor","steam_id":76561199387886048,"connected_time":335000000000,"state":"active","ping":63}]},{"server_id":8,"name":"Uncletopia | Dallas | 1 | All Maps","name_short":"dal-1","host":"dal-1.us.uncletopia.com","port":27015,"enabled":true,"region":"us-central","cc":"us","latitude":32.779167,"longitude":-96.80889,"reserved":0,"last_update":"0001-01-01T00:00:00Z","name_a2s":"Uncletopia | Dallas | 1 | All Maps","protocol":17,"map":"koth_cascade","folder":"tf","game":"Team Fortress","app_id":440,"player_count":0,"max_players":24,"Bots":0,"server_type":"Dedicated","server_os":"Linux","password":true,"vac":true,"version":"7742253","steam_id":85568392924469986,"keywords":["cp","nocrits","nodmgspread","uncletopia"],"game_id":440,"stv_port":27016,"stv_name":"Uncletopia | Dallas | 1 | All Maps | STV","players":null},{"server_id":108,"name":"Uncletopia | Dallas | 2 | All Maps","name_short":"dal-2","host":"dal-1.us.uncletopia.com","port":27025,"enabled":true,"region":"us-central","cc":"us","latitude":32.779167,"longitude":-96.80889,"reserved":0,"last_update":"0001-01-01T00:00:00Z","name_a2s":"Uncletopia | Dallas | 2 | All Maps","protocol":17,"map":"pl_borneo","folder":"tf","game":"Team Fortress","app_id":440,"player_count":24,"max_players":24,"Bots":0,"server_type":"Dedicated","server_os":"Linux","password":true,"vac":true,"version":"7742253","steam_id":85568392924469988,"keywords":["nocrits","nodmgspread","payload","uncletopia"],"game_id":440,"stv_port":27026,"stv_name":"Uncletopia | Dallas | 2 | All Maps | STV","players":[{"user_id":124,"name":"Jazz2T","steam_id":76561198154418867,"connected_time":204000000000,"state":"active","ping":108},{"user_id":120,"name":"Akrin","steam_id":76561199254804349,"connected_time":832000000000,"state":"active","ping":66},{"user_id":126,"name":"Subovia","steam_id":76561199074446510,"connected_time":183000000000,"state":"active","ping":90},{"user_id":102,"name":"DrBenjas","steam_id":76561198345883103,"connected_time":1817000000000,"state":"active","ping":59},{"user_id":103,"name":"happy man!!! :D!!!!","steam_id":76561198128468316,"connected_time":1768000000000,"state":"active","ping":61},{"user_id":123,"name":"Hudsina","steam_id":76561198822566493,"connected_time":235000000000,"state":"active","ping":40},{"user_id":121,"name":"MetalIsRusty","steam_id":76561199062153437,"connected_time":790000000000,"state":"active","ping":81},{"user_id":77,"name":"alligator fuckhouse","steam_id":76561198119178364,"connected_time":4309000000000,"state":"active","ping":76},{"user_id":94,"name":"CHIPMUNCHER19","steam_id":76561198071557391,"connected_time":2315000000000,"state":"active","ping":72},{"user_id":127,"name":"King","steam_id":76561198010019214,"connected_time":171000000000,"state":"active","ping":65},{"user_id":106,"name":"sithreis","steam_id":76561198000564263,"connected_time":1540000000000,"state":"active","ping":69},{"user_id":128,"name":"Psychosis","steam_id":76561198078659070,"connected_time":146000000000,"state":"active","ping":85},{"user_id":122,"name":"Boingo","steam_id":76561199086931535,"connected_time":634000000000,"state":"active","ping":50},{"user_id":129,"name":"Heart","steam_id":76561198171449661,"connected_time":141000000000,"state":"active","ping":90},{"user_id":131,"name":"BernardBull","steam_id":76561198036138813,"connected_time":24000000000,"state":"active","ping":65},{"user_id":108,"name":"java","steam_id":76561198030276792,"connected_time":1526000000000,"state":"active","ping":65},{"user_id":109,"name":"AlecTheNefarious","steam_id":76561198035291230,"connected_time":1518000000000,"state":"active","ping":47},{"user_id":112,"name":"lanoc","steam_id":76561198055415367,"connected_time":1303000000000,"state":"active","ping":60},{"user_id":26,"name":"The Lonely Croc","steam_id":76561198123241396,"connected_time":7611000000000,"state":"active","ping":73},{"user_id":114,"name":"IxMic88","steam_id":76561198018552479,"connected_time":1074000000000,"state":"active","ping":56},{"user_id":115,"name":"Walmart Employee","steam_id":76561198840373909,"connected_time":1053000000000,"state":"active","ping":92},{"user_id":116,"name":"autumn","steam_id":76561198036901822,"connected_time":983000000000,"state":"active","ping":47},{"user_id":118,"name":"Breadskate","steam_id":76561198087730803,"connected_time":909000000000,"state":"active","ping":113},{"user_id":119,"name":"Modern Day Wizard","steam_id":76561198354689252,"connected_time":909000000000,"state":"active","ping":53}]},{"server_id":5,"name":"Uncletopia | Frankfurt | 1 | All Maps","name_short":"frk-1","host":"frk-1.de.uncletopia.com","port":27015,"enabled":true,"region":"eu","cc":"de","latitude":50.110924,"longitude":8.682127,"reserved":0,"last_update":"0001-01-01T00:00:00Z","name_a2s":"Uncletopia | Frankfurt | 1 | All Maps","protocol":17,"map":"pl_barnblitz","folder":"tf","game":"Team Fortress","app_id":440,"player_count":0,"max_players":24,"Bots":0,"server_type":"Dedicated","server_os":"Linux","password":true,"vac":true,"version":"7742253","steam_id":85568392924469989,"keywords":["nocrits","nodmgspread","payload","uncletopia"],"game_id":440,"stv_port":27016,"stv_name":"Uncletopia | Frankfurt | 1 | All Maps | STV","players":null},{"server_id":110,"name":"Uncletopia | Frankfurt | 2 | All Maps","name_short":"frk-2","host":"frk-1.de.uncletopia.com","port":27025,"enabled":true,"region":"eu","cc":"de","latitude":50.110924,"longitude":8.682127,"reserved":0,"last_update":"0001-01-01T00:00:00Z","name_a2s":"Uncletopia | Frankfurt | 2 | All Maps","protocol":17,"map":"pl_upward","folder":"tf","game":"Team Fortress","app_id":440,"player_count":0,"max_players":24,"Bots":0,"server_type":"Dedicated","server_os":"Linux","password":true,"vac":true,"version":"7742253","steam_id":85568392924469990,"keywords":["nocrits","nodmgspread","payload","uncletopia"],"game_id":440,"stv_port":27026,"stv_name":"Uncletopia | Frankfurt | 2 | All Maps | STV","players":null},{"server_id":308,"name":"Uncletopia | Frankfurt | 3 | All Maps","name_short":"frk-3","host":"frk-1.de.uncletopia.com","port":27035,"enabled":true,"region":"eu","cc":"de","latitude":50.110924,"longitude":8.682127,"reserved":0,"last_update":"0001-01-01T00:00:00Z","name_a2s":"Uncletopia | Frankfurt | 3 | All Maps","protocol":17,"map":"koth_viaduct","folder":"tf","game":"Team Fortress","app_id":440,"player_count":0,"max_players":24,"Bots":0,"server_type":"Dedicated","server_os":"Linux","password":true,"vac":true,"version":"7742253","steam_id":85568392924504274,"keywords":["cp","nocrits","nodmgspread","uncletopia"],"game_id":440,"stv_port":27036,"stv_name":"Uncletopia | Frankfurt | 3 | All Maps | STV","players":null},{"server_id":309,"name":"Uncletopia | Frankfurt | 4 | All Maps","name_short":"frk-4","host":"frk-1.de.uncletopia.com","port":27045,"enabled":true,"region":"eu","cc":"de","latitude":50.110924,"longitude":8.682127,"reserved":0,"last_update":"0001-01-01T00:00:00Z","name_a2s":"Uncletopia | Frankfurt | 4 | All Maps","protocol":17,"map":"pl_frontier_final","folder":"tf","game":"Team Fortress","app_id":440,"player_count":0,"max_players":24,"Bots":0,"server_type":"Dedicated","server_os":"Linux","password":true,"vac":true,"version":"7742253","steam_id":85568392924504275,"keywords":["nocrits","nodmgspread","payload","uncletopia"],"game_id":440,"stv_port":27046,"stv_name":"Uncletopia | Frankfurt | 4 | All Maps | STV","players":null},{"server_id":310,"name":"Uncletopia | Frankfurt | 5 | All Maps","name_short":"frk-5","host":"frk-1.de.uncletopia.com","port":27055,"enabled":true,"region":"eu","cc":"de","latitude":50.110924,"longitude":8.682127,"reserved":0,"last_update":"0001-01-01T00:00:00Z","name_a2s":"Uncletopia | Frankfurt | 5 | All Maps","protocol":17,"map":"cp_sunshine","folder":"tf","game":"Team Fortress","app_id":440,"player_count":0,"max_players":24,"Bots":0,"server_type":"Dedicated","server_os":"Linux","password":true,"vac":true,"version":"7742253","steam_id":85568392924504277,"keywords":["cp","nocrits","nodmgspread","uncletopia"],"game_id":440,"stv_port":27056,"stv_name":"Uncletopia | Frankfurt | 5 | All Maps | STV","players":null},{"server_id":311,"name":"Uncletopia | Frankfurt | 6 | All Maps","name_short":"frk-6","host":"frk-1.de.uncletopia.com","port":27065,"enabled":true,"region":"eu","cc":"de","latitude":50.110924,"longitude":8.682127,"reserved":0,"last_update":"0001-01-01T00:00:00Z","name_a2s":"Uncletopia | Frankfurt | 6 | All Maps","protocol":17,"map":"pl_frontier_final","folder":"tf","game":"Team Fortress","app_id":440,"player_count":0,"max_players":24,"Bots":0,"server_type":"Dedicated","server_os":"Linux","password":true,"vac":true,"version":"7742253","steam_id":85568392924504278,"keywords":["nocrits","nodmgspread","payload","uncletopia"],"game_id":440,"stv_port":27066,"stv_name":"Uncletopia | Frankfurt | 6 | All Maps | STV","players":null},{"server_id":23,"name":"Uncletopia | Frankfurt | 7 | Stopwatch Beta","name_short":"frk-7","host":"frk-1.de.uncletopia.com","port":27075,"enabled":true,"region":"eu","cc":"de","latitude":50.110924,"longitude":8.682127,"reserved":0,"last_update":"0001-01-01T00:00:00Z","name_a2s":"Uncletopia | Frankfurt | 7 | Stopwatch Beta","protocol":17,"map":"koth_lakeside_final","folder":"tf","game":"Team Fortress","app_id":440,"player_count":0,"max_players":24,"Bots":0,"server_type":"Dedicated","server_os":"Linux","password":true,"vac":true,"version":"7742253","steam_id":85568392924742827,"keywords":["cp","nocrits","nodmgspread","uncletopia"],"game_id":440,"stv_port":27076,"stv_name":"Uncletopia | Frankfurt | 7 | Stopwatch Beta | STV","players":null},{"server_id":24,"name":"Uncletopia | Frankfurt | 8 | Community","name_short":"frk-8","host":"frk-1.de.uncletopia.com","port":27085,"enabled":true,"region":"eu","cc":"de","latitude":50.110924,"longitude":8.682127,"reserved":0,"last_update":"0001-01-01T00:00:00Z","name_a2s":"Uncletopia | Frankfurt | 8 | Community","protocol":17,"map":"workshop/cp_overgrown_rc7b.ugc503939302","folder":"tf","game":"Team Fortress","app_id":440,"player_count":0,"max_players":24,"Bots":0,"server_type":"Dedicated","server_os":"Linux","password":true,"vac":true,"version":"7742253","steam_id":85568392924742828,"keywords":["cp","nocrits","nodmgspread","uncletopia"],"game_id":440,"stv_port":27086,"stv_name":"Uncletopia | Frankfurt | 8 | Community | STV","players":null},{"server_id":202,"name":"Uncletopia | Hong Kong | 1 | All Maps","name_short":"hgk-1","host":"hgk-1.hk.uncletopia.com","port":27015,"enabled":true,"region":"asia","cc":"hk","latitude":22.302711,"longitude":114.177216,"reserved":0,"last_update":"0001-01-01T00:00:00Z","name_a2s":"Uncletopia | Hong Kong | 1 | All Maps","protocol":17,"map":"pl_pier","folder":"tf","game":"Team Fortress","app_id":440,"player_count":24,"max_players":24,"Bots":0,"server_type":"Dedicated","server_os":"Linux","password":true,"vac":true,"version":"7742253","steam_id":85568392924494504,"keywords":["nocrits","nodmgspread","payload","uncletopia"],"game_id":440,"stv_port":27016,"stv_name":"Uncletopia | Hong Kong | 1 | All Maps | STV","players":[{"user_id":40,"name":"Sküll Lad45","steam_id":76561198963567654,"connected_time":2261000000000,"state":"active","ping":65},{"user_id":66,"name":"Owmyn","steam_id":76561199239651098,"connected_time":319000000000,"state":"active","ping":97},{"user_id":16,"name":"vikush","steam_id":76561199032468162,"connected_time":4025000000000,"state":"active","ping":57},{"user_id":39,"name":"screaming sniper","steam_id":76561199085568674,"connected_time":2469000000000,"state":"active","ping":61},{"user_id":30,"name":"Steve","steam_id":76561198429235506,"connected_time":2941000000000,"state":"active","ping":82},{"user_id":41,"name":"Cum","steam_id":76561199244428779,"connected_time":2147000000000,"state":"active","ping":79},{"user_id":42,"name":"floatingdeadfish","steam_id":76561198414875516,"connected_time":2141000000000,"state":"active","ping":70},{"user_id":43,"name":"lilla laxum","steam_id":76561198230213828,"connected_time":2059000000000,"state":"active","ping":72},{"user_id":37,"name":"Nice","steam_id":76561199180653046,"connected_time":2579000000000,"state":"active","ping":133},{"user_id":50,"name":"alphakennybuddy","steam_id":76561199219625644,"connected_time":1620000000000,"state":"active","ping":89},{"user_id":44,"name":"sauceyert","steam_id":76561199085409122,"connected_time":1974000000000,"state":"active","ping":55},{"user_id":46,"name":"SICSIN","steam_id":76561198083923462,"connected_time":1759000000000,"state":"active","ping":86},{"user_id":53,"name":"r/leroy","steam_id":76561199137927625,"connected_time":1559000000000,"state":"active","ping":120},{"user_id":64,"name":"Rev3lation","steam_id":76561198935157203,"connected_time":803000000000,"state":"active","ping":94},{"user_id":52,"name":"blahaj","steam_id":76561198061628689,"connected_time":1610000000000,"state":"active","ping":52},{"user_id":54,"name":"A very thankful Merc.","steam_id":76561198896046677,"connected_time":1520000000000,"state":"active","ping":70},{"user_id":55,"name":"Eggnog","steam_id":76561198388935921,"connected_time":1518000000000,"state":"active","ping":63},{"user_id":57,"name":"qballs","steam_id":76561198412329672,"connected_time":1284000000000,"state":"active","ping":91},{"user_id":59,"name":"kazaba","steam_id":76561199052251739,"connected_time":1042000000000,"state":"active","ping":125},{"user_id":60,"name":"bookman","steam_id":76561198989168133,"connected_time":1015000000000,"state":"active","ping":86},{"user_id":61,"name":"Puddin","steam_id":76561198140052918,"connected_time":879000000000,"state":"active","ping":91},{"user_id":62,"name":"calander","steam_id":76561199147054833,"connected_time":858000000000,"state":"active","ping":105},{"user_id":65,"name":"p1st0n","steam_id":76561198992723983,"connected_time":754000000000,"state":"active","ping":96},{"user_id":68,"name":"Festive Redmond :D","steam_id":76561198056390902,"connected_time":135000000000,"state":"active","ping":63}]},{"server_id":1,"name":"Uncletopia | Los Angeles | 1 | All Maps","name_short":"lax-1","host":"lax-1.us.uncletopia.com","port":27015,"enabled":true,"region":"us-west","cc":"us","latitude":33.94279,"longitude":-118.41004,"reserved":0,"last_update":"0001-01-01T00:00:00Z","name_a2s":"Uncletopia | Los Angeles | 1 | All Maps","protocol":17,"map":"pl_pier","folder":"tf","game":"Team Fortress","app_id":440,"player_count":0,"max_players":24,"Bots":0,"server_type":"Dedicated","server_os":"Linux","password":true,"vac":true,"version":"7742253","steam_id":85568392924469991,"keywords":["nocrits","nodmgspread","payload","uncletopia"],"game_id":440,"stv_port":27016,"stv_name":"Uncletopia | Los Angeles | 1 | All Maps | STV","players":null},{"server_id":112,"name":"Uncletopia | Los Angeles | 2 | All Maps","name_short":"lax-2","host":"lax-1.us.uncletopia.com","port":27025,"enabled":true,"region":"us-west","cc":"us","latitude":33.94279,"longitude":-118.41004,"reserved":0,"last_update":"0001-01-01T00:00:00Z","name_a2s":"Uncletopia | Los Angeles | 2 | All Maps","protocol":17,"map":"koth_cascade","folder":"tf","game":"Team Fortress","app_id":440,"player_count":24,"max_players":24,"Bots":0,"server_type":"Dedicated","server_os":"Linux","password":true,"vac":true,"version":"7742253","steam_id":85568392924469992,"keywords":["cp","nocrits","nodmgspread","uncletopia"],"game_id":440,"stv_port":27026,"stv_name":"Uncletopia | Los Angeles | 2 | All Maps | STV","players":[{"user_id":133,"name":"dash23™","steam_id":76561198314951185,"connected_time":1843000000000,"state":"active","ping":87},{"user_id":167,"name":"jennco","steam_id":76561198212421513,"connected_time":263000000000,"state":"active","ping":46},{"user_id":153,"name":"Moonflower ✦","steam_id":76561198191782483,"connected_time":751000000000,"state":"active","ping":78},{"user_id":166,"name":"\"Gay Panic\"","steam_id":76561198132531594,"connected_time":369000000000,"state":"active","ping":60},{"user_id":137,"name":"lauvr","steam_id":76561198106079456,"connected_time":1567000000000,"state":"active","ping":56},{"user_id":168,"name":"Shon","steam_id":76561198170116342,"connected_time":259000000000,"state":"active","ping":62},{"user_id":142,"name":"An00bissmas","steam_id":76561198044084508,"connected_time":1393000000000,"state":"active","ping":56},{"user_id":98,"name":"The_Dart_One","steam_id":76561198968354443,"connected_time":3614000000000,"state":"active","ping":75},{"user_id":141,"name":"Chubs","steam_id":76561199240001956,"connected_time":1407000000000,"state":"active","ping":153},{"user_id":155,"name":"Oof","steam_id":76561198353567674,"connected_time":701000000000,"state":"active","ping":50},{"user_id":115,"name":"Chopi","steam_id":76561198877685988,"connected_time":2704000000000,"state":"active","ping":76},{"user_id":140,"name":"Madvillain","steam_id":76561198037734204,"connected_time":1425000000000,"state":"active","ping":45},{"user_id":156,"name":"say what?!","steam_id":76561198214370515,"connected_time":699000000000,"state":"active","ping":62},{"user_id":157,"name":"BlockierVase3","steam_id":76561199068827256,"connected_time":686000000000,"state":"active","ping":101},{"user_id":129,"name":"Obama Gaming 2022","steam_id":76561199006905645,"connected_time":2016000000000,"state":"active","ping":103},{"user_id":158,"name":"The Witchfinder General","steam_id":76561199113662942,"connected_time":673000000000,"state":"active","ping":45},{"user_id":159,"name":"[]{}#^*+=","steam_id":76561198127039453,"connected_time":662000000000,"state":"active","ping":93},{"user_id":136,"name":"BrightOrangeMango","steam_id":76561198023144607,"connected_time":1678000000000,"state":"active","ping":58},{"user_id":145,"name":"Synergy","steam_id":76561198098630198,"connected_time":1332000000000,"state":"active","ping":75},{"user_id":169,"name":"video games","steam_id":76561198334059206,"connected_time":161000000000,"state":"active","ping":64},{"user_id":162,"name":"Antwan","steam_id":76561198246200638,"connected_time":646000000000,"state":"active","ping":73},{"user_id":151,"name":"Gary Sinfeld","steam_id":76561198042274074,"connected_time":1000000000000,"state":"active","ping":65},{"user_id":152,"name":"MayoMateo","steam_id":76561198360809933,"connected_time":976000000000,"state":"active","ping":56},{"user_id":148,"name":"TheBrocklobster","steam_id":76561198039682984,"connected_time":1205000000000,"state":"active","ping":62}]},{"server_id":324,"name":"Uncletopia | Los Angeles | 3 | All Maps","name_short":"lax-3","host":"lax-1.us.uncletopia.com","port":27035,"enabled":true,"region":"us-west","cc":"us","latitude":33.94279,"longitude":-118.41004,"reserved":0,"last_update":"0001-01-01T00:00:00Z","name_a2s":"Uncletopia | Los Angeles | 3 | All Maps","protocol":17,"map":"cp_dustbowl","folder":"tf","game":"Team Fortress","app_id":440,"player_count":4,"max_players":24,"Bots":0,"server_type":"Dedicated","server_os":"Linux","password":true,"vac":true,"version":"7742253","steam_id":85568392924510198,"keywords":["cp","nocrits","nodmgspread","uncletopia"],"game_id":440,"stv_port":27036,"stv_name":"Uncletopia | Los Angeles | 3 | All Maps | STV","players":[{"user_id":24,"name":"bobby bill jones :)","steam_id":76561199442367267,"connected_time":213000000000,"state":"active","ping":57},{"user_id":25,"name":"bob_2_","steam_id":76561198103511119,"connected_time":81000000000,"state":"active","ping":77},{"user_id":12,"name":"Supa","steam_id":76561198217815771,"connected_time":3526000000000,"state":"active","ping":90},{"user_id":14,"name":"Ctrl+Cs your NFT","steam_id":76561199223646322,"connected_time":3496000000000,"state":"active","ping":79}]},{"server_id":25,"name":"Uncletopia | Los Angeles | 4 | Stopwatch Beta","name_short":"lax-4","host":"lax-1.us.uncletopia.com","port":27045,"enabled":true,"region":"us-west","cc":"us","latitude":33.94279,"longitude":-118.41004,"reserved":0,"last_update":"0001-01-01T00:00:00Z","name_a2s":"Uncletopia | Los Angeles | 4 | Stopwatch Beta","protocol":17,"map":"cp_process_final","folder":"tf","game":"Team Fortress","app_id":440,"player_count":0,"max_players":24,"Bots":0,"server_type":"Dedicated","server_os":"Linux","password":true,"vac":true,"version":"7742253","steam_id":85568392924510199,"keywords":["cp","nocrits","nodmgspread","uncletopia"],"game_id":440,"stv_port":27046,"stv_name":"Uncletopia | Los Angeles | 4 | Stopwatch Beta | STV","players":null},{"server_id":11,"name":"Uncletopia | London | 1 | All Maps","name_short":"lon-1","host":"lon-1.uk.uncletopia.com","port":27015,"enabled":true,"region":"eu","cc":"gb","latitude":51.509865,"longitude":-0.118092,"reserved":0,"last_update":"0001-01-01T00:00:00Z","name_a2s":"Uncletopia | London | 1 | All Maps","protocol":17,"map":"cp_process_final","folder":"tf","game":"Team Fortress","app_id":440,"player_count":0,"max_players":24,"Bots":0,"server_type":"Dedicated","server_os":"Linux","password":true,"vac":true,"version":"7742253","steam_id":85568392924367362,"keywords":["cp","nocrits","nodmgspread","uncletopia"],"game_id":440,"stv_port":27016,"stv_name":"Uncletopia | London | 1 | All Maps | STV","players":null},{"server_id":114,"name":"Uncletopia | London | 2 | All Maps","name_short":"lon-2","host":"lon-1.uk.uncletopia.com","port":27025,"enabled":true,"region":"eu","cc":"gb","latitude":51.509865,"longitude":-0.118092,"reserved":0,"last_update":"0001-01-01T00:00:00Z","name_a2s":"Uncletopia | London | 2 | All Maps","protocol":17,"map":"cp_altitude","folder":"tf","game":"Team Fortress","app_id":440,"player_count":0,"max_players":24,"Bots":0,"server_type":"Dedicated","server_os":"Linux","password":true,"vac":true,"version":"7742253","steam_id":85568392924470941,"keywords":["cp","nocrits","nodmgspread","uncletopia"],"game_id":440,"stv_port":27026,"stv_name":"Uncletopia | London | 2 | All Maps | STV","players":null},{"server_id":320,"name":"Uncletopia | London | 3 | All Maps","name_short":"lon-3","host":"lon-1.uk.uncletopia.com","port":27035,"enabled":true,"region":"eu","cc":"gb","latitude":51.509865,"longitude":-0.118092,"reserved":0,"last_update":"0001-01-01T00:00:00Z","name_a2s":"Uncletopia | London | 3 | All Maps","protocol":17,"map":"cp_mountainlab","folder":"tf","game":"Team Fortress","app_id":440,"player_count":0,"max_players":24,"Bots":0,"server_type":"Dedicated","server_os":"Linux","password":true,"vac":true,"version":"7742253","steam_id":85568392924510192,"keywords":["cp","nocrits","nodmgspread","uncletopia"],"game_id":440,"stv_port":27036,"stv_name":"Uncletopia | London | 3 | All Maps | STV","players":null},{"server_id":321,"name":"Uncletopia | London | 4 | All Maps","name_short":"lon-4","host":"lon-1.uk.uncletopia.com","port":27045,"enabled":true,"region":"eu","cc":"gb","latitude":51.509865,"longitude":-0.118092,"reserved":0,"last_update":"0001-01-01T00:00:00Z","name_a2s":"Uncletopia | London | 4 | All Maps","protocol":17,"map":"pl_borneo","folder":"tf","game":"Team Fortress","app_id":440,"player_count":0,"max_players":24,"Bots":0,"server_type":"Dedicated","server_os":"Linux","password":true,"vac":true,"version":"7742253","steam_id":85568392924510193,"keywords":["nocrits","nodmgspread","payload","uncletopia"],"game_id":440,"stv_port":27046,"stv_name":"Uncletopia | London | 4 | All Maps | STV","players":null},{"server_id":21,"name":"Uncletopia | London | 5 | All Maps","name_short":"lon-5","host":"lon-1.uk.uncletopia.com","port":27055,"enabled":true,"region":"eu","cc":"gb","latitude":51.509865,"longitude":-0.118092,"reserved":0,"last_update":"0001-01-01T00:00:00Z","name_a2s":"Uncletopia | London | 5 | All Maps","protocol":17,"map":"cp_mountainlab","folder":"tf","game":"Team Fortress","app_id":440,"player_count":5,"max_players":24,"Bots":0,"server_type":"Dedicated","server_os":"Linux","password":true,"vac":true,"version":"7742253","steam_id":85568392924742829,"keywords":["cp","nocrits","nodmgspread","uncletopia"],"game_id":440,"stv_port":27056,"stv_name":"Uncletopia | London | 5 | All Maps | STV","players":[{"user_id":12,"name":"aesfg","steam_id":76561199177781991,"connected_time":6838000000000,"state":"active","ping":152},{"user_id":21,"name":"BookKouy","steam_id":76561199446431633,"connected_time":1445000000000,"state":"active","ping":83},{"user_id":22,"name":"Xander JC","steam_id":76561198156406062,"connected_time":648000000000,"state":"active","ping":50},{"user_id":24,"name":"peruna","steam_id":76561198000721196,"connected_time":209000000000,"state":"active","ping":75},{"user_id":10,"name":"ACG_Dubsy","steam_id":76561198797308565,"connected_time":7181000000000,"state":"active","ping":43}]},{"server_id":22,"name":"Uncletopia | London | 6 | All Maps","name_short":"lon-6","host":"lon-1.uk.uncletopia.com","port":27065,"enabled":true,"region":"eu","cc":"gb","latitude":51.509865,"longitude":-0.118092,"reserved":0,"last_update":"0001-01-01T00:00:00Z","name_a2s":"Uncletopia | London | 6 | All Maps","protocol":17,"map":"pl_badwater","folder":"tf","game":"Team Fortress","app_id":440,"player_count":0,"max_players":24,"Bots":0,"server_type":"Dedicated","server_os":"Linux","password":true,"vac":true,"version":"7742253","steam_id":85568392924742830,"keywords":["nocrits","nodmgspread","payload","uncletopia"],"game_id":440,"stv_port":27066,"stv_name":"Uncletopia | London | 6 | All Maps | STV","players":null},{"server_id":40,"name":"Uncletopia | London | 7 | No Payload","name_short":"lon-7","host":"lon-1.uk.uncletopia.com","port":27075,"enabled":true,"region":"eu","cc":"gb","latitude":51.509865,"longitude":-0.118092,"reserved":0,"last_update":"0001-01-01T00:00:00Z","name_a2s":"Uncletopia | London | 7 | No Payload","protocol":17,"map":"pl_borneo","folder":"tf","game":"Team Fortress","app_id":440,"player_count":0,"max_players":24,"Bots":0,"server_type":"Dedicated","server_os":"Linux","password":true,"vac":true,"version":"7742253","steam_id":85568392924964314,"keywords":["nocrits","nodmgspread","payload","uncletopia"],"game_id":440,"stv_port":27076,"stv_name":"Uncletopia | London | 7 | No Payload | STV","players":null},{"server_id":41,"name":"Uncletopia | London | 8 | Community","name_short":"lon-8","host":"lon-1.uk.uncletopia.com","port":27085,"enabled":true,"region":"eu","cc":"gb","latitude":51.509865,"longitude":-0.118092,"reserved":0,"last_update":"0001-01-01T00:00:00Z","name_a2s":"Uncletopia | London | 8 | Community","protocol":17,"map":"workshop/koth_slaughter_rc1.ugc1712845210","folder":"tf","game":"Team Fortress","app_id":440,"player_count":0,"max_players":24,"Bots":0,"server_type":"Dedicated","server_os":"Linux","password":true,"vac":true,"version":"7742253","steam_id":85568392924964315,"keywords":["cp","nocrits","nodmgspread","uncletopia"],"game_id":440,"stv_port":27086,"stv_name":"Uncletopia | London | 8 | Community | STV","players":null},{"server_id":300,"name":"Uncletopia | Montréal | 1 | All Maps","name_short":"mtl-1","host":"mtl-1.ca.uncletopia.com","port":27015,"enabled":true,"region":"us-east","cc":"ca","latitude":45.50889,"longitude":-73.56167,"reserved":0,"last_update":"0001-01-01T00:00:00Z","name_a2s":"Uncletopia | Montréal | 1 | All Maps","protocol":17,"map":"cp_dustbowl","folder":"tf","game":"Team Fortress","app_id":440,"player_count":17,"max_players":24,"Bots":0,"server_type":"Dedicated","server_os":"Linux","password":true,"vac":true,"version":"7742253","steam_id":85568392924500087,"keywords":["cp","nocrits","nodmgspread","uncletopia"],"game_id":440,"stv_port":27016,"stv_name":"Uncletopia | Montréal | 1 | All Maps | STV","players":[{"user_id":11,"name":"LuciDin","steam_id":76561198049690649,"connected_time":5208000000000,"state":"active","ping":87},{"user_id":15,"name":"Superfly Johnson","steam_id":76561198130438044,"connected_time":3077000000000,"state":"active","ping":42},{"user_id":17,"name":"Kray-Z","steam_id":76561198797699901,"connected_time":2280000000000,"state":"active","ping":66},{"user_id":32,"name":"Dullahan","steam_id":76561198119668908,"connected_time":333000000000,"state":"active","ping":106},{"user_id":19,"name":"VellFox","steam_id":76561198057514928,"connected_time":1987000000000,"state":"active","ping":74},{"user_id":20,"name":"Brown Fox Warrior","steam_id":76561198314293801,"connected_time":1976000000000,"state":"active","ping":82},{"user_id":21,"name":"Gemini","steam_id":76561199185437611,"connected_time":1814000000000,"state":"active","ping":62},{"user_id":23,"name":"LukeBeMe","steam_id":76561198872468968,"connected_time":589000000000,"state":"active","ping":88},{"user_id":24,"name":"tokemaster69","steam_id":76561198083996924,"connected_time":582000000000,"state":"active","ping":75},{"user_id":25,"name":"StarManMatt","steam_id":76561198125513574,"connected_time":578000000000,"state":"active","ping":117},{"user_id":36,"name":"Uhonlapjanteszika","steam_id":76561199431280503,"connected_time":222000000000,"state":"active","ping":67},{"user_id":27,"name":"Bob.","steam_id":76561198330093822,"connected_time":507000000000,"state":"active","ping":164},{"user_id":28,"name":"fishfin","steam_id":76561198255819115,"connected_time":483000000000,"state":"active","ping":76},{"user_id":33,"name":"ZenkoZSprite","steam_id":76561198190132250,"connected_time":333000000000,"state":"active","ping":49},{"user_id":34,"name":"Pie™","steam_id":76561198158312625,"connected_time":326000000000,"state":"active","ping":113},{"user_id":31,"name":"Challenger Charles","steam_id":76561198005576553,"connected_time":365000000000,"state":"active","ping":51},{"user_id":35,"name":"GreenApples","steam_id":76561198120559543,"connected_time":317000000000,"state":"active","ping":106}]},{"server_id":301,"name":"Uncletopia | Montréal | 2 | All Maps","name_short":"mtl-2","host":"mtl-1.ca.uncletopia.com","port":27025,"enabled":true,"region":"us-east","cc":"ca","latitude":45.50889,"longitude":-73.56167,"reserved":0,"last_update":"0001-01-01T00:00:00Z","name_a2s":"Uncletopia | Montréal | 2 | All Maps","protocol":17,"map":"koth_lakeside_final","folder":"tf","game":"Team Fortress","app_id":440,"player_count":0,"max_players":24,"Bots":0,"server_type":"Dedicated","server_os":"Linux","password":true,"vac":true,"version":"7742253","steam_id":85568392924500088,"keywords":["cp","nocrits","nodmgspread","uncletopia"],"game_id":440,"stv_port":27026,"stv_name":"Uncletopia | Montréal | 2 | All Maps | STV","players":null},{"server_id":302,"name":"Uncletopia | Montréal | 3 | All Maps","name_short":"mtl-3","host":"mtl-1.ca.uncletopia.com","port":27035,"enabled":true,"region":"us-east","cc":"ca","latitude":45.50889,"longitude":-73.56167,"reserved":0,"last_update":"0001-01-01T00:00:00Z","name_a2s":"Uncletopia | Montréal | 3 | All Maps","protocol":17,"map":"pl_badwater","folder":"tf","game":"Team Fortress","app_id":440,"player_count":0,"max_players":24,"Bots":0,"server_type":"Dedicated","server_os":"Linux","password":true,"vac":true,"version":"7742253","steam_id":85568392924500089,"keywords":["nocrits","nodmgspread","payload","uncletopia"],"game_id":440,"stv_port":27036,"stv_name":"Uncletopia | Montréal | 3 | All Maps | STV","players":null},{"server_id":303,"name":"Uncletopia | Montréal | 4 | No Payload","name_short":"mtl-4","host":"mtl-1.ca.uncletopia.com","port":27045,"enabled":true,"region":"us-east","cc":"ca","latitude":45.50889,"longitude":-73.56167,"reserved":0,"last_update":"0001-01-01T00:00:00Z","name_a2s":"Uncletopia | Montréal | 4 | No Payload","protocol":17,"map":"koth_highpass","folder":"tf","game":"Team Fortress","app_id":440,"player_count":0,"max_players":24,"Bots":0,"server_type":"Dedicated","server_os":"Linux","password":true,"vac":true,"version":"7742253","steam_id":85568392924500090,"keywords":["cp","nocrits","nodmgspread","uncletopia"],"game_id":440,"stv_port":27046,"stv_name":"Uncletopia | Montréal | 4 | No Payload | STV","players":null},{"server_id":13,"name":"Uncletopia | New York City | 1 | All Maps","name_short":"nyc-1","host":"nyc-1.us.uncletopia.com","port":27015,"enabled":true,"region":"us-east","cc":"us","latitude":40.73061,"longitude":-73.93524,"reserved":0,"last_update":"0001-01-01T00:00:00Z","name_a2s":"Uncletopia | New York City | 1 | All Maps","protocol":17,"map":"pl_frontier_final","folder":"tf","game":"Team Fortress","app_id":440,"player_count":24,"max_players":24,"Bots":0,"server_type":"Dedicated","server_os":"Linux","password":true,"vac":true,"version":"7742253","steam_id":85568392924469993,"keywords":["nocrits","nodmgspread","payload","uncletopia"],"game_id":440,"stv_port":27016,"stv_name":"Uncletopia | New York City | 1 | All Maps | STV","players":[{"user_id":140,"name":"♥Ranman♥Femboy♥","steam_id":76561198042144492,"connected_time":3277000000000,"state":"active","ping":67},{"user_id":133,"name":"MASSIVE HOG","steam_id":76561198079923652,"connected_time":3831000000000,"state":"active","ping":90},{"user_id":173,"name":"Harold","steam_id":76561198057317770,"connected_time":1429000000000,"state":"active","ping":106},{"user_id":183,"name":"Ronin Grinch","steam_id":76561198041439581,"connected_time":771000000000,"state":"active","ping":58},{"user_id":69,"name":"the dingler man","steam_id":76561199099203623,"connected_time":8178000000000,"state":"active","ping":105},{"user_id":182,"name":"CheesyPotato","steam_id":76561198098788416,"connected_time":785000000000,"state":"active","ping":53},{"user_id":112,"name":"Muckman","steam_id":76561198000437384,"connected_time":4545000000000,"state":"active","ping":62},{"user_id":175,"name":"silly goose","steam_id":76561199023017383,"connected_time":1224000000000,"state":"active","ping":51},{"user_id":148,"name":"Hogan's Castle","steam_id":76561199158397833,"connected_time":2927000000000,"state":"active","ping":102},{"user_id":184,"name":"carrion goat","steam_id":76561198262064871,"connected_time":727000000000,"state":"active","ping":53},{"user_id":185,"name":"DAS SCHNITZELSTIEN","steam_id":76561198051137159,"connected_time":294000000000,"state":"active","ping":110},{"user_id":186,"name":"SkaryBoi","steam_id":76561198118488739,"connected_time":280000000000,"state":"active","ping":69},{"user_id":188,"name":"444444434444444","steam_id":76561198039281557,"connected_time":106000000000,"state":"active","ping":61},{"user_id":160,"name":"MeatiumRare","steam_id":76561198187193491,"connected_time":2143000000000,"state":"active","ping":73},{"user_id":131,"name":"mommy hog","steam_id":76561199230929836,"connected_time":3871000000000,"state":"active","ping":105},{"user_id":165,"name":"²⁹³Ts","steam_id":76561198217955315,"connected_time":1671000000000,"state":"active","ping":76},{"user_id":187,"name":"Boomhauer","steam_id":76561198185347518,"connected_time":266000000000,"state":"active","ping":61},{"user_id":124,"name":"Antifa Soup Thrower","steam_id":76561198043572418,"connected_time":4361000000000,"state":"active","ping":50},{"user_id":113,"name":"Gugus, Glutton of Crayons","steam_id":76561198101570471,"connected_time":4523000000000,"state":"active","ping":55},{"user_id":178,"name":"Marc Antony","steam_id":76561198011366517,"connected_time":1191000000000,"state":"active","ping":45},{"user_id":171,"name":"Kaestal","steam_id":76561198033174157,"connected_time":1610000000000,"state":"active","ping":88},{"user_id":179,"name":"BigNickTheThiccc","steam_id":76561198851478816,"connected_time":1171000000000,"state":"active","ping":52},{"user_id":164,"name":"ashley","steam_id":76561198448551449,"connected_time":1967000000000,"state":"active","ping":110},{"user_id":180,"name":"JoCaleb02","steam_id":76561198272389829,"connected_time":1171000000000,"state":"active","ping":83}]},{"server_id":14,"name":"Uncletopia | New York City | 2 | All Maps","name_short":"nyc-2","host":"nyc-1.us.uncletopia.com","port":27025,"enabled":true,"region":"us-east","cc":"us","latitude":40.73061,"longitude":-73.93524,"reserved":0,"last_update":"0001-01-01T00:00:00Z","name_a2s":"Uncletopia | New York City | 2 | All Maps","protocol":17,"map":"pl_upward","folder":"tf","game":"Team Fortress","app_id":440,"player_count":5,"max_players":24,"Bots":0,"server_type":"Dedicated","server_os":"Linux","password":true,"vac":true,"version":"7742253","steam_id":85568392924469994,"keywords":["nocrits","nodmgspread","payload","uncletopia"],"game_id":440,"stv_port":27026,"stv_name":"Uncletopia | New York City | 2 | All Maps | STV","players":[{"user_id":141,"name":"Sir Quacksalot","steam_id":76561198048942777,"connected_time":777000000000,"state":"active","ping":83},{"user_id":140,"name":"Braamklauw","steam_id":76561198283287697,"connected_time":925000000000,"state":"active","ping":128},{"user_id":142,"name":"iL","steam_id":76561198086331015,"connected_time":646000000000,"state":"active","ping":32},{"user_id":143,"name":"Father Cocoa","steam_id":76561199023002514,"connected_time":399000000000,"state":"active","ping":71},{"user_id":144,"name":"Kyus","steam_id":76561199074130641,"connected_time":198000000000,"state":"active","ping":133}]},{"server_id":15,"name":"Uncletopia | New York City | 3 | Stopwatch Beta","name_short":"nyc-3","host":"nyc-1.us.uncletopia.com","port":27035,"enabled":true,"region":"us-east","cc":"us","latitude":40.73061,"longitude":-73.93524,"reserved":0,"last_update":"0001-01-01T00:00:00Z","name_a2s":"Uncletopia | New York City | 3 | Stopwatch Beta","protocol":17,"map":"workshop/pl_vigil_rc9.ugc1266210012","folder":"tf","game":"Team Fortress","app_id":440,"player_count":0,"max_players":24,"Bots":0,"server_type":"Dedicated","server_os":"Linux","password":true,"vac":true,"version":"7742253","steam_id":85568392924742820,"keywords":["nocrits","nodmgspread","payload","uncletopia"],"game_id":440,"stv_port":27036,"stv_name":"Uncletopia | New York City | 3 | Stopwatch Beta | STV","players":null},{"server_id":16,"name":"Uncletopia | New York City | 4 | Community","name_short":"nyc-4","host":"nyc-1.us.uncletopia.com","port":27045,"enabled":true,"region":"us-east","cc":"us","latitude":40.73061,"longitude":-73.93524,"reserved":0,"last_update":"0001-01-01T00:00:00Z","name_a2s":"Uncletopia | New York City | 4 | Community","protocol":17,"map":"workshop/koth_synthetic_rc6a.ugc1549817316","folder":"tf","game":"Team Fortress","app_id":440,"player_count":0,"max_players":24,"Bots":0,"server_type":"Dedicated","server_os":"Linux","password":true,"vac":true,"version":"7742253","steam_id":85568392924742821,"keywords":["cp","nocrits","nodmgspread","uncletopia"],"game_id":440,"stv_port":27046,"stv_name":"Uncletopia | New York City | 4 | Community | STV","players":null},{"server_id":142,"name":"Uncletopia | São Paulo | 1 | All Maps","name_short":"sao-1","host":"sao-1.br.uncletopia.com","port":27015,"enabled":true,"region":"sa","cc":"br","latitude":-23.533773,"longitude":-46.62529,"reserved":0,"last_update":"0001-01-01T00:00:00Z","name_a2s":"Uncletopia | São Paulo | 1 | All Maps","protocol":17,"map":"pl_upward","folder":"tf","game":"Team Fortress","app_id":440,"player_count":0,"max_players":24,"Bots":0,"server_type":"Dedicated","server_os":"Linux","password":true,"vac":true,"version":"7742253","steam_id":85568392924469996,"keywords":["nocrits","nodmgspread","payload","uncletopia"],"game_id":440,"stv_port":27016,"stv_name":"Uncletopia | São Paulo | 1 | All Maps | STV","players":null},{"server_id":143,"name":"Uncletopia | São Paulo | 2 | All Maps","name_short":"sao-2","host":"sao-2.br.uncletopia.com","port":27015,"enabled":true,"region":"sa","cc":"br","latitude":-23.533773,"longitude":-46.62529,"reserved":0,"last_update":"0001-01-01T00:00:00Z","name_a2s":"Uncletopia | São Paulo | 2 | All Maps","protocol":17,"map":"cp_dustbowl","folder":"tf","game":"Team Fortress","app_id":440,"player_count":0,"max_players":24,"Bots":0,"server_type":"Dedicated","server_os":"Linux","password":true,"vac":true,"version":"7742253","steam_id":85568392924485349,"keywords":["cp","nocrits","nodmgspread","uncletopia"],"game_id":440,"stv_port":27016,"stv_name":"Uncletopia | São Paulo | 2 | All Maps | STV","players":null},{"server_id":7,"name":"Uncletopia | Seattle | 1 | All Maps","name_short":"sea-1","host":"sea-1.us.uncletopia.com","port":27015,"enabled":true,"region":"us-west","cc":"us","latitude":47.608013,"longitude":-122.33517,"reserved":0,"last_update":"0001-01-01T00:00:00Z","name_a2s":"Uncletopia | Seattle | 1 | All Maps","protocol":17,"map":"pl_frontier_final","folder":"tf","game":"Team Fortress","app_id":440,"player_count":24,"max_players":24,"Bots":0,"server_type":"Dedicated","server_os":"Linux","password":true,"vac":true,"version":"7742253","steam_id":85568392924469997,"keywords":["nocrits","nodmgspread","payload","uncletopia"],"game_id":440,"stv_port":27016,"stv_name":"Uncletopia | Seattle | 1 | All Maps | STV","players":[{"user_id":192,"name":"kab789","steam_id":76561198069842202,"connected_time":92000000000,"state":"active","ping":102},{"user_id":186,"name":"xxxDABGODxxx","steam_id":76561199061979040,"connected_time":677000000000,"state":"active","ping":64},{"user_id":177,"name":"supermariowert","steam_id":76561198122410635,"connected_time":1023000000000,"state":"active","ping":65},{"user_id":184,"name":"Queen Elizabeth II","steam_id":76561199208216917,"connected_time":868000000000,"state":"active","ping":72},{"user_id":160,"name":"Sniff","steam_id":76561198010270922,"connected_time":3304000000000,"state":"active","ping":44},{"user_id":150,"name":"timmy","steam_id":76561198063322988,"connected_time":3752000000000,"state":"active","ping":45},{"user_id":179,"name":"Ayayahuasca","steam_id":76561199002906056,"connected_time":939000000000,"state":"active","ping":49},{"user_id":153,"name":"Korey","steam_id":76561198210734407,"connected_time":3720000000000,"state":"active","ping":120},{"user_id":163,"name":"The Best Healer","steam_id":76561198079452621,"connected_time":2707000000000,"state":"active","ping":55},{"user_id":133,"name":"Luca","steam_id":76561198125087140,"connected_time":5720000000000,"state":"active","ping":46},{"user_id":171,"name":"Klone","steam_id":76561198854485605,"connected_time":1878000000000,"state":"active","ping":86},{"user_id":135,"name":"Joy in A Box","steam_id":76561198156820753,"connected_time":5711000000000,"state":"active","ping":181},{"user_id":185,"name":"[DATS➡] Sugar Meowth","steam_id":76561197995251793,"connected_time":861000000000,"state":"active","ping":44},{"user_id":144,"name":"shane","steam_id":76561198060491451,"connected_time":5095000000000,"state":"active","ping":82},{"user_id":181,"name":"sammy","steam_id":76561199001307670,"connected_time":916000000000,"state":"active","ping":51},{"user_id":191,"name":"Sir Nope (TSS)","steam_id":76561198035935649,"connected_time":165000000000,"state":"active","ping":86},{"user_id":176,"name":"Can of Oranges (Festive)","steam_id":76561199121813529,"connected_time":1194000000000,"state":"active","ping":40},{"user_id":162,"name":"Mr. Big Quack","steam_id":76561198062219416,"connected_time":2934000000000,"state":"active","ping":78},{"user_id":159,"name":"SLaPPy- oNaSiS","steam_id":76561198009286862,"connected_time":3389000000000,"state":"active","ping":108},{"user_id":149,"name":"William P. Ennis","steam_id":76561198073464877,"connected_time":4114000000000,"state":"active","ping":95},{"user_id":173,"name":"tophawkyy","steam_id":76561199075934685,"connected_time":1822000000000,"state":"active","ping":85},{"user_id":166,"name":"LazyDoll","steam_id":76561198053186338,"connected_time":2479000000000,"state":"active","ping":98},{"user_id":167,"name":"A UsedNom","steam_id":76561198402832756,"connected_time":2478000000000,"state":"active","ping":65},{"user_id":188,"name":"⛧⸸⛧⸸⛧⸸","steam_id":76561198007051179,"connected_time":316000000000,"state":"active","ping":80}]},{"server_id":119,"name":"Uncletopia | Seattle | 2 | All Maps","name_short":"sea-2","host":"sea-1.us.uncletopia.com","port":27025,"enabled":true,"region":"us-west","cc":"us","latitude":47.608013,"longitude":-122.33517,"reserved":0,"last_update":"0001-01-01T00:00:00Z","name_a2s":"Uncletopia | Seattle | 2 | All Maps","protocol":17,"map":"pl_badwater","folder":"tf","game":"Team Fortress","app_id":440,"player_count":19,"max_players":24,"Bots":0,"server_type":"Dedicated","server_os":"Linux","password":true,"vac":true,"version":"7742253","steam_id":85568392924469998,"keywords":["nocrits","nodmgspread","payload","uncletopia"],"game_id":440,"stv_port":27026,"stv_name":"Uncletopia | Seattle | 2 | All Maps | STV","players":[{"user_id":133,"name":"Dosario","steam_id":76561198298095535,"connected_time":7000000000,"state":"spawning","ping":114},{"user_id":129,"name":"KingTinkerer","steam_id":76561198226856548,"connected_time":50000000000,"state":"active","ping":72},{"user_id":101,"name":"Pryo Team Fortess Two","steam_id":76561198081504766,"connected_time":3824000000000,"state":"active","ping":97},{"user_id":125,"name":"Moth (She/Her)","steam_id":76561198240217310,"connected_time":760000000000,"state":"active","ping":99},{"user_id":119,"name":"Jambi","steam_id":76561198846091685,"connected_time":1800000000000,"state":"active","ping":90},{"user_id":107,"name":"PorgyPork","steam_id":76561198824399078,"connected_time":3452000000000,"state":"spawning","ping":200},{"user_id":130,"name":"Xenagos","steam_id":76561198045678290,"connected_time":48000000000,"state":"active","ping":48},{"user_id":126,"name":"goon minster","steam_id":76561198059245735,"connected_time":718000000000,"state":"active","ping":113},{"user_id":127,"name":"Sinn","steam_id":76561199013434543,"connected_time":696000000000,"state":"active","ping":54},{"user_id":122,"name":"Ghee Gingersnaps","steam_id":76561199225708271,"connected_time":1118000000000,"state":"active","ping":50},{"user_id":103,"name":"JDizzle","steam_id":76561199122696841,"connected_time":3786000000000,"state":"active","ping":95},{"user_id":109,"name":"Diesel","steam_id":76561198448815852,"connected_time":3439000000000,"state":"active","ping":65},{"user_id":55,"name":"0r161n4lj0k3","steam_id":76561198127328235,"connected_time":7720000000000,"state":"active","ping":94},{"user_id":118,"name":"General Fisticuffs","steam_id":76561198255721392,"connected_time":1852000000000,"state":"active","ping":107},{"user_id":131,"name":"sickbay","steam_id":76561198021581707,"connected_time":45000000000,"state":"active","ping":48},{"user_id":132,"name":"mub","steam_id":76561197961943948,"connected_time":43000000000,"state":"active","ping":40},{"user_id":111,"name":"Gibus Man","steam_id":76561198257241062,"connected_time":2754000000000,"state":"spawning","ping":32},{"user_id":92,"name":"pew pew user","steam_id":76561198307845869,"connected_time":4964000000000,"state":"active","ping":120},{"user_id":121,"name":"CheeseBurgerGaming","steam_id":76561198978048101,"connected_time":1747000000000,"state":"active","ping":57}]},{"server_id":406,"name":"Uncletopia | Seattle | 3 | Stopwatch Beta","name_short":"sea-3","host":"sea-1.us.uncletopia.com","port":27035,"enabled":true,"region":"us-west","cc":"us","latitude":47.608013,"longitude":-122.33517,"reserved":0,"last_update":"0001-01-01T00:00:00Z","name_a2s":"Uncletopia | Seattle | 3 | Stopwatch Beta","protocol":17,"map":"pl_upward","folder":"tf","game":"Team Fortress","app_id":440,"player_count":1,"max_players":24,"Bots":0,"server_type":"Dedicated","server_os":"Linux","password":true,"vac":false,"version":"7742253","steam_id":0,"keywords":["nocrits","nodmgspread","payload","uncletopia"],"game_id":440,"stv_port":27036,"stv_name":"Uncletopia | Seattle | 3 | Stopwatch Beta | STV","players":[{"user_id":3,"name":"Mr.Thirteen","steam_id":76561198047468836,"connected_time":23000000000,"state":"active","ping":57}]},{"server_id":17,"name":"Uncletopia | San Francisco | 1 | All Maps","name_short":"sfo-1","host":"sfo-1.us.uncletopia.com","port":27015,"enabled":true,"region":"us-west","cc":"us","latitude":37.77397,"longitude":-122.4313,"reserved":0,"last_update":"0001-01-01T00:00:00Z","name_a2s":"Uncletopia | San Francisco | 1 | All Maps","protocol":17,"map":"pl_borneo","folder":"tf","game":"Team Fortress","app_id":440,"player_count":24,"max_players":24,"Bots":0,"server_type":"Dedicated","server_os":"Linux","password":true,"vac":true,"version":"7742253","steam_id":85568392924469999,"keywords":["nocrits","nodmgspread","payload","uncletopia"],"game_id":440,"stv_port":27016,"stv_name":"Uncletopia | San Francisco | 1 | All Maps | STV","players":[{"user_id":91,"name":"CampinCarl","steam_id":76561197997373624,"connected_time":4831000000000,"state":"active","ping":45},{"user_id":115,"name":"Bo Stunkulus","steam_id":76561198829326796,"connected_time":1662000000000,"state":"active","ping":65},{"user_id":84,"name":"45 Cent","steam_id":76561198048690188,"connected_time":5282000000000,"state":"active","ping":120},{"user_id":130,"name":"SodaKid_7","steam_id":76561198079419485,"connected_time":474000000000,"state":"active","ping":127},{"user_id":124,"name":"toffeecoffee","steam_id":76561198248625526,"connected_time":764000000000,"state":"active","ping":46},{"user_id":126,"name":"Mignyanne :3","steam_id":76561198048754056,"connected_time":496000000000,"state":"active","ping":48},{"user_id":137,"name":"Dali","steam_id":76561198077593486,"connected_time":288000000000,"state":"active","ping":70},{"user_id":135,"name":"jawnymac","steam_id":76561198179529599,"connected_time":373000000000,"state":"active","ping":51},{"user_id":138,"name":"Shen Bapiro / SEXY MEDIC","steam_id":76561199209834538,"connected_time":284000000000,"state":"active","ping":89},{"user_id":74,"name":"Soviet Potato","steam_id":76561198068546113,"connected_time":5741000000000,"state":"active","ping":49},{"user_id":116,"name":"Ripe_and_ready","steam_id":76561198196128781,"connected_time":1658000000000,"state":"active","ping":98},{"user_id":120,"name":"Spooper","steam_id":76561198311552216,"connected_time":1286000000000,"state":"active","ping":106},{"user_id":131,"name":"zonk","steam_id":76561198207253121,"connected_time":458000000000,"state":"active","ping":60},{"user_id":59,"name":"ena - d","steam_id":76561198072329335,"connected_time":7299000000000,"state":"active","ping":108},{"user_id":123,"name":"PunyHappyFace","steam_id":76561198118059305,"connected_time":960000000000,"state":"active","ping":35},{"user_id":103,"name":"hardfork","steam_id":76561197960958019,"connected_time":3294000000000,"state":"active","ping":61},{"user_id":128,"name":"DonoC","steam_id":76561198274473338,"connected_time":493000000000,"state":"active","ping":91},{"user_id":118,"name":"doobiebob","steam_id":76561198071963742,"connected_time":1442000000000,"state":"active","ping":62},{"user_id":139,"name":"(1)egg","steam_id":76561198143214992,"connected_time":103000000000,"state":"active","ping":120},{"user_id":122,"name":"Krow","steam_id":76561198010392099,"connected_time":1094000000000,"state":"active","ping":90},{"user_id":132,"name":"egg","steam_id":76561198081367345,"connected_time":435000000000,"state":"active","ping":109},{"user_id":112,"name":"Grim1438","steam_id":76561199218478092,"connected_time":1767000000000,"state":"active","ping":69},{"user_id":109,"name":"Archie","steam_id":76561198137112917,"connected_time":2100000000000,"state":"active","ping":51},{"user_id":134,"name":"FROYO b4nny","steam_id":76561197970669109,"connected_time":411000000000,"state":"active","ping":60}]},{"server_id":18,"name":"Uncletopia | San Francisco | 2 | All Maps","name_short":"sfo-2","host":"sfo-1.us.uncletopia.com","port":27025,"enabled":true,"region":"us-west","cc":"us","latitude":37.77397,"longitude":-122.4313,"reserved":0,"last_update":"0001-01-01T00:00:00Z","name_a2s":"Uncletopia | San Francisco | 2 | All Maps","protocol":17,"map":"cp_process_final","folder":"tf","game":"Team Fortress","app_id":440,"player_count":0,"max_players":24,"Bots":0,"server_type":"Dedicated","server_os":"Linux","password":true,"vac":true,"version":"7742253","steam_id":85568392924470000,"keywords":["cp","nocrits","nodmgspread","uncletopia"],"game_id":440,"stv_port":27026,"stv_name":"Uncletopia | San Francisco | 2 | All Maps | STV","players":null},{"server_id":19,"name":"Uncletopia | San Francisco | 3 | Stopwatch Beta","name_short":"sfo-3","host":"sfo-1.us.uncletopia.com","port":27035,"enabled":true,"region":"us-west","cc":"us","latitude":37.77397,"longitude":-122.4313,"reserved":0,"last_update":"0001-01-01T00:00:00Z","name_a2s":"Uncletopia | San Francisco | 3 | Stopwatch Beta","protocol":17,"map":"workshop/koth_ashville_final.ugc2130459942","folder":"tf","game":"Team Fortress","app_id":440,"player_count":6,"max_players":24,"Bots":0,"server_type":"Dedicated","server_os":"Linux","password":true,"vac":true,"version":"7742253","steam_id":85568392924742824,"keywords":["cp","nocrits","nodmgspread","uncletopia"],"game_id":440,"stv_port":27036,"stv_name":"Uncletopia | San Francisco | 3 | Stopwatch Beta | STV","players":[{"user_id":28,"name":"DOOT","steam_id":76561198312599155,"connected_time":3283000000000,"state":"active","ping":56},{"user_id":32,"name":"johnman gooberguy","steam_id":76561199014859764,"connected_time":2234000000000,"state":"active","ping":54},{"user_id":9,"name":"Your Local Festive Furry","steam_id":76561199030190462,"connected_time":5555000000000,"state":"active","ping":108},{"user_id":33,"name":"gyroFSnoob","steam_id":76561198158404683,"connected_time":976000000000,"state":"active","ping":71},{"user_id":36,"name":"Stand Name","steam_id":76561198827417274,"connected_time":308000000000,"state":"active","ping":152},{"user_id":37,"name":"carp","steam_id":76561198193144463,"connected_time":236000000000,"state":"active","ping":76}]},{"server_id":20,"name":"Uncletopia | San Francisco | 4 | Community","name_short":"sfo-4","host":"sfo-1.us.uncletopia.com","port":27045,"enabled":true,"region":"us-west","cc":"us","latitude":37.77397,"longitude":-122.4313,"reserved":0,"last_update":"0001-01-01T00:00:00Z","name_a2s":"Uncletopia | San Francisco | 4 | Community","protocol":17,"map":"workshop/koth_synthetic_rc6a.ugc1549817316","folder":"tf","game":"Team Fortress","app_id":440,"player_count":3,"max_players":24,"Bots":0,"server_type":"Dedicated","server_os":"Linux","password":true,"vac":true,"version":"7742253","steam_id":85568392924742826,"keywords":["cp","nocrits","nodmgspread","uncletopia"],"game_id":440,"stv_port":27046,"stv_name":"Uncletopia | San Francisco | 4 | Community | STV","players":[{"user_id":110,"name":"ikercard","steam_id":76561198821297273,"connected_time":2393000000000,"state":"active","ping":95},{"user_id":29,"name":"󠀡󠀡","steam_id":76561198878940647,"connected_time":5693000000000,"state":"active","ping":47},{"user_id":46,"name":"KING GLIZZARD","steam_id":76561198831617384,"connected_time":4874000000000,"state":"active","ping":97}]},{"server_id":141,"name":"Uncletopia | Sydney | 1 | All Maps","name_short":"syd-1","host":"syd-1.au.uncletopia.com","port":27015,"enabled":true,"region":"au","cc":"au","latitude":-33.865143,"longitude":151.2099,"reserved":0,"last_update":"0001-01-01T00:00:00Z","name_a2s":"Uncletopia | Sydney | 1 | All Maps","protocol":17,"map":"koth_highpass","folder":"tf","game":"Team Fortress","app_id":440,"player_count":2,"max_players":24,"Bots":0,"server_type":"Dedicated","server_os":"Linux","password":true,"vac":true,"version":"7742253","steam_id":85568392924470001,"keywords":["cp","nocrits","nodmgspread","uncletopia"],"game_id":440,"stv_port":27016,"stv_name":"Uncletopia | Sydney | 1 | All Maps | STV","players":[{"user_id":13,"name":"lavendermelody","steam_id":76561198238001880,"connected_time":66000000000,"state":"active","ping":40},{"user_id":12,"name":"Mikey","steam_id":76561198438203131,"connected_time":344000000000,"state":"active","ping":57}]},{"server_id":123,"name":"Uncletopia | Sydney | 2 | All Maps","name_short":"syd-2","host":"syd-1.au.uncletopia.com","port":27025,"enabled":true,"region":"au","cc":"au","latitude":-33.865143,"longitude":151.2099,"reserved":0,"last_update":"0001-01-01T00:00:00Z","name_a2s":"Uncletopia | Sydney | 2 | All Maps","protocol":17,"map":"cp_snakewater_final1","folder":"tf","game":"Team Fortress","app_id":440,"player_count":24,"max_players":24,"Bots":0,"server_type":"Dedicated","server_os":"Linux","password":true,"vac":true,"version":"7742253","steam_id":85568392924470002,"keywords":["cp","nocrits","nodmgspread","uncletopia"],"game_id":440,"stv_port":27026,"stv_name":"Uncletopia | Sydney | 2 | All Maps | STV","players":[{"user_id":119,"name":"Vanessa","steam_id":76561198077728992,"connected_time":1395000000000,"state":"active","ping":59},{"user_id":131,"name":"Gavin.","steam_id":76561198405783348,"connected_time":515000000000,"state":"active","ping":62},{"user_id":88,"name":"KumbyaKumbyaKumbyaKumbyaKumbya","steam_id":76561198117979249,"connected_time":3202000000000,"state":"active","ping":64},{"user_id":109,"name":"Not-Real Engine","steam_id":76561198279447582,"connected_time":2080000000000,"state":"active","ping":50},{"user_id":127,"name":"Mission","steam_id":76561199218935728,"connected_time":663000000000,"state":"active","ping":62},{"user_id":117,"name":"dc","steam_id":76561198040993425,"connected_time":1708000000000,"state":"active","ping":81},{"user_id":122,"name":"Bigrichard","steam_id":76561198032092945,"connected_time":903000000000,"state":"active","ping":68},{"user_id":130,"name":"eric_gamer143","steam_id":76561199083645515,"connected_time":544000000000,"state":"active","ping":59},{"user_id":90,"name":"Barchel (She/Her)","steam_id":76561197984629970,"connected_time":3166000000000,"state":"active","ping":64},{"user_id":118,"name":"skill issue","steam_id":76561198077815671,"connected_time":1527000000000,"state":"active","ping":44},{"user_id":34,"name":"tinkaton from pokemon gen 9 UU","steam_id":76561198079345240,"connected_time":7496000000000,"state":"active","ping":59},{"user_id":96,"name":"ZaEpicScout205","steam_id":76561198170693338,"connected_time":2985000000000,"state":"active","ping":75},{"user_id":69,"name":"RedEyes","steam_id":76561197973698135,"connected_time":5159000000000,"state":"active","ping":68},{"user_id":114,"name":"milk","steam_id":76561198341012549,"connected_time":1951000000000,"state":"active","ping":77},{"user_id":28,"name":"Muffin™","steam_id":76561198819353439,"connected_time":7934000000000,"state":"active","ping":50},{"user_id":125,"name":"Trees","steam_id":76561198310870519,"connected_time":704000000000,"state":"active","ping":45},{"user_id":120,"name":"callistoAshley","steam_id":76561198178116375,"connected_time":927000000000,"state":"active","ping":45},{"user_id":128,"name":"Pseudoman","steam_id":76561198131158447,"connected_time":629000000000,"state":"active","ping":89},{"user_id":108,"name":"boy","steam_id":76561198158347460,"connected_time":2285000000000,"state":"active","ping":50},{"user_id":113,"name":"hadini","steam_id":76561198026678991,"connected_time":2000000000000,"state":"active","ping":55},{"user_id":116,"name":"Pak'n'Save","steam_id":76561199199754055,"connected_time":1858000000000,"state":"active","ping":64},{"user_id":70,"name":"helix","steam_id":76561198046509091,"connected_time":5106000000000,"state":"active","ping":58},{"user_id":103,"name":"Dupiter","steam_id":76561198108820767,"connected_time":2659000000000,"state":"active","ping":46},{"user_id":129,"name":"frogmouth07","steam_id":76561199038681860,"connected_time":615000000000,"state":"active","ping":52}]},{"server_id":395,"name":"Uncletopia | Sydney | 3 | All Maps","name_short":"syd-3","host":"syd-1.au.uncletopia.com","port":27035,"enabled":true,"region":"au","cc":"au","latitude":-33.865143,"longitude":151.2099,"reserved":0,"last_update":"0001-01-01T00:00:00Z","name_a2s":"Uncletopia | Sydney | 3 | All Maps","protocol":17,"map":"cp_dustbowl","folder":"tf","game":"Team Fortress","app_id":440,"player_count":0,"max_players":24,"Bots":0,"server_type":"Dedicated","server_os":"Linux","password":true,"vac":true,"version":"7742253","steam_id":85568392925194467,"keywords":["cp","nocrits","nodmgspread","uncletopia"],"game_id":440,"stv_port":27036,"stv_name":"Uncletopia | Sydney | 3 | All Maps | STV","players":null},{"server_id":396,"name":"Uncletopia | Sydney | 4 | All Maps","name_short":"syd-4","host":"syd-1.au.uncletopia.com","port":27045,"enabled":true,"region":"au","cc":"au","latitude":-33.865143,"longitude":151.2099,"reserved":0,"last_update":"0001-01-01T00:00:00Z","name_a2s":"Uncletopia | Sydney | 4 | All Maps","protocol":17,"map":"cp_mountainlab","folder":"tf","game":"Team Fortress","app_id":440,"player_count":0,"max_players":24,"Bots":0,"server_type":"Dedicated","server_os":"Linux","password":true,"vac":true,"version":"7742253","steam_id":85568392925397958,"keywords":["cp","nocrits","nodmgspread","uncletopia"],"game_id":440,"stv_port":27046,"stv_name":"Uncletopia | Sydney | 4 | All Maps | STV","players":null},{"server_id":58,"name":"Uncletopia | Sydney | 5 | Stopwatch Beta","name_short":"syd-5","host":"syd-1.au.uncletopia.com","port":27055,"enabled":true,"region":"au","cc":"au","latitude":-33.865143,"longitude":151.2099,"reserved":0,"last_update":"0001-01-01T00:00:00Z","name_a2s":"Uncletopia | Sydney | 5 | Stopwatch Beta","protocol":17,"map":"cp_snakewater_final1","folder":"tf","game":"Team Fortress","app_id":440,"player_count":0,"max_players":24,"Bots":0,"server_type":"Dedicated","server_os":"Linux","password":true,"vac":true,"version":"7742253","steam_id":85568392925397959,"keywords":["cp","nocrits","nodmgspread","uncletopia"],"game_id":440,"stv_port":27056,"stv_name":"Uncletopia | Sydney | 5 | Stopwatch Beta | STV","players":null},{"server_id":59,"name":"Uncletopia | Sydney | 6 | Community","name_short":"syd-6","host":"syd-1.au.uncletopia.com","port":27065,"enabled":true,"region":"au","cc":"au","latitude":-33.865143,"longitude":151.2099,"reserved":0,"last_update":"0001-01-01T00:00:00Z","name_a2s":"Uncletopia | Sydney | 6 | Community","protocol":17,"map":"cp_snakewater_final1","folder":"tf","game":"Team Fortress","app_id":440,"player_count":0,"max_players":24,"Bots":0,"server_type":"Dedicated","server_os":"Linux","password":true,"vac":true,"version":"7742253","steam_id":85568392925397960,"keywords":["cp","nocrits","nodmgspread","uncletopia"],"game_id":440,"stv_port":27066,"stv_name":"Uncletopia | Sydney | 6 | Community | STV","players":null},{"server_id":49,"name":"Uncletopia | Warsaw | 1 | All Maps","name_short":"waw-1","host":"waw-1.pl.uncletopia.com","port":27015,"enabled":true,"region":"eu","cc":"pl","latitude":52.2297,"longitude":21.017532,"reserved":0,"last_update":"0001-01-01T00:00:00Z","name_a2s":"Uncletopia | Warsaw | 1 | All Maps","protocol":17,"map":"koth_lakeside_final","folder":"tf","game":"Team Fortress","app_id":440,"player_count":0,"max_players":24,"Bots":0,"server_type":"Dedicated","server_os":"Linux","password":true,"vac":true,"version":"7723704","steam_id":85568392925397850,"keywords":["cp","nocrits","nodmgspread","uncletopia"],"game_id":440,"stv_port":27016,"stv_name":"Uncletopia | Warsaw | 1 | All Maps | STV","players":null},{"server_id":50,"name":"Uncletopia | Warsaw | 2 | All Maps","name_short":"waw-2","host":"waw-1.pl.uncletopia.com","port":27025,"enabled":true,"region":"eu","cc":"pl","latitude":52.2297,"longitude":21.017532,"reserved":0,"last_update":"0001-01-01T00:00:00Z","name_a2s":"Uncletopia | Warsaw | 2 | All Maps","protocol":17,"map":"pl_frontier_final","folder":"tf","game":"Team Fortress","app_id":440,"player_count":0,"max_players":24,"Bots":0,"server_type":"Dedicated","server_os":"Linux","password":true,"vac":true,"version":"7742253","steam_id":85568392925397851,"keywords":["nocrits","nodmgspread","payload","uncletopia"],"game_id":440,"stv_port":27026,"stv_name":"Uncletopia | Warsaw | 2 | All Maps | STV","players":null},{"server_id":51,"name":"Uncletopia | Warsaw | 3 | All Maps","name_short":"waw-3","host":"waw-1.pl.uncletopia.com","port":27035,"enabled":true,"region":"eu","cc":"pl","latitude":52.2297,"longitude":21.017532,"reserved":0,"last_update":"0001-01-01T00:00:00Z","name_a2s":"Uncletopia | Warsaw | 3 | All Maps","protocol":17,"map":"pl_frontier_final","folder":"tf","game":"Team Fortress","app_id":440,"player_count":0,"max_players":24,"Bots":0,"server_type":"Dedicated","server_os":"Linux","password":true,"vac":true,"version":"7742253","steam_id":85568392925397852,"keywords":["nocrits","nodmgspread","payload","uncletopia"],"game_id":440,"stv_port":27036,"stv_name":"Uncletopia | Warsaw | 3 | All Maps | STV","players":null},{"server_id":52,"name":"Uncletopia | Warsaw | 4 | All Maps","name_short":"waw-4","host":"waw-1.pl.uncletopia.com","port":27045,"enabled":true,"region":"eu","cc":"pl","latitude":52.2297,"longitude":21.017532,"reserved":0,"last_update":"0001-01-01T00:00:00Z","name_a2s":"Uncletopia | Warsaw | 4 | All Maps","protocol":17,"map":"pl_swiftwater_final1","folder":"tf","game":"Team Fortress","app_id":440,"player_count":0,"max_players":24,"Bots":0,"server_type":"Dedicated","server_os":"Linux","password":true,"vac":true,"version":"7742253","steam_id":85568392925397853,"keywords":["nocrits","nodmgspread","payload","uncletopia"],"game_id":440,"stv_port":27046,"stv_name":"Uncletopia | Warsaw | 4 | All Maps | STV","players":null},{"server_id":53,"name":"Uncletopia | Warsaw | 5 | Stopwatch Beta","name_short":"waw-5","host":"waw-1.pl.uncletopia.com","port":27055,"enabled":true,"region":"eu","cc":"pl","latitude":52.2297,"longitude":21.017532,"reserved":0,"last_update":"0001-01-01T00:00:00Z","name_a2s":"Uncletopia | Warsaw | 5 | Stopwatch Beta","protocol":17,"map":"pl_pier","folder":"tf","game":"Team Fortress","app_id":440,"player_count":0,"max_players":24,"Bots":0,"server_type":"Dedicated","server_os":"Linux","password":true,"vac":true,"version":"7742253","steam_id":85568392925397854,"keywords":["nocrits","nodmgspread","payload","uncletopia"],"game_id":440,"stv_port":27056,"stv_name":"Uncletopia | Warsaw | 5 | Stopwatch Beta | STV","players":null},{"server_id":54,"name":"Uncletopia | Warsaw | 6 | Community","name_short":"waw-6","host":"waw-1.pl.uncletopia.com","port":27065,"enabled":true,"region":"eu","cc":"pl","latitude":52.2297,"longitude":21.017532,"reserved":0,"last_update":"0001-01-01T00:00:00Z","name_a2s":"Uncletopia | Warsaw | 6 | Community","protocol":17,"map":"cp_sunshine","folder":"tf","game":"Team Fortress","app_id":440,"player_count":0,"max_players":24,"Bots":0,"server_type":"Dedicated","server_os":"Linux","password":true,"vac":true,"version":"7742253","steam_id":85568392925397856,"keywords":["cp","nocrits","nodmgspread","uncletopia"],"game_id":440,"stv_port":27066,"stv_name":"Uncletopia | Warsaw | 6 | Community | STV","players":null}]}