{"status":true,"message":"","result":[{"server_id":9,"name":"Uncletopia | Atlanta | 1 | All Maps","name_short":"atl-1","host":"atl-1.us.uncletopia.com","port":27015,"enabled":true,"region":"us-east","cc":"us","latitude":33.753746,"longitude":-84.38633,"reserved":0,"last_update":"0001-01-01T00:00:00Z","name_a2s":"Uncletopia | Atlanta | 1 | All Maps","protocol":17,"map":"pl_badwater","folder":"tf","game":"Team Fortress","app_id":440,"player_count":24,"max_players":24,"Bots":0,"server_type":"Dedicated","server_os":"Linux","password":true,"vac":true,"version":"7742253","steam_id":85568392924469982,"keywords":["nocrits","nodmgspread","payload","uncletopia"],"game_id":440,"stv_port":27016,"stv_name":"Uncletopia | Atlanta | 1 | All Maps | STV","players":[{"user_id":330,"name":"toho","steam_id":76561198117747254,"connected_time":1095000000000,"state":"active","ping":63},{"user_id":324,"name":"microplastic consumer","steam_id":76561198082470182,"connected_time":1430000000000,"state":"active","ping":109},{"user_id":332,"name":"Abbashea","steam_id":76561199182136969,"connected_time":830000000000,"state":"active","ping":97},{"user_id":311,"name":"snoops","steam_id":76561197986760351,"connected_time":2049000000000,"state":"active","ping":75},{"user_id":326,"name":"Lil Jewzi Vert","steam_id":76561198937717599,"connected_time":1418000000000,"state":"active","ping":56},{"user_id":331,"name":"darktechno","steam_id":76561197985904784,"connected_time":1033000000000,"state":"active","ping":75},{"user_id":341,"name":"The ATF","steam_id":76561198046518234,"connected_time":176000000000,"state":"active","ping":60},{"user_id":329,"name":"Snoball","steam_id":76561198205838372,"connected_time":1145000000000,"state":"active","ping":53},{"user_id":321,"name":"SALEM","steam_id":76561198116281100,"connected_time":1523000000000,"state":"active","ping":34},{"user_id":333,"name":"Liker of Metal Gear Solid","steam_id":76561198125609923,"connected_time":828000000000,"state":"active","ping":60},{"user_id":298,"name":"Alt","steam_id":76561197992591984,"connected_time":3279000000000,"state":"active","ping":80},{"user_id":288,"name":"fkATL1 | kyu","steam_id":76561199245670274,"connected_time":4045000000000,"state":"active","ping":107},{"user_id":335,"name":"Bunt","steam_id":76561198124477567,"connected_time":811000000000,"state":"active","ping":41},{"user_id":314,"name":"DannyM","steam_id":76561198351165570,"connected_time":2030000000000,"state":"active","ping":55},{"user_id":316,"name":"Bottle","steam_id":76561198044031558,"connected_time":1998000000000,"state":"active","ping":62},{"user_id":319,"name":"Flint","steam_id":76561198066547582,"connected_time":1674000000000,"state":"active","ping":107},{"user_id":336,"name":"Acute Surrealism","steam_id":76561198109618175,"connected_time":256000000000,"state":"active","ping":72},{"user_id":328,"name":"Watch Bee \u0026 Puppycat on Netflix","steam_id":76561198039423448,"connected_time":1225000000000,"state":"active","ping":62},{"user_id":308,"name":"fkATL1 Terror","steam_id":76561198188685728,"connected_time":2431000000000,"state":"active","ping":60},{"user_id":334,"name":"thomasdee725","steam_id":76561199189526173,"connected_time":821000000000,"state":"active","ping":82},{"user_id":320,"name":"yomokha lft","steam_id":76561198063175935,"connected_time":1534000000000,"state":"active","ping":59},{"user_id":339,"name":"Spicy Duck","steam_id":76561198065905730,"connected_time":234000000000,"state":"active","ping":74},{"user_id":310,"name":"jdt631","steam_id":76561198271999934,"connected_time":2390000000000,"state":"active","ping":88},{"user_id":325,"name":"shaderoses","steam_id":76561198070800500,"connected_time":1429000000000,"state":"active","ping":73}]},{"server_id":400,"name":"Uncletopia | Atlanta | 3 | Stopwatch Beta","name_short":"atl-3","host":"atl-1.us.uncletopia.com","port":27035,"enabled":true,"region":"us-east","cc":"us","latitude":33.753746,"longitude":-84.38633,"reserved":0,"last_update":"0001-01-01T00:00:00Z","name_a2s":"Uncletopia | Atlanta | 3 | Stopwatch Beta","protocol":17,"map":"cp_gullywash_final1","folder":"tf","game":"Team Fortress","app_id":440,"player_count":0,"max_players":24,"Bots":0,"server_type":"Dedicated","server_os":"Linux","password":true,"vac":true,"version":"7742253","steam_id":85568392924515187,"keywords":["cp","nocrits","nodmgspread","uncletopia"],"game_id":440,"stv_port":27036,"stv_name":"Uncletopia | Atlanta | 3 | Stopwatch Beta | STV","players":null},{"server_id":401,"name":"Uncletopia | Atlanta | 4 | No Payload","name_short":"atl-4","host":"atl-1.us.uncletopia.com","port":27045,"enabled":true,"region":"us-east","cc":"us","latitude":33.753746,"longitude":-84.38633,"reserved":0,"last_update":"0001-01-01T00:00:00Z","name_a2s":"Uncletopia | Atlanta | 4 | No Payload","protocol":17,"map":"pl_pier","folder":"tf","game":"Team Fortress","app_id":440,"player_count":0,"max_players":24,"Bots":0,"server_type":"Dedicated","server_os":"Linux","password":true,"vac":true,"version":"7723704","steam_id":85568392924515188,"keywords":["nocrits","nodmgspread","payload","uncletopia"],"game_id":440,"stv_port":27046,"stv_name":"Uncletopia | Atlanta | 4 | No Payload | STV","players":null},{"server_id":2,"name":"Uncletopia | Chicago | 1 | All Maps","name_short":"chi-1","host":"chi-1.us.uncletopia.com","port":27015,"enabled":true,"region":"us-central","cc":"us","latitude":41.881832,"longitude":-87.62318,"reserved":0,"last_update":"0001-01-01T00:00:00Z","name_a2s":"Uncletopia | Chicago | 1 | All Maps","protocol":17,"map":"koth_harvest_final","folder":"tf","game":"Team Fortress","app_id":440,"player_count":24,"max_players":24,"Bots":0,"server_type":"Dedicated","server_os":"Linux","password":true,"vac":true,"version":"7742253","steam_id":85568392924469984,"keywords":["cp","nocrits","nodmgspread","uncletopia"],"game_id":440,"stv_port":27016,"stv_name":"Uncletopia | Chicago | 1 | All Maps | STV","players":[{"user_id":215,"name":"Liekhug","steam_id":76561198105534382,"connected_time":1416000000000,"state":"active","ping":61},{"user_id":224,"name":"Deckrex","steam_id":76561198341125420,"connected_time":448000000000,"state":"active","ping":78},{"user_id":216,"name":"Joocebox","steam_id":76561198259997021,"connected_time":1401000000000,"state":"active","ping":74},{"user_id":206,"name":"Ciela","steam_id":76561198799403828,"connected_time":2182000000000,"state":"active","ping":52},{"user_id":194,"name":"Furry Saul Goodman","steam_id":76561198069580305,"connected_time":3166000000000,"state":"active","ping":46},{"user_id":209,"name":"CHRIMSTAS CAT","steam_id":76561198042570322,"connected_time":1813000000000,"state":"active","ping":60},{"user_id":210,"name":"deech","steam_id":76561198066429444,"connected_time":1803000000000,"state":"active","ping":74},{"user_id":97,"name":"debin","steam_id":76561198070711217,"connected_time":11292000000000,"state":"active","ping":58},{"user_id":218,"name":"uppedtrout","steam_id":76561198128816239,"connected_time":1302000000000,"state":"active","ping":61},{"user_id":208,"name":"richard clock","steam_id":76561198048455671,"connected_time":2096000000000,"state":"active","ping":60},{"user_id":226,"name":"Inspectah Sweet","steam_id":76561198043643339,"connected_time":270000000000,"state":"active","ping":63},{"user_id":219,"name":"Pyrovision Enthusiast","steam_id":76561198211892779,"connected_time":1296000000000,"state":"active","ping":69},{"user_id":228,"name":"Tyco","steam_id":76561197978414167,"connected_time":75000000000,"state":"active","ping":75},{"user_id":211,"name":"LameNameJame","steam_id":76561198164714852,"connected_time":1798000000000,"state":"active","ping":61},{"user_id":180,"name":"Bird watcher","steam_id":76561199201098634,"connected_time":4455000000000,"state":"active","ping":55},{"user_id":86,"name":"ccat","steam_id":76561198281773224,"connected_time":12113000000000,"state":"active","ping":105},{"user_id":136,"name":"stop","steam_id":76561198268686419,"connected_time":7779000000000,"state":"active","ping":64},{"user_id":212,"name":"doop","steam_id":76561198370487545,"connected_time":1760000000000,"state":"active","ping":79},{"user_id":223,"name":"Catboy Potemkin","steam_id":76561198078474420,"connected_time":455000000000,"state":"active","ping":68},{"user_id":213,"name":"crippling fumo addiction","steam_id":76561198115874625,"connected_time":1671000000000,"state":"active","ping":93},{"user_id":191,"name":"Shwa","steam_id":76561198122613101,"connected_time":3776000000000,"state":"active","ping":78},{"user_id":222,"name":"Cozy","steam_id":76561198045080988,"connected_time":460000000000,"state":"active","ping":96},{"user_id":229,"name":"albert_gamer","steam_id":76561198980666751,"connected_time":74000000000,"state":"active","ping":74}]},{"server_id":106,"name":"Uncletopia | Chicago | 2 | All Maps","name_short":"chi-2","host":"chi-1.us.uncletopia.com","port":27025,"enabled":true,"region":"us-central","cc":"us","latitude":41.881832,"longitude":-87.62318,"reserved":0,"last_update":"0001-01-01T00:00:00Z","name_a2s":"Uncletopia | Chicago | 2 | All Maps","protocol":17,"map":"cp_process_final","folder":"tf","game":"Team Fortress","app_id":440,"player_count":24,"max_players":24,"Bots":0,"server_type":"Dedicated","server_os":"Linux","password":true,"vac":true,"version":"7742253","steam_id":85568392924469985,"keywords":["cp","nocrits","nodmgspread","uncletopia"],"game_id":440,"stv_port":27026,"stv_name":"Uncletopia | Chicago | 2 | All Maps | STV","players":[{"user_id":365,"name":"kramer","steam_id":76561198117761965,"connected_time":1120000000000,"state":"active","ping":67},{"user_id":380,"name":"MeddyJed","steam_id":76561198018824031,"connected_time":294000000000,"state":"active","ping":46},{"user_id":341,"name":"Puffin","steam_id":76561198082507044,"connected_time":2279000000000,"state":"active","ping":55},{"user_id":386,"name":"Blake Belladonna","steam_id":76561198010169911,"connected_time":64000000000,"state":"active","ping":73},{"user_id":374,"name":"DJ Spit","steam_id":76561198186637025,"connected_time":756000000000,"state":"active","ping":81},{"user_id":373,"name":"the dingler man","steam_id":76561199099203623,"connected_time":833000000000,"state":"active","ping":95},{"user_id":363,"name":"Sky Tree","steam_id":76561198027103242,"connected_time":1134000000000,"state":"active","ping":56},{"user_id":378,"name":"Disco Fever","steam_id":76561198069532215,"connected_time":603000000000,"state":"active","ping":65},{"user_id":332,"name":"wizardheap","steam_id":76561198085951272,"connected_time":2942000000000,"state":"active","ping":66},{"user_id":366,"name":"primordialheath","steam_id":76561199386942638,"connected_time":1118000000000,"state":"active","ping":60},{"user_id":296,"name":"guh","steam_id":76561197972342286,"connected_time":5486000000000,"state":"active","ping":74},{"user_id":361,"name":"Cheatcommando","steam_id":76561198034825735,"connected_time":1239000000000,"state":"active","ping":49},{"user_id":377,"name":"elyk37","steam_id":76561198124135253,"connected_time":657000000000,"state":"active","ping":92},{"user_id":345,"name":"VelocityCubeR","steam_id":76561198044351011,"connected_time":2235000000000,"state":"active","ping":54},{"user_id":369,"name":"Pistol Freeman","steam_id":76561198026818915,"connected_time":1081000000000,"state":"active","ping":59},{"user_id":382,"name":"Scythe07","steam_id":76561199064810353,"connected_time":248000000000,"state":"active","ping":81},{"user_id":385,"name":"bucketslayer01","steam_id":76561198197543963,"connected_time":135000000000,"state":"active","ping":81},{"user_id":371,"name":"Thefatfriar","steam_id":76561199013385965,"connected_time":1059000000000,"state":"active","ping":133},{"user_id":375,"name":"ch","steam_id":76561198012566405,"connected_time":726000000000,"state":"active","ping":65},{"user_id":362,"name":"Killerkarate","steam_id":76561198067533929,"connected_time":1229000000000,"state":"active","ping":52},{"user_id":379,"name":"where am i","steam_id":76561198165299077,"connected_time":526000000000,"state":"active","ping":72},{"user_id":384,"name":"Gandalf Big Naturals","steam_id":76561198888648542,"connected_time":177000000000,"state":"active","ping":107},{"user_id":356,"name":"Moz","steam_id":76561198027171160,"connected_time":1688000000000,"state":"active","ping":46},{"user_id":322,"name":"Krellah","steam_id":76561198287045069,"connected_time":3477000000000,"state":"active","ping":58}]},{"server_id":402,"name":"Uncletopia | Chicago | 3 | All Maps","name_short":"chi-3","host":"chi-1.us.uncletopia.com","port":27035,"enabled":true,"region":"us-central","cc":"us","latitude":41.881832,"longitude":-87.62318,"reserved":0,"last_update":"0001-01-01T00:00:00Z","name_a2s":"Uncletopia | Chicago | 3 | All Maps","protocol":17,"map":"pl_snowycoast","folder":"tf","game":"Team Fortress","app_id":440,"player_count":24,"max_players":24,"Bots":0,"server_type":"Dedicated","server_os":"Linux","password":true,"vac":true,"version":"7742253","steam_id":85568392924515191,"keywords":["nocrits","nodmgspread","payload","uncletopia"],"game_id":440,"stv_port":27036,"stv_name":"Uncletopia | Chicago | 3 | All Maps | STV","players":[{"user_id":75,"name":"Puffinsting","steam_id":76561198071040516,"connected_time":846000000000,"state":"active","ping":55},{"user_id":87,"name":"des","steam_id":76561198079226634,"connected_time":24000000000,"state":"spawning","ping":198},{"user_id":76,"name":"Ziixx","steam_id":76561198380423847,"connected_time":808000000000,"state":"active","ping":52},{"user_id":70,"name":"KTB","steam_id":76561197990744614,"connected_time":1182000000000,"state":"active","ping":45},{"user_id":42,"name":"peepeeroni","steam_id":76561198382877812,"connected_time":2744000000000,"state":"active","ping":68},{"user_id":43,"name":"Lucas Rafael","steam_id":76561198189233230,"connected_time":2724000000000,"state":"active","ping":183},{"user_id":44,"name":"ploperdoo","steam_id":76561198359149032,"connected_time":2605000000000,"state":"active","ping":172},{"user_id":73,"name":"Kindagoodplayer","steam_id":76561198814625843,"connected_time":961000000000,"state":"active","ping":66},{"user_id":77,"name":"swan","steam_id":76561198012569200,"connected_time":801000000000,"state":"active","ping":74},{"user_id":47,"name":"The Pan Man From Slavic Land","steam_id":76561198401875841,"connected_time":2238000000000,"state":"active","ping":46},{"user_id":83,"name":"Snazzi","steam_id":76561198085208276,"connected_time":173000000000,"state":"active","ping":85},{"user_id":49,"name":"totally not a pile of beans","steam_id":76561198119851931,"connected_time":2125000000000,"state":"active","ping":76},{"user_id":78,"name":"Walmart Employee","steam_id":76561198840373909,"connected_time":797000000000,"state":"active","ping":94},{"user_id":81,"name":"turnip","steam_id":76561197999375941,"connected_time":729000000000,"state":"active","ping":76},{"user_id":86,"name":"SE X","steam_id":76561198094525829,"connected_time":43000000000,"state":"active","ping":88},{"user_id":53,"name":"Shrymp","steam_id":76561198130165656,"connected_time":2005000000000,"state":"active","ping":52},{"user_id":60,"name":"DADDY ESCANOR","steam_id":76561198075102565,"connected_time":1597000000000,"state":"active","ping":58},{"user_id":80,"name":"AshHousewares","steam_id":76561197985639246,"connected_time":782000000000,"state":"active","ping":80},{"user_id":62,"name":"Snowsickle","steam_id":76561197993028633,"connected_time":1544000000000,"state":"active","ping":50},{"user_id":63,"name":"nicewithit","steam_id":76561198043819937,"connected_time":1457000000000,"state":"active","ping":86},{"user_id":64,"name":"toptier","steam_id":76561199059257565,"connected_time":1453000000000,"state":"active","ping":88},{"user_id":74,"name":"funkinear1001","steam_id":76561199157665272,"connected_time":927000000000,"state":"active","ping":160},{"user_id":85,"name":"amnyak","steam_id":76561198165831950,"connected_time":69000000000,"state":"active","ping":79},{"user_id":67,"name":"impractical jokers gaming","steam_id":76561198068167915,"connected_time":1413000000000,"state":"active","ping":63}]},{"server_id":403,"name":"Uncletopia | Chicago | 4 | All Maps","name_short":"chi-4","host":"chi-1.us.uncletopia.com","port":27045,"enabled":true,"region":"us-central","cc":"us","latitude":41.881832,"longitude":-87.62318,"reserved":0,"last_update":"0001-01-01T00:00:00Z","name_a2s":"Uncletopia | Chicago | 4 | All Maps","protocol":17,"map":"pl_pier","folder":"tf","game":"Team Fortress","app_id":440,"player_count":23,"max_players":24,"Bots":0,"server_type":"Dedicated","server_os":"Linux","password":true,"vac":true,"version":"7742253","steam_id":85568392924515193,"keywords":["nocrits","nodmgspread","payload","uncletopia"],"game_id":440,"stv_port":27046,"stv_name":"Uncletopia | Chicago | 4 | All Maps | STV","players":[{"user_id":300,"name":"SketchMeister","steam_id":76561198042362032,"connected_time":1744000000000,"state":"active","ping":55},{"user_id":309,"name":"The World is a Beautiful Place","steam_id":76561198062324500,"connected_time":1083000000000,"state":"active","ping":40},{"user_id":306,"name":"[AM] Lizard","steam_id":76561198035390367,"connected_time":1102000000000,"state":"active","ping":81},{"user_id":307,"name":"EVIL fred flinstone","steam_id":76561198083798918,"connected_time":1097000000000,"state":"active","ping":75},{"user_id":310,"name":"MR.meeseeks","steam_id":76561198294943420,"connected_time":1080000000000,"state":"active","ping":68},{"user_id":317,"name":"Kamikaze Cowboy","steam_id":76561198076220556,"connected_time":726000000000,"state":"active","ping":95},{"user_id":302,"name":"Regrettable Decisions","steam_id":76561199084088704,"connected_time":1374000000000,"state":"active","ping":137},{"user_id":320,"name":"I believe in LGTV\u0026 trans rites","steam_id":76561198069918221,"connected_time":519000000000,"state":"active","ping":71},{"user_id":281,"name":"Fudgely","steam_id":76561198039425862,"connected_time":2637000000000,"state":"active","ping":71},{"user_id":313,"name":"Banana","steam_id":76561198321485249,"connected_time":1013000000000,"state":"active","ping":48},{"user_id":289,"name":"Rukks","steam_id":76561197993918954,"connected_time":2307000000000,"state":"active","ping":61},{"user_id":272,"name":"Sprucelass","steam_id":76561197998391724,"connected_time":3181000000000,"state":"active","ping":51},{"user_id":321,"name":"hashmap","steam_id":76561198043794014,"connected_time":341000000000,"state":"active","ping":55},{"user_id":314,"name":"demoknight tf2","steam_id":76561198070393998,"connected_time":1010000000000,"state":"active","ping":64},{"user_id":323,"name":"Kawflynn","steam_id":76561198029885678,"connected_time":305000000000,"state":"active","ping":77},{"user_id":324,"name":"Spectre","steam_id":76561198025652246,"connected_time":267000000000,"state":"active","ping":34},{"user_id":242,"name":"big goku","steam_id":76561198206864612,"connected_time":6056000000000,"state":"active","ping":87},{"user_id":273,"name":"EmeraldCola","steam_id":76561198066663687,"connected_time":3143000000000,"state":"active","ping":72},{"user_id":327,"name":"powerslide","steam_id":76561198288491241,"connected_time":50000000000,"state":"active","ping":60},{"user_id":325,"name":"Pyromainiac","steam_id":76561199259867180,"connected_time":239000000000,"state":"active","ping":107},{"user_id":322,"name":"uhhh Epic Fail !","steam_id":76561198000919372,"connected_time":318000000000,"state":"active","ping":94},{"user_id":326,"name":"Vec","steam_id":76561198044505262,"connected_time":152000000000,"state":"active","ping":82},{"user_id":316,"name":"ToastyNuts","steam_id":76561198064465418,"connected_time":960000000000,"state":"active","ping":84}]},{"server_id":36,"name":"Uncletopia | Chicago | 5 | All Maps","name_short":"chi-5","host":"chi-2.us.uncletopia.com","port":27015,"enabled":true,"region":"us-central","cc":"us","latitude":41.881832,"longitude":-87.62318,"reserved":0,"last_update":"0001-01-01T00:00:00Z","name_a2s":"Uncletopia | Chicago | 5 | All Maps","protocol":17,"map":"cp_altitude","folder":"tf","game":"Team Fortress","app_id":440,"player_count":12,"max_players":24,"Bots":0,"server_type":"Dedicated","server_os":"Linux","password":true,"vac":true,"version":"7742253","steam_id":85568392924866362,"keywords":["cp","nocrits","nodmgspread","uncletopia"],"game_id":440,"stv_port":27016,"stv_name":"Uncletopia | Chicago | 5 | All Maps | STV","players":[{"user_id":504,"name":"agb 4FUN","steam_id":76561198094512992,"connected_time":3794000000000,"state":"active","ping":45},{"user_id":555,"name":"Clueless","steam_id":76561198042719033,"connected_time":35000000000,"state":"active","ping":62},{"user_id":502,"name":"stunt or die","steam_id":76561198449857428,"connected_time":3911000000000,"state":"active","ping":84},{"user_id":473,"name":"Turbo Sun Geyser","steam_id":76561198013975080,"connected_time":5461000000000,"state":"active","ping":90},{"user_id":554,"name":"veewon","steam_id":76561198276513608,"connected_time":70000000000,"state":"active","ping":166},{"user_id":528,"name":"grace","steam_id":76561199162583201,"connected_time":1791000000000,"state":"spawning","ping":83},{"user_id":550,"name":"‚Çç‚Ä¢Õü Õú ‚Ä¢ ‚Çé erm lobotom","steam_id":76561198817675660,"connected_time":192000000000,"state":"active","ping":45},{"user_id":537,"name":"Mr.ToasterOven","steam_id":76561199120586450,"connected_time":1478000000000,"state":"active","ping":49},{"user_id":548,"name":"tsaide","steam_id":76561198384120999,"connected_time":747000000000,"state":"active","ping":72},{"user_id":529,"name":"nhorning1","steam_id":76561198159417118,"connected_time":1660000000000,"state":"active","ping":68},{"user_id":517,"name":"Depresso Amber","steam_id":76561198074209737,"connected_time":2713000000000,"state":"active","ping":49},{"user_id":516,"name":"atlas","steam_id":76561198398383076,"connected_time":2818000000000,"state":"active","ping":85}]},{"server_id":37,"name":"Uncletopia | Chicago | 6 | All Maps","name_short":"chi-6","host":"chi-2.us.uncletopia.com","port":27025,"enabled":true,"region":"us-central","cc":"us","latitude":41.881832,"longitude":-87.62318,"reserved":0,"last_update":"0001-01-01T00:00:00Z","name_a2s":"Uncletopia | Chicago | 6 | All Maps","protocol":17,"map":"cp_process_final","folder":"tf","game":"Team Fortress","app_id":440,"player_count":0,"max_players":24,"Bots":0,"server_type":"Dedicated","server_os":"Linux","password":true,"vac":true,"version":"7742253","steam_id":85568392924866363,"keywords":["cp","nocrits","nodmgspread","uncletopia"],"game_id":440,"stv_port":27026,"stv_name":"Uncletopia | Chicago | 6 | All Maps | STV","players":null},{"server_id":38,"name":"Uncletopia | Chicago | 7 | Stopwatch Beta","name_short":"chi-7","host":"chi-2.us.uncletopia.com","port":27035,"enabled":true,"region":"us-central","cc":"us","latitude":41.881832,"longitude":-87.62318,"reserved":0,"last_update":"0001-01-01T00:00:00Z","name_a2s":"Uncletopia | Chicago | 7 | Stopwatch Beta","protocol":17,"map":"workshop/cp_reckoner_rc6.ugc674719999","folder":"tf","game":"Team Fortress","app_id":440,"player_count":0,"max_players":24,"Bots":0,"server_type":"Dedicated","server_os":"Linux","password":true,"vac":true,"version":"7742253","steam_id":85568392924866364,"keywords":["cp","nocrits","nodmgspread","uncletopia"],"game_id":440,"stv_port":27036,"stv_name":"Uncletopia | Chicago | 7 | Stopwatch Beta | STV","players":null},{"server_id":39,"name":"Uncletopia | Chicago | 8 | Community","name_short":"chi-8","host":"chi-2.us.uncletopia.com","port":27045,"enabled":true,"region":"us-central","cc":"us","latitude":41.881832,"longitude":-87.62318,"reserved":0,"last_update":"0001-01-01T00:00:00Z","name_a2s":"Uncletopia | Chicago | 8 | Community","protocol":17,"map":"koth_lakeside_final","folder":"tf","game":"Team Fortress","app_id":440,"player_count":2,"max_players":24,"Bots":0,"server_type":"Dedicated","server_os":"Linux","password":true,"vac":true,"version":"7742253","steam_id":85568392924866365,"keywords":["cp","nocrits","nodmgspread","uncletopia"],"game_id":440,"stv_port":27046,"stv_name":"Uncletopia | Chicago | 8 | Community | STV","players":[{"user_id":11,"name":"TRS Gaming","steam_id":76561198449317611,"connected_time":797000000000,"state":"active","ping":102},{"user_id":10,"name":"Kit kyat (new mouse)","steam_id":76561198235786296,"connected_time":1384000000000,"state":"active","ping":51}]},{"server_id":8,"name":"Uncletopia | Dallas | 1 | All Maps","name_short":"dal-1","host":"dal-1.us.uncletopia.com","port":27015,"enabled":true,"region":"us-central","cc":"us","latitude":32.779167,"longitude":-96.80889,"reserved":0,"last_update":"0001-01-01T00:00:00Z","name_a2s":"Uncletopia | Dallas | 1 | All Maps","protocol":17,"map":"pl_pier","folder":"tf","game":"Team Fortress","app_id":440,"player_count":24,"max_players":24,"Bots":0,"server_type":"Dedicated","server_os":"Linux","password":true,"vac":true,"version":"7742253","steam_id":85568392924469986,"keywords":["nocrits","nodmgspread","payload","uncletopia"],"game_id":440,"stv_port":27016,"stv_name":"Uncletopia | Dallas | 1 | All Maps | STV","players":[{"user_id":202,"name":"Jasdocks","steam_id":76561198072275036,"connected_time":3355000000000,"state":"active","ping":56},{"user_id":231,"name":"floofy","steam_id":76561198389769098,"connected_time":1436000000000,"state":"active","ping":84},{"user_id":238,"name":"My controller broke","steam_id":76561198157280577,"connected_time":595000000000,"state":"active","ping":45},{"user_id":209,"name":"The Caretaker","steam_id":76561198125241411,"connected_time":2668000000000,"state":"active","ping":131},{"user_id":208,"name":"blubby blubster","steam_id":76561198175955138,"connected_time":2685000000000,"state":"active","ping":95},{"user_id":229,"name":"the.land.of.avalon","steam_id":76561198245431668,"connected_time":1863000000000,"state":"active","ping":98},{"user_id":233,"name":"meow","steam_id":76561198298140571,"connected_time":1196000000000,"state":"active","ping":83},{"user_id":198,"name":"Ben Shapiro","steam_id":76561198861436861,"connected_time":4043000000000,"state":"active","ping":67},{"user_id":232,"name":"LeviticusDB","steam_id":76561199079690162,"connected_time":1277000000000,"state":"active","ping":112},{"user_id":242,"name":"Alberto2104","steam_id":76561198094968873,"connected_time":389000000000,"state":"active","ping":89},{"user_id":234,"name":"Dictatorial Karelian","steam_id":76561198196736457,"connected_time":647000000000,"state":"active","ping":180},{"user_id":230,"name":"Jello","steam_id":76561198890633732,"connected_time":1817000000000,"state":"active","ping":65},{"user_id":194,"name":"GuyGoom","steam_id":76561198254522178,"connected_time":4157000000000,"state":"active","ping":84},{"user_id":241,"name":"LuciD","steam_id":76561198242842394,"connected_time":445000000000,"state":"active","ping":64},{"user_id":173,"name":"Motorol¬™","steam_id":76561198358119669,"connected_time":5874000000000,"state":"active","ping":124},{"user_id":235,"name":"doctor sex md","steam_id":76561198150678175,"connected_time":646000000000,"state":"active","ping":108},{"user_id":223,"name":"clraffell","steam_id":76561198904469197,"connected_time":2425000000000,"state":"active","ping":164},{"user_id":236,"name":"Frank HardWood","steam_id":76561198109364911,"connected_time":632000000000,"state":"active","ping":87},{"user_id":243,"name":"Tippy","steam_id":76561198244306666,"connected_time":340000000000,"state":"active","ping":74},{"user_id":216,"name":"grillkrydder","steam_id":76561198305131881,"connected_time":2580000000000,"state":"active","ping":174},{"user_id":220,"name":"Awildrock","steam_id":76561198040401086,"connected_time":2503000000000,"state":"active","ping":54},{"user_id":239,"name":"Rat Bastard","steam_id":76561198153443658,"connected_time":532000000000,"state":"active","ping":87},{"user_id":244,"name":"Murgatroyd","steam_id":76561198077350331,"connected_time":237000000000,"state":"active","ping":93},{"user_id":47,"name":"NovaMonkey","steam_id":76561198157828317,"connected_time":15786000000000,"state":"active","ping":84}]},{"server_id":108,"name":"Uncletopia | Dallas | 2 | All Maps","name_short":"dal-2","host":"dal-1.us.uncletopia.com","port":27025,"enabled":true,"region":"us-central","cc":"us","latitude":32.779167,"longitude":-96.80889,"reserved":0,"last_update":"0001-01-01T00:00:00Z","name_a2s":"Uncletopia | Dallas | 2 | All Maps","protocol":17,"map":"cp_dustbowl","folder":"tf","game":"Team Fortress","app_id":440,"player_count":24,"max_players":24,"Bots":0,"server_type":"Dedicated","server_os":"Linux","password":true,"vac":true,"version":"7742253","steam_id":85568392924469988,"keywords":["cp","nocrits","nodmgspread","uncletopia"],"game_id":440,"stv_port":27026,"stv_name":"Uncletopia | Dallas | 2 | All Maps | STV","players":[{"user_id":328,"name":"For Jack","steam_id":76561198322674283,"connected_time":1069000000000,"state":"active","ping":48},{"user_id":331,"name":"Red","steam_id":76561198031865869,"connected_time":699000000000,"state":"active","ping":60},{"user_id":292,"name":"KhorneBread Ô∏ª„Éá ‰∏Ä","steam_id":76561198097069958,"connected_time":3006000000000,"state":"active","ping":89},{"user_id":312,"name":"El Jefe","steam_id":76561198124157939,"connected_time":1754000000000,"state":"active","ping":39},{"user_id":124,"name":"Yiff Police","steam_id":76561198103938356,"connected_time":15183000000000,"state":"active","ping":72},{"user_id":303,"name":"crs22","steam_id":76561198120149196,"connected_time":2758000000000,"state":"active","ping":87},{"user_id":330,"name":"Reyloko","steam_id":76561198172480913,"connected_time":1025000000000,"state":"active","ping":71},{"user_id":290,"name":"eBay","steam_id":76561198061214569,"connected_time":3050000000000,"state":"active","ping":83},{"user_id":326,"name":"GreenApples","steam_id":76561198120559543,"connected_time":1192000000000,"state":"active","ping":88},{"user_id":276,"name":"Squiliam","steam_id":76561198025278006,"connected_time":4027000000000,"state":"active","ping":43},{"user_id":295,"name":"Ziggy Q","steam_id":76561197995360978,"connected_time":2989000000000,"state":"active","ping":96},{"user_id":311,"name":"Bagel","steam_id":76561198167747447,"connected_time":1811000000000,"state":"active","ping":97},{"user_id":314,"name":"starb","steam_id":76561198269487700,"connected_time":1646000000000,"state":"active","ping":54},{"user_id":315,"name":"CFGU || RAWRWAFL","steam_id":76561198032118386,"connected_time":1645000000000,"state":"active","ping":73},{"user_id":325,"name":"ink biscuit","steam_id":76561198927983566,"connected_time":1252000000000,"state":"active","ping":159},{"user_id":316,"name":"pelt","steam_id":76561197993593754,"connected_time":1643000000000,"state":"active","ping":75},{"user_id":236,"name":"Marc Antony","steam_id":76561198011366517,"connected_time":6566000000000,"state":"active","ping":76},{"user_id":332,"name":"Hawkins","steam_id":76561198091829950,"connected_time":468000000000,"state":"active","ping":88},{"user_id":327,"name":"hauntaholic","steam_id":76561198095051652,"connected_time":1097000000000,"state":"active","ping":44},{"user_id":284,"name":"Mina's Ninas","steam_id":76561198046502179,"connected_time":3535000000000,"state":"active","ping":78},{"user_id":307,"name":"bo scrungulus","steam_id":76561198038036122,"connected_time":2679000000000,"state":"active","ping":75},{"user_id":232,"name":"spot (paradise edition)","steam_id":76561198151135298,"connected_time":6956000000000,"state":"active","ping":74},{"user_id":246,"name":"ÔºîÔºê Ôº¶Ôº∞Ôº≥","steam_id":76561198272394965,"connected_time":5846000000000,"state":"active","ping":166},{"user_id":318,"name":"DUCKS DUCKS DUCKS DUCKS","steam_id":76561198107486812,"connected_time":1555000000000,"state":"active","ping":81}]},{"server_id":5,"name":"Uncletopia | Frankfurt | 1 | All Maps","name_short":"frk-1","host":"frk-1.de.uncletopia.com","port":27015,"enabled":true,"region":"eu","cc":"de","latitude":50.110924,"longitude":8.682127,"reserved":0,"last_update":"0001-01-01T00:00:00Z","name_a2s":"Uncletopia | Frankfurt | 1 | All Maps","protocol":17,"map":"koth_harvest_final","folder":"tf","game":"Team Fortress","app_id":440,"player_count":24,"max_players":24,"Bots":0,"server_type":"Dedicated","server_os":"Linux","password":true,"vac":true,"version":"7742253","steam_id":85568392924469989,"keywords":["cp","nocrits","nodmgspread","uncletopia"],"game_id":440,"stv_port":27016,"stv_name":"Uncletopia | Frankfurt | 1 | All Maps | STV","players":[{"user_id":887,"name":"beef estrogenoff","steam_id":76561198106455841,"connected_time":44000000000,"state":"active","ping":76},{"user_id":882,"name":"CrazicalCX","steam_id":76561199184138900,"connected_time":369000000000,"state":"active","ping":59},{"user_id":883,"name":"Merriest of the Woogies","steam_id":76561198104653618,"connected_time":273000000000,"state":"active","ping":170},{"user_id":885,"name":"Dithmarschen","steam_id":76561198068917140,"connected_time":159000000000,"state":"active","ping":97},{"user_id":822,"name":"Zateske","steam_id":76561198047446276,"connected_time":5380000000000,"state":"active","ping":60},{"user_id":868,"name":"Vince","steam_id":76561199103000131,"connected_time":749000000000,"state":"active","ping":60},{"user_id":826,"name":"üòà COCKDESTROYER üòà","steam_id":76561198042846999,"connected_time":4712000000000,"state":"active","ping":70},{"user_id":844,"name":"Taipan66","steam_id":76561198154094423,"connected_time":3197000000000,"state":"active","ping":78},{"user_id":869,"name":"Eep","steam_id":76561198356840051,"connected_time":693000000000,"state":"active","ping":80},{"user_id":756,"name":"NiNY√É","steam_id":76561197995685294,"connected_time":10359000000000,"state":"active","ping":60},{"user_id":870,"name":"Jazz Apples","steam_id":76561198058259690,"connected_time":690000000000,"state":"active","ping":61},{"user_id":872,"name":"RevoNine","steam_id":76561198163866206,"connected_time":654000000000,"state":"active","ping":64},{"user_id":886,"name":"penis gnome","steam_id":76561198097612561,"connected_time":105000000000,"state":"active","ping":58},{"user_id":698,"name":"Cippo95","steam_id":76561198255311582,"connected_time":13934000000000,"state":"active","ping":74},{"user_id":820,"name":"Penis Contortionist","steam_id":76561198073663784,"connected_time":5422000000000,"state":"active","ping":56},{"user_id":787,"name":"Sneakykindaham","steam_id":76561198158743287,"connected_time":7918000000000,"state":"active","ping":60},{"user_id":874,"name":"dongus","steam_id":76561198042774930,"connected_time":627000000000,"state":"active","ping":74},{"user_id":863,"name":"Volcyy","steam_id":76561198063979124,"connected_time":1649000000000,"state":"active","ping":44},{"user_id":839,"name":"HanhiGaming","steam_id":76561198877007477,"connected_time":3504000000000,"state":"active","ping":90},{"user_id":884,"name":"Zenyado","steam_id":76561198092169271,"connected_time":262000000000,"state":"active","ping":59},{"user_id":875,"name":"Rasmusson [29th ID]","steam_id":76561198191451713,"connected_time":599000000000,"state":"active","ping":82},{"user_id":857,"name":"manKe","steam_id":76561198008564860,"connected_time":2217000000000,"state":"active","ping":60},{"user_id":859,"name":"ikc159","steam_id":76561198020559026,"connected_time":2137000000000,"state":"active","ping":66},{"user_id":881,"name":"El Guacamole","steam_id":76561198290313144,"connected_time":433000000000,"state":"active","ping":66}]},{"server_id":110,"name":"Uncletopia | Frankfurt | 2 | All Maps","name_short":"frk-2","host":"frk-1.de.uncletopia.com","port":27025,"enabled":true,"region":"eu","cc":"de","latitude":50.110924,"longitude":8.682127,"reserved":0,"last_update":"0001-01-01T00:00:00Z","name_a2s":"Uncletopia | Frankfurt | 2 | All Maps","protocol":17,"map":"cp_gullywash_final1","folder":"tf","game":"Team Fortress","app_id":440,"player_count":19,"max_players":24,"Bots":0,"server_type":"Dedicated","server_os":"Linux","password":true,"vac":true,"version":"7742253","steam_id":85568392924469990,"keywords":["cp","nocrits","nodmgspread","uncletopia"],"game_id":440,"stv_port":27026,"stv_name":"Uncletopia | Frankfurt | 2 | All Maps | STV","players":[{"user_id":599,"name":"duster cat","steam_id":76561198832231975,"connected_time":237000000000,"state":"active","ping":80},{"user_id":563,"name":"alex","steam_id":76561199193938910,"connected_time":6719000000000,"state":"active","ping":65},{"user_id":585,"name":"padawan1113","steam_id":76561199464990312,"connected_time":1171000000000,"state":"active","ping":150},{"user_id":600,"name":"svestkys","steam_id":76561198360230605,"connected_time":69000000000,"state":"active","ping":39},{"user_id":579,"name":"Barb√Ätrou","steam_id":76561199439141531,"connected_time":1787000000000,"state":"active","ping":57},{"user_id":569,"name":"KatTheCookiCat","steam_id":76561199054643392,"connected_time":5324000000000,"state":"active","ping":46},{"user_id":580,"name":"GigaGuenther","steam_id":76561198257633868,"connected_time":1631000000000,"state":"active","ping":106},{"user_id":584,"name":"FishCuisine","steam_id":76561199045440939,"connected_time":1424000000000,"state":"active","ping":87},{"user_id":586,"name":"alamodefenders","steam_id":76561199014939498,"connected_time":1169000000000,"state":"active","ping":174},{"user_id":592,"name":"HOI","steam_id":76561198061182117,"connected_time":534000000000,"state":"active","ping":60},{"user_id":591,"name":"big heavy is heavy heavy","steam_id":76561198300059652,"connected_time":727000000000,"state":"active","ping":88},{"user_id":593,"name":"row","steam_id":76561198053400769,"connected_time":514000000000,"state":"active","ping":60},{"user_id":594,"name":"angry soviet","steam_id":76561198190005183,"connected_time":432000000000,"state":"active","ping":67},{"user_id":595,"name":"üóø","steam_id":76561197995948652,"connected_time":389000000000,"state":"active","ping":53},{"user_id":596,"name":"Ecton","steam_id":76561198025103720,"connected_time":364000000000,"state":"active","ping":61},{"user_id":597,"name":"[REDACTED]TOWER","steam_id":76561197995723404,"connected_time":357000000000,"state":"active","ping":74},{"user_id":598,"name":"Yrj√∂ Koskinen Yrj√∂-Koskinen","steam_id":76561198368181145,"connected_time":268000000000,"state":"active","ping":81},{"user_id":601,"name":"Zipnet","steam_id":76561198000218824,"connected_time":23000000000,"state":"active","ping":78},{"user_id":602,"name":"F4ME ComPik","steam_id":76561198271666074,"connected_time":8000000000,"state":"spawning","ping":50}]},{"server_id":308,"name":"Uncletopia | Frankfurt | 3 | All Maps","name_short":"frk-3","host":"frk-1.de.uncletopia.com","port":27035,"enabled":true,"region":"eu","cc":"de","latitude":50.110924,"longitude":8.682127,"reserved":0,"last_update":"0001-01-01T00:00:00Z","name_a2s":"Uncletopia | Frankfurt | 3 | All Maps","protocol":17,"map":"pl_upward","folder":"tf","game":"Team Fortress","app_id":440,"player_count":22,"max_players":24,"Bots":0,"server_type":"Dedicated","server_os":"Linux","password":true,"vac":true,"version":"7742253","steam_id":85568392924504274,"keywords":["nocrits","nodmgspread","payload","uncletopia"],"game_id":440,"stv_port":27036,"stv_name":"Uncletopia | Frankfurt | 3 | All Maps | STV","players":[{"user_id":284,"name":"medic enthusiast","steam_id":76561198323031964,"connected_time":908000000000,"state":"active","ping":162},{"user_id":254,"name":"PlacebO.-","steam_id":76561197973577950,"connected_time":3482000000000,"state":"active","ping":57},{"user_id":270,"name":"demoman jumpscare","steam_id":76561198026160958,"connected_time":1435000000000,"state":"active","ping":68},{"user_id":269,"name":"DocTwoEight","steam_id":76561198153488940,"connected_time":1439000000000,"state":"active","ping":78},{"user_id":232,"name":"murderfucker","steam_id":76561198038753296,"connected_time":4745000000000,"state":"active","ping":76},{"user_id":271,"name":"paprika","steam_id":76561198029771708,"connected_time":1417000000000,"state":"active","ping":73},{"user_id":212,"name":"Subnet001","steam_id":76561198029163028,"connected_time":6065000000000,"state":"active","ping":63},{"user_id":273,"name":"Hexabit","steam_id":76561198028625661,"connected_time":1368000000000,"state":"active","ping":66},{"user_id":287,"name":"NotFionn","steam_id":76561198890525176,"connected_time":687000000000,"state":"active","ping":81},{"user_id":227,"name":"dn4k","steam_id":76561199221755690,"connected_time":5488000000000,"state":"active","ping":77},{"user_id":281,"name":"Tweehoek","steam_id":76561197993796913,"connected_time":1052000000000,"state":"active","ping":69},{"user_id":261,"name":"Gardvord","steam_id":76561198120715753,"connected_time":2224000000000,"state":"active","ping":68},{"user_id":262,"name":"Zino","steam_id":76561197969422755,"connected_time":2218000000000,"state":"active","ping":81},{"user_id":71,"name":"Fat Pigeon","steam_id":76561198817940142,"connected_time":17726000000000,"state":"active","ping":57},{"user_id":286,"name":"foolproof","steam_id":76561198115801132,"connected_time":858000000000,"state":"active","ping":73},{"user_id":279,"name":"X45Y","steam_id":76561198112534025,"connected_time":1101000000000,"state":"active","ping":45},{"user_id":264,"name":"Sukramm","steam_id":76561198057537744,"connected_time":2212000000000,"state":"active","ping":123},{"user_id":258,"name":"Mati [EST]","steam_id":76561197994743813,"connected_time":3020000000000,"state":"active","ping":104},{"user_id":251,"name":"Lennox","steam_id":76561198069063554,"connected_time":3601000000000,"state":"active","ping":45},{"user_id":263,"name":"Steven Universe ‚ô¶","steam_id":76561198162858633,"connected_time":2216000000000,"state":"active","ping":79},{"user_id":288,"name":"JIMMY  fakin POHUISON","steam_id":76561198412980333,"connected_time":617000000000,"state":"active","ping":76},{"user_id":253,"name":"Milca_11","steam_id":76561198848650365,"connected_time":3584000000000,"state":"active","ping":88}]},{"server_id":309,"name":"Uncletopia | Frankfurt | 4 | All Maps","name_short":"frk-4","host":"frk-1.de.uncletopia.com","port":27045,"enabled":true,"region":"eu","cc":"de","latitude":50.110924,"longitude":8.682127,"reserved":0,"last_update":"0001-01-01T00:00:00Z","name_a2s":"Uncletopia | Frankfurt | 4 | All Maps","protocol":17,"map":"pl_upward","folder":"tf","game":"Team Fortress","app_id":440,"player_count":21,"max_players":24,"Bots":0,"server_type":"Dedicated","server_os":"Linux","password":true,"vac":true,"version":"7742253","steam_id":85568392924504275,"keywords":["nocrits","nodmgspread","payload","uncletopia"],"game_id":440,"stv_port":27046,"stv_name":"Uncletopia | Frankfurt | 4 | All Maps | STV","players":[{"user_id":312,"name":"Antonino","steam_id":76561199217335375,"connected_time":144000000000,"state":"active","ping":48},{"user_id":251,"name":"Illecillewaet","steam_id":76561198005935655,"connected_time":3807000000000,"state":"active","ping":105},{"user_id":279,"name":"Krim","steam_id":76561199070070579,"connected_time":2494000000000,"state":"active","ping":64},{"user_id":314,"name":"Wi‚Äèldfap","steam_id":76561199465637794,"connected_time":129000000000,"state":"active","ping":67},{"user_id":277,"name":"BaTTLe","steam_id":76561198003936517,"connected_time":2526000000000,"state":"active","ping":63},{"user_id":310,"name":"kees","steam_id":76561197995392041,"connected_time":593000000000,"state":"active","ping":53},{"user_id":290,"name":"a gangsta","steam_id":76561198086709652,"connected_time":2269000000000,"state":"active","ping":60},{"user_id":300,"name":"KuhlerKarl","steam_id":76561198411211564,"connected_time":1238000000000,"state":"active","ping":61},{"user_id":301,"name":"Aesthetic Alcoholism","steam_id":76561198044418968,"connected_time":1231000000000,"state":"active","ping":47},{"user_id":281,"name":"o_o","steam_id":76561198113045011,"connected_time":2490000000000,"state":"active","ping":90},{"user_id":245,"name":"zdX","steam_id":76561198163735277,"connected_time":4165000000000,"state":"active","ping":50},{"user_id":311,"name":"D14F","steam_id":76561198838246851,"connected_time":586000000000,"state":"active","ping":73},{"user_id":265,"name":"Salih","steam_id":76561198287934839,"connected_time":3087000000000,"state":"active","ping":51},{"user_id":270,"name":"Boycie","steam_id":76561198179116027,"connected_time":2851000000000,"state":"active","ping":72},{"user_id":294,"name":"Spanns","steam_id":76561197998349793,"connected_time":1556000000000,"state":"active","ping":69},{"user_id":296,"name":"hananamanna","steam_id":76561198006570285,"connected_time":1460000000000,"state":"active","ping":105},{"user_id":303,"name":"Seail_M","steam_id":76561198002405605,"connected_time":1169000000000,"state":"active","ping":54},{"user_id":293,"name":"Pvt. Grichmann","steam_id":76561197977589522,"connected_time":1735000000000,"state":"active","ping":71},{"user_id":288,"name":"kaelan!","steam_id":76561198001425310,"connected_time":2419000000000,"state":"active","ping":75},{"user_id":304,"name":"PANK_Y","steam_id":76561198327715144,"connected_time":1141000000000,"state":"active","ping":63},{"user_id":313,"name":"Dan","steam_id":76561198314800357,"connected_time":144000000000,"state":"active","ping":108}]},{"server_id":310,"name":"Uncletopia | Frankfurt | 5 | All Maps","name_short":"frk-5","host":"frk-1.de.uncletopia.com","port":27055,"enabled":true,"region":"eu","cc":"de","latitude":50.110924,"longitude":8.682127,"reserved":0,"last_update":"0001-01-01T00:00:00Z","name_a2s":"Uncletopia | Frankfurt | 5 | All Maps","protocol":17,"map":"pl_borneo","folder":"tf","game":"Team Fortress","app_id":440,"player_count":22,"max_players":24,"Bots":0,"server_type":"Dedicated","server_os":"Linux","password":true,"vac":true,"version":"7742253","steam_id":85568392924504277,"keywords":["nocrits","nodmgspread","payload","uncletopia"],"game_id":440,"stv_port":27056,"stv_name":"Uncletopia | Frankfurt | 5 | All Maps | STV","players":[{"user_id":490,"name":"Reece","steam_id":76561198148030229,"connected_time":3180000000000,"state":"active","ping":80},{"user_id":435,"name":"The Pyro Chef","steam_id":76561198069610259,"connected_time":6372000000000,"state":"active","ping":61},{"user_id":483,"name":"cinny","steam_id":76561198832112629,"connected_time":3762000000000,"state":"active","ping":87},{"user_id":436,"name":"Tresnov","steam_id":76561198068106802,"connected_time":6361000000000,"state":"active","ping":54},{"user_id":437,"name":"Keelan","steam_id":76561198013665543,"connected_time":6291000000000,"state":"active","ping":81},{"user_id":506,"name":"Hans","steam_id":76561198030065935,"connected_time":487000000000,"state":"active","ping":57},{"user_id":508,"name":"frosty","steam_id":76561198094560834,"connected_time":243000000000,"state":"active","ping":61},{"user_id":497,"name":"stormcrow","steam_id":76561198030259899,"connected_time":2574000000000,"state":"active","ping":78},{"user_id":509,"name":"trans werewolf","steam_id":76561198107235989,"connected_time":115000000000,"state":"active","ping":64},{"user_id":495,"name":"eduardo","steam_id":76561198014491925,"connected_time":2802000000000,"state":"active","ping":75},{"user_id":510,"name":"–ü–û–ù–û–°","steam_id":76561198974241579,"connected_time":96000000000,"state":"active","ping":93},{"user_id":491,"name":"Bunnygirl Stalin","steam_id":76561199044101274,"connected_time":3172000000000,"state":"active","ping":64},{"user_id":498,"name":"Koda","steam_id":76561198142696299,"connected_time":2570000000000,"state":"active","ping":63},{"user_id":488,"name":"Lukas","steam_id":76561198454286820,"connected_time":3401000000000,"state":"active","ping":64},{"user_id":500,"name":"O. Wilson","steam_id":76561198090751331,"connected_time":2561000000000,"state":"active","ping":63},{"user_id":493,"name":"noodles19","steam_id":76561198965900071,"connected_time":2972000000000,"state":"active","ping":88},{"user_id":476,"name":"Decadence","steam_id":76561198206829379,"connected_time":3962000000000,"state":"active","ping":82},{"user_id":477,"name":"mt","steam_id":76561197961319303,"connected_time":3900000000000,"state":"active","ping":45},{"user_id":478,"name":"Borat","steam_id":76561198122226417,"connected_time":3898000000000,"state":"active","ping":58},{"user_id":505,"name":"Msuni","steam_id":76561198334903726,"connected_time":1295000000000,"state":"active","ping":81},{"user_id":489,"name":"RattaGams","steam_id":76561198866259365,"connected_time":3382000000000,"state":"active","ping":93},{"user_id":502,"name":"Dee","steam_id":76561198257836694,"connected_time":2545000000000,"state":"active","ping":55}]},{"server_id":311,"name":"Uncletopia | Frankfurt | 6 | All Maps","name_short":"frk-6","host":"frk-1.de.uncletopia.com","port":27065,"enabled":true,"region":"eu","cc":"de","latitude":50.110924,"longitude":8.682127,"reserved":0,"last_update":"0001-01-01T00:00:00Z","name_a2s":"Uncletopia | Frankfurt | 6 | All Maps","protocol":17,"map":"pl_upward","folder":"tf","game":"Team Fortress","app_id":440,"player_count":24,"max_players":24,"Bots":0,"server_type":"Dedicated","server_os":"Linux","password":true,"vac":true,"version":"7742253","steam_id":85568392924504278,"keywords":["nocrits","nodmgspread","payload","uncletopia"],"game_id":440,"stv_port":27066,"stv_name":"Uncletopia | Frankfurt | 6 | All Maps | STV","players":[{"user_id":581,"name":"mole","steam_id":76561198057766853,"connected_time":1073000000000,"state":"active","ping":53},{"user_id":531,"name":"Heracles slayer of Hydra","steam_id":76561198067204908,"connected_time":3377000000000,"state":"active","ping":66},{"user_id":590,"name":"jones","steam_id":76561198044434971,"connected_time":834000000000,"state":"active","ping":62},{"user_id":591,"name":"Cuthbert","steam_id":76561198204649481,"connected_time":821000000000,"state":"active","ping":99},{"user_id":532,"name":"Hydra #2","steam_id":76561198170609049,"connected_time":3259000000000,"state":"active","ping":77},{"user_id":583,"name":"she strogan me off til i beef","steam_id":76561198166555207,"connected_time":1046000000000,"state":"active","ping":73},{"user_id":533,"name":"Hydra","steam_id":76561198097507847,"connected_time":3254000000000,"state":"active","ping":75},{"user_id":584,"name":"JAR OF PISS","steam_id":76561199068731584,"connected_time":1036000000000,"state":"active","ping":58},{"user_id":600,"name":"Polech","steam_id":76561199187916824,"connected_time":452000000000,"state":"active","ping":87},{"user_id":536,"name":"MAJAX","steam_id":76561198254828632,"connected_time":3132000000000,"state":"active","ping":69},{"user_id":599,"name":"lord-carlos","steam_id":76561198025150761,"connected_time":496000000000,"state":"active","ping":57},{"user_id":572,"name":"beeb","steam_id":76561198033460021,"connected_time":1460000000000,"state":"active","ping":87},{"user_id":592,"name":"Human Rights","steam_id":76561198102420849,"connected_time":783000000000,"state":"active","ping":62},{"user_id":589,"name":"Regan","steam_id":76561198100631086,"connected_time":908000000000,"state":"active","ping":64},{"user_id":575,"name":"Ginger Jesus","steam_id":76561198052386458,"connected_time":1380000000000,"state":"active","ping":140},{"user_id":576,"name":"√ì√∞inn","steam_id":76561198132690562,"connected_time":1350000000000,"state":"active","ping":54},{"user_id":593,"name":"i love my ball","steam_id":76561198206177349,"connected_time":779000000000,"state":"active","ping":62},{"user_id":569,"name":"flora","steam_id":76561197994492154,"connected_time":1703000000000,"state":"active","ping":73},{"user_id":540,"name":"Steen","steam_id":76561198122992510,"connected_time":2861000000000,"state":"active","ping":52},{"user_id":597,"name":"SoupER","steam_id":76561198063056668,"connected_time":668000000000,"state":"active","ping":54},{"user_id":595,"name":"Teddy K","steam_id":76561198361429984,"connected_time":765000000000,"state":"active","ping":70},{"user_id":568,"name":"yd","steam_id":76561198214336561,"connected_time":1707000000000,"state":"active","ping":47},{"user_id":598,"name":"Remu Rokotiili","steam_id":76561198271646812,"connected_time":550000000000,"state":"active","ping":78},{"user_id":596,"name":"Jar","steam_id":76561198156384007,"connected_time":700000000000,"state":"active","ping":70}]},{"server_id":23,"name":"Uncletopia | Frankfurt | 7 | Stopwatch Beta","name_short":"frk-7","host":"frk-1.de.uncletopia.com","port":27075,"enabled":true,"region":"eu","cc":"de","latitude":50.110924,"longitude":8.682127,"reserved":0,"last_update":"0001-01-01T00:00:00Z","name_a2s":"Uncletopia | Frankfurt | 7 | Stopwatch Beta","protocol":17,"map":"pl_badwater","folder":"tf","game":"Team Fortress","app_id":440,"player_count":0,"max_players":24,"Bots":0,"server_type":"Dedicated","server_os":"Linux","password":true,"vac":true,"version":"7742253","steam_id":85568392924742827,"keywords":["nocrits","nodmgspread","payload","uncletopia"],"game_id":440,"stv_port":27076,"stv_name":"Uncletopia | Frankfurt | 7 | Stopwatch Beta | STV","players":null},{"server_id":24,"name":"Uncletopia | Frankfurt | 8 | Community","name_short":"frk-8","host":"frk-1.de.uncletopia.com","port":27085,"enabled":true,"region":"eu","cc":"de","latitude":50.110924,"longitude":8.682127,"reserved":0,"last_update":"0001-01-01T00:00:00Z","name_a2s":"Uncletopia | Frankfurt | 8 | Community","protocol":17,"map":"workshop/cp_overgrown_rc7b.ugc503939302","folder":"tf","game":"Team Fortress","app_id":440,"player_count":0,"max_players":24,"Bots":0,"server_type":"Dedicated","server_os":"Linux","password":true,"vac":true,"version":"7742253","steam_id":85568392924742828,"keywords":["cp","nocrits","nodmgspread","uncletopia"],"game_id":440,"stv_port":27086,"stv_name":"Uncletopia | Frankfurt | 8 | Community | STV","players":null},{"server_id":202,"name":"Uncletopia | Hong Kong | 1 | All Maps","name_short":"hgk-1","host":"hgk-1.hk.uncletopia.com","port":27015,"enabled":true,"region":"asia","cc":"hk","latitude":22.302711,"longitude":114.177216,"reserved":0,"last_update":"0001-01-01T00:00:00Z","name_a2s":"Uncletopia | Hong Kong | 1 | All Maps","protocol":17,"map":"pl_badwater","folder":"tf","game":"Team Fortress","app_id":440,"player_count":0,"max_players":24,"Bots":0,"server_type":"Dedicated","server_os":"Linux","password":true,"vac":true,"version":"7742253","steam_id":85568392924494504,"keywords":["nocrits","nodmgspread","payload","uncletopia"],"game_id":440,"stv_port":27016,"stv_name":"Uncletopia | Hong Kong | 1 | All Maps | STV","players":null},{"server_id":1,"name":"Uncletopia | Los Angeles | 1 | All Maps","name_short":"lax-1","host":"lax-1.us.uncletopia.com","port":27015,"enabled":true,"region":"us-west","cc":"us","latitude":33.94279,"longitude":-118.41004,"reserved":0,"last_update":"0001-01-01T00:00:00Z","name_a2s":"Uncletopia | Los Angeles | 1 | All Maps","protocol":17,"map":"pl_snowycoast","folder":"tf","game":"Team Fortress","app_id":440,"player_count":24,"max_players":24,"Bots":0,"server_type":"Dedicated","server_os":"Linux","password":true,"vac":true,"version":"7742253","steam_id":85568392924469991,"keywords":["nocrits","nodmgspread","payload","uncletopia"],"game_id":440,"stv_port":27016,"stv_name":"Uncletopia | Los Angeles | 1 | All Maps | STV","players":[{"user_id":216,"name":"JellyParrot","steam_id":76561199190990163,"connected_time":330000000000,"state":"active","ping":95},{"user_id":200,"name":"digital love","steam_id":76561198265633146,"connected_time":2182000000000,"state":"active","ping":75},{"user_id":217,"name":"Soda","steam_id":76561198219209367,"connected_time":314000000000,"state":"active","ping":52},{"user_id":206,"name":"Jesus Loves You57","steam_id":76561199058833769,"connected_time":1277000000000,"state":"active","ping":48},{"user_id":210,"name":"DORATHEEXPLORER","steam_id":76561198124773931,"connected_time":953000000000,"state":"active","ping":50},{"user_id":205,"name":"OzmaRules1995","steam_id":76561198407913964,"connected_time":1424000000000,"state":"active","ping":51},{"user_id":218,"name":"0ll0","steam_id":76561198841446030,"connected_time":309000000000,"state":"active","ping":52},{"user_id":179,"name":"sly1","steam_id":76561198049014977,"connected_time":3854000000000,"state":"active","ping":58},{"user_id":213,"name":"skye","steam_id":76561198111497254,"connected_time":719000000000,"state":"active","ping":45},{"user_id":147,"name":"Schnitz","steam_id":76561198265484253,"connected_time":5805000000000,"state":"active","ping":68},{"user_id":219,"name":"Stapler","steam_id":76561198099295077,"connected_time":308000000000,"state":"active","ping":54},{"user_id":220,"name":"Frongus","steam_id":76561197979056451,"connected_time":295000000000,"state":"active","ping":75},{"user_id":221,"name":"i am splatoon (ALL)","steam_id":76561198035698704,"connected_time":289000000000,"state":"active","ping":64},{"user_id":176,"name":"jungus","steam_id":76561198129862008,"connected_time":3921000000000,"state":"active","ping":45},{"user_id":201,"name":"Sante (149cm)","steam_id":76561198063669632,"connected_time":1577000000000,"state":"active","ping":92},{"user_id":222,"name":"SuaveFrenchman","steam_id":76561198043762683,"connected_time":237000000000,"state":"active","ping":55},{"user_id":208,"name":"JimmySquid","steam_id":76561198254242530,"connected_time":1145000000000,"state":"active","ping":98},{"user_id":198,"name":"The Lonely Croc","steam_id":76561198123241396,"connected_time":2262000000000,"state":"active","ping":81},{"user_id":202,"name":"azureglxy","steam_id":76561198861388315,"connected_time":1564000000000,"state":"active","ping":38},{"user_id":215,"name":"Frog","steam_id":76561198086409943,"connected_time":357000000000,"state":"active","ping":44},{"user_id":212,"name":"Zelumie","steam_id":76561198147335801,"connected_time":879000000000,"state":"active","ping":109},{"user_id":193,"name":"BlueBruh","steam_id":76561199078613052,"connected_time":2812000000000,"state":"active","ping":95},{"user_id":223,"name":"hamdrinker985","steam_id":76561199241807676,"connected_time":200000000000,"state":"active","ping":88},{"user_id":224,"name":"doritos girl","steam_id":76561198453203619,"connected_time":51000000000,"state":"active","ping":46}]},{"server_id":112,"name":"Uncletopia | Los Angeles | 2 | All Maps","name_short":"lax-2","host":"lax-1.us.uncletopia.com","port":27025,"enabled":true,"region":"us-west","cc":"us","latitude":33.94279,"longitude":-118.41004,"reserved":0,"last_update":"0001-01-01T00:00:00Z","name_a2s":"Uncletopia | Los Angeles | 2 | All Maps","protocol":17,"map":"koth_highpass","folder":"tf","game":"Team Fortress","app_id":440,"player_count":0,"max_players":24,"Bots":0,"server_type":"Dedicated","server_os":"Linux","password":true,"vac":true,"version":"7742253","steam_id":85568392924469992,"keywords":["cp","nocrits","nodmgspread","uncletopia"],"game_id":440,"stv_port":27026,"stv_name":"Uncletopia | Los Angeles | 2 | All Maps | STV","players":null},{"server_id":324,"name":"Uncletopia | Los Angeles | 3 | All Maps","name_short":"lax-3","host":"lax-1.us.uncletopia.com","port":27035,"enabled":true,"region":"us-west","cc":"us","latitude":33.94279,"longitude":-118.41004,"reserved":0,"last_update":"0001-01-01T00:00:00Z","name_a2s":"Uncletopia | Los Angeles | 3 | All Maps","protocol":17,"map":"koth_viaduct","folder":"tf","game":"Team Fortress","app_id":440,"player_count":0,"max_players":24,"Bots":0,"server_type":"Dedicated","server_os":"Linux","password":true,"vac":true,"version":"7742253","steam_id":85568392924510198,"keywords":["cp","nocrits","nodmgspread","uncletopia"],"game_id":440,"stv_port":27036,"stv_name":"Uncletopia | Los Angeles | 3 | All Maps | STV","players":null},{"server_id":25,"name":"Uncletopia | Los Angeles | 4 | Stopwatch Beta","name_short":"lax-4","host":"lax-1.us.uncletopia.com","port":27045,"enabled":true,"region":"us-west","cc":"us","latitude":33.94279,"longitude":-118.41004,"reserved":0,"last_update":"0001-01-01T00:00:00Z","name_a2s":"Uncletopia | Los Angeles | 4 | Stopwatch Beta","protocol":17,"map":"pl_upward","folder":"tf","game":"Team Fortress","app_id":440,"player_count":0,"max_players":24,"Bots":0,"server_type":"Dedicated","server_os":"Linux","password":true,"vac":true,"version":"7742253","steam_id":85568392924510199,"keywords":["nocrits","nodmgspread","payload","uncletopia"],"game_id":440,"stv_port":27046,"stv_name":"Uncletopia | Los Angeles | 4 | Stopwatch Beta | STV","players":null},{"server_id":11,"name":"Uncletopia | London | 1 | All Maps","name_short":"lon-1","host":"lon-1.uk.uncletopia.com","port":27015,"enabled":true,"region":"eu","cc":"gb","latitude":51.509865,"longitude":-0.118092,"reserved":0,"last_update":"0001-01-01T00:00:00Z","name_a2s":"Uncletopia | London | 1 | All Maps","protocol":17,"map":"pl_badwater","folder":"tf","game":"Team Fortress","app_id":440,"player_count":24,"max_players":24,"Bots":0,"server_type":"Dedicated","server_os":"Linux","password":true,"vac":true,"version":"7742253","steam_id":85568392924367362,"keywords":["nocrits","nodmgspread","payload","uncletopia"],"game_id":440,"stv_port":27016,"stv_name":"Uncletopia | London | 1 | All Maps | STV","players":[{"user_id":476,"name":"Rocadinis","steam_id":76561198095910616,"connected_time":5246000000000,"state":"active","ping":95},{"user_id":601,"name":"Joseph Stalin LFT","steam_id":76561198033199746,"connected_time":241000000000,"state":"active","ping":57},{"user_id":540,"name":"jones","steam_id":76561198073975078,"connected_time":3760000000000,"state":"active","ping":47},{"user_id":594,"name":"Dominus.","steam_id":76561199065917088,"connected_time":1403000000000,"state":"active","ping":62},{"user_id":600,"name":"chrissy","steam_id":76561198096547662,"connected_time":828000000000,"state":"active","ping":51},{"user_id":485,"name":"p!ke","steam_id":76561198416081952,"connected_time":4968000000000,"state":"active","ping":62},{"user_id":577,"name":"C1nnamon_cookie","steam_id":76561199155374388,"connected_time":3206000000000,"state":"active","ping":77},{"user_id":542,"name":"jorogumo","steam_id":76561198838277022,"connected_time":3748000000000,"state":"active","ping":74},{"user_id":585,"name":"_Starlight_","steam_id":76561197993885738,"connected_time":2115000000000,"state":"active","ping":78},{"user_id":586,"name":"dagaminking","steam_id":76561198144209072,"connected_time":1945000000000,"state":"active","ping":44},{"user_id":488,"name":"ViktorYoshi","steam_id":76561199157555246,"connected_time":4961000000000,"state":"active","ping":64},{"user_id":597,"name":"KAISER OF KRIEG","steam_id":76561198011223050,"connected_time":1290000000000,"state":"active","ping":44},{"user_id":578,"name":"SuperBob103","steam_id":76561199175360012,"connected_time":3201000000000,"state":"active","ping":50},{"user_id":596,"name":"Dragco","steam_id":76561198133902802,"connected_time":1306000000000,"state":"active","ping":74},{"user_id":579,"name":"Toofy","steam_id":76561197989727907,"connected_time":3190000000000,"state":"active","ping":38},{"user_id":598,"name":"dec","steam_id":76561198009660168,"connected_time":1283000000000,"state":"active","ping":52},{"user_id":500,"name":"SOPHIIEE","steam_id":76561198443798981,"connected_time":4772000000000,"state":"active","ping":59},{"user_id":501,"name":"BitterStep","steam_id":76561199103959197,"connected_time":4756000000000,"state":"active","ping":100},{"user_id":602,"name":"Eimantas","steam_id":76561198041701187,"connected_time":56000000000,"state":"active","ping":52},{"user_id":592,"name":"SpaceCake","steam_id":76561198151394497,"connected_time":1508000000000,"state":"active","ping":80},{"user_id":574,"name":"LavenderJayJay","steam_id":76561198966667657,"connected_time":3228000000000,"state":"active","ping":46},{"user_id":494,"name":"LOBZIK","steam_id":76561198114830120,"connected_time":4881000000000,"state":"active","ping":77},{"user_id":576,"name":"–ì–¥–µ –º–æ—Ä–µ?","steam_id":76561197979625544,"connected_time":3217000000000,"state":"active","ping":89},{"user_id":584,"name":"ArekanPL","steam_id":76561198306811916,"connected_time":2783000000000,"state":"active","ping":80}]},{"server_id":114,"name":"Uncletopia | London | 2 | All Maps","name_short":"lon-2","host":"lon-1.uk.uncletopia.com","port":27025,"enabled":true,"region":"eu","cc":"gb","latitude":51.509865,"longitude":-0.118092,"reserved":0,"last_update":"0001-01-01T00:00:00Z","name_a2s":"Uncletopia | London | 2 | All Maps","protocol":17,"map":"pl_badwater","folder":"tf","game":"Team Fortress","app_id":440,"player_count":24,"max_players":24,"Bots":0,"server_type":"Dedicated","server_os":"Linux","password":true,"vac":true,"version":"7742253","steam_id":85568392924470941,"keywords":["nocrits","nodmgspread","payload","uncletopia"],"game_id":440,"stv_port":27026,"stv_name":"Uncletopia | London | 2 | All Maps | STV","players":[{"user_id":713,"name":"Mr_Pulse_","steam_id":76561198095001602,"connected_time":2836000000000,"state":"active","ping":98},{"user_id":734,"name":"Joker‚ë¶‚ë¶‚ë¶¬≥","steam_id":76561197992353350,"connected_time":973000000000,"state":"active","ping":78},{"user_id":748,"name":"stoicist","steam_id":76561197985213048,"connected_time":150000000000,"state":"active","ping":49},{"user_id":749,"name":"Caruzon - Obismal","steam_id":76561198036211170,"connected_time":114000000000,"state":"active","ping":73},{"user_id":745,"name":"Dale ‚ù§","steam_id":76561197995189004,"connected_time":253000000000,"state":"active","ping":50},{"user_id":710,"name":"mo","steam_id":76561198029399151,"connected_time":3113000000000,"state":"active","ping":59},{"user_id":706,"name":"Doughy","steam_id":76561198044084210,"connected_time":3595000000000,"state":"active","ping":65},{"user_id":750,"name":"Cat Lad","steam_id":76561198315009320,"connected_time":104000000000,"state":"spawning","ping":60},{"user_id":667,"name":"C DAT SAW!?","steam_id":76561198117247903,"connected_time":5014000000000,"state":"active","ping":30},{"user_id":623,"name":"‚òÖ sat1ra","steam_id":76561198011382701,"connected_time":9516000000000,"state":"active","ping":79},{"user_id":740,"name":"@rthur","steam_id":76561198010152299,"connected_time":763000000000,"state":"active","ping":45},{"user_id":738,"name":"‚Ä¢stepbro‚Ä¢","steam_id":76561198119607160,"connected_time":840000000000,"state":"active","ping":77},{"user_id":709,"name":"zinzyk","steam_id":76561198128011822,"connected_time":3411000000000,"state":"active","ping":62},{"user_id":751,"name":"Freezer Fox YT","steam_id":76561198060542607,"connected_time":86000000000,"state":"active","ping":161},{"user_id":727,"name":"Jaunedice","steam_id":76561198171063246,"connected_time":1299000000000,"state":"active","ping":47},{"user_id":702,"name":"Yes, 100 Percent","steam_id":76561198104896547,"connected_time":3698000000000,"state":"active","ping":82},{"user_id":752,"name":"Dosbros4","steam_id":76561198176367922,"connected_time":76000000000,"state":"active","ping":72},{"user_id":717,"name":"kbbq","steam_id":76561198346638308,"connected_time":2746000000000,"state":"active","ping":51},{"user_id":728,"name":"aura","steam_id":76561197991687793,"connected_time":1265000000000,"state":"active","ping":74},{"user_id":747,"name":"nameert","steam_id":76561198068081430,"connected_time":195000000000,"state":"active","ping":44},{"user_id":722,"name":"Saken","steam_id":76561198049075295,"connected_time":1607000000000,"state":"active","ping":59},{"user_id":683,"name":"Gi-Deuxi","steam_id":76561198121260981,"connected_time":4228000000000,"state":"active","ping":45},{"user_id":739,"name":"stonebum","steam_id":76561198057004606,"connected_time":835000000000,"state":"active","ping":59},{"user_id":708,"name":"gnarly business","steam_id":76561198832688767,"connected_time":3465000000000,"state":"active","ping":53}]},{"server_id":320,"name":"Uncletopia | London | 3 | All Maps","name_short":"lon-3","host":"lon-1.uk.uncletopia.com","port":27035,"enabled":true,"region":"eu","cc":"gb","latitude":51.509865,"longitude":-0.118092,"reserved":0,"last_update":"0001-01-01T00:00:00Z","name_a2s":"Uncletopia | London | 3 | All Maps","protocol":17,"map":"cp_mountainlab","folder":"tf","game":"Team Fortress","app_id":440,"player_count":0,"max_players":24,"Bots":0,"server_type":"Dedicated","server_os":"Linux","password":true,"vac":true,"version":"7742253","steam_id":85568392924510192,"keywords":["cp","nocrits","nodmgspread","uncletopia"],"game_id":440,"stv_port":27036,"stv_name":"Uncletopia | London | 3 | All Maps | STV","players":null},{"server_id":321,"name":"Uncletopia | London | 4 | All Maps","name_short":"lon-4","host":"lon-1.uk.uncletopia.com","port":27045,"enabled":true,"region":"eu","cc":"gb","latitude":51.509865,"longitude":-0.118092,"reserved":0,"last_update":"0001-01-01T00:00:00Z","name_a2s":"Uncletopia | London | 4 | All Maps","protocol":17,"map":"cp_steel","folder":"tf","game":"Team Fortress","app_id":440,"player_count":23,"max_players":24,"Bots":0,"server_type":"Dedicated","server_os":"Linux","password":true,"vac":true,"version":"7742253","steam_id":85568392924510193,"keywords":["cp","nocrits","nodmgspread","uncletopia"],"game_id":440,"stv_port":27046,"stv_name":"Uncletopia | London | 4 | All Maps | STV","players":[{"user_id":661,"name":"Baron","steam_id":76561198021901783,"connected_time":5071000000000,"state":"active","ping":46},{"user_id":717,"name":"Smokio","steam_id":76561198069650580,"connected_time":2060000000000,"state":"active","ping":89},{"user_id":663,"name":"Horo","steam_id":76561198009504508,"connected_time":4905000000000,"state":"active","ping":59},{"user_id":698,"name":"Ze","steam_id":76561198314901652,"connected_time":3144000000000,"state":"active","ping":69},{"user_id":656,"name":"Foxyz","steam_id":76561198040642992,"connected_time":5819000000000,"state":"active","ping":96},{"user_id":640,"name":"my m*rge","steam_id":76561198106049954,"connected_time":6480000000000,"state":"active","ping":75},{"user_id":735,"name":"King Kunito","steam_id":76561198042549177,"connected_time":787000000000,"state":"active","ping":45},{"user_id":740,"name":"TxrraFINN","steam_id":76561199006591691,"connected_time":535000000000,"state":"active","ping":50},{"user_id":737,"name":"Roasted Toast","steam_id":76561198045051290,"connected_time":656000000000,"state":"active","ping":47},{"user_id":726,"name":"grat","steam_id":76561198109058754,"connected_time":987000000000,"state":"active","ping":66},{"user_id":723,"name":"lag","steam_id":76561199439030016,"connected_time":1104000000000,"state":"active","ping":149},{"user_id":637,"name":"homer conundrum","steam_id":76561198043601838,"connected_time":6951000000000,"state":"active","ping":59},{"user_id":727,"name":"FTN | Shakaman","steam_id":76561198039829758,"connected_time":981000000000,"state":"active","ping":125},{"user_id":662,"name":"Teecho","steam_id":76561197995269610,"connected_time":5061000000000,"state":"active","ping":48},{"user_id":728,"name":"FTN | Nice1","steam_id":76561198026969020,"connected_time":970000000000,"state":"active","ping":78},{"user_id":729,"name":"My left foot itches","steam_id":76561198078411001,"connected_time":954000000000,"state":"active","ping":88},{"user_id":730,"name":"BlueBlueFox","steam_id":76561198053817230,"connected_time":953000000000,"state":"active","ping":80},{"user_id":671,"name":"Kaypher","steam_id":76561198858124606,"connected_time":4636000000000,"state":"active","ping":81},{"user_id":731,"name":"Jack Baker","steam_id":76561198145890045,"connected_time":949000000000,"state":"active","ping":62},{"user_id":732,"name":"MyFirstTimeeeeelel","steam_id":76561199235376543,"connected_time":936000000000,"state":"active","ping":54},{"user_id":736,"name":"Jahusi!*","steam_id":76561197992445165,"connected_time":709000000000,"state":"active","ping":65},{"user_id":741,"name":"MG TF 2004!","steam_id":76561198042975907,"connected_time":232000000000,"state":"active","ping":40},{"user_id":709,"name":"The Stupid Fucking Gamer","steam_id":76561198068213670,"connected_time":2646000000000,"state":"active","ping":58}]},{"server_id":21,"name":"Uncletopia | London | 5 | All Maps","name_short":"lon-5","host":"lon-1.uk.uncletopia.com","port":27055,"enabled":true,"region":"eu","cc":"gb","latitude":51.509865,"longitude":-0.118092,"reserved":0,"last_update":"0001-01-01T00:00:00Z","name_a2s":"Uncletopia | London | 5 | All Maps","protocol":17,"map":"pl_frontier_final","folder":"tf","game":"Team Fortress","app_id":440,"player_count":23,"max_players":24,"Bots":0,"server_type":"Dedicated","server_os":"Linux","password":true,"vac":true,"version":"7742253","steam_id":85568392924742829,"keywords":["nocrits","nodmgspread","payload","uncletopia"],"game_id":440,"stv_port":27056,"stv_name":"Uncletopia | London | 5 | All Maps | STV","players":[{"user_id":265,"name":"Wawee","steam_id":76561198446204622,"connected_time":272000000000,"state":"active","ping":122},{"user_id":249,"name":"GodOfGobboz","steam_id":76561198154677956,"connected_time":1567000000000,"state":"active","ping":77},{"user_id":238,"name":"Fraz #savetf2","steam_id":76561198067764552,"connected_time":2328000000000,"state":"active","ping":52},{"user_id":250,"name":"tiagrossin","steam_id":76561198075391779,"connected_time":1559000000000,"state":"active","ping":74},{"user_id":251,"name":"rummy","steam_id":76561197997573379,"connected_time":1542000000000,"state":"active","ping":36},{"user_id":253,"name":"chekvanovartem","steam_id":76561199418182680,"connected_time":1499000000000,"state":"active","ping":86},{"user_id":260,"name":"Big Time Bobby","steam_id":76561198935266162,"connected_time":1315000000000,"state":"active","ping":122},{"user_id":208,"name":"Rick Astley's left foot","steam_id":76561198177287273,"connected_time":3231000000000,"state":"active","ping":50},{"user_id":267,"name":"Lubrsi","steam_id":76561198040208195,"connected_time":220000000000,"state":"active","ping":52},{"user_id":268,"name":"zuuurv","steam_id":76561198246456488,"connected_time":210000000000,"state":"active","ping":60},{"user_id":225,"name":"Stuf","steam_id":76561198077202296,"connected_time":2550000000000,"state":"active","ping":47},{"user_id":262,"name":"PolarTwin","steam_id":76561198071157528,"connected_time":372000000000,"state":"active","ping":65},{"user_id":270,"name":",zem","steam_id":76561198864329072,"connected_time":201000000000,"state":"active","ping":102},{"user_id":256,"name":"Danzen","steam_id":76561198084438672,"connected_time":1476000000000,"state":"active","ping":55},{"user_id":243,"name":"Believe it's magic!","steam_id":76561198152918354,"connected_time":1727000000000,"state":"active","ping":58},{"user_id":237,"name":"effort","steam_id":76561198198581079,"connected_time":2331000000000,"state":"active","ping":65},{"user_id":244,"name":"Mor'du","steam_id":76561198274105878,"connected_time":1689000000000,"state":"active","ping":77},{"user_id":235,"name":".bRdyyy","steam_id":76561198057256978,"connected_time":2369000000000,"state":"active","ping":56},{"user_id":261,"name":"mq","steam_id":76561198091888948,"connected_time":415000000000,"state":"active","ping":60},{"user_id":257,"name":"Super Weenie Hut Jr","steam_id":76561198254825633,"connected_time":1464000000000,"state":"active","ping":45},{"user_id":231,"name":"coelacanth","steam_id":76561198055573915,"connected_time":2482000000000,"state":"active","ping":54},{"user_id":264,"name":"One armed fiddle enthusiast","steam_id":76561198045847051,"connected_time":337000000000,"state":"active","ping":61},{"user_id":234,"name":"arcSolver","steam_id":76561198212013944,"connected_time":2437000000000,"state":"active","ping":57}]},{"server_id":22,"name":"Uncletopia | London | 6 | All Maps","name_short":"lon-6","host":"lon-1.uk.uncletopia.com","port":27065,"enabled":true,"region":"eu","cc":"gb","latitude":51.509865,"longitude":-0.118092,"reserved":0,"last_update":"0001-01-01T00:00:00Z","name_a2s":"Uncletopia | London | 6 | All Maps","protocol":17,"map":"koth_lakeside_final","folder":"tf","game":"Team Fortress","app_id":440,"player_count":0,"max_players":24,"Bots":0,"server_type":"Dedicated","server_os":"Linux","password":true,"vac":true,"version":"7742253","steam_id":85568392924742830,"keywords":["cp","nocrits","nodmgspread","uncletopia"],"game_id":440,"stv_port":27066,"stv_name":"Uncletopia | London | 6 | All Maps | STV","players":null},{"server_id":40,"name":"Uncletopia | London | 7 | No Payload","name_short":"lon-7","host":"lon-1.uk.uncletopia.com","port":27075,"enabled":true,"region":"eu","cc":"gb","latitude":51.509865,"longitude":-0.118092,"reserved":0,"last_update":"0001-01-01T00:00:00Z","name_a2s":"Uncletopia | London | 7 | No Payload","protocol":17,"map":"plr_bananabay","folder":"tf","game":"Team Fortress","app_id":440,"player_count":0,"max_players":24,"Bots":0,"server_type":"Dedicated","server_os":"Linux","password":true,"vac":true,"version":"7742253","steam_id":85568392924964314,"keywords":["nocrits","nodmgspread","payload","uncletopia"],"game_id":440,"stv_port":27076,"stv_name":"Uncletopia | London | 7 | No Payload | STV","players":null},{"server_id":41,"name":"Uncletopia | London | 8 | Community","name_short":"lon-8","host":"lon-1.uk.uncletopia.com","port":27085,"enabled":true,"region":"eu","cc":"gb","latitude":51.509865,"longitude":-0.118092,"reserved":0,"last_update":"0001-01-01T00:00:00Z","name_a2s":"Uncletopia | London | 8 | Community","protocol":17,"map":"workshop/koth_ramjam_rc1.ugc459778887","folder":"tf","game":"Team Fortress","app_id":440,"player_count":0,"max_players":24,"Bots":0,"server_type":"Dedicated","server_os":"Linux","password":true,"vac":true,"version":"7742253","steam_id":85568392924964315,"keywords":["cp","nocrits","nodmgspread","uncletopia"],"game_id":440,"stv_port":27086,"stv_name":"Uncletopia | London | 8 | Community | STV","players":null},{"server_id":300,"name":"Uncletopia | Montr√©al | 1 | All Maps","name_short":"mtl-1","host":"mtl-1.ca.uncletopia.com","port":27015,"enabled":true,"region":"us-east","cc":"ca","latitude":45.50889,"longitude":-73.56167,"reserved":0,"last_update":"0001-01-01T00:00:00Z","name_a2s":"Uncletopia | Montr√©al | 1 | All Maps","protocol":17,"map":"pl_swiftwater_final1","folder":"tf","game":"Team Fortress","app_id":440,"player_count":0,"max_players":24,"Bots":0,"server_type":"Dedicated","server_os":"Linux","password":true,"vac":true,"version":"7742253","steam_id":85568392924500087,"keywords":["nocrits","nodmgspread","payload","uncletopia"],"game_id":440,"stv_port":27016,"stv_name":"Uncletopia | Montr√©al | 1 | All Maps | STV","players":null},{"server_id":301,"name":"Uncletopia | Montr√©al | 2 | All Maps","name_short":"mtl-2","host":"mtl-1.ca.uncletopia.com","port":27025,"enabled":true,"region":"us-east","cc":"ca","latitude":45.50889,"longitude":-73.56167,"reserved":0,"last_update":"0001-01-01T00:00:00Z","name_a2s":"Uncletopia | Montr√©al | 2 | All Maps","protocol":17,"map":"pl_frontier_final","folder":"tf","game":"Team Fortress","app_id":440,"player_count":3,"max_players":24,"Bots":0,"server_type":"Dedicated","server_os":"Linux","password":true,"vac":true,"version":"7742253","steam_id":85568392924500088,"keywords":["nocrits","nodmgspread","payload","uncletopia"],"game_id":440,"stv_port":27026,"stv_name":"Uncletopia | Montr√©al | 2 | All Maps | STV","players":[{"user_id":54,"name":"Zornplays","steam_id":76561199175292302,"connected_time":51000000000,"state":"active","ping":91},{"user_id":48,"name":"Stop Tryharding :(","steam_id":76561199130074444,"connected_time":2358000000000,"state":"active","ping":475},{"user_id":53,"name":"Slowingbranch90","steam_id":76561199445875508,"connected_time":644000000000,"state":"active","ping":261}]},{"server_id":302,"name":"Uncletopia | Montr√©al | 3 | All Maps","name_short":"mtl-3","host":"mtl-1.ca.uncletopia.com","port":27035,"enabled":true,"region":"us-east","cc":"ca","latitude":45.50889,"longitude":-73.56167,"reserved":0,"last_update":"0001-01-01T00:00:00Z","name_a2s":"Uncletopia | Montr√©al | 3 | All Maps","protocol":17,"map":"pl_borneo","folder":"tf","game":"Team Fortress","app_id":440,"player_count":0,"max_players":24,"Bots":0,"server_type":"Dedicated","server_os":"Linux","password":true,"vac":true,"version":"7742253","steam_id":85568392924500089,"keywords":["nocrits","nodmgspread","payload","uncletopia"],"game_id":440,"stv_port":27036,"stv_name":"Uncletopia | Montr√©al | 3 | All Maps | STV","players":null},{"server_id":303,"name":"Uncletopia | Montr√©al | 4 | No Payload","name_short":"mtl-4","host":"mtl-1.ca.uncletopia.com","port":27045,"enabled":true,"region":"us-east","cc":"ca","latitude":45.50889,"longitude":-73.56167,"reserved":0,"last_update":"0001-01-01T00:00:00Z","name_a2s":"Uncletopia | Montr√©al | 4 | No Payload","protocol":17,"map":"cp_snakewater_final1","folder":"tf","game":"Team Fortress","app_id":440,"player_count":0,"max_players":24,"Bots":0,"server_type":"Dedicated","server_os":"Linux","password":true,"vac":true,"version":"7742253","steam_id":85568392924500090,"keywords":["cp","nocrits","nodmgspread","uncletopia"],"game_id":440,"stv_port":27046,"stv_name":"Uncletopia | Montr√©al | 4 | No Payload | STV","players":null},{"server_id":13,"name":"Uncletopia | New York City | 1 | All Maps","name_short":"nyc-1","host":"nyc-1.us.uncletopia.com","port":27015,"enabled":true,"region":"us-east","cc":"us","latitude":40.73061,"longitude":-73.93524,"reserved":0,"last_update":"0001-01-01T00:00:00Z","name_a2s":"Uncletopia | New York City | 1 | All Maps","protocol":17,"map":"pl_thundermountain","folder":"tf","game":"Team Fortress","app_id":440,"player_count":24,"max_players":24,"Bots":0,"server_type":"Dedicated","server_os":"Linux","password":true,"vac":true,"version":"7742253","steam_id":85568392924469993,"keywords":["nocrits","nodmgspread","payload","uncletopia"],"game_id":440,"stv_port":27016,"stv_name":"Uncletopia | New York City | 1 | All Maps | STV","players":[{"user_id":401,"name":"uhooter","steam_id":76561198007829078,"connected_time":138000000000,"state":"active","ping":60},{"user_id":394,"name":"Sinister Sandwich","steam_id":76561198142327400,"connected_time":838000000000,"state":"active","ping":51},{"user_id":387,"name":"Big Boss","steam_id":76561198191167133,"connected_time":1381000000000,"state":"active","ping":56},{"user_id":399,"name":"bree","steam_id":76561198095567655,"connected_time":191000000000,"state":"active","ping":78},{"user_id":396,"name":"dr peppah chug!","steam_id":76561198068835693,"connected_time":641000000000,"state":"active","ping":86},{"user_id":403,"name":"nalezinik","steam_id":76561198030026119,"connected_time":48000000000,"state":"active","ping":61},{"user_id":389,"name":"Uncle Majic the Hip Hop Magicia","steam_id":76561198107924303,"connected_time":1165000000000,"state":"active","ping":52},{"user_id":398,"name":"Undertime Slopper","steam_id":76561198396789061,"connected_time":313000000000,"state":"active","ping":96},{"user_id":388,"name":"Butters495","steam_id":76561197998689042,"connected_time":1380000000000,"state":"active","ping":65},{"user_id":353,"name":"cia","steam_id":76561198287124402,"connected_time":3721000000000,"state":"active","ping":76},{"user_id":381,"name":"Dog Goggles","steam_id":76561197995233692,"connected_time":1543000000000,"state":"active","ping":68},{"user_id":393,"name":"Spr","steam_id":76561198314316664,"connected_time":917000000000,"state":"active","ping":55},{"user_id":367,"name":"coffee bagel","steam_id":76561198141198352,"connected_time":2962000000000,"state":"active","ping":61},{"user_id":373,"name":"Toygar","steam_id":76561198023679830,"connected_time":2717000000000,"state":"active","ping":68},{"user_id":395,"name":"oak","steam_id":76561198092135570,"connected_time":698000000000,"state":"active","ping":90},{"user_id":368,"name":"carrot cake","steam_id":76561198055174915,"connected_time":2946000000000,"state":"active","ping":77},{"user_id":308,"name":"the deadliest pyroshark","steam_id":76561198374227766,"connected_time":6871000000000,"state":"active","ping":56},{"user_id":386,"name":"anaphylaxis","steam_id":76561198097396447,"connected_time":1446000000000,"state":"active","ping":123},{"user_id":402,"name":"Terumi","steam_id":76561198086172358,"connected_time":124000000000,"state":"active","ping":44},{"user_id":375,"name":"Xavibite","steam_id":76561198209380493,"connected_time":2564000000000,"state":"active","ping":46},{"user_id":397,"name":"e0e0","steam_id":76561198293839750,"connected_time":488000000000,"state":"active","ping":48},{"user_id":328,"name":"blob","steam_id":76561198122375328,"connected_time":5448000000000,"state":"active","ping":74},{"user_id":383,"name":"toona","steam_id":76561198065005612,"connected_time":1530000000000,"state":"active","ping":80},{"user_id":392,"name":"StonedGiant","steam_id":76561197984386932,"connected_time":1090000000000,"state":"active","ping":58}]},{"server_id":14,"name":"Uncletopia | New York City | 2 | All Maps","name_short":"nyc-2","host":"nyc-1.us.uncletopia.com","port":27025,"enabled":true,"region":"us-east","cc":"us","latitude":40.73061,"longitude":-73.93524,"reserved":0,"last_update":"0001-01-01T00:00:00Z","name_a2s":"Uncletopia | New York City | 2 | All Maps","protocol":17,"map":"koth_cascade","folder":"tf","game":"Team Fortress","app_id":440,"player_count":0,"max_players":24,"Bots":0,"server_type":"Dedicated","server_os":"Linux","password":true,"vac":true,"version":"7742253","steam_id":85568392924469994,"keywords":["cp","nocrits","nodmgspread","uncletopia"],"game_id":440,"stv_port":27026,"stv_name":"Uncletopia | New York City | 2 | All Maps | STV","players":null},{"server_id":15,"name":"Uncletopia | New York City | 3 | Stopwatch Beta","name_short":"nyc-3","host":"nyc-1.us.uncletopia.com","port":27035,"enabled":true,"region":"us-east","cc":"us","latitude":40.73061,"longitude":-73.93524,"reserved":0,"last_update":"0001-01-01T00:00:00Z","name_a2s":"Uncletopia | New York City | 3 | Stopwatch Beta","protocol":17,"map":"pl_pier","folder":"tf","game":"Team Fortress","app_id":440,"player_count":0,"max_players":24,"Bots":0,"server_type":"Dedicated","server_os":"Linux","password":true,"vac":true,"version":"7742253","steam_id":85568392924742820,"keywords":["nocrits","nodmgspread","payload","uncletopia"],"game_id":440,"stv_port":27036,"stv_name":"Uncletopia | New York City | 3 | Stopwatch Beta | STV","players":null},{"server_id":16,"name":"Uncletopia | New York City | 4 | Community","name_short":"nyc-4","host":"nyc-1.us.uncletopia.com","port":27045,"enabled":true,"region":"us-east","cc":"us","latitude":40.73061,"longitude":-73.93524,"reserved":0,"last_update":"0001-01-01T00:00:00Z","name_a2s":"Uncletopia | New York City | 4 | Community","protocol":17,"map":"koth_viaduct","folder":"tf","game":"Team Fortress","app_id":440,"player_count":0,"max_players":24,"Bots":0,"server_type":"Dedicated","server_os":"Linux","password":true,"vac":true,"version":"7742253","steam_id":85568392924742821,"keywords":["cp","nocrits","nodmgspread","uncletopia"],"game_id":440,"stv_port":27046,"stv_name":"Uncletopia | New York City | 4 | Community | STV","players":null},{"server_id":142,"name":"Uncletopia | S√£o Paulo | 1 | All Maps","name_short":"sao-1","host":"sao-1.br.uncletopia.com","port":27015,"enabled":true,"region":"sa","cc":"br","latitude":-23.533773,"longitude":-46.62529,"reserved":0,"last_update":"0001-01-01T00:00:00Z","name_a2s":"Uncletopia | S√£o Paulo | 1 | All Maps","protocol":17,"map":"koth_viaduct","folder":"tf","game":"Team Fortress","app_id":440,"player_count":0,"max_players":24,"Bots":0,"server_type":"Dedicated","server_os":"Linux","password":true,"vac":true,"version":"7742253","steam_id":85568392924469996,"keywords":["cp","nocrits","nodmgspread","uncletopia"],"game_id":440,"stv_port":27016,"stv_name":"Uncletopia | S√£o Paulo | 1 | All Maps | STV","players":null},{"server_id":143,"name":"Uncletopia | S√£o Paulo | 2 | All Maps","name_short":"sao-2","host":"sao-2.br.uncletopia.com","port":27015,"enabled":true,"region":"sa","cc":"br","latitude":-23.533773,"longitude":-46.62529,"reserved":0,"last_update":"0001-01-01T00:00:00Z","name_a2s":"Uncletopia | S√£o Paulo | 2 | All Maps","protocol":17,"map":"koth_cascade","folder":"tf","game":"Team Fortress","app_id":440,"player_count":0,"max_players":24,"Bots":0,"server_type":"Dedicated","server_os":"Linux","password":true,"vac":true,"version":"7742253","steam_id":85568392924485349,"keywords":["cp","nocrits","nodmgspread","uncletopia"],"game_id":440,"stv_port":27016,"stv_name":"Uncletopia | S√£o Paulo | 2 | All Maps | STV","players":null},{"server_id":7,"name":"Uncletopia | Seattle | 1 | All Maps","name_short":"sea-1","host":"sea-1.us.uncletopia.com","port":27015,"enabled":true,"region":"us-west","cc":"us","latitude":47.608013,"longitude":-122.33517,"reserved":0,"last_update":"0001-01-01T00:00:00Z","name_a2s":"Uncletopia | Seattle | 1 | All Maps","protocol":17,"map":"pl_badwater","folder":"tf","game":"Team Fortress","app_id":440,"player_count":23,"max_players":24,"Bots":0,"server_type":"Dedicated","server_os":"Linux","password":true,"vac":true,"version":"7742253","steam_id":85568392924469997,"keywords":["nocrits","nodmgspread","payload","uncletopia"],"game_id":440,"stv_port":27016,"stv_name":"Uncletopia | Seattle | 1 | All Maps | STV","players":[{"user_id":472,"name":"aversa","steam_id":76561198840460101,"connected_time":1423000000000,"state":"active","ping":121},{"user_id":389,"name":"ORANGE","steam_id":76561198000401769,"connected_time":6019000000000,"state":"active","ping":56},{"user_id":478,"name":"resting neutral face","steam_id":76561197999259502,"connected_time":1158000000000,"state":"active","ping":60},{"user_id":492,"name":"FALRayne","steam_id":76561198113348816,"connected_time":57000000000,"state":"active","ping":79},{"user_id":451,"name":"Blehnder","steam_id":76561198172097526,"connected_time":2985000000000,"state":"active","ping":125},{"user_id":474,"name":"TheCowledWiz","steam_id":76561198016735868,"connected_time":1340000000000,"state":"active","ping":46},{"user_id":390,"name":"Xin-xi Warrior","steam_id":76561198978418260,"connected_time":5990000000000,"state":"active","ping":75},{"user_id":462,"name":"la loveiathenne","steam_id":76561198046394237,"connected_time":2312000000000,"state":"active","ping":48},{"user_id":491,"name":"charm quark","steam_id":76561198098770777,"connected_time":103000000000,"state":"active","ping":59},{"user_id":475,"name":"bbboomer37","steam_id":76561199126411204,"connected_time":1312000000000,"state":"active","ping":98},{"user_id":434,"name":"mooney","steam_id":76561199110622484,"connected_time":3778000000000,"state":"active","ping":67},{"user_id":466,"name":"Meerkat","steam_id":76561199245435539,"connected_time":2096000000000,"state":"active","ping":81},{"user_id":476,"name":"T.w¬≤ | Sliced Bread","steam_id":76561198128489595,"connected_time":1311000000000,"state":"active","ping":83},{"user_id":458,"name":"S Q U I S H E  T H A T  C A T","steam_id":76561198293865429,"connected_time":2448000000000,"state":"active","ping":40},{"user_id":485,"name":"dillypop317","steam_id":76561199234157977,"connected_time":333000000000,"state":"active","ping":182},{"user_id":471,"name":"THAT CAT","steam_id":76561198010828625,"connected_time":1510000000000,"state":"active","ping":34},{"user_id":385,"name":"BLU3","steam_id":76561198059652670,"connected_time":6086000000000,"state":"active","ping":48},{"user_id":435,"name":"your friends dad","steam_id":76561199062326425,"connected_time":3752000000000,"state":"active","ping":54},{"user_id":460,"name":"Winter the Witchie","steam_id":76561198151971178,"connected_time":2389000000000,"state":"active","ping":112},{"user_id":490,"name":"lavender","steam_id":76561199069518286,"connected_time":136000000000,"state":"active","ping":73},{"user_id":479,"name":"Susan","steam_id":76561198045705049,"connected_time":1135000000000,"state":"active","ping":108},{"user_id":487,"name":"KingTinkerer","steam_id":76561198226856548,"connected_time":212000000000,"state":"active","ping":68},{"user_id":488,"name":"sleepy","steam_id":76561198288663776,"connected_time":209000000000,"state":"active","ping":53}]},{"server_id":119,"name":"Uncletopia | Seattle | 2 | All Maps","name_short":"sea-2","host":"sea-1.us.uncletopia.com","port":27025,"enabled":true,"region":"us-west","cc":"us","latitude":47.608013,"longitude":-122.33517,"reserved":0,"last_update":"0001-01-01T00:00:00Z","name_a2s":"Uncletopia | Seattle | 2 | All Maps","protocol":17,"map":"pl_borneo","folder":"tf","game":"Team Fortress","app_id":440,"player_count":23,"max_players":24,"Bots":0,"server_type":"Dedicated","server_os":"Linux","password":true,"vac":true,"version":"7742253","steam_id":85568392924469998,"keywords":["nocrits","nodmgspread","payload","uncletopia"],"game_id":440,"stv_port":27026,"stv_name":"Uncletopia | Seattle | 2 | All Maps | STV","players":[{"user_id":173,"name":"Void","steam_id":76561198308290211,"connected_time":1454000000000,"state":"active","ping":85},{"user_id":199,"name":"Mythos #SaveTF2","steam_id":76561198050243068,"connected_time":433000000000,"state":"active","ping":110},{"user_id":197,"name":"fruit brute fiend","steam_id":76561198811500361,"connected_time":484000000000,"state":"active","ping":46},{"user_id":119,"name":"Clay Pot","steam_id":76561199030644557,"connected_time":5303000000000,"state":"active","ping":127},{"user_id":176,"name":"My Name A Borat","steam_id":76561198077713291,"connected_time":1436000000000,"state":"active","ping":63},{"user_id":196,"name":"swaggdood","steam_id":76561198076173018,"connected_time":497000000000,"state":"active","ping":64},{"user_id":186,"name":"MR. MODE","steam_id":76561198046775352,"connected_time":832000000000,"state":"active","ping":62},{"user_id":135,"name":"Hyguy","steam_id":76561198193608742,"connected_time":4270000000000,"state":"active","ping":84},{"user_id":120,"name":"PapaFrita","steam_id":76561199071983367,"connected_time":5295000000000,"state":"active","ping":133},{"user_id":178,"name":"Maid 'n' China","steam_id":76561198423392976,"connected_time":1333000000000,"state":"active","ping":61},{"user_id":179,"name":"id dragoon","steam_id":76561198323079151,"connected_time":1321000000000,"state":"active","ping":84},{"user_id":191,"name":"paChewychomp","steam_id":76561198068738250,"connected_time":579000000000,"state":"active","ping":64},{"user_id":187,"name":"Belmore","steam_id":76561198009355231,"connected_time":827000000000,"state":"active","ping":68},{"user_id":170,"name":"demoman","steam_id":76561199389584938,"connected_time":1611000000000,"state":"active","ping":38},{"user_id":95,"name":"Magik","steam_id":76561198200169706,"connected_time":7345000000000,"state":"active","ping":112},{"user_id":192,"name":"DavidB","steam_id":76561198045916255,"connected_time":556000000000,"state":"active","ping":127},{"user_id":193,"name":"THE CUMEST LORD","steam_id":76561198061412592,"connected_time":555000000000,"state":"active","ping":111},{"user_id":181,"name":"76561198212421513","steam_id":76561198212421513,"connected_time":1262000000000,"state":"active","ping":78},{"user_id":146,"name":"eraser cat","steam_id":76561199045570463,"connected_time":3783000000000,"state":"active","ping":46},{"user_id":200,"name":"t.tv/FamilyGuyFunnyMoments277","steam_id":76561198416047580,"connected_time":213000000000,"state":"active","ping":112},{"user_id":201,"name":"Cambonieboo","steam_id":76561198139174433,"connected_time":157000000000,"state":"active","ping":90},{"user_id":184,"name":"Tom H.A.N.X","steam_id":76561198061064737,"connected_time":979000000000,"state":"active","ping":51},{"user_id":82,"name":"Dr. Hurrible","steam_id":76561198080070400,"connected_time":8471000000000,"state":"active","ping":116}]},{"server_id":406,"name":"Uncletopia | Seattle | 3 | Stopwatch Beta","name_short":"sea-3","host":"sea-1.us.uncletopia.com","port":27035,"enabled":true,"region":"us-west","cc":"us","latitude":47.608013,"longitude":-122.33517,"reserved":0,"last_update":"0001-01-01T00:00:00Z","name_a2s":"Uncletopia | Seattle | 3 | Stopwatch Beta","protocol":17,"map":"workshop/koth_bagel_rc5.ugc2514036946","folder":"tf","game":"Team Fortress","app_id":440,"player_count":0,"max_players":24,"Bots":0,"server_type":"Dedicated","server_os":"Linux","password":true,"vac":true,"version":"7742253","steam_id":85568392924515217,"keywords":["cp","nocrits","nodmgspread","uncletopia"],"game_id":440,"stv_port":27036,"stv_name":"Uncletopia | Seattle | 3 | Stopwatch Beta | STV","players":null},{"server_id":17,"name":"Uncletopia | San Francisco | 1 | All Maps","name_short":"sfo-1","host":"sfo-1.us.uncletopia.com","port":27015,"enabled":true,"region":"us-west","cc":"us","latitude":37.77397,"longitude":-122.4313,"reserved":0,"last_update":"0001-01-01T00:00:00Z","name_a2s":"Uncletopia | San Francisco | 1 | All Maps","protocol":17,"map":"cp_snakewater_final1","folder":"tf","game":"Team Fortress","app_id":440,"player_count":0,"max_players":24,"Bots":0,"server_type":"Dedicated","server_os":"Linux","password":true,"vac":true,"version":"7742253","steam_id":85568392924469999,"keywords":["cp","nocrits","nodmgspread","uncletopia"],"game_id":440,"stv_port":27016,"stv_name":"Uncletopia | San Francisco | 1 | All Maps | STV","players":null},{"server_id":18,"name":"Uncletopia | San Francisco | 2 | All Maps","name_short":"sfo-2","host":"sfo-1.us.uncletopia.com","port":27025,"enabled":true,"region":"us-west","cc":"us","latitude":37.77397,"longitude":-122.4313,"reserved":0,"last_update":"0001-01-01T00:00:00Z","name_a2s":"Uncletopia | San Francisco | 2 | All Maps","protocol":17,"map":"koth_viaduct","folder":"tf","game":"Team Fortress","app_id":440,"player_count":0,"max_players":24,"Bots":0,"server_type":"Dedicated","server_os":"Linux","password":true,"vac":true,"version":"7742253","steam_id":85568392924470000,"keywords":["cp","nocrits","nodmgspread","uncletopia"],"game_id":440,"stv_port":27026,"stv_name":"Uncletopia | San Francisco | 2 | All Maps | STV","players":null},{"server_id":19,"name":"Uncletopia | San Francisco | 3 | Stopwatch Beta","name_short":"sfo-3","host":"sfo-1.us.uncletopia.com","port":27035,"enabled":true,"region":"us-west","cc":"us","latitude":37.77397,"longitude":-122.4313,"reserved":0,"last_update":"0001-01-01T00:00:00Z","name_a2s":"Uncletopia | San Francisco | 3 | Stopwatch Beta","protocol":17,"map":"koth_highpass","folder":"tf","game":"Team Fortress","app_id":440,"player_count":0,"max_players":24,"Bots":0,"server_type":"Dedicated","server_os":"Linux","password":true,"vac":true,"version":"7742253","steam_id":85568392924742824,"keywords":["cp","nocrits","nodmgspread","uncletopia"],"game_id":440,"stv_port":27036,"stv_name":"Uncletopia | San Francisco | 3 | Stopwatch Beta | STV","players":null},{"server_id":20,"name":"Uncletopia | San Francisco | 4 | Community","name_short":"sfo-4","host":"sfo-1.us.uncletopia.com","port":27045,"enabled":true,"region":"us-west","cc":"us","latitude":37.77397,"longitude":-122.4313,"reserved":0,"last_update":"0001-01-01T00:00:00Z","name_a2s":"Uncletopia | San Francisco | 4 | Community","protocol":17,"map":"workshop/rd_asteroid_redux_rc9.ugc2154902912","folder":"tf","game":"Team Fortress","app_id":440,"player_count":0,"max_players":24,"Bots":0,"server_type":"Dedicated","server_os":"Linux","password":true,"vac":true,"version":"7742253","steam_id":85568392924742826,"keywords":["beta","nocrits","nodmgspread","rd","uncletopia"],"game_id":440,"stv_port":27046,"stv_name":"Uncletopia | San Francisco | 4 | Community | STV","players":null},{"server_id":141,"name":"Uncletopia | Sydney | 1 | All Maps","name_short":"syd-1","host":"syd-1.au.uncletopia.com","port":27015,"enabled":true,"region":"au","cc":"au","latitude":-33.865143,"longitude":151.2099,"reserved":0,"last_update":"0001-01-01T00:00:00Z","name_a2s":"Uncletopia | Sydney | 1 | All Maps","protocol":17,"map":"koth_lakeside_final","folder":"tf","game":"Team Fortress","app_id":440,"player_count":0,"max_players":24,"Bots":0,"server_type":"Dedicated","server_os":"Linux","password":true,"vac":true,"version":"7742253","steam_id":85568392924470001,"keywords":["cp","nocrits","nodmgspread","uncletopia"],"game_id":440,"stv_port":27016,"stv_name":"Uncletopia | Sydney | 1 | All Maps | STV","players":null},{"server_id":123,"name":"Uncletopia | Sydney | 2 | All Maps","name_short":"syd-2","host":"syd-1.au.uncletopia.com","port":27025,"enabled":true,"region":"au","cc":"au","latitude":-33.865143,"longitude":151.2099,"reserved":0,"last_update":"0001-01-01T00:00:00Z","name_a2s":"Uncletopia | Sydney | 2 | All Maps","protocol":17,"map":"pl_upward","folder":"tf","game":"Team Fortress","app_id":440,"player_count":16,"max_players":24,"Bots":0,"server_type":"Dedicated","server_os":"Linux","password":true,"vac":true,"version":"7742253","steam_id":85568392924470002,"keywords":["nocrits","nodmgspread","payload","uncletopia"],"game_id":440,"stv_port":27026,"stv_name":"Uncletopia | Sydney | 2 | All Maps | STV","players":[{"user_id":47,"name":"Pete","steam_id":76561198160832579,"connected_time":993000000000,"state":"active","ping":175},{"user_id":40,"name":"Esiotrot101","steam_id":76561199017575950,"connected_time":1875000000000,"state":"active","ping":35},{"user_id":32,"name":"Œªlex","steam_id":76561198181194862,"connected_time":3330000000000,"state":"active","ping":62},{"user_id":33,"name":"Klusterdash","steam_id":76561198115434016,"connected_time":3238000000000,"state":"active","ping":237},{"user_id":56,"name":"FlynnRain","steam_id":76561199229332018,"connected_time":286000000000,"state":"active","ping":52},{"user_id":39,"name":"Enchanted Cat","steam_id":76561198866538028,"connected_time":1902000000000,"state":"active","ping":68},{"user_id":55,"name":"Ninjanoah5","steam_id":76561198858613596,"connected_time":475000000000,"state":"active","ping":49},{"user_id":44,"name":"Mr Gottem","steam_id":76561198004006228,"connected_time":1372000000000,"state":"active","ping":51},{"user_id":46,"name":"Pew pew pew!","steam_id":76561198004120277,"connected_time":1215000000000,"state":"active","ping":53},{"user_id":48,"name":"Mohammed Handjop","steam_id":76561198142023589,"connected_time":881000000000,"state":"active","ping":89},{"user_id":50,"name":"FakeBot","steam_id":76561197961193303,"connected_time":799000000000,"state":"active","ping":271},{"user_id":51,"name":"Vinty","steam_id":76561197970644316,"connected_time":780000000000,"state":"active","ping":75},{"user_id":52,"name":"Wombon","steam_id":76561198071323879,"connected_time":762000000000,"state":"active","ping":73},{"user_id":57,"name":"Bosic012","steam_id":76561199084821580,"connected_time":276000000000,"state":"active","ping":49},{"user_id":58,"name":"Fireflame","steam_id":76561199163486788,"connected_time":237000000000,"state":"active","ping":78},{"user_id":59,"name":"Jeff Pesos","steam_id":76561198086379892,"connected_time":82000000000,"state":"active","ping":267}]},{"server_id":395,"name":"Uncletopia | Sydney | 3 | All Maps","name_short":"syd-3","host":"syd-1.au.uncletopia.com","port":27035,"enabled":true,"region":"au","cc":"au","latitude":-33.865143,"longitude":151.2099,"reserved":0,"last_update":"0001-01-01T00:00:00Z","name_a2s":"Uncletopia | Sydney | 3 | All Maps","protocol":17,"map":"koth_viaduct","folder":"tf","game":"Team Fortress","app_id":440,"player_count":0,"max_players":24,"Bots":0,"server_type":"Dedicated","server_os":"Linux","password":true,"vac":true,"version":"7742253","steam_id":85568392925194467,"keywords":["cp","nocrits","nodmgspread","uncletopia"],"game_id":440,"stv_port":27036,"stv_name":"Uncletopia | Sydney | 3 | All Maps | STV","players":null},{"server_id":396,"name":"Uncletopia | Sydney | 4 | All Maps","name_short":"syd-4","host":"syd-1.au.uncletopia.com","port":27045,"enabled":true,"region":"au","cc":"au","latitude":-33.865143,"longitude":151.2099,"reserved":0,"last_update":"0001-01-01T00:00:00Z","name_a2s":"Uncletopia | Sydney | 4 | All Maps","protocol":17,"map":"pl_frontier_final","folder":"tf","game":"Team Fortress","app_id":440,"player_count":0,"max_players":24,"Bots":0,"server_type":"Dedicated","server_os":"Linux","password":true,"vac":true,"version":"7742253","steam_id":85568392925397958,"keywords":["nocrits","nodmgspread","payload","uncletopia"],"game_id":440,"stv_port":27046,"stv_name":"Uncletopia | Sydney | 4 | All Maps | STV","players":null},{"server_id":58,"name":"Uncletopia | Sydney | 5 | Stopwatch Beta","name_short":"syd-5","host":"syd-1.au.uncletopia.com","port":27055,"enabled":true,"region":"au","cc":"au","latitude":-33.865143,"longitude":151.2099,"reserved":0,"last_update":"0001-01-01T00:00:00Z","name_a2s":"Uncletopia | Sydney | 5 | Stopwatch Beta","protocol":17,"map":"cp_sunshine","folder":"tf","game":"Team Fortress","app_id":440,"player_count":0,"max_players":24,"Bots":0,"server_type":"Dedicated","server_os":"Linux","password":true,"vac":true,"version":"7742253","steam_id":85568392925397959,"keywords":["cp","nocrits","nodmgspread","uncletopia"],"game_id":440,"stv_port":27056,"stv_name":"Uncletopia | Sydney | 5 | Stopwatch Beta | STV","players":null},{"server_id":59,"name":"Uncletopia | Sydney | 6 | Community","name_short":"syd-6","host":"syd-1.au.uncletopia.com","port":27065,"enabled":true,"region":"au","cc":"au","latitude":-33.865143,"longitude":151.2099,"reserved":0,"last_update":"0001-01-01T00:00:00Z","name_a2s":"Uncletopia | Sydney | 6 | Community","protocol":17,"map":"cp_dustbowl","folder":"tf","game":"Team Fortress","app_id":440,"player_count":0,"max_players":24,"Bots":0,"server_type":"Dedicated","server_os":"Linux","password":true,"vac":true,"version":"7742253","steam_id":85568392925397960,"keywords":["cp","nocrits","nodmgspread","uncletopia"],"game_id":440,"stv_port":27066,"stv_name":"Uncletopia | Sydney | 6 | Community | STV","players":null},{"server_id":49,"name":"Uncletopia | Warsaw | 1 | All Maps","name_short":"waw-1","host":"waw-1.pl.uncletopia.com","port":27015,"enabled":true,"region":"eu","cc":"pl","latitude":52.2297,"longitude":21.017532,"reserved":0,"last_update":"0001-01-01T00:00:00Z","name_a2s":"","protocol":0,"map":"","folder":"","game":"","app_id":0,"player_count":0,"max_players":0,"Bots":0,"server_type":"","server_os":"","password":false,"vac":false,"version":"","steam_id":0,"keywords":null,"game_id":0,"stv_port":0,"stv_name":"","players":null},{"server_id":50,"name":"Uncletopia | Warsaw | 2 | All Maps","name_short":"waw-2","host":"waw-1.pl.uncletopia.com","port":27025,"enabled":true,"region":"eu","cc":"pl","latitude":52.2297,"longitude":21.017532,"reserved":0,"last_update":"0001-01-01T00:00:00Z","name_a2s":"Uncletopia | Warsaw | 2 | All Maps","protocol":17,"map":"koth_lakeside_final","folder":"tf","game":"Team Fortress","app_id":440,"player_count":0,"max_players":24,"Bots":0,"server_type":"Dedicated","server_os":"Linux","password":true,"vac":true,"version":"7742253","steam_id":85568392925397851,"keywords":["cp","nocrits","nodmgspread","uncletopia"],"game_id":440,"stv_port":27026,"stv_name":"Uncletopia | Warsaw | 2 | All Maps | STV","players":null},{"server_id":51,"name":"Uncletopia | Warsaw | 3 | All Maps","name_short":"waw-3","host":"waw-1.pl.uncletopia.com","port":27035,"enabled":true,"region":"eu","cc":"pl","latitude":52.2297,"longitude":21.017532,"reserved":0,"last_update":"0001-01-01T00:00:00Z","name_a2s":"Uncletopia | Warsaw | 3 | All Maps","protocol":17,"map":"koth_lakeside_final","folder":"tf","game":"Team Fortress","app_id":440,"player_count":0,"max_players":24,"Bots":0,"server_type":"Dedicated","server_os":"Linux","password":true,"vac":true,"version":"7742253","steam_id":85568392925397852,"keywords":["cp","nocrits","nodmgspread","uncletopia"],"game_id":440,"stv_port":27036,"stv_name":"Uncletopia | Warsaw | 3 | All Maps | STV","players":null},{"server_id":52,"name":"Uncletopia | Warsaw | 4 | All Maps","name_short":"waw-4","host":"waw-1.pl.uncletopia.com","port":27045,"enabled":true,"region":"eu","cc":"pl","latitude":52.2297,"longitude":21.017532,"reserved":0,"last_update":"0001-01-01T00:00:00Z","name_a2s":"Uncletopia | Warsaw | 4 | All Maps","protocol":17,"map":"pl_swiftwater_final1","folder":"tf","game":"Team Fortress","app_id":440,"player_count":0,"max_players":24,"Bots":0,"server_type":"Dedicated","server_os":"Linux","password":true,"vac":true,"version":"7742253","steam_id":85568392925397853,"keywords":["nocrits","nodmgspread","payload","uncletopia"],"game_id":440,"stv_port":27046,"stv_name":"Uncletopia | Warsaw | 4 | All Maps | STV","players":null},{"server_id":53,"name":"Uncletopia | Warsaw | 5 | Stopwatch Beta","name_short":"waw-5","host":"waw-1.pl.uncletopia.com","port":27055,"enabled":true,"region":"eu","cc":"pl","latitude":52.2297,"longitude":21.017532,"reserved":0,"last_update":"0001-01-01T00:00:00Z","name_a2s":"Uncletopia | Warsaw | 5 | Stopwatch Beta","protocol":17,"map":"pl_swiftwater_final1","folder":"tf","game":"Team Fortress","app_id":440,"player_count":0,"max_players":24,"Bots":0,"server_type":"Dedicated","server_os":"Linux","password":true,"vac":true,"version":"7742253","steam_id":85568392925397854,"keywords":["nocrits","nodmgspread","payload","uncletopia"],"game_id":440,"stv_port":27056,"stv_name":"Uncletopia | Warsaw | 5 | Stopwatch Beta | STV","players":null},{"server_id":54,"name":"Uncletopia | Warsaw | 6 | Community","name_short":"waw-6","host":"waw-1.pl.uncletopia.com","port":27065,"enabled":true,"region":"eu","cc":"pl","latitude":52.2297,"longitude":21.017532,"reserved":0,"last_update":"0001-01-01T00:00:00Z","name_a2s":"Uncletopia | Warsaw | 6 | Community","protocol":17,"map":"koth_highpass","folder":"tf","game":"Team Fortress","app_id":440,"player_count":0,"max_players":24,"Bots":0,"server_type":"Dedicated","server_os":"Linux","password":true,"vac":true,"version":"7742253","steam_id":85568392925397856,"keywords":["cp","nocrits","nodmgspread","uncletopia"],"game_id":440,"stv_port":27066,"stv_name":"Uncletopia | Warsaw | 6 | Community | STV","players":null}]}