{"status":true,"message":"","result":[{"server_id":2,"name":"Uncletopia | Chicago | 1 | All Maps","name_short":"chi-1","host":"chi-1.us.uncletopia.com","port":27015,"enabled":true,"region":"us-central","cc":"us","latitude":41.881832,"longitude":-87.62318,"reserved":0,"last_update":"0001-01-01T00:00:00Z","name_a2s":"Uncletopia | Chicago | 1 | All Maps","protocol":17,"map":"pl_thundermountain","folder":"tf","game":"Team Fortress","app_id":440,"player_count":24,"max_players":24,"Bots":0,"server_type":"Dedicated","server_os":"Linux","password":true,"vac":true,"version":"7932396","steam_id":85568392924469984,"keywords":["nocrits","nodmgspread","payload","uncletopia"],"game_id":440,"stv_port":27016,"stv_name":"Uncletopia | Chicago | 1 | All Maps | STV","players":[{"user_id":422,"name":"cheese burger","steam_id":76561198999217575,"connected_time":3328000000000,"state":"active","ping":71},{"user_id":455,"name":"J. Zolo","steam_id":76561198072112494,"connected_time":1022000000000,"state":"active","ping":106},{"user_id":465,"name":"Potato Masher","steam_id":76561198056712845,"connected_time":677000000000,"state":"active","ping":62},{"user_id":468,"name":"ᓀ‸ᓂ","steam_id":76561198046055673,"connected_time":454000000000,"state":"active","ping":76},{"user_id":447,"name":"crabapples","steam_id":76561198075818655,"connected_time":1218000000000,"state":"active","ping":61},{"user_id":443,"name":"Oopsie Daisy ❋","steam_id":76561198042144492,"connected_time":1268000000000,"state":"active","ping":74},{"user_id":464,"name":"all pain no gain","steam_id":76561199468119975,"connected_time":869000000000,"state":"active","ping":91},{"user_id":467,"name":"Spykiller42","steam_id":76561199027962230,"connected_time":512000000000,"state":"active","ping":159},{"user_id":470,"name":"Norman","steam_id":76561198154715990,"connected_time":438000000000,"state":"active","ping":104},{"user_id":469,"name":"Kinbo2487","steam_id":76561198184714198,"connected_time":451000000000,"state":"active","ping":80},{"user_id":471,"name":"Cider Lia","steam_id":76561198151569597,"connected_time":432000000000,"state":"active","ping":138},{"user_id":453,"name":"MgMaster7","steam_id":76561199229916638,"connected_time":1121000000000,"state":"active","ping":64},{"user_id":477,"name":"Idiot Princess","steam_id":76561198048205270,"connected_time":125000000000,"state":"active","ping":90},{"user_id":473,"name":"Mythius","steam_id":76561198401392472,"connected_time":399000000000,"state":"active","ping":78},{"user_id":462,"name":"EditedAtom","steam_id":76561198210844957,"connected_time":934000000000,"state":"active","ping":71},{"user_id":474,"name":"[chef] iron","steam_id":76561197970888616,"connected_time":394000000000,"state":"active","ping":46},{"user_id":439,"name":"volta","steam_id":76561199214283884,"connected_time":1281000000000,"state":"active","ping":107},{"user_id":475,"name":"GO Dodgers","steam_id":76561198023737383,"connected_time":386000000000,"state":"active","ping":69},{"user_id":444,"name":"poemtry","steam_id":76561198809901218,"connected_time":1260000000000,"state":"active","ping":46},{"user_id":476,"name":"pimpmykek","steam_id":76561198271911317,"connected_time":376000000000,"state":"active","ping":88},{"user_id":452,"name":"a man with two hands","steam_id":76561198039848186,"connected_time":1151000000000,"state":"active","ping":61},{"user_id":426,"name":"William Wallace","steam_id":76561199343316814,"connected_time":3275000000000,"state":"active","ping":69},{"user_id":460,"name":"athletesfoot","steam_id":76561197997331867,"connected_time":979000000000,"state":"active","ping":60},{"user_id":466,"name":"Tr","steam_id":76561199236043217,"connected_time":635000000000,"state":"active","ping":136}]},{"server_id":106,"name":"Uncletopia | Chicago | 2 | All Maps","name_short":"chi-2","host":"chi-1.us.uncletopia.com","port":27025,"enabled":true,"region":"us-central","cc":"us","latitude":41.881832,"longitude":-87.62318,"reserved":0,"last_update":"0001-01-01T00:00:00Z","name_a2s":"Uncletopia | Chicago | 2 | All Maps","protocol":17,"map":"pl_upward","folder":"tf","game":"Team Fortress","app_id":440,"player_count":24,"max_players":24,"Bots":0,"server_type":"Dedicated","server_os":"Linux","password":true,"vac":true,"version":"7932396","steam_id":85568392924469985,"keywords":["nocrits","nodmgspread","payload","uncletopia"],"game_id":440,"stv_port":27026,"stv_name":"Uncletopia | Chicago | 2 | All Maps | STV","players":[{"user_id":100,"name":"some tree","steam_id":76561198166093346,"connected_time":2371000000000,"state":"active","ping":59},{"user_id":126,"name":"Cerabond","steam_id":76561199230915333,"connected_time":482000000000,"state":"active","ping":85},{"user_id":111,"name":"mOoOoOoO","steam_id":76561198145615363,"connected_time":1271000000000,"state":"active","ping":75},{"user_id":101,"name":"Lopside","steam_id":76561197995620232,"connected_time":2321000000000,"state":"active","ping":59},{"user_id":127,"name":"Sableye","steam_id":76561198061247147,"connected_time":481000000000,"state":"active","ping":64},{"user_id":121,"name":"grate_warior-232","steam_id":76561198073424589,"connected_time":740000000000,"state":"active","ping":74},{"user_id":135,"name":"Rambly Dambly","steam_id":76561198844496567,"connected_time":98000000000,"state":"active","ping":52},{"user_id":79,"name":"izzydex","steam_id":76561199101531034,"connected_time":3633000000000,"state":"active","ping":60},{"user_id":129,"name":"Portal2Player","steam_id":76561198062870114,"connected_time":268000000000,"state":"active","ping":89},{"user_id":96,"name":"Cap'n Short Legs","steam_id":76561198164139410,"connected_time":2921000000000,"state":"active","ping":71},{"user_id":25,"name":"Gentoo Linux Gaming","steam_id":76561197999657118,"connected_time":6083000000000,"state":"active","ping":80},{"user_id":117,"name":"Coup de Grass","steam_id":76561198011643226,"connected_time":784000000000,"state":"active","ping":75},{"user_id":62,"name":"honor in defeat","steam_id":76561198013735714,"connected_time":4739000000000,"state":"active","ping":76},{"user_id":99,"name":"pinky","steam_id":76561199109784776,"connected_time":2440000000000,"state":"active","ping":56},{"user_id":124,"name":"Shattered Glass","steam_id":76561198116835391,"connected_time":670000000000,"state":"active","ping":92},{"user_id":108,"name":"Slogly","steam_id":76561198057242179,"connected_time":2026000000000,"state":"active","ping":94},{"user_id":132,"name":"SlurpyTheDog","steam_id":76561198799733154,"connected_time":208000000000,"state":"active","ping":64},{"user_id":118,"name":"Racista, Gameing","steam_id":76561198843792890,"connected_time":782000000000,"state":"active","ping":56},{"user_id":119,"name":"notdbone","steam_id":76561198045890038,"connected_time":782000000000,"state":"active","ping":69},{"user_id":128,"name":"Navis","steam_id":76561198996230924,"connected_time":478000000000,"state":"active","ping":60},{"user_id":130,"name":"novu","steam_id":76561198886997024,"connected_time":256000000000,"state":"active","ping":82},{"user_id":133,"name":"Loleo","steam_id":76561198348132374,"connected_time":194000000000,"state":"active","ping":51},{"user_id":134,"name":"beans","steam_id":76561198074275991,"connected_time":135000000000,"state":"active","ping":49},{"user_id":110,"name":"Morgster","steam_id":76561198131697761,"connected_time":1922000000000,"state":"active","ping":90}]},{"server_id":402,"name":"Uncletopia | Chicago | 3 | All Maps","name_short":"chi-3","host":"chi-1.us.uncletopia.com","port":27035,"enabled":true,"region":"us-central","cc":"us","latitude":41.881832,"longitude":-87.62318,"reserved":0,"last_update":"0001-01-01T00:00:00Z","name_a2s":"Uncletopia | Chicago | 3 | All Maps","protocol":17,"map":"pl_borneo","folder":"tf","game":"Team Fortress","app_id":440,"player_count":24,"max_players":24,"Bots":0,"server_type":"Dedicated","server_os":"Linux","password":true,"vac":true,"version":"7932396","steam_id":85568392924515191,"keywords":["nocrits","nodmgspread","payload","uncletopia"],"game_id":440,"stv_port":27036,"stv_name":"Uncletopia | Chicago | 3 | All Maps | STV","players":[{"user_id":74,"name":"Candy Sparkles","steam_id":76561198126871264,"connected_time":1760000000000,"state":"active","ping":83},{"user_id":87,"name":"daemon","steam_id":76561198001541433,"connected_time":1302000000000,"state":"active","ping":56},{"user_id":93,"name":"tesagi","steam_id":76561198026664629,"connected_time":942000000000,"state":"active","ping":50},{"user_id":15,"name":"Mr lazy pants 72","steam_id":76561198396412589,"connected_time":6129000000000,"state":"active","ping":90},{"user_id":54,"name":"Mythical Lag","steam_id":76561198347031281,"connected_time":3693000000000,"state":"active","ping":73},{"user_id":89,"name":"gIBBY","steam_id":76561198080099598,"connected_time":1049000000000,"state":"active","ping":50},{"user_id":97,"name":"]HaS[ Mostly Harmless","steam_id":76561197995268718,"connected_time":755000000000,"state":"active","ping":148},{"user_id":95,"name":"big steve","steam_id":76561199037050183,"connected_time":921000000000,"state":"active","ping":91},{"user_id":104,"name":"Huey","steam_id":76561198972816386,"connected_time":357000000000,"state":"active","ping":75},{"user_id":58,"name":"Rev","steam_id":76561198045651005,"connected_time":3338000000000,"state":"active","ping":63},{"user_id":100,"name":"Ansuz();","steam_id":76561198260732135,"connected_time":559000000000,"state":"active","ping":74},{"user_id":65,"name":"Mephistopheles","steam_id":76561198253731826,"connected_time":2392000000000,"state":"active","ping":72},{"user_id":67,"name":"Earl S","steam_id":76561198064273772,"connected_time":2240000000000,"state":"active","ping":75},{"user_id":102,"name":"Pasta","steam_id":76561198358320222,"connected_time":414000000000,"state":"active","ping":86},{"user_id":38,"name":"Bad Rollout","steam_id":76561197971948876,"connected_time":4186000000000,"state":"active","ping":71},{"user_id":77,"name":"winrarFanatic","steam_id":76561198026538317,"connected_time":1717000000000,"state":"active","ping":58},{"user_id":106,"name":"Random","steam_id":76561198318879454,"connected_time":95000000000,"state":"active","ping":57},{"user_id":62,"name":"gary","steam_id":76561198140226890,"connected_time":2454000000000,"state":"active","ping":65},{"user_id":101,"name":"I gotta fart really bad","steam_id":76561197986530028,"connected_time":543000000000,"state":"active","ping":99},{"user_id":61,"name":"CherryPieRed2023","steam_id":76561198998007496,"connected_time":2854000000000,"state":"active","ping":110},{"user_id":69,"name":"Queen Frau the Round","steam_id":76561197999942134,"connected_time":2228000000000,"state":"active","ping":47},{"user_id":46,"name":"Jennifer Aniston's Nipples","steam_id":76561198086107548,"connected_time":4081000000000,"state":"active","ping":67},{"user_id":86,"name":"Stranger in a Strange Land","steam_id":76561198049843671,"connected_time":1329000000000,"state":"active","ping":67},{"user_id":91,"name":"Salixiola","steam_id":76561198042177809,"connected_time":1032000000000,"state":"active","ping":72}]},{"server_id":403,"name":"Uncletopia | Chicago | 4 | All Maps","name_short":"chi-4","host":"chi-1.us.uncletopia.com","port":27045,"enabled":true,"region":"us-central","cc":"us","latitude":41.881832,"longitude":-87.62318,"reserved":0,"last_update":"0001-01-01T00:00:00Z","name_a2s":"Uncletopia | Chicago | 4 | All Maps","protocol":17,"map":"cp_dustbowl","folder":"tf","game":"Team Fortress","app_id":440,"player_count":24,"max_players":24,"Bots":0,"server_type":"Dedicated","server_os":"Linux","password":true,"vac":true,"version":"7932396","steam_id":85568392924515193,"keywords":["cp","nocrits","nodmgspread","uncletopia"],"game_id":440,"stv_port":27046,"stv_name":"Uncletopia | Chicago | 4 | All Maps | STV","players":[{"user_id":244,"name":"Chubbles","steam_id":76561198237619472,"connected_time":107000000000,"state":"active","ping":77},{"user_id":234,"name":"lilixdust","steam_id":76561199391478575,"connected_time":1132000000000,"state":"active","ping":112},{"user_id":208,"name":"Constellar Nova","steam_id":76561198868215392,"connected_time":2009000000000,"state":"active","ping":84},{"user_id":215,"name":"justpixels","steam_id":76561198143717568,"connected_time":1789000000000,"state":"active","ping":185},{"user_id":243,"name":"fred","steam_id":76561199065834574,"connected_time":120000000000,"state":"active","ping":86},{"user_id":200,"name":"Dr. PP","steam_id":76561199018184096,"connected_time":3594000000000,"state":"active","ping":128},{"user_id":238,"name":"Brown_Dream","steam_id":76561198975766145,"connected_time":639000000000,"state":"active","ping":84},{"user_id":232,"name":"CyberZayne","steam_id":76561198002351356,"connected_time":1278000000000,"state":"active","ping":105},{"user_id":218,"name":"Space Lizard","steam_id":76561198056798193,"connected_time":1780000000000,"state":"active","ping":76},{"user_id":230,"name":"breathing meat donut","steam_id":76561198123566649,"connected_time":1564000000000,"state":"active","ping":97},{"user_id":205,"name":"dont tripp","steam_id":76561198370431307,"connected_time":2878000000000,"state":"active","ping":96},{"user_id":220,"name":"Kirby.exe","steam_id":76561198242714582,"connected_time":1770000000000,"state":"active","ping":60},{"user_id":221,"name":"asbestos","steam_id":76561198079178866,"connected_time":1766000000000,"state":"active","ping":74},{"user_id":239,"name":"engineer's fat tits gaming","steam_id":76561198351463588,"connected_time":598000000000,"state":"active","ping":63},{"user_id":180,"name":"Girl gamer","steam_id":76561198237827742,"connected_time":5071000000000,"state":"active","ping":67},{"user_id":240,"name":"TrashBoat","steam_id":76561199089671432,"connected_time":459000000000,"state":"active","ping":87},{"user_id":195,"name":"Michaelpc1","steam_id":76561198088365519,"connected_time":4018000000000,"state":"active","ping":75},{"user_id":241,"name":"Roberto Del Fuego","steam_id":76561198043458554,"connected_time":418000000000,"state":"active","ping":51},{"user_id":242,"name":"CORGI.EXE","steam_id":76561198077093432,"connected_time":406000000000,"state":"active","ping":70},{"user_id":231,"name":"Coke Himmy","steam_id":76561198397459211,"connected_time":1482000000000,"state":"active","ping":86},{"user_id":227,"name":"Hotel Mario Next-Gen Remaster","steam_id":76561198217955315,"connected_time":1643000000000,"state":"active","ping":70},{"user_id":229,"name":"iwifi6homestation","steam_id":76561199454418977,"connected_time":1575000000000,"state":"active","ping":188},{"user_id":236,"name":"22moo","steam_id":76561199075331630,"connected_time":1030000000000,"state":"active","ping":72}]},{"server_id":36,"name":"Uncletopia | Chicago | 5 | All Maps","name_short":"chi-5","host":"chi-2.us.uncletopia.com","port":27015,"enabled":true,"region":"us-central","cc":"us","latitude":41.881832,"longitude":-87.62318,"reserved":0,"last_update":"0001-01-01T00:00:00Z","name_a2s":"Uncletopia | Chicago | 5 | All Maps","protocol":17,"map":"pl_upward","folder":"tf","game":"Team Fortress","app_id":440,"player_count":24,"max_players":24,"Bots":0,"server_type":"Dedicated","server_os":"Linux","password":true,"vac":true,"version":"7932396","steam_id":85568392924866362,"keywords":["nocrits","nodmgspread","payload","uncletopia"],"game_id":440,"stv_port":27016,"stv_name":"Uncletopia | Chicago | 5 | All Maps | STV","players":[{"user_id":11,"name":"AGL Lr Nappa","steam_id":76561198313627753,"connected_time":2825000000000,"state":"active","ping":83},{"user_id":38,"name":"CoconutNeutral","steam_id":76561198277110108,"connected_time":534000000000,"state":"active","ping":76},{"user_id":32,"name":"g00bur","steam_id":76561197993622520,"connected_time":781000000000,"state":"active","ping":71},{"user_id":39,"name":"Winter the Witchie","steam_id":76561198151971178,"connected_time":501000000000,"state":"active","ping":60},{"user_id":16,"name":"Waddlehi","steam_id":76561198072553840,"connected_time":1729000000000,"state":"active","ping":58},{"user_id":17,"name":"WarpDrive489","steam_id":76561198320395110,"connected_time":1161000000000,"state":"active","ping":89},{"user_id":18,"name":"Lil' Diabeetus","steam_id":76561198330119627,"connected_time":1150000000000,"state":"active","ping":75},{"user_id":19,"name":"Engi","steam_id":76561198430985020,"connected_time":1146000000000,"state":"active","ping":81},{"user_id":20,"name":"Waluigi Kujo","steam_id":76561198845735243,"connected_time":1144000000000,"state":"active","ping":73},{"user_id":21,"name":"gretchling","steam_id":76561198046111695,"connected_time":1105000000000,"state":"active","ping":62},{"user_id":23,"name":"10 FPS Gaymer","steam_id":76561199200969139,"connected_time":1063000000000,"state":"active","ping":111},{"user_id":33,"name":"BigBubble42","steam_id":76561198136286123,"connected_time":728000000000,"state":"active","ping":61},{"user_id":25,"name":"milfred louver","steam_id":76561198882713406,"connected_time":1012000000000,"state":"active","ping":170},{"user_id":27,"name":"DJ Taj Mahal","steam_id":76561198024504491,"connected_time":857000000000,"state":"active","ping":48},{"user_id":36,"name":"Tysteemo","steam_id":76561198395917737,"connected_time":589000000000,"state":"active","ping":113},{"user_id":40,"name":"Two Homeless Men","steam_id":76561199179400763,"connected_time":496000000000,"state":"active","ping":51},{"user_id":37,"name":"BlackheartKyurem","steam_id":76561198088842813,"connected_time":564000000000,"state":"active","ping":74},{"user_id":31,"name":"Paradox","steam_id":76561198284164847,"connected_time":831000000000,"state":"active","ping":74},{"user_id":34,"name":"Deltaco","steam_id":76561198094572694,"connected_time":724000000000,"state":"active","ping":116},{"user_id":35,"name":"Pluto","steam_id":76561198338593690,"connected_time":697000000000,"state":"active","ping":79},{"user_id":41,"name":"EXC4LIBUR","steam_id":76561199179830301,"connected_time":478000000000,"state":"active","ping":122},{"user_id":42,"name":"Shoko of Hellwound","steam_id":76561198095277549,"connected_time":476000000000,"state":"active","ping":162},{"user_id":45,"name":"*sneaky snitch starts playing*","steam_id":76561198335160895,"connected_time":95000000000,"state":"active","ping":63},{"user_id":44,"name":"Maximus","steam_id":76561197972518150,"connected_time":433000000000,"state":"active","ping":66}]},{"server_id":37,"name":"Uncletopia | Chicago | 6 | All Maps","name_short":"chi-6","host":"chi-2.us.uncletopia.com","port":27025,"enabled":true,"region":"us-central","cc":"us","latitude":41.881832,"longitude":-87.62318,"reserved":0,"last_update":"0001-01-01T00:00:00Z","name_a2s":"Uncletopia | Chicago | 6 | All Maps","protocol":17,"map":"koth_viaduct","folder":"tf","game":"Team Fortress","app_id":440,"player_count":5,"max_players":24,"Bots":0,"server_type":"Dedicated","server_os":"Linux","password":true,"vac":true,"version":"7932396","steam_id":85568392924866363,"keywords":["cp","nocrits","nodmgspread","uncletopia"],"game_id":440,"stv_port":27026,"stv_name":"Uncletopia | Chicago | 6 | All Maps | STV","players":[{"user_id":9,"name":"rjhezire","steam_id":76561199337922625,"connected_time":291000000000,"state":"active","ping":78},{"user_id":10,"name":"doamgeo468","steam_id":76561199485287045,"connected_time":279000000000,"state":"active","ping":111},{"user_id":11,"name":"Captain Dusk","steam_id":76561199093333752,"connected_time":161000000000,"state":"active","ping":66},{"user_id":12,"name":"Electroscythe [F2P]","steam_id":76561199216034017,"connected_time":145000000000,"state":"active","ping":64},{"user_id":14,"name":"Car Scientist","steam_id":76561198157284119,"connected_time":64000000000,"state":"active","ping":102}]},{"server_id":38,"name":"Uncletopia | Chicago | 7 | Stopwatch Beta","name_short":"chi-7","host":"chi-2.us.uncletopia.com","port":27035,"enabled":true,"region":"us-central","cc":"us","latitude":41.881832,"longitude":-87.62318,"reserved":0,"last_update":"0001-01-01T00:00:00Z","name_a2s":"Uncletopia | Chicago | 7 | Stopwatch Beta","protocol":17,"map":"pl_borneo","folder":"tf","game":"Team Fortress","app_id":440,"player_count":0,"max_players":24,"Bots":0,"server_type":"Dedicated","server_os":"Linux","password":true,"vac":true,"version":"7932396","steam_id":85568392924866364,"keywords":["nocrits","nodmgspread","payload","uncletopia"],"game_id":440,"stv_port":27036,"stv_name":"Uncletopia | Chicago | 7 | Stopwatch Beta | STV","players":null},{"server_id":39,"name":"Uncletopia | Chicago | 8 | Community","name_short":"chi-8","host":"chi-2.us.uncletopia.com","port":27045,"enabled":true,"region":"us-central","cc":"us","latitude":41.881832,"longitude":-87.62318,"reserved":0,"last_update":"0001-01-01T00:00:00Z","name_a2s":"Uncletopia | Chicago | 8 | Community","protocol":17,"map":"workshop/pl_highwood_b13.ugc1769496557","folder":"tf","game":"Team Fortress","app_id":440,"player_count":20,"max_players":24,"Bots":0,"server_type":"Dedicated","server_os":"Linux","password":true,"vac":true,"version":"7932396","steam_id":85568392924866365,"keywords":["nocrits","nodmgspread","payload","uncletopia"],"game_id":440,"stv_port":27046,"stv_name":"Uncletopia | Chicago | 8 | Community | STV","players":[{"user_id":237,"name":"kashmiiR","steam_id":76561198123697209,"connected_time":1417000000000,"state":"active","ping":62},{"user_id":258,"name":"carne asada","steam_id":76561198108398751,"connected_time":12000000000,"state":"spawning","ping":96},{"user_id":198,"name":"Plimbo","steam_id":76561198400838588,"connected_time":4283000000000,"state":"active","ping":51},{"user_id":257,"name":"melvinsaurus56430","steam_id":76561198170276601,"connected_time":221000000000,"state":"active","ping":83},{"user_id":192,"name":"ohio survivor","steam_id":76561198031675881,"connected_time":4554000000000,"state":"active","ping":34},{"user_id":178,"name":"c","steam_id":76561198103496593,"connected_time":6143000000000,"state":"active","ping":61},{"user_id":252,"name":"to sem ideia #savetf2","steam_id":76561199052177486,"connected_time":653000000000,"state":"spawning","ping":270},{"user_id":253,"name":"Gram Tokers Count Doinkula","steam_id":76561198112811565,"connected_time":586000000000,"state":"spawning","ping":322},{"user_id":216,"name":"Infinitytacos","steam_id":76561198884260211,"connected_time":3091000000000,"state":"active","ping":35},{"user_id":246,"name":"Swifgz","steam_id":76561198162875756,"connected_time":932000000000,"state":"spawning","ping":53},{"user_id":259,"name":"AudaCD","steam_id":76561198202775853,"connected_time":7000000000,"state":"spawning","ping":85},{"user_id":235,"name":"Sunshine","steam_id":76561198085837469,"connected_time":1949000000000,"state":"spawning","ping":312},{"user_id":224,"name":"LORDO","steam_id":76561198044824675,"connected_time":2654000000000,"state":"active","ping":102},{"user_id":247,"name":"debin","steam_id":76561198070711217,"connected_time":916000000000,"state":"active","ping":52},{"user_id":240,"name":"Tom","steam_id":76561198070630154,"connected_time":1357000000000,"state":"active","ping":91},{"user_id":241,"name":"MacxNxCheese80","steam_id":76561198923725480,"connected_time":1042000000000,"state":"spawning","ping":149},{"user_id":214,"name":"Toilet Brush","steam_id":76561198176517715,"connected_time":3152000000000,"state":"active","ping":60},{"user_id":256,"name":"(pro) semitic ye","steam_id":76561198068830312,"connected_time":394000000000,"state":"active","ping":39},{"user_id":209,"name":"Osrio","steam_id":76561198083428069,"connected_time":3460000000000,"state":"spawning","ping":257},{"user_id":248,"name":"The Worst Sniper","steam_id":76561198104086771,"connected_time":897000000000,"state":"active","ping":105}]},{"server_id":8,"name":"Uncletopia | Dallas | 1 | All Maps","name_short":"dal-1","host":"dal-1.us.uncletopia.com","port":27015,"enabled":true,"region":"us-central","cc":"us","latitude":32.779167,"longitude":-96.80889,"reserved":0,"last_update":"0001-01-01T00:00:00Z","name_a2s":"Uncletopia | Dallas | 1 | All Maps","protocol":17,"map":"cp_dustbowl","folder":"tf","game":"Team Fortress","app_id":440,"player_count":23,"max_players":24,"Bots":0,"server_type":"Dedicated","server_os":"Linux","password":true,"vac":true,"version":"7932396","steam_id":85568392924469986,"keywords":["cp","nocrits","nodmgspread","uncletopia"],"game_id":440,"stv_port":27016,"stv_name":"Uncletopia | Dallas | 1 | All Maps | STV","players":[{"user_id":222,"name":"EightySix","steam_id":76561198186678831,"connected_time":3056000000000,"state":"spawning","ping":97},{"user_id":248,"name":"xiPoison","steam_id":76561198064961659,"connected_time":221000000000,"state":"active","ping":89},{"user_id":246,"name":"BigBattleToaster","steam_id":76561199087551431,"connected_time":928000000000,"state":"spawning","ping":154},{"user_id":186,"name":"Moonflower ✦","steam_id":76561198191782483,"connected_time":5818000000000,"state":"active","ping":94},{"user_id":225,"name":"Mrs.Frizzle","steam_id":76561198117157085,"connected_time":2930000000000,"state":"active","ping":128},{"user_id":242,"name":"TheGFG","steam_id":76561198166150556,"connected_time":1235000000000,"state":"active","ping":73},{"user_id":210,"name":"tsz","steam_id":76561199246231090,"connected_time":3847000000000,"state":"active","ping":86},{"user_id":254,"name":"Sad Sapling","steam_id":76561198075612150,"connected_time":21000000000,"state":"active","ping":112},{"user_id":236,"name":"schmuck","steam_id":76561198143789773,"connected_time":1642000000000,"state":"spawning","ping":41},{"user_id":208,"name":"fleepore (:","steam_id":76561199238295034,"connected_time":4462000000000,"state":"active","ping":219},{"user_id":244,"name":"Jo","steam_id":76561198060447015,"connected_time":1208000000000,"state":"active","ping":135},{"user_id":199,"name":"Boognish Rising","steam_id":76561199273231736,"connected_time":4932000000000,"state":"active","ping":148},{"user_id":230,"name":"civilian","steam_id":76561198289811981,"connected_time":2444000000000,"state":"spawning","ping":60},{"user_id":253,"name":"nullptr","steam_id":76561198111790388,"connected_time":33000000000,"state":"active","ping":116},{"user_id":256,"name":"Suburban Wolf Dad","steam_id":76561198069234954,"connected_time":19000000000,"state":"spawning","ping":312},{"user_id":250,"name":"Rob","steam_id":76561199187786660,"connected_time":87000000000,"state":"active","ping":64},{"user_id":251,"name":"EverythingZen","steam_id":76561198257384503,"connected_time":84000000000,"state":"spawning","ping":55},{"user_id":202,"name":"Sahbi (she/they)","steam_id":76561199196292242,"connected_time":4883000000000,"state":"active","ping":94},{"user_id":241,"name":"Unlock The Shock (She/They)","steam_id":76561198823616667,"connected_time":1266000000000,"state":"spawning","ping":46},{"user_id":249,"name":"Crack Addict","steam_id":76561198166681494,"connected_time":149000000000,"state":"spawning","ping":35},{"user_id":245,"name":"Shrederatershan","steam_id":76561199211707598,"connected_time":1069000000000,"state":"active","ping":204},{"user_id":233,"name":"oh the treachery","steam_id":76561198127851014,"connected_time":1775000000000,"state":"active","ping":193},{"user_id":257,"name":"penzfan","steam_id":76561198230422640,"connected_time":11000000000,"state":"active","ping":163}]},{"server_id":108,"name":"Uncletopia | Dallas | 2 | All Maps","name_short":"dal-2","host":"dal-1.us.uncletopia.com","port":27025,"enabled":true,"region":"us-central","cc":"us","latitude":32.779167,"longitude":-96.80889,"reserved":0,"last_update":"0001-01-01T00:00:00Z","name_a2s":"Uncletopia | Dallas | 2 | All Maps","protocol":17,"map":"pl_upward","folder":"tf","game":"Team Fortress","app_id":440,"player_count":10,"max_players":24,"Bots":0,"server_type":"Dedicated","server_os":"Linux","password":true,"vac":true,"version":"7932396","steam_id":85568392924469988,"keywords":["nocrits","nodmgspread","payload","uncletopia"],"game_id":440,"stv_port":27026,"stv_name":"Uncletopia | Dallas | 2 | All Maps | STV","players":[{"user_id":27,"name":"rcus","steam_id":76561198405759470,"connected_time":1469000000000,"state":"active","ping":51},{"user_id":28,"name":"Deaddropping","steam_id":76561198043711366,"connected_time":1201000000000,"state":"active","ping":77},{"user_id":32,"name":"Medineer","steam_id":76561198929219710,"connected_time":547000000000,"state":"active","ping":73},{"user_id":23,"name":"Controller Player","steam_id":76561198369511235,"connected_time":2542000000000,"state":"active","ping":94},{"user_id":33,"name":"Danewkid69","steam_id":76561199481061223,"connected_time":537000000000,"state":"active","ping":77},{"user_id":34,"name":"Fps","steam_id":76561198077651488,"connected_time":532000000000,"state":"active","ping":240},{"user_id":35,"name":"Reague","steam_id":76561199092175631,"connected_time":504000000000,"state":"active","ping":62},{"user_id":40,"name":"SpecialForce19","steam_id":76561198120974644,"connected_time":226000000000,"state":"active","ping":96},{"user_id":43,"name":"FIREPOW #RTB","steam_id":76561198111259720,"connected_time":33000000000,"state":"active","ping":76},{"user_id":42,"name":"Kelly","steam_id":76561199074198653,"connected_time":185000000000,"state":"active","ping":110}]},{"server_id":5,"name":"Uncletopia | Frankfurt | 1 | All Maps","name_short":"frk-1","host":"frk-1.de.uncletopia.com","port":27015,"enabled":true,"region":"eu","cc":"de","latitude":50.110924,"longitude":8.682127,"reserved":0,"last_update":"0001-01-01T00:00:00Z","name_a2s":"Uncletopia | Frankfurt | 1 | All Maps","protocol":17,"map":"pl_swiftwater_final1","folder":"tf","game":"Team Fortress","app_id":440,"player_count":24,"max_players":24,"Bots":0,"server_type":"Dedicated","server_os":"Linux","password":true,"vac":true,"version":"7932396","steam_id":85568392924469989,"keywords":["nocrits","nodmgspread","payload","uncletopia"],"game_id":440,"stv_port":27016,"stv_name":"Uncletopia | Frankfurt | 1 | All Maps | STV","players":[{"user_id":439,"name":"askulap","steam_id":76561197992018795,"connected_time":2036000000000,"state":"active","ping":78},{"user_id":518,"name":"ThatOneGamerLad","steam_id":76561199054293114,"connected_time":287000000000,"state":"active","ping":131},{"user_id":462,"name":"lil Insane Whiteballer","steam_id":76561198126987393,"connected_time":1039000000000,"state":"active","ping":60},{"user_id":441,"name":"Mati [EST]","steam_id":76561197994743813,"connected_time":1974000000000,"state":"active","ping":103},{"user_id":463,"name":"Jonak","steam_id":76561198080832458,"connected_time":1037000000000,"state":"active","ping":61},{"user_id":508,"name":"(WTH) Dan/David","steam_id":76561198284085526,"connected_time":385000000000,"state":"active","ping":79},{"user_id":531,"name":"Wokfish","steam_id":76561199014465909,"connected_time":91000000000,"state":"active","ping":106},{"user_id":506,"name":"Hawkuro","steam_id":76561198252194838,"connected_time":395000000000,"state":"active","ping":40},{"user_id":478,"name":"zinzyk","steam_id":76561198128011822,"connected_time":632000000000,"state":"active","ping":54},{"user_id":452,"name":"pos","steam_id":76561198026132442,"connected_time":1189000000000,"state":"active","ping":81},{"user_id":475,"name":"Barry","steam_id":76561198317737261,"connected_time":712000000000,"state":"active","ping":61},{"user_id":466,"name":"PapaMaxy","steam_id":76561198256362726,"connected_time":973000000000,"state":"active","ping":84},{"user_id":519,"name":"jun0","steam_id":76561197984763237,"connected_time":283000000000,"state":"active","ping":51},{"user_id":532,"name":"E² FTH","steam_id":76561198066287815,"connected_time":84000000000,"state":"active","ping":113},{"user_id":469,"name":"Roxy_Joestar","steam_id":76561199122275646,"connected_time":948000000000,"state":"active","ping":113},{"user_id":483,"name":"Matt","steam_id":76561198263644467,"connected_time":518000000000,"state":"active","ping":75},{"user_id":476,"name":"Klario","steam_id":76561198947975261,"connected_time":687000000000,"state":"active","ping":64},{"user_id":484,"name":"The Builder","steam_id":76561198403959663,"connected_time":515000000000,"state":"active","ping":87},{"user_id":485,"name":"Sacco","steam_id":76561199048451187,"connected_time":513000000000,"state":"active","ping":69},{"user_id":486,"name":"BELADIT","steam_id":76561198011911501,"connected_time":513000000000,"state":"active","ping":64},{"user_id":487,"name":"ALL BALLS NO SHAFT","steam_id":76561198028701695,"connected_time":504000000000,"state":"active","ping":75},{"user_id":528,"name":"Ivan","steam_id":76561198874503008,"connected_time":164000000000,"state":"active","ping":80},{"user_id":535,"name":"Thalash","steam_id":76561198064052251,"connected_time":48000000000,"state":"active","ping":48},{"user_id":491,"name":"MDL | Fortress Faceoffs","steam_id":76561198203256620,"connected_time":491000000000,"state":"active","ping":39}]},{"server_id":110,"name":"Uncletopia | Frankfurt | 2 | All Maps","name_short":"frk-2","host":"frk-1.de.uncletopia.com","port":27025,"enabled":true,"region":"eu","cc":"de","latitude":50.110924,"longitude":8.682127,"reserved":0,"last_update":"0001-01-01T00:00:00Z","name_a2s":"Uncletopia | Frankfurt | 2 | All Maps","protocol":17,"map":"pl_barnblitz","folder":"tf","game":"Team Fortress","app_id":440,"player_count":23,"max_players":24,"Bots":0,"server_type":"Dedicated","server_os":"Linux","password":true,"vac":true,"version":"7932396","steam_id":85568392924469990,"keywords":["nocrits","nodmgspread","payload","uncletopia"],"game_id":440,"stv_port":27026,"stv_name":"Uncletopia | Frankfurt | 2 | All Maps | STV","players":[{"user_id":752,"name":"Gamlader","steam_id":76561198306177608,"connected_time":235000000000,"state":"active","ping":66},{"user_id":748,"name":"Johnny","steam_id":76561198880265246,"connected_time":284000000000,"state":"active","ping":89},{"user_id":724,"name":"YOU ARE SHITTING YOUR SELF","steam_id":76561198371719058,"connected_time":1156000000000,"state":"active","ping":63},{"user_id":725,"name":"sHIFTINGvORTEX","steam_id":76561198231648332,"connected_time":1066000000000,"state":"active","ping":76},{"user_id":754,"name":"boban","steam_id":76561199085472085,"connected_time":209000000000,"state":"active","ping":70},{"user_id":719,"name":"Mittenz","steam_id":76561198017368659,"connected_time":1592000000000,"state":"active","ping":65},{"user_id":695,"name":"Teecho","steam_id":76561197995269610,"connected_time":2415000000000,"state":"active","ping":70},{"user_id":751,"name":"GamerPanda","steam_id":76561198061454277,"connected_time":236000000000,"state":"active","ping":60},{"user_id":753,"name":"MMMonkey | trade.tf","steam_id":76561198118917458,"connected_time":223000000000,"state":"active","ping":116},{"user_id":728,"name":"Hussain_144","steam_id":76561198346029208,"connected_time":1034000000000,"state":"active","ping":190},{"user_id":744,"name":"Pencil Billy","steam_id":76561198009407651,"connected_time":830000000000,"state":"active","ping":63},{"user_id":684,"name":"Washburne","steam_id":76561198032810579,"connected_time":3407000000000,"state":"active","ping":59},{"user_id":749,"name":"誰かが見ている","steam_id":76561198834913692,"connected_time":281000000000,"state":"active","ping":68},{"user_id":745,"name":"RockMachine[ITA]","steam_id":76561198009411428,"connected_time":783000000000,"state":"active","ping":72},{"user_id":734,"name":"Voks_","steam_id":76561198159687785,"connected_time":952000000000,"state":"active","ping":88},{"user_id":758,"name":"MisterSleider","steam_id":76561198063840611,"connected_time":151000000000,"state":"active","ping":78},{"user_id":736,"name":"burgz","steam_id":76561198109955787,"connected_time":944000000000,"state":"active","ping":60},{"user_id":738,"name":"I'm Pain","steam_id":76561199167781869,"connected_time":927000000000,"state":"active","ping":60},{"user_id":708,"name":"ROX","steam_id":76561198272289320,"connected_time":2166000000000,"state":"active","ping":80},{"user_id":739,"name":"LazyBane","steam_id":76561198032359132,"connected_time":916000000000,"state":"active","ping":55},{"user_id":756,"name":"Operable2694","steam_id":76561199486377532,"connected_time":187000000000,"state":"active","ping":70},{"user_id":741,"name":"TheEventGuy","steam_id":76561197972797744,"connected_time":897000000000,"state":"active","ping":64},{"user_id":757,"name":"leminsc8","steam_id":76561198825084995,"connected_time":178000000000,"state":"active","ping":44}]},{"server_id":308,"name":"Uncletopia | Frankfurt | 3 | All Maps","name_short":"frk-3","host":"frk-1.de.uncletopia.com","port":27035,"enabled":true,"region":"eu","cc":"de","latitude":50.110924,"longitude":8.682127,"reserved":0,"last_update":"0001-01-01T00:00:00Z","name_a2s":"Uncletopia | Frankfurt | 3 | All Maps","protocol":17,"map":"pl_snowycoast","folder":"tf","game":"Team Fortress","app_id":440,"player_count":7,"max_players":24,"Bots":0,"server_type":"Dedicated","server_os":"Linux","password":true,"vac":true,"version":"7932396","steam_id":85568392924504274,"keywords":["nocrits","nodmgspread","payload","uncletopia"],"game_id":440,"stv_port":27036,"stv_name":"Uncletopia | Frankfurt | 3 | All Maps | STV","players":[{"user_id":300,"name":"Waffle","steam_id":76561198397024973,"connected_time":1079000000000,"state":"active","ping":52},{"user_id":301,"name":"N.","steam_id":76561198017274851,"connected_time":1067000000000,"state":"active","ping":45},{"user_id":303,"name":"HikiPelaaja","steam_id":76561198146333046,"connected_time":491000000000,"state":"active","ping":75},{"user_id":305,"name":"Goon","steam_id":76561198927527338,"connected_time":386000000000,"state":"active","ping":158},{"user_id":306,"name":"meat man","steam_id":76561199135835032,"connected_time":263000000000,"state":"active","ping":83},{"user_id":307,"name":"Kamikrazy","steam_id":76561198044254918,"connected_time":122000000000,"state":"active","ping":62},{"user_id":238,"name":"antlionguard","steam_id":76561198072747143,"connected_time":4843000000000,"state":"active","ping":97}]},{"server_id":309,"name":"Uncletopia | Frankfurt | 4 | All Maps","name_short":"frk-4","host":"frk-1.de.uncletopia.com","port":27045,"enabled":true,"region":"eu","cc":"de","latitude":50.110924,"longitude":8.682127,"reserved":0,"last_update":"0001-01-01T00:00:00Z","name_a2s":"Uncletopia | Frankfurt | 4 | All Maps","protocol":17,"map":"pl_borneo","folder":"tf","game":"Team Fortress","app_id":440,"player_count":0,"max_players":24,"Bots":0,"server_type":"Dedicated","server_os":"Linux","password":true,"vac":true,"version":"7932396","steam_id":85568392924504275,"keywords":["nocrits","nodmgspread","payload","uncletopia"],"game_id":440,"stv_port":27046,"stv_name":"Uncletopia | Frankfurt | 4 | All Maps | STV","players":null},{"server_id":310,"name":"Uncletopia | Frankfurt | 5 | All Maps","name_short":"frk-5","host":"frk-1.de.uncletopia.com","port":27055,"enabled":true,"region":"eu","cc":"de","latitude":50.110924,"longitude":8.682127,"reserved":0,"last_update":"0001-01-01T00:00:00Z","name_a2s":"Uncletopia | Frankfurt | 5 | All Maps","protocol":17,"map":"pl_frontier_final","folder":"tf","game":"Team Fortress","app_id":440,"player_count":2,"max_players":24,"Bots":0,"server_type":"Dedicated","server_os":"Linux","password":true,"vac":true,"version":"7932396","steam_id":85568392924504277,"keywords":["nocrits","nodmgspread","payload","uncletopia"],"game_id":440,"stv_port":27056,"stv_name":"Uncletopia | Frankfurt | 5 | All Maps | STV","players":[{"user_id":209,"name":"Solid","steam_id":76561198357049292,"connected_time":1077000000000,"state":"active","ping":69},{"user_id":208,"name":"FanFish","steam_id":76561199389558024,"connected_time":1180000000000,"state":"active","ping":68}]},{"server_id":311,"name":"Uncletopia | Frankfurt | 6 | All Maps","name_short":"frk-6","host":"frk-1.de.uncletopia.com","port":27065,"enabled":true,"region":"eu","cc":"de","latitude":50.110924,"longitude":8.682127,"reserved":0,"last_update":"0001-01-01T00:00:00Z","name_a2s":"Uncletopia | Frankfurt | 6 | All Maps","protocol":17,"map":"pl_barnblitz","folder":"tf","game":"Team Fortress","app_id":440,"player_count":0,"max_players":24,"Bots":0,"server_type":"Dedicated","server_os":"Linux","password":true,"vac":true,"version":"7932396","steam_id":85568392924504278,"keywords":["nocrits","nodmgspread","payload","uncletopia"],"game_id":440,"stv_port":27066,"stv_name":"Uncletopia | Frankfurt | 6 | All Maps | STV","players":null},{"server_id":23,"name":"Uncletopia | Frankfurt | 7 | Stopwatch Beta","name_short":"frk-7","host":"frk-1.de.uncletopia.com","port":27075,"enabled":true,"region":"eu","cc":"de","latitude":50.110924,"longitude":8.682127,"reserved":0,"last_update":"0001-01-01T00:00:00Z","name_a2s":"Uncletopia | Frankfurt | 7 | Stopwatch Beta","protocol":17,"map":"pl_snowycoast","folder":"tf","game":"Team Fortress","app_id":440,"player_count":0,"max_players":24,"Bots":0,"server_type":"Dedicated","server_os":"Linux","password":true,"vac":true,"version":"7932396","steam_id":85568392924742827,"keywords":["nocrits","nodmgspread","payload","uncletopia"],"game_id":440,"stv_port":27076,"stv_name":"Uncletopia | Frankfurt | 7 | Stopwatch Beta | STV","players":null},{"server_id":24,"name":"Uncletopia | Frankfurt | 8 | Community","name_short":"frk-8","host":"frk-1.de.uncletopia.com","port":27085,"enabled":true,"region":"eu","cc":"de","latitude":50.110924,"longitude":8.682127,"reserved":0,"last_update":"0001-01-01T00:00:00Z","name_a2s":"Uncletopia | Frankfurt | 8 | Community","protocol":17,"map":"workshop/koth_product_final.ugc454272353","folder":"tf","game":"Team Fortress","app_id":440,"player_count":0,"max_players":24,"Bots":0,"server_type":"Dedicated","server_os":"Linux","password":true,"vac":true,"version":"7932396","steam_id":85568392924742828,"keywords":["cp","nocrits","nodmgspread","uncletopia"],"game_id":440,"stv_port":27086,"stv_name":"Uncletopia | Frankfurt | 8 | Community | STV","players":null},{"server_id":202,"name":"Uncletopia | Hong Kong | 1 | All Maps","name_short":"hgk-1","host":"hgk-1.hk.uncletopia.com","port":27015,"enabled":true,"region":"asia","cc":"hk","latitude":22.302711,"longitude":114.177216,"reserved":0,"last_update":"0001-01-01T00:00:00Z","name_a2s":"Uncletopia | Hong Kong | 1 | All Maps","protocol":17,"map":"koth_harvest_final","folder":"tf","game":"Team Fortress","app_id":440,"player_count":0,"max_players":24,"Bots":0,"server_type":"Dedicated","server_os":"Linux","password":true,"vac":true,"version":"7932396","steam_id":85568392924494504,"keywords":["cp","nocrits","nodmgspread","uncletopia"],"game_id":440,"stv_port":27016,"stv_name":"Uncletopia | Hong Kong | 1 | All Maps | STV","players":null},{"server_id":1,"name":"Uncletopia | Los Angeles | 1 | All Maps","name_short":"lax-1","host":"lax-1.us.uncletopia.com","port":27015,"enabled":true,"region":"us-west","cc":"us","latitude":33.94279,"longitude":-118.41004,"reserved":0,"last_update":"0001-01-01T00:00:00Z","name_a2s":"Uncletopia | Los Angeles | 1 | All Maps","protocol":17,"map":"pl_frontier_final","folder":"tf","game":"Team Fortress","app_id":440,"player_count":1,"max_players":24,"Bots":0,"server_type":"Dedicated","server_os":"Linux","password":true,"vac":true,"version":"7932396","steam_id":85568392924469991,"keywords":["nocrits","nodmgspread","payload","uncletopia"],"game_id":440,"stv_port":27016,"stv_name":"Uncletopia | Los Angeles | 1 | All Maps | STV","players":[{"user_id":7,"name":"Fribbo","steam_id":76561198373295660,"connected_time":6000000000,"state":"spawning","ping":65}]},{"server_id":112,"name":"Uncletopia | Los Angeles | 2 | All Maps","name_short":"lax-2","host":"lax-1.us.uncletopia.com","port":27025,"enabled":true,"region":"us-west","cc":"us","latitude":33.94279,"longitude":-118.41004,"reserved":0,"last_update":"0001-01-01T00:00:00Z","name_a2s":"Uncletopia | Los Angeles | 2 | All Maps","protocol":17,"map":"cp_snakewater_final1","folder":"tf","game":"Team Fortress","app_id":440,"player_count":24,"max_players":24,"Bots":0,"server_type":"Dedicated","server_os":"Linux","password":true,"vac":true,"version":"7932396","steam_id":85568392924469992,"keywords":["cp","nocrits","nodmgspread","uncletopia"],"game_id":440,"stv_port":27026,"stv_name":"Uncletopia | Los Angeles | 2 | All Maps | STV","players":[{"user_id":45,"name":"Big Boobs","steam_id":76561198401455467,"connected_time":714000000000,"state":"active","ping":68},{"user_id":40,"name":"igotswag.com","steam_id":76561198083851689,"connected_time":1058000000000,"state":"active","ping":67},{"user_id":9,"name":"Gobb","steam_id":76561198028907283,"connected_time":2796000000000,"state":"active","ping":43},{"user_id":54,"name":"McLovin","steam_id":76561198114934503,"connected_time":210000000000,"state":"active","ping":76},{"user_id":42,"name":"Hector Salamanca","steam_id":76561199103213955,"connected_time":968000000000,"state":"active","ping":70},{"user_id":56,"name":"Jokezonyu","steam_id":76561198213167893,"connected_time":60000000000,"state":"active","ping":57},{"user_id":44,"name":"Ambush","steam_id":76561199217844192,"connected_time":926000000000,"state":"active","ping":77},{"user_id":46,"name":"Joe Biden (Deceased)","steam_id":76561198170427507,"connected_time":697000000000,"state":"active","ping":83},{"user_id":17,"name":"Shadmage","steam_id":76561198312008132,"connected_time":1729000000000,"state":"active","ping":55},{"user_id":50,"name":"Mattaru","steam_id":76561198385592811,"connected_time":452000000000,"state":"active","ping":100},{"user_id":24,"name":"Balengu Deez","steam_id":76561198217680027,"connected_time":1644000000000,"state":"active","ping":95},{"user_id":53,"name":"cream team","steam_id":76561198139043953,"connected_time":246000000000,"state":"active","ping":78},{"user_id":21,"name":"Chirp","steam_id":76561198240780230,"connected_time":1673000000000,"state":"active","ping":42},{"user_id":22,"name":"yenseii","steam_id":76561198304265800,"connected_time":1669000000000,"state":"active","ping":99},{"user_id":23,"name":"Dirt","steam_id":76561198158410201,"connected_time":1666000000000,"state":"active","ping":57},{"user_id":52,"name":"lukamine","steam_id":76561198166827208,"connected_time":361000000000,"state":"active","ping":75},{"user_id":55,"name":"『A Sentient Durian』","steam_id":76561198131212243,"connected_time":157000000000,"state":"active","ping":66},{"user_id":29,"name":"GulfGiggle","steam_id":76561198317506335,"connected_time":1449000000000,"state":"active","ping":56},{"user_id":48,"name":"soltuno","steam_id":76561198074430565,"connected_time":572000000000,"state":"active","ping":65},{"user_id":35,"name":"Konnor","steam_id":76561199136300254,"connected_time":1237000000000,"state":"active","ping":44},{"user_id":51,"name":"Eli0n","steam_id":76561198167785848,"connected_time":448000000000,"state":"active","ping":98},{"user_id":43,"name":"Homewrecker Hobo","steam_id":76561199218800448,"connected_time":964000000000,"state":"active","ping":107},{"user_id":38,"name":"Bunger","steam_id":76561198951348154,"connected_time":1136000000000,"state":"active","ping":58},{"user_id":39,"name":"ceres","steam_id":76561198291976960,"connected_time":1120000000000,"state":"active","ping":90}]},{"server_id":324,"name":"Uncletopia | Los Angeles | 3 | All Maps","name_short":"lax-3","host":"lax-1.us.uncletopia.com","port":27035,"enabled":true,"region":"us-west","cc":"us","latitude":33.94279,"longitude":-118.41004,"reserved":0,"last_update":"0001-01-01T00:00:00Z","name_a2s":"Uncletopia | Los Angeles | 3 | All Maps","protocol":17,"map":"pl_barnblitz","folder":"tf","game":"Team Fortress","app_id":440,"player_count":24,"max_players":24,"Bots":0,"server_type":"Dedicated","server_os":"Linux","password":true,"vac":true,"version":"7932396","steam_id":85568392924510198,"keywords":["nocrits","nodmgspread","payload","uncletopia"],"game_id":440,"stv_port":27036,"stv_name":"Uncletopia | Los Angeles | 3 | All Maps | STV","players":[{"user_id":344,"name":"Freeza","steam_id":76561198050341005,"connected_time":1366000000000,"state":"active","ping":45},{"user_id":330,"name":"rune simpa","steam_id":76561198046174848,"connected_time":2326000000000,"state":"active","ping":93},{"user_id":326,"name":"RoastedGoldfish","steam_id":76561198065110989,"connected_time":2636000000000,"state":"active","ping":87},{"user_id":320,"name":"Immortal8Reaper","steam_id":76561198297661559,"connected_time":2871000000000,"state":"active","ping":118},{"user_id":345,"name":"Axel","steam_id":76561199013107272,"connected_time":1343000000000,"state":"active","ping":69},{"user_id":340,"name":"Torikaesu","steam_id":76561198277813823,"connected_time":1694000000000,"state":"active","ping":56},{"user_id":292,"name":"Doll","steam_id":76561197992377288,"connected_time":4844000000000,"state":"active","ping":105},{"user_id":352,"name":"Lo-Pan","steam_id":76561198085670133,"connected_time":900000000000,"state":"active","ping":85},{"user_id":342,"name":"Brain damage squirrel","steam_id":76561198846344452,"connected_time":1548000000000,"state":"active","ping":51},{"user_id":298,"name":"Mediocre","steam_id":76561198056352693,"connected_time":4126000000000,"state":"active","ping":55},{"user_id":361,"name":"MooMooMamaMan3000","steam_id":76561198219213757,"connected_time":72000000000,"state":"active","ping":126},{"user_id":335,"name":"Phantom_03","steam_id":76561198217929829,"connected_time":2051000000000,"state":"active","ping":64},{"user_id":293,"name":"Tom Trench","steam_id":76561198084341434,"connected_time":4835000000000,"state":"active","ping":104},{"user_id":321,"name":"The_Skull","steam_id":76561198121244647,"connected_time":2858000000000,"state":"active","ping":97},{"user_id":360,"name":"Anotherordinary1","steam_id":76561199258223335,"connected_time":141000000000,"state":"active","ping":63},{"user_id":327,"name":"mytoyo2k2","steam_id":76561199486326945,"connected_time":2636000000000,"state":"active","ping":106},{"user_id":328,"name":"BrightOrangeMango","steam_id":76561198023144607,"connected_time":2469000000000,"state":"active","ping":66},{"user_id":351,"name":"gatorbelt","steam_id":76561198145784505,"connected_time":997000000000,"state":"active","ping":57},{"user_id":356,"name":"Dr Sex","steam_id":76561199115766913,"connected_time":453000000000,"state":"active","ping":124},{"user_id":353,"name":"$limek✔ngEM0.an1me.B0Y_33309","steam_id":76561198283687382,"connected_time":794000000000,"state":"active","ping":98},{"user_id":359,"name":"Scrux","steam_id":76561198129763115,"connected_time":357000000000,"state":"active","ping":57},{"user_id":307,"name":"lol","steam_id":76561198026491738,"connected_time":3290000000000,"state":"active","ping":61},{"user_id":358,"name":"Modstin","steam_id":76561198080081255,"connected_time":407000000000,"state":"active","ping":58},{"user_id":309,"name":"Ken","steam_id":76561198190992453,"connected_time":3289000000000,"state":"active","ping":48}]},{"server_id":25,"name":"Uncletopia | Los Angeles | 4 | Stopwatch Beta","name_short":"lax-4","host":"lax-1.us.uncletopia.com","port":27045,"enabled":true,"region":"us-west","cc":"us","latitude":33.94279,"longitude":-118.41004,"reserved":0,"last_update":"0001-01-01T00:00:00Z","name_a2s":"Uncletopia | Los Angeles | 4 | Stopwatch Beta","protocol":17,"map":"cp_altitude","folder":"tf","game":"Team Fortress","app_id":440,"player_count":0,"max_players":24,"Bots":0,"server_type":"Dedicated","server_os":"Linux","password":true,"vac":true,"version":"7932396","steam_id":85568392924510199,"keywords":["cp","nocrits","nodmgspread","uncletopia"],"game_id":440,"stv_port":27046,"stv_name":"Uncletopia | Los Angeles | 4 | Stopwatch Beta | STV","players":null},{"server_id":11,"name":"Uncletopia | London | 1 | All Maps","name_short":"lon-1","host":"lon-1.uk.uncletopia.com","port":27015,"enabled":true,"region":"eu","cc":"gb","latitude":51.509865,"longitude":-0.118092,"reserved":0,"last_update":"0001-01-01T00:00:00Z","name_a2s":"Uncletopia | London | 1 | All Maps","protocol":17,"map":"pl_pier","folder":"tf","game":"Team Fortress","app_id":440,"player_count":24,"max_players":24,"Bots":0,"server_type":"Dedicated","server_os":"Linux","password":true,"vac":true,"version":"7932396","steam_id":85568392924367362,"keywords":["nocrits","nodmgspread","payload","uncletopia"],"game_id":440,"stv_port":27016,"stv_name":"Uncletopia | London | 1 | All Maps | STV","players":[{"user_id":748,"name":"Spyro [SRB]","steam_id":76561198026162599,"connected_time":660000000000,"state":"active","ping":83},{"user_id":747,"name":"Fred","steam_id":76561198107137362,"connected_time":671000000000,"state":"active","ping":52},{"user_id":693,"name":"LionKing","steam_id":76561198023399545,"connected_time":4557000000000,"state":"active","ping":61},{"user_id":726,"name":"_420_StopItDudeCmon","steam_id":76561197997146481,"connected_time":1417000000000,"state":"active","ping":81},{"user_id":749,"name":"gosi","steam_id":76561198084111532,"connected_time":652000000000,"state":"active","ping":67},{"user_id":723,"name":"Risinger","steam_id":76561198079789688,"connected_time":1598000000000,"state":"active","ping":67},{"user_id":745,"name":"TylowStar","steam_id":76561198357107806,"connected_time":741000000000,"state":"active","ping":60},{"user_id":724,"name":"Combat Wombat","steam_id":76561197994720068,"connected_time":1575000000000,"state":"active","ping":64},{"user_id":740,"name":"MargoulGetron","steam_id":76561198020551698,"connected_time":1022000000000,"state":"active","ping":58},{"user_id":743,"name":"unhappy mink","steam_id":76561198199117446,"connected_time":907000000000,"state":"active","ping":51},{"user_id":739,"name":"THE Grosser","steam_id":76561197995530666,"connected_time":1047000000000,"state":"active","ping":60},{"user_id":725,"name":"Mike","steam_id":76561198228455736,"connected_time":1541000000000,"state":"active","ping":58},{"user_id":754,"name":"shooer!","steam_id":76561198110531281,"connected_time":128000000000,"state":"active","ping":71},{"user_id":701,"name":"Dizzy","steam_id":76561198010192462,"connected_time":3183000000000,"state":"active","ping":59},{"user_id":721,"name":"something","steam_id":76561198198581615,"connected_time":1645000000000,"state":"active","ping":70},{"user_id":741,"name":"Sixie","steam_id":76561198251675360,"connected_time":1005000000000,"state":"active","ping":51},{"user_id":746,"name":"FLASH","steam_id":76561197996649686,"connected_time":686000000000,"state":"active","ping":68},{"user_id":730,"name":"Skittles","steam_id":76561198024077569,"connected_time":1288000000000,"state":"active","ping":67},{"user_id":675,"name":"Gamer_X","steam_id":76561198085349286,"connected_time":5767000000000,"state":"active","ping":86},{"user_id":731,"name":"hopperthebox","steam_id":76561198053418437,"connected_time":1161000000000,"state":"active","ping":89},{"user_id":696,"name":"sup3rfr3ddy.","steam_id":76561198119371683,"connected_time":4486000000000,"state":"active","ping":63},{"user_id":719,"name":"raehik","steam_id":76561198025278149,"connected_time":1917000000000,"state":"active","ping":50},{"user_id":735,"name":"Snake-chan","steam_id":76561199044755854,"connected_time":1076000000000,"state":"active","ping":73},{"user_id":734,"name":"Qwertuss","steam_id":76561198026305366,"connected_time":1088000000000,"state":"active","ping":61}]},{"server_id":114,"name":"Uncletopia | London | 2 | All Maps","name_short":"lon-2","host":"lon-1.uk.uncletopia.com","port":27025,"enabled":true,"region":"eu","cc":"gb","latitude":51.509865,"longitude":-0.118092,"reserved":0,"last_update":"0001-01-01T00:00:00Z","name_a2s":"Uncletopia | London | 2 | All Maps","protocol":17,"map":"pl_pier","folder":"tf","game":"Team Fortress","app_id":440,"player_count":24,"max_players":24,"Bots":0,"server_type":"Dedicated","server_os":"Linux","password":true,"vac":true,"version":"7932396","steam_id":85568392924470941,"keywords":["nocrits","nodmgspread","payload","uncletopia"],"game_id":440,"stv_port":27026,"stv_name":"Uncletopia | London | 2 | All Maps | STV","players":[{"user_id":612,"name":"Ch4bby","steam_id":76561198058792875,"connected_time":247000000000,"state":"active","ping":59},{"user_id":588,"name":"Vershal Smershal","steam_id":76561198116223995,"connected_time":2366000000000,"state":"active","ping":60},{"user_id":591,"name":"Woman (Real)","steam_id":76561199151823932,"connected_time":2049000000000,"state":"active","ping":90},{"user_id":609,"name":"yush","steam_id":76561198121688934,"connected_time":642000000000,"state":"active","ping":74},{"user_id":604,"name":"finbar","steam_id":76561198056812396,"connected_time":939000000000,"state":"active","ping":82},{"user_id":613,"name":"Koli","steam_id":76561197992428783,"connected_time":246000000000,"state":"active","ping":60},{"user_id":571,"name":"xavier","steam_id":76561198076494034,"connected_time":3866000000000,"state":"active","ping":50},{"user_id":586,"name":"Bobirulez","steam_id":76561198009125458,"connected_time":2732000000000,"state":"active","ping":75},{"user_id":603,"name":"dunduu","steam_id":76561198875240717,"connected_time":1181000000000,"state":"active","ping":71},{"user_id":614,"name":"Splarvis","steam_id":76561198007792525,"connected_time":220000000000,"state":"active","ping":43},{"user_id":615,"name":"trite","steam_id":76561197983765323,"connected_time":174000000000,"state":"active","ping":52},{"user_id":592,"name":"static","steam_id":76561198836825741,"connected_time":2021000000000,"state":"active","ping":54},{"user_id":580,"name":"FuneralDJ (semen demon)","steam_id":76561198105320071,"connected_time":3190000000000,"state":"active","ping":54},{"user_id":565,"name":"brimstone","steam_id":76561197971672076,"connected_time":4401000000000,"state":"active","ping":50},{"user_id":616,"name":"Grumtsior","steam_id":76561198043563111,"connected_time":169000000000,"state":"active","ping":75},{"user_id":617,"name":"MEOWMEOWMEOWMEOWMEOWMEOWMEOWMEO","steam_id":76561198723244199,"connected_time":151000000000,"state":"active","ping":75},{"user_id":618,"name":"3L","steam_id":76561198007208996,"connected_time":131000000000,"state":"active","ping":56},{"user_id":619,"name":"Popop","steam_id":76561198004793795,"connected_time":74000000000,"state":"active","ping":57},{"user_id":607,"name":"Bonca","steam_id":76561198137503531,"connected_time":698000000000,"state":"active","ping":74},{"user_id":620,"name":"Vigilanis","steam_id":76561198349099737,"connected_time":73000000000,"state":"active","ping":54},{"user_id":599,"name":"Ceiling fan enthusiast","steam_id":76561197989214268,"connected_time":1798000000000,"state":"active","ping":67},{"user_id":611,"name":"Puss in Boots","steam_id":76561198211599767,"connected_time":440000000000,"state":"active","ping":56},{"user_id":621,"name":"Qdarks","steam_id":76561198013391340,"connected_time":63000000000,"state":"active","ping":159},{"user_id":622,"name":"SirNeeco \u003c3","steam_id":76561198103014203,"connected_time":30000000000,"state":"active","ping":77}]},{"server_id":320,"name":"Uncletopia | London | 3 | All Maps","name_short":"lon-3","host":"lon-1.uk.uncletopia.com","port":27035,"enabled":true,"region":"eu","cc":"gb","latitude":51.509865,"longitude":-0.118092,"reserved":0,"last_update":"0001-01-01T00:00:00Z","name_a2s":"Uncletopia | London | 3 | All Maps","protocol":17,"map":"pl_pier","folder":"tf","game":"Team Fortress","app_id":440,"player_count":23,"max_players":24,"Bots":0,"server_type":"Dedicated","server_os":"Linux","password":true,"vac":true,"version":"7932396","steam_id":85568392924510192,"keywords":["nocrits","nodmgspread","payload","uncletopia"],"game_id":440,"stv_port":27036,"stv_name":"Uncletopia | London | 3 | All Maps | STV","players":[{"user_id":319,"name":"Nyst","steam_id":76561198400998400,"connected_time":1452000000000,"state":"active","ping":73},{"user_id":313,"name":"Aroo","steam_id":76561198132601368,"connected_time":2104000000000,"state":"active","ping":82},{"user_id":272,"name":"turbo shart","steam_id":76561198012351808,"connected_time":4301000000000,"state":"active","ping":52},{"user_id":335,"name":"Sergeant_cross","steam_id":76561198148270425,"connected_time":29000000000,"state":"spawning","ping":52},{"user_id":316,"name":"s a i","steam_id":76561197970379754,"connected_time":1704000000000,"state":"active","ping":61},{"user_id":329,"name":"ABbott_","steam_id":76561198030528873,"connected_time":489000000000,"state":"active","ping":56},{"user_id":326,"name":"Thors","steam_id":76561197968739075,"connected_time":805000000000,"state":"active","ping":44},{"user_id":294,"name":"Sim","steam_id":76561198086641180,"connected_time":2842000000000,"state":"active","ping":100},{"user_id":327,"name":"Mka Kitty","steam_id":76561198070128785,"connected_time":797000000000,"state":"active","ping":85},{"user_id":204,"name":"mohemmedmokhter2005","steam_id":76561199197650506,"connected_time":7927000000000,"state":"active","ping":110},{"user_id":318,"name":"silicon based life form","steam_id":76561199127121346,"connected_time":1521000000000,"state":"active","ping":57},{"user_id":330,"name":"Andy","steam_id":76561198046918834,"connected_time":466000000000,"state":"active","ping":69},{"user_id":297,"name":"Bottle O' Scrumpy","steam_id":76561199244250562,"connected_time":2802000000000,"state":"active","ping":101},{"user_id":314,"name":"Hamstericu","steam_id":76561198363337431,"connected_time":2085000000000,"state":"active","ping":116},{"user_id":323,"name":"LiterallyRyanGosling","steam_id":76561199017856691,"connected_time":1132000000000,"state":"active","ping":57},{"user_id":308,"name":"JohnTraveltime","steam_id":76561199244281754,"connected_time":2380000000000,"state":"active","ping":79},{"user_id":331,"name":"Lord of Birds","steam_id":76561198268952995,"connected_time":461000000000,"state":"active","ping":73},{"user_id":301,"name":"Medic!","steam_id":76561199246804975,"connected_time":2784000000000,"state":"active","ping":160},{"user_id":325,"name":"Zizman","steam_id":76561198446562910,"connected_time":941000000000,"state":"active","ping":147},{"user_id":303,"name":"FirePenguin","steam_id":76561198151468340,"connected_time":2755000000000,"state":"active","ping":42},{"user_id":259,"name":"nobodyy","steam_id":76561198027735766,"connected_time":4942000000000,"state":"active","ping":66},{"user_id":307,"name":"mangoface","steam_id":76561199028760996,"connected_time":2395000000000,"state":"active","ping":84},{"user_id":328,"name":"Tort","steam_id":76561198329646769,"connected_time":699000000000,"state":"active","ping":55}]},{"server_id":321,"name":"Uncletopia | London | 4 | All Maps","name_short":"lon-4","host":"lon-1.uk.uncletopia.com","port":27045,"enabled":true,"region":"eu","cc":"gb","latitude":51.509865,"longitude":-0.118092,"reserved":0,"last_update":"0001-01-01T00:00:00Z","name_a2s":"Uncletopia | London | 4 | All Maps","protocol":17,"map":"cp_steel","folder":"tf","game":"Team Fortress","app_id":440,"player_count":24,"max_players":24,"Bots":0,"server_type":"Dedicated","server_os":"Linux","password":true,"vac":true,"version":"7932396","steam_id":85568392924510193,"keywords":["cp","nocrits","nodmgspread","uncletopia"],"game_id":440,"stv_port":27046,"stv_name":"Uncletopia | London | 4 | All Maps | STV","players":[{"user_id":301,"name":"handsmans","steam_id":76561199159858846,"connected_time":315000000000,"state":"active","ping":136},{"user_id":302,"name":"Cirox","steam_id":76561198383142404,"connected_time":314000000000,"state":"active","ping":85},{"user_id":263,"name":"endlesshills","steam_id":76561198081908373,"connected_time":2021000000000,"state":"active","ping":64},{"user_id":276,"name":"Umbraprism","steam_id":76561197984504910,"connected_time":1582000000000,"state":"active","ping":56},{"user_id":265,"name":"Plep","steam_id":76561198840259819,"connected_time":1998000000000,"state":"active","ping":51},{"user_id":266,"name":"pad6z23h8s","steam_id":76561198880756741,"connected_time":1993000000000,"state":"active","ping":84},{"user_id":281,"name":"Artificer","steam_id":76561198840591678,"connected_time":1277000000000,"state":"active","ping":84},{"user_id":303,"name":"dripstein","steam_id":76561198059598696,"connected_time":307000000000,"state":"active","ping":67},{"user_id":288,"name":"XRay Original","steam_id":76561198877955299,"connected_time":1055000000000,"state":"active","ping":71},{"user_id":296,"name":"Xallog","steam_id":76561198050061597,"connected_time":617000000000,"state":"active","ping":37},{"user_id":292,"name":"joe","steam_id":76561198026484403,"connected_time":895000000000,"state":"active","ping":59},{"user_id":268,"name":"veto vuyisio","steam_id":76561199101145470,"connected_time":1957000000000,"state":"active","ping":75},{"user_id":293,"name":"yuno appreciator","steam_id":76561198083286511,"connected_time":887000000000,"state":"active","ping":40},{"user_id":307,"name":"METhOphetamine","steam_id":76561198068216224,"connected_time":244000000000,"state":"active","ping":65},{"user_id":309,"name":"Olaf Gasbrigi","steam_id":76561198000618491,"connected_time":146000000000,"state":"active","ping":65},{"user_id":310,"name":"Aaron","steam_id":76561197990046953,"connected_time":133000000000,"state":"active","ping":54},{"user_id":299,"name":"Programmer Socks Gaming","steam_id":76561198982674420,"connected_time":404000000000,"state":"active","ping":41},{"user_id":311,"name":"Charlotte","steam_id":76561199486023516,"connected_time":98000000000,"state":"active","ping":85},{"user_id":312,"name":"TheAsianMate","steam_id":76561198116111669,"connected_time":82000000000,"state":"active","ping":74},{"user_id":280,"name":"*Loud Minecraft Eating Sound*","steam_id":76561199400071472,"connected_time":1337000000000,"state":"active","ping":82},{"user_id":306,"name":"jj","steam_id":76561198079200985,"connected_time":263000000000,"state":"active","ping":57},{"user_id":247,"name":"Soaya","steam_id":76561199101510855,"connected_time":3230000000000,"state":"active","ping":52},{"user_id":313,"name":"goodguess","steam_id":76561198006889036,"connected_time":79000000000,"state":"active","ping":49},{"user_id":305,"name":"Moonkey","steam_id":76561199013741389,"connected_time":276000000000,"state":"active","ping":107}]},{"server_id":21,"name":"Uncletopia | London | 5 | All Maps","name_short":"lon-5","host":"lon-1.uk.uncletopia.com","port":27055,"enabled":true,"region":"eu","cc":"gb","latitude":51.509865,"longitude":-0.118092,"reserved":0,"last_update":"0001-01-01T00:00:00Z","name_a2s":"Uncletopia | London | 5 | All Maps","protocol":17,"map":"pl_badwater","folder":"tf","game":"Team Fortress","app_id":440,"player_count":24,"max_players":24,"Bots":0,"server_type":"Dedicated","server_os":"Linux","password":true,"vac":true,"version":"7932396","steam_id":85568392924742829,"keywords":["nocrits","nodmgspread","payload","uncletopia"],"game_id":440,"stv_port":27056,"stv_name":"Uncletopia | London | 5 | All Maps | STV","players":[{"user_id":448,"name":"TF2","steam_id":76561198256328990,"connected_time":150000000000,"state":"active","ping":75},{"user_id":438,"name":"Gugu","steam_id":76561198161822358,"connected_time":867000000000,"state":"active","ping":75},{"user_id":432,"name":"Carrot (real)","steam_id":76561198139404261,"connected_time":1645000000000,"state":"active","ping":43},{"user_id":424,"name":"irritable vowel syndrome","steam_id":76561198117033273,"connected_time":2624000000000,"state":"active","ping":59},{"user_id":433,"name":"CiVillain","steam_id":76561198059617732,"connected_time":1095000000000,"state":"active","ping":67},{"user_id":425,"name":"Bonduelle#Savetf2","steam_id":76561199041992422,"connected_time":2611000000000,"state":"active","ping":168},{"user_id":436,"name":"WaDIP","steam_id":76561198010270494,"connected_time":931000000000,"state":"active","ping":104},{"user_id":415,"name":"fewexxx","steam_id":76561198354123406,"connected_time":3000000000000,"state":"active","ping":86},{"user_id":412,"name":"monikka","steam_id":76561198297003397,"connected_time":3179000000000,"state":"active","ping":75},{"user_id":387,"name":"Stoic","steam_id":76561199088506542,"connected_time":4665000000000,"state":"active","ping":68},{"user_id":446,"name":"DrExplosive","steam_id":76561198063678579,"connected_time":242000000000,"state":"active","ping":62},{"user_id":397,"name":"Yuzu","steam_id":76561198121694613,"connected_time":4201000000000,"state":"active","ping":48},{"user_id":443,"name":"xiiski","steam_id":76561198152387747,"connected_time":792000000000,"state":"active","ping":110},{"user_id":398,"name":"JVLIVS","steam_id":76561198366167099,"connected_time":4199000000000,"state":"active","ping":50},{"user_id":439,"name":"OceanMan","steam_id":76561198391833371,"connected_time":866000000000,"state":"active","ping":44},{"user_id":441,"name":"Charmedelf","steam_id":76561197993611881,"connected_time":861000000000,"state":"active","ping":60},{"user_id":422,"name":"p1","steam_id":76561198125266153,"connected_time":2651000000000,"state":"active","ping":99},{"user_id":410,"name":"Nessieling","steam_id":76561198083556891,"connected_time":3458000000000,"state":"active","ping":84},{"user_id":358,"name":"Gnarville","steam_id":76561198006373329,"connected_time":6671000000000,"state":"active","ping":45},{"user_id":447,"name":"Bob Sacamano","steam_id":76561198085610701,"connected_time":215000000000,"state":"active","ping":100},{"user_id":419,"name":"Lightboom","steam_id":76561198104645103,"connected_time":2848000000000,"state":"active","ping":84},{"user_id":442,"name":"Shovelhalfrusty","steam_id":76561198346447513,"connected_time":809000000000,"state":"active","ping":62},{"user_id":408,"name":"soar","steam_id":76561198010662796,"connected_time":3926000000000,"state":"active","ping":48},{"user_id":445,"name":"DJPNK","steam_id":76561197989948420,"connected_time":547000000000,"state":"active","ping":54}]},{"server_id":22,"name":"Uncletopia | London | 6 | All Maps","name_short":"lon-6","host":"lon-1.uk.uncletopia.com","port":27065,"enabled":true,"region":"eu","cc":"gb","latitude":51.509865,"longitude":-0.118092,"reserved":0,"last_update":"0001-01-01T00:00:00Z","name_a2s":"Uncletopia | London | 6 | All Maps","protocol":17,"map":"pl_barnblitz","folder":"tf","game":"Team Fortress","app_id":440,"player_count":24,"max_players":24,"Bots":0,"server_type":"Dedicated","server_os":"Linux","password":true,"vac":true,"version":"7932396","steam_id":85568392924742830,"keywords":["nocrits","nodmgspread","payload","uncletopia"],"game_id":440,"stv_port":27066,"stv_name":"Uncletopia | London | 6 | All Maps | STV","players":[{"user_id":13,"name":"Bradders","steam_id":76561198072225758,"connected_time":785000000000,"state":"active","ping":33},{"user_id":14,"name":"j0rdyb0y58","steam_id":76561198035357039,"connected_time":755000000000,"state":"active","ping":84},{"user_id":15,"name":"Memph","steam_id":76561198093280341,"connected_time":719000000000,"state":"active","ping":30},{"user_id":16,"name":"Le kabeb","steam_id":76561198086578208,"connected_time":718000000000,"state":"active","ping":57},{"user_id":17,"name":"Uzz","steam_id":76561198104457610,"connected_time":717000000000,"state":"active","ping":48},{"user_id":18,"name":"Furai","steam_id":76561197983336482,"connected_time":704000000000,"state":"active","ping":55},{"user_id":19,"name":"nyanezt","steam_id":76561198253734265,"connected_time":630000000000,"state":"active","ping":121},{"user_id":20,"name":"Proto-arc","steam_id":76561198012776747,"connected_time":453000000000,"state":"active","ping":52},{"user_id":21,"name":"cuddle","steam_id":76561198805181599,"connected_time":442000000000,"state":"active","ping":53},{"user_id":22,"name":"Mikasz Pupkusz","steam_id":76561198177042937,"connected_time":426000000000,"state":"active","ping":74},{"user_id":23,"name":"shablool","steam_id":76561199192795613,"connected_time":399000000000,"state":"active","ping":105},{"user_id":24,"name":"0lloe","steam_id":76561198070861443,"connected_time":383000000000,"state":"active","ping":63},{"user_id":25,"name":"Kaishakunin","steam_id":76561198028123874,"connected_time":363000000000,"state":"active","ping":100},{"user_id":26,"name":"Da Gus","steam_id":76561198435032627,"connected_time":362000000000,"state":"active","ping":85},{"user_id":27,"name":"Piellino","steam_id":76561198156873276,"connected_time":341000000000,"state":"active","ping":104},{"user_id":28,"name":"SCRAN-TYPE-BEATS","steam_id":76561198242883412,"connected_time":323000000000,"state":"active","ping":63},{"user_id":37,"name":"Aquiles Baesta","steam_id":76561198081053203,"connected_time":94000000000,"state":"active","ping":174},{"user_id":30,"name":"Cagnus Marlsen","steam_id":76561198077859721,"connected_time":295000000000,"state":"active","ping":64},{"user_id":31,"name":"aaaaa aa aaa","steam_id":76561198377289568,"connected_time":291000000000,"state":"active","ping":69},{"user_id":38,"name":"☭TheDevilsEye☭","steam_id":76561198017379398,"connected_time":37000000000,"state":"active","ping":102},{"user_id":33,"name":"Batmintimidating","steam_id":76561198103724879,"connected_time":278000000000,"state":"active","ping":76},{"user_id":34,"name":"Agnos","steam_id":76561198241498776,"connected_time":231000000000,"state":"active","ping":117},{"user_id":35,"name":"dEzZe ツ","steam_id":76561197960291106,"connected_time":226000000000,"state":"active","ping":60},{"user_id":36,"name":"Charles Darwin","steam_id":76561197973496139,"connected_time":220000000000,"state":"active","ping":65}]},{"server_id":40,"name":"Uncletopia | London | 7 | No Payload","name_short":"lon-7","host":"lon-1.uk.uncletopia.com","port":27075,"enabled":true,"region":"eu","cc":"gb","latitude":51.509865,"longitude":-0.118092,"reserved":0,"last_update":"0001-01-01T00:00:00Z","name_a2s":"Uncletopia | London | 7 | No Payload","protocol":17,"map":"cp_process_final","folder":"tf","game":"Team Fortress","app_id":440,"player_count":24,"max_players":24,"Bots":0,"server_type":"Dedicated","server_os":"Linux","password":true,"vac":true,"version":"7932396","steam_id":85568392924964314,"keywords":["cp","nocrits","nodmgspread","uncletopia"],"game_id":440,"stv_port":27076,"stv_name":"Uncletopia | London | 7 | No Payload | STV","players":[{"user_id":35,"name":"Worm","steam_id":76561198296497176,"connected_time":2107000000000,"state":"active","ping":55},{"user_id":43,"name":"GunGuy","steam_id":76561198124510978,"connected_time":1493000000000,"state":"active","ping":36},{"user_id":33,"name":"Nobody","steam_id":76561198151116796,"connected_time":2352000000000,"state":"active","ping":94},{"user_id":78,"name":"P3rsErkki","steam_id":76561198063093495,"connected_time":203000000000,"state":"active","ping":74},{"user_id":36,"name":"🎀ｃａｎｎｉｂａｌ\ufffd\ufffd\ufffd","steam_id":76561198220303063,"connected_time":2104000000000,"state":"active","ping":76},{"user_id":79,"name":"Vince","steam_id":76561199103000131,"connected_time":186000000000,"state":"active","ping":45},{"user_id":67,"name":"the joy of recycling","steam_id":76561198138509827,"connected_time":987000000000,"state":"active","ping":88},{"user_id":45,"name":"Parmenides","steam_id":76561198079849761,"connected_time":1306000000000,"state":"active","ping":47},{"user_id":71,"name":"fénix","steam_id":76561198083199151,"connected_time":627000000000,"state":"active","ping":61},{"user_id":46,"name":"deaconng","steam_id":76561198801871663,"connected_time":1280000000000,"state":"active","ping":52},{"user_id":80,"name":"Fat Pigeon","steam_id":76561198817940142,"connected_time":87000000000,"state":"active","ping":45},{"user_id":48,"name":"comps","steam_id":76561198118279259,"connected_time":1266000000000,"state":"active","ping":60},{"user_id":49,"name":"t0ksi","steam_id":76561198107240798,"connected_time":1255000000000,"state":"active","ping":76},{"user_id":50,"name":"Chilly Snipples","steam_id":76561198203326293,"connected_time":1255000000000,"state":"active","ping":78},{"user_id":51,"name":"pepper","steam_id":76561198059782462,"connected_time":1254000000000,"state":"active","ping":72},{"user_id":69,"name":"king251311","steam_id":76561199063310889,"connected_time":878000000000,"state":"active","ping":100},{"user_id":54,"name":"sAmasam","steam_id":76561198114953928,"connected_time":1251000000000,"state":"active","ping":73},{"user_id":55,"name":"fast3r","steam_id":76561198415542035,"connected_time":1251000000000,"state":"active","ping":45},{"user_id":56,"name":"ax","steam_id":76561199201206556,"connected_time":1247000000000,"state":"active","ping":97},{"user_id":57,"name":"Sophie","steam_id":76561198970075085,"connected_time":1244000000000,"state":"active","ping":36},{"user_id":70,"name":"htraB","steam_id":76561198043122677,"connected_time":771000000000,"state":"active","ping":64},{"user_id":59,"name":"Huskey","steam_id":76561198152392309,"connected_time":1235000000000,"state":"active","ping":47},{"user_id":60,"name":"errisauroh","steam_id":76561198112701938,"connected_time":1235000000000,"state":"active","ping":60},{"user_id":77,"name":"DiamondTom2","steam_id":76561199237451134,"connected_time":396000000000,"state":"active","ping":63}]},{"server_id":41,"name":"Uncletopia | London | 8 | Community","name_short":"lon-8","host":"lon-1.uk.uncletopia.com","port":27085,"enabled":true,"region":"eu","cc":"gb","latitude":51.509865,"longitude":-0.118092,"reserved":0,"last_update":"0001-01-01T00:00:00Z","name_a2s":"Uncletopia | London | 8 | Community","protocol":17,"map":"workshop/cp_kalinka_rc6a.ugc1272700588","folder":"tf","game":"Team Fortress","app_id":440,"player_count":0,"max_players":24,"Bots":0,"server_type":"Dedicated","server_os":"Linux","password":true,"vac":true,"version":"7932396","steam_id":85568392924964315,"keywords":["cp","nocrits","nodmgspread","uncletopia"],"game_id":440,"stv_port":27086,"stv_name":"Uncletopia | London | 8 | Community | STV","players":null},{"server_id":300,"name":"Uncletopia | Montréal | 1 | All Maps","name_short":"mtl-1","host":"mtl-1.ca.uncletopia.com","port":27015,"enabled":true,"region":"us-east","cc":"ca","latitude":45.50889,"longitude":-73.56167,"reserved":0,"last_update":"0001-01-01T00:00:00Z","name_a2s":"Uncletopia | Montréal | 1 | All Maps","protocol":17,"map":"cp_altitude","folder":"tf","game":"Team Fortress","app_id":440,"player_count":0,"max_players":24,"Bots":0,"server_type":"Dedicated","server_os":"Linux","password":true,"vac":true,"version":"7932396","steam_id":85568392924500087,"keywords":["cp","nocrits","nodmgspread","uncletopia"],"game_id":440,"stv_port":27016,"stv_name":"Uncletopia | Montréal | 1 | All Maps | STV","players":null},{"server_id":301,"name":"Uncletopia | Montréal | 2 | All Maps","name_short":"mtl-2","host":"mtl-1.ca.uncletopia.com","port":27025,"enabled":true,"region":"us-east","cc":"ca","latitude":45.50889,"longitude":-73.56167,"reserved":0,"last_update":"0001-01-01T00:00:00Z","name_a2s":"Uncletopia | Montréal | 2 | All Maps","protocol":17,"map":"pl_upward","folder":"tf","game":"Team Fortress","app_id":440,"player_count":0,"max_players":24,"Bots":0,"server_type":"Dedicated","server_os":"Linux","password":true,"vac":true,"version":"7932396","steam_id":85568392924500088,"keywords":["nocrits","nodmgspread","payload","uncletopia"],"game_id":440,"stv_port":27026,"stv_name":"Uncletopia | Montréal | 2 | All Maps | STV","players":null},{"server_id":302,"name":"Uncletopia | Montréal | 3 | All Maps","name_short":"mtl-3","host":"mtl-1.ca.uncletopia.com","port":27035,"enabled":true,"region":"us-east","cc":"ca","latitude":45.50889,"longitude":-73.56167,"reserved":0,"last_update":"0001-01-01T00:00:00Z","name_a2s":"Uncletopia | Montréal | 3 | All Maps","protocol":17,"map":"cp_process_final","folder":"tf","game":"Team Fortress","app_id":440,"player_count":0,"max_players":24,"Bots":0,"server_type":"Dedicated","server_os":"Linux","password":true,"vac":true,"version":"7932396","steam_id":85568392924500089,"keywords":["cp","nocrits","nodmgspread","uncletopia"],"game_id":440,"stv_port":27036,"stv_name":"Uncletopia | Montréal | 3 | All Maps | STV","players":null},{"server_id":303,"name":"Uncletopia | Montréal | 4 | No Payload","name_short":"mtl-4","host":"mtl-1.ca.uncletopia.com","port":27045,"enabled":true,"region":"us-east","cc":"ca","latitude":45.50889,"longitude":-73.56167,"reserved":0,"last_update":"0001-01-01T00:00:00Z","name_a2s":"Uncletopia | Montréal | 4 | No Payload","protocol":17,"map":"cp_snakewater_final1","folder":"tf","game":"Team Fortress","app_id":440,"player_count":0,"max_players":24,"Bots":0,"server_type":"Dedicated","server_os":"Linux","password":true,"vac":true,"version":"7932396","steam_id":85568392924500090,"keywords":["cp","nocrits","nodmgspread","uncletopia"],"game_id":440,"stv_port":27046,"stv_name":"Uncletopia | Montréal | 4 | No Payload | STV","players":null},{"server_id":13,"name":"Uncletopia | New York City | 1 | All Maps","name_short":"nyc-1","host":"nyc-1.us.uncletopia.com","port":27015,"enabled":true,"region":"us-east","cc":"us","latitude":40.73061,"longitude":-73.93524,"reserved":0,"last_update":"0001-01-01T00:00:00Z","name_a2s":"Uncletopia | New York City | 1 | All Maps","protocol":17,"map":"koth_cascade","folder":"tf","game":"Team Fortress","app_id":440,"player_count":0,"max_players":24,"Bots":0,"server_type":"Dedicated","server_os":"Linux","password":true,"vac":true,"version":"7932396","steam_id":85568392924469993,"keywords":["cp","nocrits","nodmgspread","uncletopia"],"game_id":440,"stv_port":27016,"stv_name":"Uncletopia | New York City | 1 | All Maps | STV","players":null},{"server_id":14,"name":"Uncletopia | New York City | 2 | All Maps","name_short":"nyc-2","host":"nyc-1.us.uncletopia.com","port":27025,"enabled":true,"region":"us-east","cc":"us","latitude":40.73061,"longitude":-73.93524,"reserved":0,"last_update":"0001-01-01T00:00:00Z","name_a2s":"Uncletopia | New York City | 2 | All Maps","protocol":17,"map":"koth_lakeside_final","folder":"tf","game":"Team Fortress","app_id":440,"player_count":0,"max_players":24,"Bots":0,"server_type":"Dedicated","server_os":"Linux","password":true,"vac":true,"version":"7932396","steam_id":85568392924469994,"keywords":["cp","nocrits","nodmgspread","uncletopia"],"game_id":440,"stv_port":27026,"stv_name":"Uncletopia | New York City | 2 | All Maps | STV","players":null},{"server_id":15,"name":"Uncletopia | New York City | 3 | Stopwatch Beta","name_short":"nyc-3","host":"nyc-1.us.uncletopia.com","port":27035,"enabled":true,"region":"us-east","cc":"us","latitude":40.73061,"longitude":-73.93524,"reserved":0,"last_update":"0001-01-01T00:00:00Z","name_a2s":"Uncletopia | New York City | 3 | Stopwatch Beta","protocol":17,"map":"cp_sunshine","folder":"tf","game":"Team Fortress","app_id":440,"player_count":0,"max_players":24,"Bots":0,"server_type":"Dedicated","server_os":"Linux","password":true,"vac":true,"version":"7932396","steam_id":85568392924742820,"keywords":["cp","nocrits","nodmgspread","uncletopia"],"game_id":440,"stv_port":27036,"stv_name":"Uncletopia | New York City | 3 | Stopwatch Beta | STV","players":null},{"server_id":16,"name":"Uncletopia | New York City | 4 | Community","name_short":"nyc-4","host":"nyc-1.us.uncletopia.com","port":27045,"enabled":true,"region":"us-east","cc":"us","latitude":40.73061,"longitude":-73.93524,"reserved":0,"last_update":"0001-01-01T00:00:00Z","name_a2s":"Uncletopia | New York City | 4 | Community","protocol":17,"map":"pl_barnblitz","folder":"tf","game":"Team Fortress","app_id":440,"player_count":0,"max_players":24,"Bots":0,"server_type":"Dedicated","server_os":"Linux","password":true,"vac":true,"version":"7932396","steam_id":85568392924742821,"keywords":["nocrits","nodmgspread","payload","uncletopia"],"game_id":440,"stv_port":27046,"stv_name":"Uncletopia | New York City | 4 | Community | STV","players":null},{"server_id":142,"name":"Uncletopia | São Paulo | 1 | All Maps","name_short":"sao-1","host":"sao-1.br.uncletopia.com","port":27015,"enabled":true,"region":"sa","cc":"br","latitude":-23.533773,"longitude":-46.62529,"reserved":0,"last_update":"0001-01-01T00:00:00Z","name_a2s":"Uncletopia | São Paulo | 1 | All Maps","protocol":17,"map":"pl_frontier_final","folder":"tf","game":"Team Fortress","app_id":440,"player_count":0,"max_players":24,"Bots":0,"server_type":"Dedicated","server_os":"Linux","password":true,"vac":true,"version":"7932396","steam_id":85568392924469996,"keywords":["nocrits","nodmgspread","payload","uncletopia"],"game_id":440,"stv_port":27016,"stv_name":"Uncletopia | São Paulo | 1 | All Maps | STV","players":null},{"server_id":143,"name":"Uncletopia | São Paulo | 2 | All Maps","name_short":"sao-2","host":"sao-2.br.uncletopia.com","port":27015,"enabled":true,"region":"sa","cc":"br","latitude":-23.533773,"longitude":-46.62529,"reserved":0,"last_update":"0001-01-01T00:00:00Z","name_a2s":"Uncletopia | São Paulo | 2 | All Maps","protocol":17,"map":"cp_altitude","folder":"tf","game":"Team Fortress","app_id":440,"player_count":0,"max_players":24,"Bots":0,"server_type":"Dedicated","server_os":"Linux","password":true,"vac":true,"version":"7932396","steam_id":85568392924485349,"keywords":["cp","nocrits","nodmgspread","uncletopia"],"game_id":440,"stv_port":27016,"stv_name":"Uncletopia | São Paulo | 2 | All Maps | STV","players":null},{"server_id":7,"name":"Uncletopia | Seattle | 1 | All Maps","name_short":"sea-1","host":"sea-1.us.uncletopia.com","port":27015,"enabled":true,"region":"us-west","cc":"us","latitude":47.608013,"longitude":-122.33517,"reserved":0,"last_update":"0001-01-01T00:00:00Z","name_a2s":"Uncletopia | Seattle | 1 | All Maps","protocol":17,"map":"pl_swiftwater_final1","folder":"tf","game":"Team Fortress","app_id":440,"player_count":24,"max_players":24,"Bots":0,"server_type":"Dedicated","server_os":"Linux","password":true,"vac":true,"version":"7932396","steam_id":85568392924469997,"keywords":["nocrits","nodmgspread","payload","uncletopia"],"game_id":440,"stv_port":27016,"stv_name":"Uncletopia | Seattle | 1 | All Maps | STV","players":[{"user_id":345,"name":"jayeskae","steam_id":76561198144220801,"connected_time":344000000000,"state":"active","ping":44},{"user_id":343,"name":"mocer","steam_id":76561198329367716,"connected_time":360000000000,"state":"active","ping":92},{"user_id":326,"name":"AssertiveGinger","steam_id":76561198134557291,"connected_time":1512000000000,"state":"active","ping":119},{"user_id":324,"name":"The Horny","steam_id":76561198863639459,"connected_time":1834000000000,"state":"active","ping":90},{"user_id":255,"name":"ROGUE-PLANET","steam_id":76561198116023052,"connected_time":7520000000000,"state":"active","ping":72},{"user_id":254,"name":"Hope","steam_id":76561199182558088,"connected_time":7584000000000,"state":"active","ping":81},{"user_id":235,"name":"louise sneeze","steam_id":76561198062451648,"connected_time":10191000000000,"state":"active","ping":91},{"user_id":352,"name":"dust | she/it","steam_id":76561198045218909,"connected_time":208000000000,"state":"active","ping":44},{"user_id":353,"name":"Punished Eric","steam_id":76561198074482804,"connected_time":183000000000,"state":"active","ping":131},{"user_id":330,"name":"Lé Mon","steam_id":76561198078626283,"connected_time":1413000000000,"state":"active","ping":123},{"user_id":340,"name":"La Tabda","steam_id":76561198120364620,"connected_time":724000000000,"state":"active","ping":49},{"user_id":332,"name":"Lily Thorn","steam_id":76561198305488625,"connected_time":1325000000000,"state":"active","ping":69},{"user_id":327,"name":"✿mika✿","steam_id":76561198021771036,"connected_time":1475000000000,"state":"active","ping":98},{"user_id":304,"name":"YourFriendJessie #savetf2","steam_id":76561198176883097,"connected_time":3419000000000,"state":"active","ping":117},{"user_id":328,"name":"Wagemage","steam_id":76561198013625580,"connected_time":1463000000000,"state":"active","ping":115},{"user_id":351,"name":"rbstat","steam_id":76561198050169034,"connected_time":221000000000,"state":"active","ping":100},{"user_id":354,"name":"Shrike","steam_id":76561199095454039,"connected_time":162000000000,"state":"active","ping":74},{"user_id":321,"name":"Bamboo","steam_id":76561198043139553,"connected_time":2069000000000,"state":"active","ping":134},{"user_id":341,"name":"fancyfreak","steam_id":76561198326466375,"connected_time":724000000000,"state":"active","ping":83},{"user_id":342,"name":"All 24 Pokémon movies at once","steam_id":76561198164738311,"connected_time":482000000000,"state":"active","ping":107},{"user_id":344,"name":"Sunny\u003c3","steam_id":76561199117138721,"connected_time":359000000000,"state":"active","ping":103},{"user_id":349,"name":"Slope115117","steam_id":76561199028794627,"connected_time":296000000000,"state":"active","ping":97},{"user_id":317,"name":"SneekiCheekiQbone","steam_id":76561198045077980,"connected_time":2449000000000,"state":"active","ping":73},{"user_id":334,"name":"Engineer Gaming Live","steam_id":76561198045914603,"connected_time":1234000000000,"state":"active","ping":74}]},{"server_id":119,"name":"Uncletopia | Seattle | 2 | All Maps","name_short":"sea-2","host":"sea-1.us.uncletopia.com","port":27025,"enabled":true,"region":"us-west","cc":"us","latitude":47.608013,"longitude":-122.33517,"reserved":0,"last_update":"0001-01-01T00:00:00Z","name_a2s":"Uncletopia | Seattle | 2 | All Maps","protocol":17,"map":"pl_barnblitz","folder":"tf","game":"Team Fortress","app_id":440,"player_count":24,"max_players":24,"Bots":0,"server_type":"Dedicated","server_os":"Linux","password":true,"vac":true,"version":"7932396","steam_id":85568392924469998,"keywords":["nocrits","nodmgspread","payload","uncletopia"],"game_id":440,"stv_port":27026,"stv_name":"Uncletopia | Seattle | 2 | All Maps | STV","players":[{"user_id":91,"name":"fox news goblin","steam_id":76561198167648580,"connected_time":4182000000000,"state":"active","ping":77},{"user_id":150,"name":"Muralo","steam_id":76561198202160268,"connected_time":96000000000,"state":"active","ping":54},{"user_id":151,"name":"CLAYDUCK","steam_id":76561197995221829,"connected_time":79000000000,"state":"active","ping":46},{"user_id":148,"name":"bobby wasabi","steam_id":76561198380018244,"connected_time":133000000000,"state":"active","ping":66},{"user_id":121,"name":"tf2pyro","steam_id":76561198388184353,"connected_time":1630000000000,"state":"active","ping":64},{"user_id":149,"name":"Haloman","steam_id":76561198119610371,"connected_time":129000000000,"state":"active","ping":80},{"user_id":145,"name":"Feasent","steam_id":76561198987316504,"connected_time":331000000000,"state":"active","ping":79},{"user_id":97,"name":"The Headhunter","steam_id":76561198389722871,"connected_time":3602000000000,"state":"active","ping":89},{"user_id":122,"name":"UwU Femboy Lover","steam_id":76561198178088831,"connected_time":1623000000000,"state":"active","ping":62},{"user_id":147,"name":"RyInc","steam_id":76561198874261643,"connected_time":150000000000,"state":"active","ping":93},{"user_id":144,"name":"Chalks","steam_id":76561198045978275,"connected_time":538000000000,"state":"active","ping":93},{"user_id":123,"name":"Afroman_Did_Nothing_Wrong","steam_id":76561198372579548,"connected_time":1612000000000,"state":"active","ping":56},{"user_id":152,"name":"WWWWWWWWWWWWWWWWWWWWWWWWWWWWWWW","steam_id":76561198119167195,"connected_time":75000000000,"state":"active","ping":91},{"user_id":111,"name":"Guardsman","steam_id":76561198041144402,"connected_time":2459000000000,"state":"active","ping":49},{"user_id":153,"name":"daggmo","steam_id":76561198326477131,"connected_time":68000000000,"state":"active","ping":101},{"user_id":75,"name":"Frigus","steam_id":76561198408533295,"connected_time":4656000000000,"state":"active","ping":66},{"user_id":154,"name":"nanakan","steam_id":76561198415577499,"connected_time":62000000000,"state":"active","ping":117},{"user_id":155,"name":"Enderlord99","steam_id":76561198158152954,"connected_time":20000000000,"state":"active","ping":57},{"user_id":141,"name":"ImagineExisting","steam_id":76561198860261731,"connected_time":782000000000,"state":"active","ping":68},{"user_id":156,"name":"spiderland","steam_id":76561198335992132,"connected_time":19000000000,"state":"active","ping":43},{"user_id":60,"name":"Paradon","steam_id":76561198242214772,"connected_time":5370000000000,"state":"active","ping":84},{"user_id":146,"name":"Keamy","steam_id":76561199471434875,"connected_time":324000000000,"state":"active","ping":40},{"user_id":157,"name":"zain","steam_id":76561198139243305,"connected_time":11000000000,"state":"spawning","ping":253},{"user_id":137,"name":"IcarusIsBestGirl","steam_id":76561198998625008,"connected_time":1173000000000,"state":"active","ping":71}]},{"server_id":406,"name":"Uncletopia | Seattle | 3 | Stopwatch Beta","name_short":"sea-3","host":"sea-1.us.uncletopia.com","port":27035,"enabled":true,"region":"us-west","cc":"us","latitude":47.608013,"longitude":-122.33517,"reserved":0,"last_update":"0001-01-01T00:00:00Z","name_a2s":"Uncletopia | Seattle | 3 | Stopwatch Beta","protocol":17,"map":"pl_borneo","folder":"tf","game":"Team Fortress","app_id":440,"player_count":0,"max_players":24,"Bots":0,"server_type":"Dedicated","server_os":"Linux","password":true,"vac":true,"version":"7932396","steam_id":85568392924515217,"keywords":["nocrits","nodmgspread","payload","uncletopia"],"game_id":440,"stv_port":27036,"stv_name":"Uncletopia | Seattle | 3 | Stopwatch Beta | STV","players":null},{"server_id":17,"name":"Uncletopia | San Francisco | 1 | All Maps","name_short":"sfo-1","host":"sfo-1.us.uncletopia.com","port":27015,"enabled":true,"region":"us-west","cc":"us","latitude":37.77397,"longitude":-122.4313,"reserved":0,"last_update":"0001-01-01T00:00:00Z","name_a2s":"Uncletopia | San Francisco | 1 | All Maps","protocol":17,"map":"pl_swiftwater_final1","folder":"tf","game":"Team Fortress","app_id":440,"player_count":0,"max_players":24,"Bots":0,"server_type":"Dedicated","server_os":"Linux","password":true,"vac":true,"version":"7932396","steam_id":85568392924469999,"keywords":["nocrits","nodmgspread","payload","uncletopia"],"game_id":440,"stv_port":27016,"stv_name":"Uncletopia | San Francisco | 1 | All Maps | STV","players":null},{"server_id":18,"name":"Uncletopia | San Francisco | 2 | All Maps","name_short":"sfo-2","host":"sfo-1.us.uncletopia.com","port":27025,"enabled":true,"region":"us-west","cc":"us","latitude":37.77397,"longitude":-122.4313,"reserved":0,"last_update":"0001-01-01T00:00:00Z","name_a2s":"Uncletopia | San Francisco | 2 | All Maps","protocol":17,"map":"koth_highpass","folder":"tf","game":"Team Fortress","app_id":440,"player_count":0,"max_players":24,"Bots":0,"server_type":"Dedicated","server_os":"Linux","password":true,"vac":true,"version":"7932396","steam_id":85568392924470000,"keywords":["cp","nocrits","nodmgspread","uncletopia"],"game_id":440,"stv_port":27026,"stv_name":"Uncletopia | San Francisco | 2 | All Maps | STV","players":null},{"server_id":19,"name":"Uncletopia | San Francisco | 3 | Stopwatch Beta","name_short":"sfo-3","host":"sfo-1.us.uncletopia.com","port":27035,"enabled":true,"region":"us-west","cc":"us","latitude":37.77397,"longitude":-122.4313,"reserved":0,"last_update":"0001-01-01T00:00:00Z","name_a2s":"Uncletopia | San Francisco | 3 | Stopwatch Beta","protocol":17,"map":"koth_lakeside_final","folder":"tf","game":"Team Fortress","app_id":440,"player_count":0,"max_players":24,"Bots":0,"server_type":"Dedicated","server_os":"Linux","password":true,"vac":true,"version":"7932396","steam_id":85568392924742824,"keywords":["cp","nocrits","nodmgspread","uncletopia"],"game_id":440,"stv_port":27036,"stv_name":"Uncletopia | San Francisco | 3 | Stopwatch Beta | STV","players":null},{"server_id":20,"name":"Uncletopia | San Francisco | 4 | Community","name_short":"sfo-4","host":"sfo-1.us.uncletopia.com","port":27045,"enabled":true,"region":"us-west","cc":"us","latitude":37.77397,"longitude":-122.4313,"reserved":0,"last_update":"0001-01-01T00:00:00Z","name_a2s":"Uncletopia | San Francisco | 4 | Community","protocol":17,"map":"workshop/koth_kemptown_rc1.ugc767410655","folder":"tf","game":"Team Fortress","app_id":440,"player_count":0,"max_players":24,"Bots":0,"server_type":"Dedicated","server_os":"Linux","password":true,"vac":true,"version":"7932396","steam_id":85568392924742826,"keywords":["cp","nocrits","nodmgspread","uncletopia"],"game_id":440,"stv_port":27046,"stv_name":"Uncletopia | San Francisco | 4 | Community | STV","players":null},{"server_id":141,"name":"Uncletopia | Sydney | 1 | All Maps","name_short":"syd-1","host":"syd-1.au.uncletopia.com","port":27015,"enabled":true,"region":"au","cc":"au","latitude":-33.865143,"longitude":151.2099,"reserved":0,"last_update":"0001-01-01T00:00:00Z","name_a2s":"Uncletopia | Sydney | 1 | All Maps","protocol":17,"map":"pl_pier","folder":"tf","game":"Team Fortress","app_id":440,"player_count":0,"max_players":24,"Bots":0,"server_type":"Dedicated","server_os":"Linux","password":true,"vac":true,"version":"7932396","steam_id":85568392924470001,"keywords":["nocrits","nodmgspread","payload","uncletopia"],"game_id":440,"stv_port":27016,"stv_name":"Uncletopia | Sydney | 1 | All Maps | STV","players":null},{"server_id":123,"name":"Uncletopia | Sydney | 2 | All Maps","name_short":"syd-2","host":"syd-1.au.uncletopia.com","port":27025,"enabled":true,"region":"au","cc":"au","latitude":-33.865143,"longitude":151.2099,"reserved":0,"last_update":"0001-01-01T00:00:00Z","name_a2s":"Uncletopia | Sydney | 2 | All Maps","protocol":17,"map":"koth_lakeside_final","folder":"tf","game":"Team Fortress","app_id":440,"player_count":0,"max_players":24,"Bots":0,"server_type":"Dedicated","server_os":"Linux","password":true,"vac":true,"version":"7932396","steam_id":85568392924470002,"keywords":["cp","nocrits","nodmgspread","uncletopia"],"game_id":440,"stv_port":27026,"stv_name":"Uncletopia | Sydney | 2 | All Maps | STV","players":null},{"server_id":395,"name":"Uncletopia | Sydney | 3 | All Maps","name_short":"syd-3","host":"syd-1.au.uncletopia.com","port":27035,"enabled":true,"region":"au","cc":"au","latitude":-33.865143,"longitude":151.2099,"reserved":0,"last_update":"0001-01-01T00:00:00Z","name_a2s":"Uncletopia | Sydney | 3 | All Maps","protocol":17,"map":"pl_barnblitz","folder":"tf","game":"Team Fortress","app_id":440,"player_count":0,"max_players":24,"Bots":0,"server_type":"Dedicated","server_os":"Linux","password":true,"vac":true,"version":"7932396","steam_id":85568392925194467,"keywords":["nocrits","nodmgspread","payload","uncletopia"],"game_id":440,"stv_port":27036,"stv_name":"Uncletopia | Sydney | 3 | All Maps | STV","players":null},{"server_id":396,"name":"Uncletopia | Sydney | 4 | All Maps","name_short":"syd-4","host":"syd-1.au.uncletopia.com","port":27045,"enabled":true,"region":"au","cc":"au","latitude":-33.865143,"longitude":151.2099,"reserved":0,"last_update":"0001-01-01T00:00:00Z","name_a2s":"Uncletopia | Sydney | 4 | All Maps","protocol":17,"map":"pl_pier","folder":"tf","game":"Team Fortress","app_id":440,"player_count":0,"max_players":24,"Bots":0,"server_type":"Dedicated","server_os":"Linux","password":true,"vac":true,"version":"7932396","steam_id":85568392925397958,"keywords":["nocrits","nodmgspread","payload","uncletopia"],"game_id":440,"stv_port":27046,"stv_name":"Uncletopia | Sydney | 4 | All Maps | STV","players":null},{"server_id":58,"name":"Uncletopia | Sydney | 5 | Stopwatch Beta","name_short":"syd-5","host":"syd-1.au.uncletopia.com","port":27055,"enabled":true,"region":"au","cc":"au","latitude":-33.865143,"longitude":151.2099,"reserved":0,"last_update":"0001-01-01T00:00:00Z","name_a2s":"Uncletopia | Sydney | 5 | Stopwatch Beta","protocol":17,"map":"pl_borneo","folder":"tf","game":"Team Fortress","app_id":440,"player_count":0,"max_players":24,"Bots":0,"server_type":"Dedicated","server_os":"Linux","password":true,"vac":true,"version":"7932396","steam_id":85568392925397959,"keywords":["nocrits","nodmgspread","payload","uncletopia"],"game_id":440,"stv_port":27056,"stv_name":"Uncletopia | Sydney | 5 | Stopwatch Beta | STV","players":null},{"server_id":59,"name":"Uncletopia | Sydney | 6 | Community","name_short":"syd-6","host":"syd-1.au.uncletopia.com","port":27065,"enabled":true,"region":"au","cc":"au","latitude":-33.865143,"longitude":151.2099,"reserved":0,"last_update":"0001-01-01T00:00:00Z","name_a2s":"Uncletopia | Sydney | 6 | Community","protocol":17,"map":"pl_badwater","folder":"tf","game":"Team Fortress","app_id":440,"player_count":0,"max_players":24,"Bots":0,"server_type":"Dedicated","server_os":"Linux","password":true,"vac":true,"version":"7932396","steam_id":85568392925397960,"keywords":["nocrits","nodmgspread","payload","uncletopia"],"game_id":440,"stv_port":27066,"stv_name":"Uncletopia | Sydney | 6 | Community | STV","players":null},{"server_id":49,"name":"Uncletopia | Warsaw | 1 | All Maps","name_short":"waw-1","host":"waw-1.pl.uncletopia.com","port":27015,"enabled":true,"region":"eu","cc":"pl","latitude":52.2297,"longitude":21.017532,"reserved":0,"last_update":"0001-01-01T00:00:00Z","name_a2s":"","protocol":0,"map":"","folder":"","game":"","app_id":0,"player_count":0,"max_players":0,"Bots":0,"server_type":"","server_os":"","password":false,"vac":false,"version":"","steam_id":0,"keywords":null,"game_id":0,"stv_port":0,"stv_name":"","players":null},{"server_id":50,"name":"Uncletopia | Warsaw | 2 | All Maps","name_short":"waw-2","host":"waw-1.pl.uncletopia.com","port":27025,"enabled":true,"region":"eu","cc":"pl","latitude":52.2297,"longitude":21.017532,"reserved":0,"last_update":"0001-01-01T00:00:00Z","name_a2s":"Uncletopia | Warsaw | 2 | All Maps","protocol":17,"map":"pl_swiftwater_final1","folder":"tf","game":"Team Fortress","app_id":440,"player_count":19,"max_players":24,"Bots":0,"server_type":"Dedicated","server_os":"Linux","password":true,"vac":true,"version":"7932396","steam_id":85568392925397851,"keywords":["nocrits","nodmgspread","payload","uncletopia"],"game_id":440,"stv_port":27026,"stv_name":"Uncletopia | Warsaw | 2 | All Maps | STV","players":[{"user_id":62,"name":"esheen","steam_id":76561198139376665,"connected_time":440000000000,"state":"active","ping":43},{"user_id":64,"name":"Threon","steam_id":76561198826783545,"connected_time":431000000000,"state":"active","ping":88},{"user_id":69,"name":"Rob Rotten","steam_id":76561198170543542,"connected_time":308000000000,"state":"active","ping":119},{"user_id":65,"name":"V1 Ultrakill","steam_id":76561198860424456,"connected_time":390000000000,"state":"active","ping":61},{"user_id":18,"name":"Mabert","steam_id":76561198436058407,"connected_time":2862000000000,"state":"active","ping":44},{"user_id":20,"name":"ιℓуαяѕℓαν","steam_id":76561198352696821,"connected_time":2565000000000,"state":"active","ping":56},{"user_id":66,"name":"The Big J","steam_id":76561198158202901,"connected_time":324000000000,"state":"active","ping":66},{"user_id":35,"name":"Bagingi","steam_id":76561198052197810,"connected_time":1207000000000,"state":"active","ping":91},{"user_id":68,"name":"mex :3","steam_id":76561198091083324,"connected_time":320000000000,"state":"active","ping":73},{"user_id":37,"name":"TrenchcoatCraig","steam_id":76561198295599533,"connected_time":1178000000000,"state":"active","ping":186},{"user_id":71,"name":"Мяско","steam_id":76561198016648154,"connected_time":151000000000,"state":"active","ping":56},{"user_id":42,"name":"halow","steam_id":76561198061505163,"connected_time":1077000000000,"state":"active","ping":78},{"user_id":60,"name":"machan","steam_id":76561198826754095,"connected_time":664000000000,"state":"active","ping":104},{"user_id":59,"name":"Riky95","steam_id":76561198095289436,"connected_time":697000000000,"state":"active","ping":70},{"user_id":48,"name":"jeezource 2","steam_id":76561198123592400,"connected_time":992000000000,"state":"active","ping":96},{"user_id":56,"name":"Lukas","steam_id":76561198009118452,"connected_time":890000000000,"state":"active","ping":81},{"user_id":61,"name":"Daga","steam_id":76561198055450219,"connected_time":653000000000,"state":"active","ping":80},{"user_id":52,"name":"ozwk","steam_id":76561198062257357,"connected_time":972000000000,"state":"active","ping":74},{"user_id":54,"name":"Burpman","steam_id":76561198022897937,"connected_time":938000000000,"state":"active","ping":87}]},{"server_id":51,"name":"Uncletopia | Warsaw | 3 | All Maps","name_short":"waw-3","host":"waw-1.pl.uncletopia.com","port":27035,"enabled":true,"region":"eu","cc":"pl","latitude":52.2297,"longitude":21.017532,"reserved":0,"last_update":"0001-01-01T00:00:00Z","name_a2s":"Uncletopia | Warsaw | 3 | All Maps","protocol":17,"map":"koth_lakeside_final","folder":"tf","game":"Team Fortress","app_id":440,"player_count":0,"max_players":24,"Bots":0,"server_type":"Dedicated","server_os":"Linux","password":true,"vac":true,"version":"7932396","steam_id":85568392925397852,"keywords":["cp","nocrits","nodmgspread","uncletopia"],"game_id":440,"stv_port":27036,"stv_name":"Uncletopia | Warsaw | 3 | All Maps | STV","players":null},{"server_id":52,"name":"Uncletopia | Warsaw | 4 | All Maps","name_short":"waw-4","host":"waw-1.pl.uncletopia.com","port":27045,"enabled":true,"region":"eu","cc":"pl","latitude":52.2297,"longitude":21.017532,"reserved":0,"last_update":"0001-01-01T00:00:00Z","name_a2s":"Uncletopia | Warsaw | 4 | All Maps","protocol":17,"map":"koth_cascade","folder":"tf","game":"Team Fortress","app_id":440,"player_count":3,"max_players":24,"Bots":0,"server_type":"Dedicated","server_os":"Linux","password":true,"vac":true,"version":"7932396","steam_id":85568392925397853,"keywords":["cp","nocrits","nodmgspread","uncletopia"],"game_id":440,"stv_port":27046,"stv_name":"Uncletopia | Warsaw | 4 | All Maps | STV","players":[{"user_id":9,"name":"griddy hitter na bojišti","steam_id":76561198406483941,"connected_time":836000000000,"state":"active","ping":71},{"user_id":10,"name":"39","steam_id":76561199091672937,"connected_time":835000000000,"state":"active","ping":93},{"user_id":11,"name":"nemelex","steam_id":76561198958005865,"connected_time":744000000000,"state":"active","ping":75}]},{"server_id":53,"name":"Uncletopia | Warsaw | 5 | Stopwatch Beta","name_short":"waw-5","host":"waw-1.pl.uncletopia.com","port":27055,"enabled":true,"region":"eu","cc":"pl","latitude":52.2297,"longitude":21.017532,"reserved":0,"last_update":"0001-01-01T00:00:00Z","name_a2s":"Uncletopia | Warsaw | 5 | Stopwatch Beta","protocol":17,"map":"workshop/koth_ramjam_rc1.ugc459778887","folder":"tf","game":"Team Fortress","app_id":440,"player_count":0,"max_players":24,"Bots":0,"server_type":"Dedicated","server_os":"Linux","password":true,"vac":true,"version":"7932396","steam_id":85568392925397854,"keywords":["cp","nocrits","nodmgspread","uncletopia"],"game_id":440,"stv_port":27056,"stv_name":"Uncletopia | Warsaw | 5 | Stopwatch Beta | STV","players":null},{"server_id":54,"name":"Uncletopia | Warsaw | 6 | Community","name_short":"waw-6","host":"waw-1.pl.uncletopia.com","port":27065,"enabled":true,"region":"eu","cc":"pl","latitude":52.2297,"longitude":21.017532,"reserved":0,"last_update":"0001-01-01T00:00:00Z","name_a2s":"Uncletopia | Warsaw | 6 | Community","protocol":17,"map":"workshop/koth_product_final.ugc454272353","folder":"tf","game":"Team Fortress","app_id":440,"player_count":0,"max_players":24,"Bots":0,"server_type":"Dedicated","server_os":"Linux","password":true,"vac":true,"version":"7932396","steam_id":85568392925397856,"keywords":["cp","nocrits","nodmgspread","uncletopia"],"game_id":440,"stv_port":27066,"stv_name":"Uncletopia | Warsaw | 6 | Community | STV","players":null}]}