{"status":true,"message":"","result":[{"server_id":2,"name":"Uncletopia | Chicago | 1 | All Maps","name_short":"chi-1","host":"chi-1.us.uncletopia.com","port":27015,"enabled":true,"region":"us-central","cc":"us","latitude":41.881832,"longitude":-87.62318,"reserved":0,"last_update":"0001-01-01T00:00:00Z","name_a2s":"Uncletopia | Chicago | 1 | All Maps","protocol":17,"map":"pl_frontier_final","folder":"tf","game":"Team Fortress","app_id":440,"player_count":24,"max_players":24,"Bots":0,"server_type":"Dedicated","server_os":"Linux","password":true,"vac":true,"version":"7932396","steam_id":85568392924469984,"keywords":["nocrits","nodmgspread","payload","uncletopia"],"game_id":440,"stv_port":27016,"stv_name":"Uncletopia | Chicago | 1 | All Maps | STV","players":[{"user_id":417,"name":"Dr Oshawott","steam_id":76561198042021629,"connected_time":365000000000,"state":"active","ping":64},{"user_id":403,"name":"SSBM Pelican","steam_id":76561198040697907,"connected_time":1895000000000,"state":"active","ping":75},{"user_id":353,"name":"Temujin","steam_id":76561198030936583,"connected_time":6008000000000,"state":"active","ping":50},{"user_id":404,"name":"stupid ape","steam_id":76561198350027075,"connected_time":1865000000000,"state":"active","ping":49},{"user_id":409,"name":"leesh","steam_id":76561198079603938,"connected_time":1508000000000,"state":"active","ping":63},{"user_id":411,"name":"RetroJay","steam_id":76561198041718682,"connected_time":1283000000000,"state":"active","ping":140},{"user_id":419,"name":"24acc4kobe","steam_id":76561198206662424,"connected_time":314000000000,"state":"active","ping":48},{"user_id":415,"name":"TenkoTenko","steam_id":76561199134895220,"connected_time":944000000000,"state":"active","ping":76},{"user_id":406,"name":"Urbanzpinapple","steam_id":76561198115426938,"connected_time":1827000000000,"state":"active","ping":59},{"user_id":376,"name":"Flaming O'Gaming","steam_id":76561198044185725,"connected_time":3493000000000,"state":"active","ping":83},{"user_id":392,"name":"Walt","steam_id":76561198964107245,"connected_time":2379000000000,"state":"active","ping":93},{"user_id":386,"name":"AlcoholicDad454","steam_id":76561198157414556,"connected_time":2985000000000,"state":"active","ping":80},{"user_id":377,"name":"retaW","steam_id":76561198308097092,"connected_time":3492000000000,"state":"active","ping":60},{"user_id":397,"name":"pablo","steam_id":76561198395577807,"connected_time":2116000000000,"state":"active","ping":61},{"user_id":383,"name":"Jesse","steam_id":76561198157305426,"connected_time":3414000000000,"state":"active","ping":62},{"user_id":395,"name":"gary","steam_id":76561198140226890,"connected_time":2135000000000,"state":"active","ping":61},{"user_id":413,"name":"Draconic Ballad","steam_id":76561198027191515,"connected_time":975000000000,"state":"active","ping":55},{"user_id":421,"name":"Sicko Mode (Chris Pratt Cover)","steam_id":76561198315786174,"connected_time":212000000000,"state":"active","ping":73},{"user_id":416,"name":"François Viète","steam_id":76561198072975518,"connected_time":894000000000,"state":"active","ping":80},{"user_id":368,"name":"raccoonmanthing","steam_id":76561199042222863,"connected_time":4522000000000,"state":"active","ping":95},{"user_id":420,"name":"imng","steam_id":76561198014988031,"connected_time":297000000000,"state":"active","ping":73},{"user_id":414,"name":"Waltre Wite","steam_id":76561199092728848,"connected_time":973000000000,"state":"active","ping":104},{"user_id":400,"name":"Artgrendadier","steam_id":76561198063305359,"connected_time":2075000000000,"state":"active","ping":69},{"user_id":412,"name":"6t26j","steam_id":76561198278282836,"connected_time":1146000000000,"state":"active","ping":54}]},{"server_id":106,"name":"Uncletopia | Chicago | 2 | All Maps","name_short":"chi-2","host":"chi-1.us.uncletopia.com","port":27025,"enabled":true,"region":"us-central","cc":"us","latitude":41.881832,"longitude":-87.62318,"reserved":0,"last_update":"0001-01-01T00:00:00Z","name_a2s":"Uncletopia | Chicago | 2 | All Maps","protocol":17,"map":"koth_harvest_final","folder":"tf","game":"Team Fortress","app_id":440,"player_count":24,"max_players":24,"Bots":0,"server_type":"Dedicated","server_os":"Linux","password":true,"vac":true,"version":"7932396","steam_id":85568392924469985,"keywords":["cp","nocrits","nodmgspread","uncletopia"],"game_id":440,"stv_port":27026,"stv_name":"Uncletopia | Chicago | 2 | All Maps | STV","players":[{"user_id":202,"name":"Teesitin","steam_id":76561198116147302,"connected_time":492000000000,"state":"active","ping":94},{"user_id":152,"name":"Superman123389","steam_id":76561198267472539,"connected_time":4338000000000,"state":"active","ping":92},{"user_id":194,"name":"roman","steam_id":76561198170066797,"connected_time":681000000000,"state":"active","ping":62},{"user_id":198,"name":"frank","steam_id":76561198137777483,"connected_time":521000000000,"state":"active","ping":68},{"user_id":183,"name":"tien3","steam_id":76561199490115981,"connected_time":1310000000000,"state":"active","ping":66},{"user_id":150,"name":"Masonicle","steam_id":76561198192327657,"connected_time":4433000000000,"state":"active","ping":73},{"user_id":197,"name":"ᓀ‸ᓂ","steam_id":76561198046055673,"connected_time":533000000000,"state":"active","ping":71},{"user_id":191,"name":"coolplums","steam_id":76561198072154720,"connected_time":811000000000,"state":"active","ping":49},{"user_id":199,"name":"Frustration","steam_id":76561198067024557,"connected_time":516000000000,"state":"active","ping":60},{"user_id":174,"name":"Orca?","steam_id":76561198164341099,"connected_time":2331000000000,"state":"active","ping":83},{"user_id":167,"name":"kiv","steam_id":76561198838223023,"connected_time":3089000000000,"state":"active","ping":56},{"user_id":201,"name":"bunsy","steam_id":76561198097292857,"connected_time":511000000000,"state":"active","ping":62},{"user_id":205,"name":"cowboy","steam_id":76561199079124758,"connected_time":100000000000,"state":"active","ping":61},{"user_id":178,"name":"Coup de Grass","steam_id":76561198011643226,"connected_time":2009000000000,"state":"active","ping":78},{"user_id":204,"name":"some tree","steam_id":76561198166093346,"connected_time":339000000000,"state":"active","ping":58},{"user_id":185,"name":"Xx_gam3rberg_xX","steam_id":76561199035781025,"connected_time":1255000000000,"state":"active","ping":110},{"user_id":203,"name":"WaveSmash","steam_id":76561198208785485,"connected_time":408000000000,"state":"active","ping":80},{"user_id":193,"name":"LordGandalf23","steam_id":76561198086928298,"connected_time":751000000000,"state":"active","ping":94},{"user_id":160,"name":"Missing Minus","steam_id":76561198120822928,"connected_time":3652000000000,"state":"active","ping":60},{"user_id":196,"name":"ThePatheticMedic","steam_id":76561198873083105,"connected_time":605000000000,"state":"active","ping":55},{"user_id":177,"name":"turd ferguson","steam_id":76561198071620782,"connected_time":2014000000000,"state":"active","ping":84},{"user_id":187,"name":"Walmart Employee","steam_id":76561198840373909,"connected_time":1079000000000,"state":"active","ping":101},{"user_id":176,"name":"Si1entSn1pa","steam_id":76561198170095479,"connected_time":2319000000000,"state":"active","ping":93}]},{"server_id":402,"name":"Uncletopia | Chicago | 3 | All Maps","name_short":"chi-3","host":"chi-1.us.uncletopia.com","port":27035,"enabled":true,"region":"us-central","cc":"us","latitude":41.881832,"longitude":-87.62318,"reserved":0,"last_update":"0001-01-01T00:00:00Z","name_a2s":"Uncletopia | Chicago | 3 | All Maps","protocol":17,"map":"cp_altitude","folder":"tf","game":"Team Fortress","app_id":440,"player_count":0,"max_players":24,"Bots":0,"server_type":"Dedicated","server_os":"Linux","password":true,"vac":true,"version":"7932396","steam_id":85568392924515191,"keywords":["cp","nocrits","nodmgspread","uncletopia"],"game_id":440,"stv_port":27036,"stv_name":"Uncletopia | Chicago | 3 | All Maps | STV","players":null},{"server_id":403,"name":"Uncletopia | Chicago | 4 | All Maps","name_short":"chi-4","host":"chi-1.us.uncletopia.com","port":27045,"enabled":true,"region":"us-central","cc":"us","latitude":41.881832,"longitude":-87.62318,"reserved":0,"last_update":"0001-01-01T00:00:00Z","name_a2s":"Uncletopia | Chicago | 4 | All Maps","protocol":17,"map":"ctf_well","folder":"tf","game":"Team Fortress","app_id":440,"player_count":24,"max_players":24,"Bots":0,"server_type":"Dedicated","server_os":"Linux","password":true,"vac":true,"version":"7932396","steam_id":85568392924515193,"keywords":["ctf","nocrits","nodmgspread","uncletopia"],"game_id":440,"stv_port":27046,"stv_name":"Uncletopia | Chicago | 4 | All Maps | STV","players":[{"user_id":200,"name":"my forebrain is highly develope","steam_id":76561198016826181,"connected_time":4087000000000,"state":"active","ping":70},{"user_id":238,"name":"INVEST IN SKYNET::get rich","steam_id":76561198144436132,"connected_time":566000000000,"state":"active","ping":82},{"user_id":194,"name":"ThatGamingKiwi","steam_id":76561199170522237,"connected_time":4964000000000,"state":"active","ping":76},{"user_id":233,"name":"DELI","steam_id":76561198123166057,"connected_time":881000000000,"state":"active","ping":72},{"user_id":221,"name":"Bogeyman","steam_id":76561198829294071,"connected_time":1562000000000,"state":"active","ping":69},{"user_id":225,"name":"uhooter","steam_id":76561198007829078,"connected_time":1418000000000,"state":"active","ping":48},{"user_id":245,"name":"Starvation Gaming","steam_id":76561198880991847,"connected_time":12000000000,"state":"spawning","ping":66},{"user_id":226,"name":"Tosh","steam_id":76561198026948976,"connected_time":1316000000000,"state":"active","ping":90},{"user_id":243,"name":"trobin120","steam_id":76561199122420273,"connected_time":107000000000,"state":"active","ping":62},{"user_id":237,"name":"Trusty","steam_id":76561198035444237,"connected_time":777000000000,"state":"active","ping":63},{"user_id":235,"name":"OkayBeanieBoy","steam_id":76561198932535273,"connected_time":814000000000,"state":"active","ping":73},{"user_id":181,"name":"Kobrakiddmeow","steam_id":76561198080696266,"connected_time":5334000000000,"state":"active","ping":97},{"user_id":216,"name":"Eyeless","steam_id":76561198094772431,"connected_time":2208000000000,"state":"active","ping":50},{"user_id":242,"name":"Leon \"The Sex\" Kennedy","steam_id":76561198202775853,"connected_time":271000000000,"state":"active","ping":45},{"user_id":99,"name":"Sick The Disease","steam_id":76561199054591319,"connected_time":10728000000000,"state":"active","ping":89},{"user_id":229,"name":"Sammich Slinger","steam_id":76561198007644532,"connected_time":1254000000000,"state":"active","ping":89},{"user_id":236,"name":"Skrunkly","steam_id":76561198241629912,"connected_time":796000000000,"state":"active","ping":57},{"user_id":198,"name":"Osrio","steam_id":76561198083428069,"connected_time":4220000000000,"state":"active","ping":93},{"user_id":244,"name":"gIBBY","steam_id":76561198080099598,"connected_time":54000000000,"state":"active","ping":52},{"user_id":239,"name":"Paradon","steam_id":76561198242214772,"connected_time":309000000000,"state":"active","ping":112},{"user_id":212,"name":"jokerslife18","steam_id":76561198870217814,"connected_time":2421000000000,"state":"active","ping":98},{"user_id":224,"name":"22moo","steam_id":76561199075331630,"connected_time":1541000000000,"state":"active","ping":73},{"user_id":209,"name":"Ringo x Seiran","steam_id":76561198357437908,"connected_time":2721000000000,"state":"active","ping":70},{"user_id":247,"name":"video game steroids","steam_id":76561199159928133,"connected_time":12000000000,"state":"active","ping":68}]},{"server_id":36,"name":"Uncletopia | Chicago | 5 | All Maps","name_short":"chi-5","host":"chi-2.us.uncletopia.com","port":27015,"enabled":true,"region":"us-central","cc":"us","latitude":41.881832,"longitude":-87.62318,"reserved":0,"last_update":"0001-01-01T00:00:00Z","name_a2s":"Uncletopia | Chicago | 5 | All Maps","protocol":17,"map":"koth_cascade","folder":"tf","game":"Team Fortress","app_id":440,"player_count":0,"max_players":24,"Bots":0,"server_type":"Dedicated","server_os":"Linux","password":true,"vac":true,"version":"7932396","steam_id":85568392924866362,"keywords":["cp","nocrits","nodmgspread","uncletopia"],"game_id":440,"stv_port":27016,"stv_name":"Uncletopia | Chicago | 5 | All Maps | STV","players":null},{"server_id":37,"name":"Uncletopia | Chicago | 6 | All Maps","name_short":"chi-6","host":"chi-2.us.uncletopia.com","port":27025,"enabled":true,"region":"us-central","cc":"us","latitude":41.881832,"longitude":-87.62318,"reserved":0,"last_update":"0001-01-01T00:00:00Z","name_a2s":"Uncletopia | Chicago | 6 | All Maps","protocol":17,"map":"koth_viaduct","folder":"tf","game":"Team Fortress","app_id":440,"player_count":0,"max_players":24,"Bots":0,"server_type":"Dedicated","server_os":"Linux","password":true,"vac":true,"version":"7932396","steam_id":85568392924866363,"keywords":["cp","nocrits","nodmgspread","uncletopia"],"game_id":440,"stv_port":27026,"stv_name":"Uncletopia | Chicago | 6 | All Maps | STV","players":null},{"server_id":38,"name":"Uncletopia | Chicago | 7 | Stopwatch Beta","name_short":"chi-7","host":"chi-2.us.uncletopia.com","port":27035,"enabled":true,"region":"us-central","cc":"us","latitude":41.881832,"longitude":-87.62318,"reserved":0,"last_update":"0001-01-01T00:00:00Z","name_a2s":"Uncletopia | Chicago | 7 | Stopwatch Beta","protocol":17,"map":"pl_borneo","folder":"tf","game":"Team Fortress","app_id":440,"player_count":0,"max_players":24,"Bots":0,"server_type":"Dedicated","server_os":"Linux","password":true,"vac":true,"version":"7932396","steam_id":85568392924866364,"keywords":["nocrits","nodmgspread","payload","uncletopia"],"game_id":440,"stv_port":27036,"stv_name":"Uncletopia | Chicago | 7 | Stopwatch Beta | STV","players":null},{"server_id":39,"name":"Uncletopia | Chicago | 8 | Community","name_short":"chi-8","host":"chi-2.us.uncletopia.com","port":27045,"enabled":true,"region":"us-central","cc":"us","latitude":41.881832,"longitude":-87.62318,"reserved":0,"last_update":"0001-01-01T00:00:00Z","name_a2s":"Uncletopia | Chicago | 8 | Community","protocol":17,"map":"workshop/pl_barnblitz_pro7.ugc582280235","folder":"tf","game":"Team Fortress","app_id":440,"player_count":24,"max_players":24,"Bots":0,"server_type":"Dedicated","server_os":"Linux","password":true,"vac":true,"version":"7932396","steam_id":85568392924866365,"keywords":["nocrits","nodmgspread","payload","uncletopia"],"game_id":440,"stv_port":27046,"stv_name":"Uncletopia | Chicago | 8 | Community | STV","players":[{"user_id":154,"name":"bread","steam_id":76561198291298731,"connected_time":1913000000000,"state":"active","ping":69},{"user_id":165,"name":"Female Gamer","steam_id":76561199366482682,"connected_time":692000000000,"state":"active","ping":101},{"user_id":148,"name":"Retro","steam_id":76561198805609382,"connected_time":2974000000000,"state":"active","ping":68},{"user_id":163,"name":"VHSTAPE","steam_id":76561198036560740,"connected_time":1064000000000,"state":"active","ping":91},{"user_id":61,"name":"euphoricfilth (it/her)","steam_id":76561198100160865,"connected_time":9535000000000,"state":"active","ping":60},{"user_id":169,"name":"Drapph","steam_id":76561199384213314,"connected_time":309000000000,"state":"active","ping":57},{"user_id":161,"name":"sleeperino","steam_id":76561198061504714,"connected_time":1392000000000,"state":"active","ping":59},{"user_id":53,"name":"LFP demo, IM","steam_id":76561198095048900,"connected_time":10058000000000,"state":"active","ping":54},{"user_id":150,"name":"Mister36","steam_id":76561198019132100,"connected_time":2631000000000,"state":"active","ping":56},{"user_id":133,"name":"ReploidBlues","steam_id":76561198991217864,"connected_time":3839000000000,"state":"active","ping":82},{"user_id":155,"name":"Sh3ba Spaniel","steam_id":76561198047412394,"connected_time":1853000000000,"state":"active","ping":56},{"user_id":134,"name":"cozy","steam_id":76561199044037628,"connected_time":3787000000000,"state":"active","ping":70},{"user_id":144,"name":"Mowsferatu","steam_id":76561198041901707,"connected_time":3134000000000,"state":"active","ping":73},{"user_id":77,"name":"video gamer","steam_id":76561198077321435,"connected_time":7767000000000,"state":"active","ping":75},{"user_id":168,"name":"D.E.O","steam_id":76561198096992957,"connected_time":531000000000,"state":"active","ping":127},{"user_id":120,"name":"MeatBall","steam_id":76561199055196261,"connected_time":4667000000000,"state":"active","ping":70},{"user_id":164,"name":"Kasimir","steam_id":76561198013840333,"connected_time":805000000000,"state":"active","ping":87},{"user_id":152,"name":"whimsical little creature","steam_id":76561198271710504,"connected_time":2282000000000,"state":"active","ping":54},{"user_id":136,"name":"Nicobalt-60","steam_id":76561198062868441,"connected_time":3770000000000,"state":"active","ping":72},{"user_id":156,"name":"Thndr_","steam_id":76561198113242036,"connected_time":1807000000000,"state":"active","ping":111},{"user_id":124,"name":"professional bodyshooter","steam_id":76561199200442395,"connected_time":4588000000000,"state":"active","ping":175},{"user_id":149,"name":"Zymiren","steam_id":76561198054985471,"connected_time":2904000000000,"state":"active","ping":97},{"user_id":167,"name":"chaffy","steam_id":76561198021754567,"connected_time":681000000000,"state":"active","ping":52},{"user_id":160,"name":"Acro","steam_id":76561198092451804,"connected_time":1618000000000,"state":"active","ping":71}]},{"server_id":8,"name":"Uncletopia | Dallas | 1 | All Maps","name_short":"dal-1","host":"dal-1.us.uncletopia.com","port":27015,"enabled":true,"region":"us-central","cc":"us","latitude":32.779167,"longitude":-96.80889,"reserved":0,"last_update":"0001-01-01T00:00:00Z","name_a2s":"Uncletopia | Dallas | 1 | All Maps","protocol":17,"map":"cp_mossrock","folder":"tf","game":"Team Fortress","app_id":440,"player_count":23,"max_players":24,"Bots":0,"server_type":"Dedicated","server_os":"Linux","password":true,"vac":true,"version":"7932396","steam_id":85568392924469986,"keywords":["cp","nocrits","nodmgspread","uncletopia"],"game_id":440,"stv_port":27016,"stv_name":"Uncletopia | Dallas | 1 | All Maps | STV","players":[{"user_id":154,"name":"lucky","steam_id":76561198323426623,"connected_time":902000000000,"state":"active","ping":100},{"user_id":146,"name":"ඞ","steam_id":76561199365672047,"connected_time":1199000000000,"state":"active","ping":95},{"user_id":157,"name":"Suburban Wolf Dad","steam_id":76561198069234954,"connected_time":225000000000,"state":"active","ping":65},{"user_id":94,"name":"Cave Spider","steam_id":76561198090419068,"connected_time":4890000000000,"state":"active","ping":122},{"user_id":135,"name":"Octovaitor","steam_id":76561198004658451,"connected_time":1929000000000,"state":"active","ping":74},{"user_id":148,"name":"thedittofemboy \u003c3","steam_id":76561199013129784,"connected_time":1168000000000,"state":"active","ping":58},{"user_id":140,"name":"Indoor Fish Farmer","steam_id":76561198280123746,"connected_time":1627000000000,"state":"active","ping":105},{"user_id":155,"name":"A Can of AriZona Green Tea","steam_id":76561198062481133,"connected_time":602000000000,"state":"active","ping":71},{"user_id":156,"name":"SeaBass","steam_id":76561197982949108,"connected_time":320000000000,"state":"active","ping":70},{"user_id":117,"name":"Carl, Good to see you","steam_id":76561198070574075,"connected_time":2984000000000,"state":"active","ping":74},{"user_id":124,"name":"Sup m8","steam_id":76561198081659121,"connected_time":2439000000000,"state":"active","ping":44},{"user_id":131,"name":"sobaka","steam_id":76561198116008934,"connected_time":2200000000000,"state":"active","ping":86},{"user_id":139,"name":"Rob","steam_id":76561199187786660,"connected_time":1649000000000,"state":"active","ping":52},{"user_id":107,"name":"triangleman","steam_id":76561198972733542,"connected_time":3808000000000,"state":"active","ping":96},{"user_id":153,"name":"Delifru","steam_id":76561198078886946,"connected_time":1005000000000,"state":"active","ping":85},{"user_id":108,"name":"Sploof","steam_id":76561198078577114,"connected_time":3800000000000,"state":"active","ping":117},{"user_id":158,"name":"bea (she/her)","steam_id":76561199085645300,"connected_time":138000000000,"state":"active","ping":60},{"user_id":110,"name":"Spastic Gremlin","steam_id":76561198129059206,"connected_time":3726000000000,"state":"active","ping":93},{"user_id":152,"name":"Sky Tree","steam_id":76561198027103242,"connected_time":1023000000000,"state":"active","ping":74},{"user_id":111,"name":"Big Saaauuuce","steam_id":76561198222246768,"connected_time":3722000000000,"state":"active","ping":101},{"user_id":147,"name":"M1C4A3L","steam_id":76561198009980085,"connected_time":1196000000000,"state":"active","ping":69},{"user_id":71,"name":"hum","steam_id":76561198085457599,"connected_time":6913000000000,"state":"active","ping":96},{"user_id":137,"name":"thebeast","steam_id":76561198255963049,"connected_time":1880000000000,"state":"active","ping":105}]},{"server_id":108,"name":"Uncletopia | Dallas | 2 | All Maps","name_short":"dal-2","host":"dal-1.us.uncletopia.com","port":27025,"enabled":true,"region":"us-central","cc":"us","latitude":32.779167,"longitude":-96.80889,"reserved":0,"last_update":"0001-01-01T00:00:00Z","name_a2s":"Uncletopia | Dallas | 2 | All Maps","protocol":17,"map":"pl_frontier_final","folder":"tf","game":"Team Fortress","app_id":440,"player_count":24,"max_players":24,"Bots":0,"server_type":"Dedicated","server_os":"Linux","password":true,"vac":true,"version":"7932396","steam_id":85568392924469988,"keywords":["nocrits","nodmgspread","payload","uncletopia"],"game_id":440,"stv_port":27026,"stv_name":"Uncletopia | Dallas | 2 | All Maps | STV","players":[{"user_id":124,"name":"Gooter","steam_id":76561198185268445,"connected_time":253000000000,"state":"active","ping":58},{"user_id":57,"name":"Raizen","steam_id":76561199092445367,"connected_time":4065000000000,"state":"active","ping":73},{"user_id":126,"name":"farfalle","steam_id":76561198882758067,"connected_time":214000000000,"state":"active","ping":68},{"user_id":108,"name":"¿skitt1eS?","steam_id":76561198330093211,"connected_time":1332000000000,"state":"active","ping":60},{"user_id":105,"name":"hforce11","steam_id":76561198087647130,"connected_time":1378000000000,"state":"active","ping":69},{"user_id":127,"name":"Zorlovo","steam_id":76561198006443283,"connected_time":179000000000,"state":"active","ping":74},{"user_id":119,"name":"Zen56","steam_id":76561198074554894,"connected_time":583000000000,"state":"active","ping":83},{"user_id":121,"name":"The Noob Sire","steam_id":76561198119219754,"connected_time":444000000000,"state":"active","ping":85},{"user_id":113,"name":"The Informant","steam_id":76561198293593033,"connected_time":916000000000,"state":"active","ping":48},{"user_id":128,"name":"Pika","steam_id":76561198068063436,"connected_time":135000000000,"state":"active","ping":60},{"user_id":123,"name":"pro skater 3 remake when","steam_id":76561198103496593,"connected_time":267000000000,"state":"active","ping":62},{"user_id":117,"name":"Gut125 (Genocide Ocean Sunfish)","steam_id":76561198101787225,"connected_time":608000000000,"state":"active","ping":72},{"user_id":118,"name":"Minlit","steam_id":76561198205832799,"connected_time":607000000000,"state":"active","ping":51},{"user_id":106,"name":"oh the treachery","steam_id":76561198127851014,"connected_time":1369000000000,"state":"active","ping":45},{"user_id":110,"name":"l4d2 marshall","steam_id":76561198042570322,"connected_time":1297000000000,"state":"active","ping":75},{"user_id":129,"name":"friendly on uncletopia","steam_id":76561198064194222,"connected_time":120000000000,"state":"active","ping":58},{"user_id":104,"name":"Pixeled","steam_id":76561198088917077,"connected_time":1440000000000,"state":"active","ping":99},{"user_id":91,"name":"creeeeeee","steam_id":76561198392539722,"connected_time":1999000000000,"state":"active","ping":85},{"user_id":120,"name":"Margo_Rae","steam_id":76561198035046430,"connected_time":564000000000,"state":"active","ping":86},{"user_id":125,"name":"SpamTheAlien","steam_id":76561199122290968,"connected_time":241000000000,"state":"active","ping":111},{"user_id":109,"name":"crayonnipple","steam_id":76561198070253331,"connected_time":1329000000000,"state":"active","ping":93},{"user_id":111,"name":"Makina","steam_id":76561198057475567,"connected_time":1292000000000,"state":"active","ping":86},{"user_id":112,"name":"da cwinge \u003ew\u003c","steam_id":76561198054390505,"connected_time":1289000000000,"state":"active","ping":61},{"user_id":97,"name":"_(:з)∠)_","steam_id":76561198007464245,"connected_time":1830000000000,"state":"active","ping":81}]},{"server_id":5,"name":"Uncletopia | Frankfurt | 1 | All Maps","name_short":"frk-1","host":"frk-1.de.uncletopia.com","port":27015,"enabled":true,"region":"eu","cc":"de","latitude":50.110924,"longitude":8.682127,"reserved":0,"last_update":"0001-01-01T00:00:00Z","name_a2s":"Uncletopia | Frankfurt | 1 | All Maps","protocol":17,"map":"pl_upward","folder":"tf","game":"Team Fortress","app_id":440,"player_count":24,"max_players":24,"Bots":0,"server_type":"Dedicated","server_os":"Linux","password":true,"vac":true,"version":"7932396","steam_id":85568392924469989,"keywords":["nocrits","nodmgspread","payload","uncletopia"],"game_id":440,"stv_port":27016,"stv_name":"Uncletopia | Frankfurt | 1 | All Maps | STV","players":[{"user_id":467,"name":"wise tree gaming","steam_id":76561198149679759,"connected_time":1340000000000,"state":"active","ping":60},{"user_id":478,"name":"Skippy","steam_id":76561199245844181,"connected_time":194000000000,"state":"active","ping":70},{"user_id":484,"name":"Fales","steam_id":76561198126124929,"connected_time":42000000000,"state":"active","ping":67},{"user_id":464,"name":"chair","steam_id":76561198028712330,"connected_time":1398000000000,"state":"active","ping":84},{"user_id":482,"name":"Carrotcracker","steam_id":76561198034862396,"connected_time":152000000000,"state":"active","ping":68},{"user_id":471,"name":"KLAMA  ❤","steam_id":76561198351549661,"connected_time":555000000000,"state":"active","ping":71},{"user_id":474,"name":"zoinks!","steam_id":76561198068645362,"connected_time":352000000000,"state":"active","ping":55},{"user_id":466,"name":"dunduu","steam_id":76561198875240717,"connected_time":1364000000000,"state":"active","ping":61},{"user_id":470,"name":"Robyn","steam_id":76561198140713805,"connected_time":640000000000,"state":"active","ping":77},{"user_id":452,"name":"The Collective(Hypnotist)","steam_id":76561198170423483,"connected_time":2246000000000,"state":"active","ping":150},{"user_id":443,"name":"AftiksPL","steam_id":76561198875182686,"connected_time":2534000000000,"state":"active","ping":94},{"user_id":473,"name":"murf","steam_id":76561199184831395,"connected_time":502000000000,"state":"active","ping":52},{"user_id":483,"name":"Dewotter","steam_id":76561198007653168,"connected_time":82000000000,"state":"active","ping":73},{"user_id":430,"name":"Dominus Di Spiritus","steam_id":76561198200488383,"connected_time":3137000000000,"state":"active","ping":72},{"user_id":477,"name":"The Watcher","steam_id":76561198125423512,"connected_time":233000000000,"state":"active","ping":113},{"user_id":455,"name":"exotic fishes","steam_id":76561199046490785,"connected_time":2044000000000,"state":"active","ping":152},{"user_id":469,"name":"Tison","steam_id":76561199127635841,"connected_time":804000000000,"state":"active","ping":45},{"user_id":479,"name":"chmiel156","steam_id":76561198079226529,"connected_time":189000000000,"state":"active","ping":73},{"user_id":480,"name":"dogot","steam_id":76561198880890519,"connected_time":187000000000,"state":"active","ping":79},{"user_id":462,"name":"Sir P. P. Cumsalot","steam_id":76561198006549800,"connected_time":1517000000000,"state":"active","ping":121},{"user_id":437,"name":"pica","steam_id":76561199012155377,"connected_time":2962000000000,"state":"active","ping":45},{"user_id":463,"name":"Mr. Luigi","steam_id":76561198167312951,"connected_time":1515000000000,"state":"active","ping":46},{"user_id":481,"name":"omnibombulator","steam_id":76561198025858897,"connected_time":184000000000,"state":"active","ping":61},{"user_id":448,"name":"K.O.wal","steam_id":76561198317737261,"connected_time":2466000000000,"state":"active","ping":61}]},{"server_id":110,"name":"Uncletopia | Frankfurt | 2 | All Maps","name_short":"frk-2","host":"frk-1.de.uncletopia.com","port":27025,"enabled":true,"region":"eu","cc":"de","latitude":50.110924,"longitude":8.682127,"reserved":0,"last_update":"0001-01-01T00:00:00Z","name_a2s":"Uncletopia | Frankfurt | 2 | All Maps","protocol":17,"map":"cp_dustbowl","folder":"tf","game":"Team Fortress","app_id":440,"player_count":23,"max_players":24,"Bots":0,"server_type":"Dedicated","server_os":"Linux","password":true,"vac":true,"version":"7932396","steam_id":85568392924469990,"keywords":["cp","nocrits","nodmgspread","uncletopia"],"game_id":440,"stv_port":27026,"stv_name":"Uncletopia | Frankfurt | 2 | All Maps | STV","players":[{"user_id":118,"name":"dotdotdot","steam_id":76561198057628751,"connected_time":1500000000000,"state":"active","ping":60},{"user_id":110,"name":"YARrICk.«+»","steam_id":76561197990126485,"connected_time":1921000000000,"state":"active","ping":63},{"user_id":131,"name":"LurkingPancake","steam_id":76561199488567082,"connected_time":1045000000000,"state":"active","ping":144},{"user_id":116,"name":"Be Polite:3","steam_id":76561198072088040,"connected_time":1539000000000,"state":"active","ping":108},{"user_id":105,"name":"PlebCord","steam_id":76561198120685803,"connected_time":2400000000000,"state":"active","ping":81},{"user_id":124,"name":"gabczak","steam_id":76561199104381822,"connected_time":1317000000000,"state":"active","ping":74},{"user_id":133,"name":"Rigby","steam_id":76561198021552128,"connected_time":67000000000,"state":"active","ping":99},{"user_id":75,"name":"Mariny","steam_id":76561198169995378,"connected_time":4899000000000,"state":"active","ping":48},{"user_id":119,"name":"Bobo","steam_id":76561198051744676,"connected_time":1493000000000,"state":"active","ping":104},{"user_id":130,"name":"BallinScout","steam_id":76561198152443697,"connected_time":1108000000000,"state":"active","ping":69},{"user_id":121,"name":"[T]aKer","steam_id":76561198001778013,"connected_time":1479000000000,"state":"active","ping":51},{"user_id":111,"name":"Phil","steam_id":76561198056877069,"connected_time":1879000000000,"state":"active","ping":52},{"user_id":112,"name":"eggsy","steam_id":76561198255623584,"connected_time":1752000000000,"state":"active","ping":68},{"user_id":128,"name":"pos","steam_id":76561198026132442,"connected_time":1133000000000,"state":"active","ping":90},{"user_id":67,"name":"Whackyone5588","steam_id":76561198846242972,"connected_time":5308000000000,"state":"active","ping":195},{"user_id":55,"name":"Bullet magnet (FIN)","steam_id":76561197975715220,"connected_time":5508000000000,"state":"active","ping":84},{"user_id":103,"name":"willem dafoe fan","steam_id":76561198795590054,"connected_time":2577000000000,"state":"active","ping":80},{"user_id":132,"name":"AC/DC=A/D","steam_id":76561198101114695,"connected_time":848000000000,"state":"active","ping":98},{"user_id":129,"name":"SomeRandomGamer","steam_id":76561198149791829,"connected_time":1130000000000,"state":"active","ping":157},{"user_id":89,"name":"FWDTRKR","steam_id":76561198060369427,"connected_time":3500000000000,"state":"active","ping":145},{"user_id":78,"name":"Metalizer","steam_id":76561198099595082,"connected_time":4856000000000,"state":"active","ping":93},{"user_id":123,"name":"Syd","steam_id":76561198020515027,"connected_time":1427000000000,"state":"active","ping":61},{"user_id":127,"name":"ʇᴉuɐ","steam_id":76561198044204428,"connected_time":1286000000000,"state":"active","ping":66}]},{"server_id":308,"name":"Uncletopia | Frankfurt | 3 | All Maps","name_short":"frk-3","host":"frk-1.de.uncletopia.com","port":27035,"enabled":true,"region":"eu","cc":"de","latitude":50.110924,"longitude":8.682127,"reserved":0,"last_update":"0001-01-01T00:00:00Z","name_a2s":"Uncletopia | Frankfurt | 3 | All Maps","protocol":17,"map":"koth_cascade","folder":"tf","game":"Team Fortress","app_id":440,"player_count":0,"max_players":24,"Bots":0,"server_type":"Dedicated","server_os":"Linux","password":true,"vac":true,"version":"7932396","steam_id":85568392924504274,"keywords":["cp","nocrits","nodmgspread","uncletopia"],"game_id":440,"stv_port":27036,"stv_name":"Uncletopia | Frankfurt | 3 | All Maps | STV","players":null},{"server_id":309,"name":"Uncletopia | Frankfurt | 4 | All Maps","name_short":"frk-4","host":"frk-1.de.uncletopia.com","port":27045,"enabled":true,"region":"eu","cc":"de","latitude":50.110924,"longitude":8.682127,"reserved":0,"last_update":"0001-01-01T00:00:00Z","name_a2s":"Uncletopia | Frankfurt | 4 | All Maps","protocol":17,"map":"koth_lakeside_final","folder":"tf","game":"Team Fortress","app_id":440,"player_count":0,"max_players":24,"Bots":0,"server_type":"Dedicated","server_os":"Linux","password":true,"vac":true,"version":"7932396","steam_id":85568392924504275,"keywords":["cp","nocrits","nodmgspread","uncletopia"],"game_id":440,"stv_port":27046,"stv_name":"Uncletopia | Frankfurt | 4 | All Maps | STV","players":null},{"server_id":310,"name":"Uncletopia | Frankfurt | 5 | All Maps","name_short":"frk-5","host":"frk-1.de.uncletopia.com","port":27055,"enabled":true,"region":"eu","cc":"de","latitude":50.110924,"longitude":8.682127,"reserved":0,"last_update":"0001-01-01T00:00:00Z","name_a2s":"Uncletopia | Frankfurt | 5 | All Maps","protocol":17,"map":"cp_granary","folder":"tf","game":"Team Fortress","app_id":440,"player_count":24,"max_players":24,"Bots":0,"server_type":"Dedicated","server_os":"Linux","password":true,"vac":true,"version":"7932396","steam_id":85568392924504277,"keywords":["cp","nocrits","nodmgspread","uncletopia"],"game_id":440,"stv_port":27056,"stv_name":"Uncletopia | Frankfurt | 5 | All Maps | STV","players":[{"user_id":110,"name":"StingyLettuce","steam_id":76561199010337406,"connected_time":607000000000,"state":"active","ping":110},{"user_id":90,"name":"ztrs6","steam_id":76561198314853803,"connected_time":2104000000000,"state":"active","ping":88},{"user_id":113,"name":"jerry (:","steam_id":76561198205668108,"connected_time":543000000000,"state":"active","ping":49},{"user_id":51,"name":"Someone from Nevada","steam_id":76561199036622104,"connected_time":3951000000000,"state":"active","ping":64},{"user_id":104,"name":"MR.CRAB","steam_id":76561198329833659,"connected_time":1037000000000,"state":"active","ping":72},{"user_id":36,"name":"Marius","steam_id":76561198253530198,"connected_time":4256000000000,"state":"active","ping":63},{"user_id":122,"name":"Odyssey","steam_id":76561198085086145,"connected_time":311000000000,"state":"active","ping":65},{"user_id":120,"name":"elmstJP ₪ F4.exe","steam_id":76561197997909480,"connected_time":336000000000,"state":"active","ping":76},{"user_id":123,"name":"F4.exe","steam_id":76561198278822807,"connected_time":300000000000,"state":"active","ping":57},{"user_id":121,"name":"Puro ♥","steam_id":76561198039016765,"connected_time":334000000000,"state":"active","ping":85},{"user_id":127,"name":"scott steiners strongest warrio","steam_id":76561198148888622,"connected_time":94000000000,"state":"active","ping":71},{"user_id":108,"name":"superdupernoperscoper","steam_id":76561198146943449,"connected_time":721000000000,"state":"active","ping":180},{"user_id":109,"name":"Объебил","steam_id":76561198210114952,"connected_time":684000000000,"state":"active","ping":78},{"user_id":103,"name":"TheSiike","steam_id":76561198104872968,"connected_time":1185000000000,"state":"active","ping":69},{"user_id":86,"name":"ume_ybbuhc","steam_id":76561199482149729,"connected_time":2222000000000,"state":"active","ping":141},{"user_id":117,"name":"Scrooge Mc Clunk","steam_id":76561198885945084,"connected_time":407000000000,"state":"active","ping":52},{"user_id":95,"name":"weird gamer","steam_id":76561198047749446,"connected_time":1941000000000,"state":"active","ping":46},{"user_id":40,"name":"Peskyplumber64","steam_id":76561198044458330,"connected_time":4193000000000,"state":"active","ping":149},{"user_id":93,"name":"RussianPingLord","steam_id":76561199055517485,"connected_time":2032000000000,"state":"active","ping":109},{"user_id":128,"name":"Evariste","steam_id":76561198000454121,"connected_time":89000000000,"state":"active","ping":103},{"user_id":99,"name":"♥Medical student♥","steam_id":76561199119401415,"connected_time":1551000000000,"state":"active","ping":130},{"user_id":88,"name":"antlionguard","steam_id":76561198072747143,"connected_time":2213000000000,"state":"active","ping":143},{"user_id":64,"name":"Nornia","steam_id":76561198040509712,"connected_time":3286000000000,"state":"active","ping":66},{"user_id":112,"name":"murlan","steam_id":76561198068802023,"connected_time":596000000000,"state":"active","ping":66}]},{"server_id":311,"name":"Uncletopia | Frankfurt | 6 | All Maps","name_short":"frk-6","host":"frk-1.de.uncletopia.com","port":27065,"enabled":true,"region":"eu","cc":"de","latitude":50.110924,"longitude":8.682127,"reserved":0,"last_update":"0001-01-01T00:00:00Z","name_a2s":"Uncletopia | Frankfurt | 6 | All Maps","protocol":17,"map":"pl_frontier_final","folder":"tf","game":"Team Fortress","app_id":440,"player_count":23,"max_players":24,"Bots":0,"server_type":"Dedicated","server_os":"Linux","password":true,"vac":true,"version":"7932396","steam_id":85568392924504278,"keywords":["nocrits","nodmgspread","payload","uncletopia"],"game_id":440,"stv_port":27066,"stv_name":"Uncletopia | Frankfurt | 6 | All Maps | STV","players":[{"user_id":55,"name":"Saucy Jack","steam_id":76561198894525288,"connected_time":1224000000000,"state":"active","ping":61},{"user_id":26,"name":"roblan11","steam_id":76561198066839258,"connected_time":2539000000000,"state":"active","ping":44},{"user_id":62,"name":"cafeka","steam_id":76561198391396239,"connected_time":1006000000000,"state":"active","ping":83},{"user_id":76,"name":"[F2P] MalCo","steam_id":76561197994930440,"connected_time":80000000000,"state":"active","ping":47},{"user_id":37,"name":"ArtaKir","steam_id":76561198291746440,"connected_time":2005000000000,"state":"active","ping":79},{"user_id":70,"name":"Xxx_FREDDY_FAZBEAR_MLG_69_xxX","steam_id":76561199142481870,"connected_time":930000000000,"state":"active","ping":82},{"user_id":64,"name":"Osek","steam_id":76561197972646003,"connected_time":995000000000,"state":"active","ping":65},{"user_id":59,"name":"nyanezt","steam_id":76561198253734265,"connected_time":1083000000000,"state":"active","ping":100},{"user_id":60,"name":"Tvrdohlavoun","steam_id":76561198124962612,"connected_time":1081000000000,"state":"active","ping":58},{"user_id":72,"name":"Soradesu","steam_id":76561198193631487,"connected_time":869000000000,"state":"active","ping":126},{"user_id":65,"name":"Demo POG","steam_id":76561199151035332,"connected_time":980000000000,"state":"active","ping":71},{"user_id":77,"name":"Operable2694","steam_id":76561199486377532,"connected_time":37000000000,"state":"active","ping":60},{"user_id":48,"name":"ArikMor","steam_id":76561199124472513,"connected_time":1375000000000,"state":"active","ping":149},{"user_id":50,"name":"nemelex","steam_id":76561198958005865,"connected_time":1281000000000,"state":"active","ping":60},{"user_id":69,"name":"Charlie Hansen","steam_id":76561198030956814,"connected_time":940000000000,"state":"active","ping":80},{"user_id":53,"name":"bartwk","steam_id":76561198452299840,"connected_time":1236000000000,"state":"active","ping":59},{"user_id":52,"name":"欠税哥","steam_id":76561199118856462,"connected_time":1238000000000,"state":"active","ping":70},{"user_id":54,"name":"veto vuyisio","steam_id":76561199101145470,"connected_time":1229000000000,"state":"active","ping":82},{"user_id":73,"name":"Deacon Dracul","steam_id":76561198046880663,"connected_time":780000000000,"state":"active","ping":84},{"user_id":57,"name":"SunZi","steam_id":76561198139243535,"connected_time":1187000000000,"state":"active","ping":90},{"user_id":67,"name":"tWx","steam_id":76561198123145824,"connected_time":964000000000,"state":"active","ping":61},{"user_id":68,"name":"Iron Maiden Eddie (Real)☆","steam_id":76561198115252607,"connected_time":961000000000,"state":"active","ping":104},{"user_id":71,"name":"cortex","steam_id":76561198839790230,"connected_time":898000000000,"state":"active","ping":76}]},{"server_id":23,"name":"Uncletopia | Frankfurt | 7 | Stopwatch Beta","name_short":"frk-7","host":"frk-1.de.uncletopia.com","port":27075,"enabled":true,"region":"eu","cc":"de","latitude":50.110924,"longitude":8.682127,"reserved":0,"last_update":"0001-01-01T00:00:00Z","name_a2s":"Uncletopia | Frankfurt | 7 | Stopwatch Beta","protocol":17,"map":"pl_snowycoast","folder":"tf","game":"Team Fortress","app_id":440,"player_count":0,"max_players":24,"Bots":0,"server_type":"Dedicated","server_os":"Linux","password":true,"vac":true,"version":"7932396","steam_id":85568392924742827,"keywords":["nocrits","nodmgspread","payload","uncletopia"],"game_id":440,"stv_port":27076,"stv_name":"Uncletopia | Frankfurt | 7 | Stopwatch Beta | STV","players":null},{"server_id":24,"name":"Uncletopia | Frankfurt | 8 | Community","name_short":"frk-8","host":"frk-1.de.uncletopia.com","port":27085,"enabled":true,"region":"eu","cc":"de","latitude":50.110924,"longitude":8.682127,"reserved":0,"last_update":"0001-01-01T00:00:00Z","name_a2s":"Uncletopia | Frankfurt | 8 | Community","protocol":17,"map":"workshop/koth_bagel_rc6.ugc2514036946","folder":"tf","game":"Team Fortress","app_id":440,"player_count":0,"max_players":24,"Bots":0,"server_type":"Dedicated","server_os":"Linux","password":true,"vac":true,"version":"7932396","steam_id":85568392924742828,"keywords":["cp","nocrits","nodmgspread","uncletopia"],"game_id":440,"stv_port":27086,"stv_name":"Uncletopia | Frankfurt | 8 | Community | STV","players":null},{"server_id":202,"name":"Uncletopia | Hong Kong | 1 | All Maps","name_short":"hgk-1","host":"hgk-1.hk.uncletopia.com","port":27015,"enabled":true,"region":"asia","cc":"hk","latitude":22.302711,"longitude":114.177216,"reserved":0,"last_update":"0001-01-01T00:00:00Z","name_a2s":"Uncletopia | Hong Kong | 1 | All Maps","protocol":17,"map":"koth_lakeside_final","folder":"tf","game":"Team Fortress","app_id":440,"player_count":3,"max_players":24,"Bots":0,"server_type":"Dedicated","server_os":"Linux","password":true,"vac":true,"version":"7932396","steam_id":85568392924494504,"keywords":["cp","nocrits","nodmgspread","uncletopia"],"game_id":440,"stv_port":27016,"stv_name":"Uncletopia | Hong Kong | 1 | All Maps | STV","players":[{"user_id":337,"name":"dake","steam_id":76561198257026185,"connected_time":593000000000,"state":"active","ping":59},{"user_id":338,"name":"Pipimi","steam_id":76561198402744992,"connected_time":578000000000,"state":"active","ping":93},{"user_id":339,"name":"Tiler","steam_id":76561198439343187,"connected_time":382000000000,"state":"active","ping":61}]},{"server_id":1,"name":"Uncletopia | Los Angeles | 1 | All Maps","name_short":"lax-1","host":"lax-1.us.uncletopia.com","port":27015,"enabled":true,"region":"us-west","cc":"us","latitude":33.94279,"longitude":-118.41004,"reserved":0,"last_update":"0001-01-01T00:00:00Z","name_a2s":"Uncletopia | Los Angeles | 1 | All Maps","protocol":17,"map":"cp_process_final","folder":"tf","game":"Team Fortress","app_id":440,"player_count":0,"max_players":24,"Bots":0,"server_type":"Dedicated","server_os":"Linux","password":true,"vac":true,"version":"7932396","steam_id":85568392924469991,"keywords":["cp","nocrits","nodmgspread","uncletopia"],"game_id":440,"stv_port":27016,"stv_name":"Uncletopia | Los Angeles | 1 | All Maps | STV","players":null},{"server_id":112,"name":"Uncletopia | Los Angeles | 2 | All Maps","name_short":"lax-2","host":"lax-1.us.uncletopia.com","port":27025,"enabled":true,"region":"us-west","cc":"us","latitude":33.94279,"longitude":-118.41004,"reserved":0,"last_update":"0001-01-01T00:00:00Z","name_a2s":"Uncletopia | Los Angeles | 2 | All Maps","protocol":17,"map":"pl_borneo","folder":"tf","game":"Team Fortress","app_id":440,"player_count":7,"max_players":24,"Bots":0,"server_type":"Dedicated","server_os":"Linux","password":true,"vac":true,"version":"7932396","steam_id":85568392924469992,"keywords":["nocrits","nodmgspread","payload","uncletopia"],"game_id":440,"stv_port":27026,"stv_name":"Uncletopia | Los Angeles | 2 | All Maps | STV","players":[{"user_id":9,"name":"SesataPomang","steam_id":76561198145133059,"connected_time":294000000000,"state":"active","ping":85},{"user_id":5,"name":"spurious george","steam_id":76561198043558709,"connected_time":646000000000,"state":"active","ping":72},{"user_id":6,"name":"lonely","steam_id":76561199180338753,"connected_time":615000000000,"state":"active","ping":76},{"user_id":7,"name":"Mr. Blubber","steam_id":76561198338906916,"connected_time":590000000000,"state":"active","ping":39},{"user_id":8,"name":"Shalom","steam_id":76561198410005222,"connected_time":524000000000,"state":"active","ping":89},{"user_id":10,"name":"SilverLife25","steam_id":76561198392015722,"connected_time":285000000000,"state":"active","ping":82},{"user_id":11,"name":"LeTonzy","steam_id":76561198005806699,"connected_time":24000000000,"state":"spawning","ping":44}]},{"server_id":324,"name":"Uncletopia | Los Angeles | 3 | All Maps","name_short":"lax-3","host":"lax-1.us.uncletopia.com","port":27035,"enabled":true,"region":"us-west","cc":"us","latitude":33.94279,"longitude":-118.41004,"reserved":0,"last_update":"0001-01-01T00:00:00Z","name_a2s":"Uncletopia | Los Angeles | 3 | All Maps","protocol":17,"map":"pl_barnblitz","folder":"tf","game":"Team Fortress","app_id":440,"player_count":24,"max_players":24,"Bots":0,"server_type":"Dedicated","server_os":"Linux","password":true,"vac":true,"version":"7932396","steam_id":85568392924510198,"keywords":["nocrits","nodmgspread","payload","uncletopia"],"game_id":440,"stv_port":27036,"stv_name":"Uncletopia | Los Angeles | 3 | All Maps | STV","players":[{"user_id":23,"name":"Cherry Bomb!","steam_id":76561198017947020,"connected_time":3467000000000,"state":"active","ping":97},{"user_id":72,"name":"u,____u","steam_id":76561198370431307,"connected_time":549000000000,"state":"active","ping":37},{"user_id":24,"name":"bisexual male","steam_id":76561198281186490,"connected_time":3462000000000,"state":"active","ping":125},{"user_id":25,"name":"Rat Brain Solar Probe","steam_id":76561197995191233,"connected_time":3460000000000,"state":"active","ping":74},{"user_id":74,"name":"Cave Dweller","steam_id":76561198374825685,"connected_time":469000000000,"state":"active","ping":60},{"user_id":27,"name":"P1anet_express","steam_id":76561198044408665,"connected_time":3272000000000,"state":"active","ping":88},{"user_id":42,"name":"KC","steam_id":76561198088935545,"connected_time":2206000000000,"state":"active","ping":59},{"user_id":34,"name":"imveryspoopy","steam_id":76561199011615935,"connected_time":2775000000000,"state":"active","ping":125},{"user_id":36,"name":"crittr","steam_id":76561198014302068,"connected_time":2588000000000,"state":"active","ping":94},{"user_id":61,"name":"Jokezonyu","steam_id":76561198213167893,"connected_time":1270000000000,"state":"active","ping":62},{"user_id":43,"name":"Za Zombie","steam_id":76561198055545262,"connected_time":2064000000000,"state":"active","ping":120},{"user_id":79,"name":"Craklyr","steam_id":76561198020043920,"connected_time":201000000000,"state":"active","ping":87},{"user_id":49,"name":"lemonjack","steam_id":76561198277380277,"connected_time":1563000000000,"state":"active","ping":55},{"user_id":71,"name":"usedhalfcart","steam_id":76561198072621852,"connected_time":654000000000,"state":"active","ping":101},{"user_id":73,"name":"Defeat","steam_id":76561198065203818,"connected_time":507000000000,"state":"active","ping":64},{"user_id":55,"name":"¿soup?","steam_id":76561198121042852,"connected_time":1488000000000,"state":"active","ping":80},{"user_id":75,"name":"JellyParrot","steam_id":76561199190990163,"connected_time":436000000000,"state":"active","ping":94},{"user_id":80,"name":"ScoutBox","steam_id":76561198111539895,"connected_time":183000000000,"state":"active","ping":50},{"user_id":58,"name":"MEEPking","steam_id":76561198277668880,"connected_time":1407000000000,"state":"active","ping":66},{"user_id":78,"name":"DAIMY0","steam_id":76561198230388852,"connected_time":329000000000,"state":"active","ping":32},{"user_id":65,"name":"Elias","steam_id":76561198106431732,"connected_time":1102000000000,"state":"active","ping":105},{"user_id":81,"name":"finman","steam_id":76561198127639913,"connected_time":141000000000,"state":"active","ping":45},{"user_id":82,"name":"TüCold","steam_id":76561198111278197,"connected_time":21000000000,"state":"active","ping":54},{"user_id":69,"name":"Spare(8)Ball","steam_id":76561197982432995,"connected_time":997000000000,"state":"active","ping":67}]},{"server_id":25,"name":"Uncletopia | Los Angeles | 4 | Stopwatch Beta","name_short":"lax-4","host":"lax-1.us.uncletopia.com","port":27045,"enabled":true,"region":"us-west","cc":"us","latitude":33.94279,"longitude":-118.41004,"reserved":0,"last_update":"0001-01-01T00:00:00Z","name_a2s":"Uncletopia | Los Angeles | 4 | Stopwatch Beta","protocol":17,"map":"cp_altitude","folder":"tf","game":"Team Fortress","app_id":440,"player_count":0,"max_players":24,"Bots":0,"server_type":"Dedicated","server_os":"Linux","password":true,"vac":true,"version":"7932396","steam_id":85568392924510199,"keywords":["cp","nocrits","nodmgspread","uncletopia"],"game_id":440,"stv_port":27046,"stv_name":"Uncletopia | Los Angeles | 4 | Stopwatch Beta | STV","players":null},{"server_id":11,"name":"Uncletopia | London | 1 | All Maps","name_short":"lon-1","host":"lon-1.uk.uncletopia.com","port":27015,"enabled":true,"region":"eu","cc":"gb","latitude":51.509865,"longitude":-0.118092,"reserved":0,"last_update":"0001-01-01T00:00:00Z","name_a2s":"Uncletopia | London | 1 | All Maps","protocol":17,"map":"koth_viaduct","folder":"tf","game":"Team Fortress","app_id":440,"player_count":24,"max_players":24,"Bots":0,"server_type":"Dedicated","server_os":"Linux","password":true,"vac":true,"version":"7932396","steam_id":85568392924367362,"keywords":["cp","nocrits","nodmgspread","uncletopia"],"game_id":440,"stv_port":27016,"stv_name":"Uncletopia | London | 1 | All Maps | STV","players":[{"user_id":297,"name":"Osmo","steam_id":76561199286764992,"connected_time":3477000000000,"state":"active","ping":78},{"user_id":308,"name":"ims trong","steam_id":76561198047359132,"connected_time":3347000000000,"state":"active","ping":73},{"user_id":335,"name":"MorVill","steam_id":76561198809859945,"connected_time":101000000000,"state":"active","ping":86},{"user_id":298,"name":"Just Navlis","steam_id":76561198090479609,"connected_time":3440000000000,"state":"active","ping":53},{"user_id":330,"name":"Darfsterman #rustclash","steam_id":76561199004139305,"connected_time":319000000000,"state":"active","ping":67},{"user_id":299,"name":"Niko","steam_id":76561198436817109,"connected_time":3437000000000,"state":"active","ping":54},{"user_id":331,"name":"Slushy_","steam_id":76561198148649945,"connected_time":299000000000,"state":"active","ping":106},{"user_id":324,"name":"bastard","steam_id":76561198993925146,"connected_time":894000000000,"state":"active","ping":90},{"user_id":326,"name":"Bonk drinker","steam_id":76561199108282473,"connected_time":478000000000,"state":"active","ping":125},{"user_id":313,"name":"Ark-e","steam_id":76561198261870909,"connected_time":2586000000000,"state":"active","ping":63},{"user_id":285,"name":"Varsk","steam_id":76561198061398890,"connected_time":4538000000000,"state":"active","ping":43},{"user_id":318,"name":"Joseph Stalin","steam_id":76561198033199746,"connected_time":1873000000000,"state":"active","ping":53},{"user_id":332,"name":"THE Grosser","steam_id":76561197995530666,"connected_time":298000000000,"state":"active","ping":60},{"user_id":83,"name":"halow","steam_id":76561198061505163,"connected_time":19321000000000,"state":"active","ping":124},{"user_id":323,"name":"jermany","steam_id":76561198126599355,"connected_time":899000000000,"state":"active","ping":53},{"user_id":325,"name":"FLASH","steam_id":76561197996649686,"connected_time":843000000000,"state":"active","ping":67},{"user_id":321,"name":"Mrbluuub","steam_id":76561199273847084,"connected_time":1444000000000,"state":"active","ping":84},{"user_id":320,"name":"Voidbane","steam_id":76561198060591741,"connected_time":1461000000000,"state":"active","ping":166},{"user_id":265,"name":"Chillrend | #SaveTF2","steam_id":76561198452963141,"connected_time":6841000000000,"state":"active","ping":90},{"user_id":139,"name":"png.png","steam_id":76561198444446521,"connected_time":14701000000000,"state":"active","ping":112},{"user_id":315,"name":"hopperthebox","steam_id":76561198053418437,"connected_time":2130000000000,"state":"active","ping":87},{"user_id":327,"name":"epic gamer moment","steam_id":76561198299515070,"connected_time":477000000000,"state":"active","ping":90},{"user_id":328,"name":"dec","steam_id":76561198009660168,"connected_time":471000000000,"state":"active","ping":57},{"user_id":317,"name":"Fish","steam_id":76561198152128484,"connected_time":2114000000000,"state":"active","ping":55}]},{"server_id":114,"name":"Uncletopia | London | 2 | All Maps","name_short":"lon-2","host":"lon-1.uk.uncletopia.com","port":27025,"enabled":true,"region":"eu","cc":"gb","latitude":51.509865,"longitude":-0.118092,"reserved":0,"last_update":"0001-01-01T00:00:00Z","name_a2s":"Uncletopia | London | 2 | All Maps","protocol":17,"map":"pl_pier","folder":"tf","game":"Team Fortress","app_id":440,"player_count":24,"max_players":24,"Bots":0,"server_type":"Dedicated","server_os":"Linux","password":true,"vac":true,"version":"7932396","steam_id":85568392924470941,"keywords":["nocrits","nodmgspread","payload","uncletopia"],"game_id":440,"stv_port":27026,"stv_name":"Uncletopia | London | 2 | All Maps | STV","players":[{"user_id":168,"name":"Ded","steam_id":76561198186054573,"connected_time":1231000000000,"state":"active","ping":80},{"user_id":153,"name":"._.","steam_id":76561198300316801,"connected_time":2326000000000,"state":"active","ping":106},{"user_id":184,"name":"Bottom feeder","steam_id":76561198181298169,"connected_time":275000000000,"state":"active","ping":148},{"user_id":174,"name":"HADID_sex_god","steam_id":76561198302623594,"connected_time":450000000000,"state":"active","ping":106},{"user_id":169,"name":"armadillo","steam_id":76561198324656652,"connected_time":1229000000000,"state":"active","ping":50},{"user_id":176,"name":"Zeyo","steam_id":76561198110198881,"connected_time":387000000000,"state":"active","ping":75},{"user_id":155,"name":"Day 13","steam_id":76561198024438352,"connected_time":2292000000000,"state":"active","ping":43},{"user_id":177,"name":"Hattmannen","steam_id":76561198340884902,"connected_time":384000000000,"state":"active","ping":77},{"user_id":185,"name":"❤G a n K","steam_id":76561199125995565,"connected_time":241000000000,"state":"active","ping":65},{"user_id":179,"name":"Diggity","steam_id":76561198297157085,"connected_time":379000000000,"state":"active","ping":43},{"user_id":186,"name":"Sex Defender","steam_id":76561199221172552,"connected_time":176000000000,"state":"active","ping":67},{"user_id":82,"name":"Monkeytonk","steam_id":76561198081151851,"connected_time":7956000000000,"state":"active","ping":31},{"user_id":145,"name":"Gentlemann of Scotland","steam_id":76561198073941805,"connected_time":3068000000000,"state":"active","ping":56},{"user_id":159,"name":"Isuurn","steam_id":76561198150201094,"connected_time":1975000000000,"state":"active","ping":74},{"user_id":180,"name":"Bobirulez","steam_id":76561198009125458,"connected_time":369000000000,"state":"active","ping":75},{"user_id":165,"name":"Ganasti","steam_id":76561198382925185,"connected_time":1464000000000,"state":"active","ping":93},{"user_id":164,"name":"Nassu","steam_id":76561198147367577,"connected_time":1667000000000,"state":"active","ping":156},{"user_id":146,"name":"Egtu","steam_id":76561198013757235,"connected_time":2911000000000,"state":"active","ping":72},{"user_id":171,"name":"leminsc8","steam_id":76561198825084995,"connected_time":1145000000000,"state":"active","ping":46},{"user_id":162,"name":"The Blue Moon","steam_id":76561198368140755,"connected_time":1745000000000,"state":"active","ping":38},{"user_id":181,"name":"Gordon Ramsay","steam_id":76561198123893900,"connected_time":368000000000,"state":"active","ping":142},{"user_id":182,"name":"R.A.D.I.O.A.C.T.I.V.E","steam_id":76561198442510258,"connected_time":346000000000,"state":"active","ping":151},{"user_id":144,"name":"[TSG] Turner's Chocolate Milk","steam_id":76561198058963288,"connected_time":3203000000000,"state":"active","ping":119},{"user_id":149,"name":"Genesis","steam_id":76561198999652040,"connected_time":2563000000000,"state":"active","ping":45}]},{"server_id":320,"name":"Uncletopia | London | 3 | All Maps","name_short":"lon-3","host":"lon-1.uk.uncletopia.com","port":27035,"enabled":true,"region":"eu","cc":"gb","latitude":51.509865,"longitude":-0.118092,"reserved":0,"last_update":"0001-01-01T00:00:00Z","name_a2s":"Uncletopia | London | 3 | All Maps","protocol":17,"map":"pl_swiftwater_final1","folder":"tf","game":"Team Fortress","app_id":440,"player_count":24,"max_players":24,"Bots":0,"server_type":"Dedicated","server_os":"Linux","password":true,"vac":true,"version":"7932396","steam_id":85568392924510192,"keywords":["nocrits","nodmgspread","payload","uncletopia"],"game_id":440,"stv_port":27036,"stv_name":"Uncletopia | London | 3 | All Maps | STV","players":[{"user_id":205,"name":"REBENGAAAAAAAAAA","steam_id":76561198842289598,"connected_time":347000000000,"state":"active","ping":84},{"user_id":199,"name":"beeb","steam_id":76561198211644077,"connected_time":538000000000,"state":"active","ping":61},{"user_id":123,"name":"MargoulGetron","steam_id":76561198020551698,"connected_time":3768000000000,"state":"active","ping":57},{"user_id":151,"name":"Turtle","steam_id":76561198123494932,"connected_time":2081000000000,"state":"active","ping":45},{"user_id":200,"name":"Bounter","steam_id":76561198072614188,"connected_time":534000000000,"state":"active","ping":77},{"user_id":203,"name":"Bobo","steam_id":76561198052308399,"connected_time":469000000000,"state":"active","ping":68},{"user_id":152,"name":"Teathling.ttv","steam_id":76561198061580505,"connected_time":2051000000000,"state":"active","ping":58},{"user_id":198,"name":"Ash","steam_id":76561198148738525,"connected_time":602000000000,"state":"active","ping":105},{"user_id":182,"name":"kgf","steam_id":76561198181442259,"connected_time":1317000000000,"state":"active","ping":62},{"user_id":201,"name":"Lightboom","steam_id":76561198104645103,"connected_time":533000000000,"state":"active","ping":90},{"user_id":146,"name":"Accident","steam_id":76561198115160396,"connected_time":2124000000000,"state":"active","ping":75},{"user_id":164,"name":"Roy","steam_id":76561198133860215,"connected_time":1819000000000,"state":"active","ping":156},{"user_id":206,"name":"lun4tic","steam_id":76561198850496647,"connected_time":278000000000,"state":"active","ping":66},{"user_id":207,"name":"Woman (Real)","steam_id":76561199151823932,"connected_time":266000000000,"state":"active","ping":87},{"user_id":165,"name":"VampiuS","steam_id":76561197998827007,"connected_time":1754000000000,"state":"active","ping":60},{"user_id":208,"name":"Dr. Feelgood","steam_id":76561199173885103,"connected_time":220000000000,"state":"active","ping":139},{"user_id":204,"name":"Max Power","steam_id":76561198019269089,"connected_time":458000000000,"state":"active","ping":58},{"user_id":129,"name":"Stan Álvarez (Satan)","steam_id":76561198045538223,"connected_time":3579000000000,"state":"active","ping":53},{"user_id":169,"name":"madijo","steam_id":76561198012617400,"connected_time":1702000000000,"state":"active","ping":66},{"user_id":170,"name":"Doggo225","steam_id":76561198166707002,"connected_time":1694000000000,"state":"active","ping":41},{"user_id":156,"name":"Micro","steam_id":76561198289540452,"connected_time":2029000000000,"state":"active","ping":45},{"user_id":202,"name":"ThethreecomradesTTV","steam_id":76561198064789054,"connected_time":513000000000,"state":"active","ping":62},{"user_id":197,"name":"Testicular torsion","steam_id":76561198119547399,"connected_time":657000000000,"state":"active","ping":69},{"user_id":117,"name":"Soaya","steam_id":76561199101510855,"connected_time":4070000000000,"state":"active","ping":45}]},{"server_id":321,"name":"Uncletopia | London | 4 | All Maps","name_short":"lon-4","host":"lon-1.uk.uncletopia.com","port":27045,"enabled":true,"region":"eu","cc":"gb","latitude":51.509865,"longitude":-0.118092,"reserved":0,"last_update":"0001-01-01T00:00:00Z","name_a2s":"Uncletopia | London | 4 | All Maps","protocol":17,"map":"pl_barnblitz","folder":"tf","game":"Team Fortress","app_id":440,"player_count":24,"max_players":24,"Bots":0,"server_type":"Dedicated","server_os":"Linux","password":true,"vac":true,"version":"7932396","steam_id":85568392924510193,"keywords":["nocrits","nodmgspread","payload","uncletopia"],"game_id":440,"stv_port":27046,"stv_name":"Uncletopia | London | 4 | All Maps | STV","players":[{"user_id":350,"name":"antondstepanenko","steam_id":76561198966147466,"connected_time":1784000000000,"state":"active","ping":87},{"user_id":345,"name":"Mabert","steam_id":76561198436058407,"connected_time":1870000000000,"state":"active","ping":73},{"user_id":303,"name":"all g","steam_id":76561198139729249,"connected_time":4118000000000,"state":"active","ping":91},{"user_id":358,"name":"Salih","steam_id":76561198287934839,"connected_time":55000000000,"state":"active","ping":68},{"user_id":329,"name":"raehik","steam_id":76561198025278149,"connected_time":2834000000000,"state":"active","ping":46},{"user_id":359,"name":"Naeso","steam_id":76561198068602498,"connected_time":43000000000,"state":"active","ping":33},{"user_id":310,"name":"Combat Wombat","steam_id":76561197994720068,"connected_time":3986000000000,"state":"active","ping":56},{"user_id":298,"name":"ROX","steam_id":76561198272289320,"connected_time":4285000000000,"state":"active","ping":61},{"user_id":344,"name":"Hey, I´m Andy!","steam_id":76561198060337777,"connected_time":1984000000000,"state":"active","ping":86},{"user_id":356,"name":"Sixie","steam_id":76561198251675360,"connected_time":101000000000,"state":"active","ping":53},{"user_id":330,"name":"Popop","steam_id":76561198004793795,"connected_time":2773000000000,"state":"active","ping":45},{"user_id":348,"name":"Ludslick","steam_id":76561199060121967,"connected_time":1807000000000,"state":"active","ping":63},{"user_id":326,"name":"Flying Mad Man","steam_id":76561199053383338,"connected_time":3391000000000,"state":"active","ping":118},{"user_id":309,"name":"Naix","steam_id":76561198053893077,"connected_time":4018000000000,"state":"active","ping":55},{"user_id":313,"name":"wal","steam_id":76561198066043883,"connected_time":3913000000000,"state":"active","ping":51},{"user_id":357,"name":"Dude","steam_id":76561198104648165,"connected_time":95000000000,"state":"active","ping":69},{"user_id":362,"name":"Bread Teleporter","steam_id":76561198035587273,"connected_time":17000000000,"state":"spawning","ping":41},{"user_id":353,"name":"presidentialAIDS","steam_id":76561199257284077,"connected_time":722000000000,"state":"active","ping":134},{"user_id":360,"name":"Nonok","steam_id":76561199480685498,"connected_time":41000000000,"state":"spawning","ping":62},{"user_id":361,"name":"I sell exotic parrots","steam_id":76561199192434258,"connected_time":36000000000,"state":"active","ping":89},{"user_id":355,"name":"Mono","steam_id":76561198114569493,"connected_time":657000000000,"state":"active","ping":44},{"user_id":317,"name":"depressed","steam_id":76561198336523288,"connected_time":3870000000000,"state":"active","ping":130},{"user_id":349,"name":"ashi","steam_id":76561198424646794,"connected_time":1802000000000,"state":"active","ping":119},{"user_id":259,"name":"modavak","steam_id":76561198946290908,"connected_time":6157000000000,"state":"active","ping":92}]},{"server_id":21,"name":"Uncletopia | London | 5 | All Maps","name_short":"lon-5","host":"lon-1.uk.uncletopia.com","port":27055,"enabled":true,"region":"eu","cc":"gb","latitude":51.509865,"longitude":-0.118092,"reserved":0,"last_update":"0001-01-01T00:00:00Z","name_a2s":"Uncletopia | London | 5 | All Maps","protocol":17,"map":"koth_cascade","folder":"tf","game":"Team Fortress","app_id":440,"player_count":24,"max_players":24,"Bots":0,"server_type":"Dedicated","server_os":"Linux","password":true,"vac":true,"version":"7932396","steam_id":85568392924742829,"keywords":["cp","nocrits","nodmgspread","uncletopia"],"game_id":440,"stv_port":27056,"stv_name":"Uncletopia | London | 5 | All Maps | STV","players":[{"user_id":453,"name":"\u003c blank \u003e","steam_id":76561198059375315,"connected_time":243000000000,"state":"active","ping":76},{"user_id":433,"name":"N.","steam_id":76561198017274851,"connected_time":1072000000000,"state":"active","ping":41},{"user_id":434,"name":"Dr.Nefario","steam_id":76561198874586020,"connected_time":1037000000000,"state":"active","ping":74},{"user_id":448,"name":"einfinity","steam_id":76561197992776372,"connected_time":575000000000,"state":"active","ping":98},{"user_id":436,"name":"stopydapbip","steam_id":76561198332245230,"connected_time":1009000000000,"state":"active","ping":79},{"user_id":442,"name":"Thing","steam_id":76561197997904403,"connected_time":895000000000,"state":"active","ping":108},{"user_id":362,"name":"KnugenIV","steam_id":76561198127091993,"connected_time":5773000000000,"state":"active","ping":55},{"user_id":39,"name":"gravity displeases me","steam_id":76561198342570528,"connected_time":31825000000000,"state":"active","ping":71},{"user_id":326,"name":"Madmoose96","steam_id":76561198081888486,"connected_time":8574000000000,"state":"active","ping":74},{"user_id":425,"name":"wasto-/-™","steam_id":76561198102888038,"connected_time":1522000000000,"state":"active","ping":59},{"user_id":426,"name":"Max Andrew","steam_id":76561198158955194,"connected_time":1505000000000,"state":"active","ping":54},{"user_id":416,"name":"peso enjoyer","steam_id":76561198798177799,"connected_time":2038000000000,"state":"active","ping":83},{"user_id":443,"name":"Leonic","steam_id":76561198067699203,"connected_time":815000000000,"state":"active","ping":43},{"user_id":451,"name":"jerf(pls make me woman)","steam_id":76561199213901239,"connected_time":475000000000,"state":"active","ping":47},{"user_id":404,"name":"xTheDarkLight","steam_id":76561198239128298,"connected_time":2946000000000,"state":"active","ping":61},{"user_id":447,"name":"Mint","steam_id":76561198105502303,"connected_time":636000000000,"state":"active","ping":44},{"user_id":398,"name":"Bottle O' Scrumpy","steam_id":76561199244250562,"connected_time":3021000000000,"state":"active","ping":114},{"user_id":440,"name":"TheBeardedM1G","steam_id":76561198040208946,"connected_time":980000000000,"state":"active","ping":43},{"user_id":429,"name":"Mati [EST]","steam_id":76561197994743813,"connected_time":1393000000000,"state":"active","ping":118},{"user_id":400,"name":"Elix","steam_id":76561199072306920,"connected_time":2995000000000,"state":"active","ping":101},{"user_id":449,"name":"oscar","steam_id":76561198060516476,"connected_time":548000000000,"state":"active","ping":61},{"user_id":452,"name":"Urfangonultasadana","steam_id":76561199389286151,"connected_time":314000000000,"state":"active","ping":102},{"user_id":319,"name":"Paladin","steam_id":76561198042593027,"connected_time":9688000000000,"state":"active","ping":100},{"user_id":430,"name":"Roachy","steam_id":76561198004508448,"connected_time":1376000000000,"state":"active","ping":46}]},{"server_id":22,"name":"Uncletopia | London | 6 | All Maps","name_short":"lon-6","host":"lon-1.uk.uncletopia.com","port":27065,"enabled":true,"region":"eu","cc":"gb","latitude":51.509865,"longitude":-0.118092,"reserved":0,"last_update":"0001-01-01T00:00:00Z","name_a2s":"Uncletopia | London | 6 | All Maps","protocol":17,"map":"pl_pier","folder":"tf","game":"Team Fortress","app_id":440,"player_count":23,"max_players":24,"Bots":0,"server_type":"Dedicated","server_os":"Linux","password":true,"vac":true,"version":"7932396","steam_id":85568392924742830,"keywords":["nocrits","nodmgspread","payload","uncletopia"],"game_id":440,"stv_port":27066,"stv_name":"Uncletopia | London | 6 | All Maps | STV","players":[{"user_id":278,"name":"Thors","steam_id":76561197968739075,"connected_time":1978000000000,"state":"active","ping":44},{"user_id":306,"name":"bonelesspizztza","steam_id":76561198097321402,"connected_time":68000000000,"state":"active","ping":74},{"user_id":297,"name":"VolcanicArts","steam_id":76561198063453246,"connected_time":749000000000,"state":"active","ping":60},{"user_id":302,"name":"Rocade","steam_id":76561198116634856,"connected_time":567000000000,"state":"active","ping":56},{"user_id":274,"name":"hipster_doofus","steam_id":76561197970902697,"connected_time":2242000000000,"state":"active","ping":56},{"user_id":284,"name":"vinzou spy","steam_id":76561198070745962,"connected_time":1398000000000,"state":"active","ping":48},{"user_id":188,"name":"Ixsus\u003c3","steam_id":76561198094756869,"connected_time":7234000000000,"state":"active","ping":59},{"user_id":285,"name":"positives vibes","steam_id":76561198263329953,"connected_time":1390000000000,"state":"active","ping":48},{"user_id":307,"name":"Milosz52","steam_id":76561199060940204,"connected_time":68000000000,"state":"active","ping":86},{"user_id":299,"name":"Kaishakunin","steam_id":76561198028123874,"connected_time":666000000000,"state":"active","ping":89},{"user_id":256,"name":"Flal","steam_id":76561198453819816,"connected_time":3227000000000,"state":"active","ping":76},{"user_id":258,"name":"nobodyy","steam_id":76561198027735766,"connected_time":3058000000000,"state":"active","ping":75},{"user_id":197,"name":"C11H15NO2","steam_id":76561198066146016,"connected_time":6534000000000,"state":"active","ping":72},{"user_id":290,"name":"Oriuke","steam_id":76561197992166123,"connected_time":1313000000000,"state":"active","ping":57},{"user_id":291,"name":"JujuBalu","steam_id":76561198207253071,"connected_time":1308000000000,"state":"active","ping":59},{"user_id":260,"name":"finbar","steam_id":76561198056812396,"connected_time":2990000000000,"state":"active","ping":75},{"user_id":292,"name":"Saint","steam_id":76561198003296382,"connected_time":1304000000000,"state":"active","ping":75},{"user_id":272,"name":"glyph","steam_id":76561197980736364,"connected_time":2273000000000,"state":"active","ping":87},{"user_id":287,"name":"Mayor Wank from Wanker Town","steam_id":76561197998253588,"connected_time":1371000000000,"state":"active","ping":58},{"user_id":282,"name":"LOBZIK","steam_id":76561198114830120,"connected_time":1539000000000,"state":"active","ping":75},{"user_id":294,"name":"Lukas","steam_id":76561198009118452,"connected_time":1238000000000,"state":"active","ping":66},{"user_id":308,"name":"svalvo14","steam_id":76561199489932477,"connected_time":58000000000,"state":"active","ping":211},{"user_id":304,"name":"SlwoFø","steam_id":76561198049663931,"connected_time":210000000000,"state":"active","ping":60}]},{"server_id":40,"name":"Uncletopia | London | 7 | No Payload","name_short":"lon-7","host":"lon-1.uk.uncletopia.com","port":27075,"enabled":true,"region":"eu","cc":"gb","latitude":51.509865,"longitude":-0.118092,"reserved":0,"last_update":"0001-01-01T00:00:00Z","name_a2s":"Uncletopia | London | 7 | No Payload","protocol":17,"map":"cp_mercenarypark","folder":"tf","game":"Team Fortress","app_id":440,"player_count":24,"max_players":24,"Bots":0,"server_type":"Dedicated","server_os":"Linux","password":true,"vac":true,"version":"7932396","steam_id":85568392924964314,"keywords":["cp","nocrits","nodmgspread","uncletopia"],"game_id":440,"stv_port":27076,"stv_name":"Uncletopia | London | 7 | No Payload | STV","players":[{"user_id":682,"name":"Đesmond","steam_id":76561198097676225,"connected_time":1016000000000,"state":"active","ping":74},{"user_id":683,"name":"Old Hat","steam_id":76561197994673297,"connected_time":997000000000,"state":"active","ping":60},{"user_id":689,"name":"Gordon","steam_id":76561198303652059,"connected_time":589000000000,"state":"active","ping":74},{"user_id":692,"name":"darkwater","steam_id":76561197986978738,"connected_time":375000000000,"state":"active","ping":56},{"user_id":685,"name":"SpiCy","steam_id":76561199140715600,"connected_time":884000000000,"state":"active","ping":94},{"user_id":693,"name":"mook","steam_id":76561198175543442,"connected_time":363000000000,"state":"active","ping":70},{"user_id":696,"name":"Our Hero","steam_id":76561198132047538,"connected_time":120000000000,"state":"active","ping":89},{"user_id":657,"name":"Silvestro","steam_id":76561198021660066,"connected_time":3256000000000,"state":"active","ping":86},{"user_id":690,"name":"sHIFTINGvORTEX","steam_id":76561198231648332,"connected_time":580000000000,"state":"active","ping":67},{"user_id":672,"name":"Astolfo Sevici","steam_id":76561198113753492,"connected_time":1380000000000,"state":"active","ping":90},{"user_id":646,"name":"Fat Pigeon","steam_id":76561198817940142,"connected_time":3780000000000,"state":"active","ping":45},{"user_id":687,"name":"AveragePiglet","steam_id":76561198057673967,"connected_time":773000000000,"state":"active","ping":69},{"user_id":678,"name":"Zombii","steam_id":76561197996886280,"connected_time":1199000000000,"state":"active","ping":145},{"user_id":620,"name":"Pan Piotr","steam_id":76561198140016126,"connected_time":5368000000000,"state":"active","ping":82},{"user_id":673,"name":"Sammy096","steam_id":76561198128167541,"connected_time":1359000000000,"state":"active","ping":72},{"user_id":688,"name":"Pain in a Box","steam_id":76561197990777173,"connected_time":741000000000,"state":"active","ping":119},{"user_id":676,"name":"Guest","steam_id":76561197980364417,"connected_time":1273000000000,"state":"active","ping":80},{"user_id":679,"name":"l0py2","steam_id":76561198320686375,"connected_time":1180000000000,"state":"active","ping":78},{"user_id":661,"name":"X-tis","steam_id":76561198043837480,"connected_time":3048000000000,"state":"active","ping":63},{"user_id":695,"name":"Бархатные тяги, К","steam_id":76561198214926087,"connected_time":229000000000,"state":"active","ping":108},{"user_id":680,"name":"Cagnus Marlsen","steam_id":76561198077859721,"connected_time":1174000000000,"state":"active","ping":72},{"user_id":591,"name":"A stripper","steam_id":76561198034865891,"connected_time":7314000000000,"state":"active","ping":59},{"user_id":664,"name":"Underground - Hard Rock R1700G","steam_id":76561198215986979,"connected_time":2946000000000,"state":"active","ping":45},{"user_id":656,"name":"ムGeRmAn |×UA×ム","steam_id":76561199044754898,"connected_time":3331000000000,"state":"active","ping":75}]},{"server_id":41,"name":"Uncletopia | London | 8 | Community","name_short":"lon-8","host":"lon-1.uk.uncletopia.com","port":27085,"enabled":true,"region":"eu","cc":"gb","latitude":51.509865,"longitude":-0.118092,"reserved":0,"last_update":"0001-01-01T00:00:00Z","name_a2s":"Uncletopia | London | 8 | Community","protocol":17,"map":"workshop/cp_kalinka_rc6a.ugc1272700588","folder":"tf","game":"Team Fortress","app_id":440,"player_count":0,"max_players":24,"Bots":0,"server_type":"Dedicated","server_os":"Linux","password":true,"vac":true,"version":"7932396","steam_id":85568392924964315,"keywords":["cp","nocrits","nodmgspread","uncletopia"],"game_id":440,"stv_port":27086,"stv_name":"Uncletopia | London | 8 | Community | STV","players":null},{"server_id":300,"name":"Uncletopia | Montréal | 1 | All Maps","name_short":"mtl-1","host":"mtl-1.ca.uncletopia.com","port":27015,"enabled":true,"region":"us-east","cc":"ca","latitude":45.50889,"longitude":-73.56167,"reserved":0,"last_update":"0001-01-01T00:00:00Z","name_a2s":"Uncletopia | Montréal | 1 | All Maps","protocol":17,"map":"pl_swiftwater_final1","folder":"tf","game":"Team Fortress","app_id":440,"player_count":0,"max_players":24,"Bots":0,"server_type":"Dedicated","server_os":"Linux","password":true,"vac":true,"version":"7932396","steam_id":85568392924500087,"keywords":["nocrits","nodmgspread","payload","uncletopia"],"game_id":440,"stv_port":27016,"stv_name":"Uncletopia | Montréal | 1 | All Maps | STV","players":null},{"server_id":301,"name":"Uncletopia | Montréal | 2 | All Maps","name_short":"mtl-2","host":"mtl-1.ca.uncletopia.com","port":27025,"enabled":true,"region":"us-east","cc":"ca","latitude":45.50889,"longitude":-73.56167,"reserved":0,"last_update":"0001-01-01T00:00:00Z","name_a2s":"Uncletopia | Montréal | 2 | All Maps","protocol":17,"map":"koth_lakeside_final","folder":"tf","game":"Team Fortress","app_id":440,"player_count":0,"max_players":24,"Bots":0,"server_type":"Dedicated","server_os":"Linux","password":true,"vac":true,"version":"7932396","steam_id":85568392924500088,"keywords":["cp","nocrits","nodmgspread","uncletopia"],"game_id":440,"stv_port":27026,"stv_name":"Uncletopia | Montréal | 2 | All Maps | STV","players":null},{"server_id":302,"name":"Uncletopia | Montréal | 3 | All Maps","name_short":"mtl-3","host":"mtl-1.ca.uncletopia.com","port":27035,"enabled":true,"region":"us-east","cc":"ca","latitude":45.50889,"longitude":-73.56167,"reserved":0,"last_update":"0001-01-01T00:00:00Z","name_a2s":"Uncletopia | Montréal | 3 | All Maps","protocol":17,"map":"cp_process_final","folder":"tf","game":"Team Fortress","app_id":440,"player_count":0,"max_players":24,"Bots":0,"server_type":"Dedicated","server_os":"Linux","password":true,"vac":true,"version":"7932396","steam_id":85568392924500089,"keywords":["cp","nocrits","nodmgspread","uncletopia"],"game_id":440,"stv_port":27036,"stv_name":"Uncletopia | Montréal | 3 | All Maps | STV","players":null},{"server_id":303,"name":"Uncletopia | Montréal | 4 | No Payload","name_short":"mtl-4","host":"mtl-1.ca.uncletopia.com","port":27045,"enabled":true,"region":"us-east","cc":"ca","latitude":45.50889,"longitude":-73.56167,"reserved":0,"last_update":"0001-01-01T00:00:00Z","name_a2s":"Uncletopia | Montréal | 4 | No Payload","protocol":17,"map":"cp_snakewater_final1","folder":"tf","game":"Team Fortress","app_id":440,"player_count":0,"max_players":24,"Bots":0,"server_type":"Dedicated","server_os":"Linux","password":true,"vac":true,"version":"7932396","steam_id":85568392924500090,"keywords":["cp","nocrits","nodmgspread","uncletopia"],"game_id":440,"stv_port":27046,"stv_name":"Uncletopia | Montréal | 4 | No Payload | STV","players":null},{"server_id":13,"name":"Uncletopia | New York City | 1 | All Maps","name_short":"nyc-1","host":"nyc-1.us.uncletopia.com","port":27015,"enabled":true,"region":"us-east","cc":"us","latitude":40.73061,"longitude":-73.93524,"reserved":0,"last_update":"0001-01-01T00:00:00Z","name_a2s":"Uncletopia | New York City | 1 | All Maps","protocol":17,"map":"cp_dustbowl","folder":"tf","game":"Team Fortress","app_id":440,"player_count":23,"max_players":24,"Bots":0,"server_type":"Dedicated","server_os":"Linux","password":true,"vac":true,"version":"7932396","steam_id":85568392924469993,"keywords":["cp","nocrits","nodmgspread","uncletopia"],"game_id":440,"stv_port":27016,"stv_name":"Uncletopia | New York City | 1 | All Maps | STV","players":[{"user_id":9,"name":"gl1tchgreml1n","steam_id":76561198164795227,"connected_time":1209000000000,"state":"active","ping":88},{"user_id":10,"name":"Eningere Gmaning","steam_id":76561199413640042,"connected_time":1172000000000,"state":"active","ping":185},{"user_id":11,"name":"truebosnianking","steam_id":76561199440060597,"connected_time":974000000000,"state":"active","ping":158},{"user_id":13,"name":"Enderjed","steam_id":76561198321436741,"connected_time":833000000000,"state":"active","ping":150},{"user_id":14,"name":"Girl gamer","steam_id":76561198237827742,"connected_time":778000000000,"state":"active","ping":44},{"user_id":15,"name":"CrunchCisco","steam_id":76561199162724832,"connected_time":776000000000,"state":"active","ping":88},{"user_id":16,"name":"∇TEARS","steam_id":76561198740347952,"connected_time":758000000000,"state":"active","ping":63},{"user_id":17,"name":"rat eggs","steam_id":76561198146872603,"connected_time":737000000000,"state":"active","ping":73},{"user_id":18,"name":"inphlate","steam_id":76561199016973013,"connected_time":706000000000,"state":"active","ping":65},{"user_id":36,"name":"aiden","steam_id":76561198449527009,"connected_time":207000000000,"state":"active","ping":121},{"user_id":21,"name":"ShadowWasUhOh","steam_id":76561198400361935,"connected_time":635000000000,"state":"active","ping":61},{"user_id":33,"name":"Homewrecker Hobo","steam_id":76561199218800448,"connected_time":216000000000,"state":"active","ping":55},{"user_id":23,"name":"Ruby Gillman","steam_id":76561198366299848,"connected_time":606000000000,"state":"active","ping":63},{"user_id":25,"name":"Cereal With Water","steam_id":76561198337783795,"connected_time":433000000000,"state":"active","ping":37},{"user_id":34,"name":"Sam","steam_id":76561197991129901,"connected_time":215000000000,"state":"active","ping":71},{"user_id":29,"name":"Warpy","steam_id":76561198055852599,"connected_time":318000000000,"state":"active","ping":62},{"user_id":40,"name":"Icepick","steam_id":76561198271932892,"connected_time":41000000000,"state":"spawning","ping":60},{"user_id":31,"name":"Doofenshmirtz Evil Inc.","steam_id":76561198439793697,"connected_time":271000000000,"state":"active","ping":82},{"user_id":32,"name":"NickTime","steam_id":76561198212315465,"connected_time":261000000000,"state":"active","ping":85},{"user_id":35,"name":"Sigiferd","steam_id":76561198148788110,"connected_time":215000000000,"state":"active","ping":124},{"user_id":37,"name":"Azure_D","steam_id":76561198406448146,"connected_time":201000000000,"state":"active","ping":55},{"user_id":38,"name":"acid","steam_id":76561198055855408,"connected_time":196000000000,"state":"active","ping":58},{"user_id":39,"name":"Yankee_Pirate","steam_id":76561198260667117,"connected_time":147000000000,"state":"active","ping":59}]},{"server_id":14,"name":"Uncletopia | New York City | 2 | All Maps","name_short":"nyc-2","host":"nyc-1.us.uncletopia.com","port":27025,"enabled":true,"region":"us-east","cc":"us","latitude":40.73061,"longitude":-73.93524,"reserved":0,"last_update":"0001-01-01T00:00:00Z","name_a2s":"Uncletopia | New York City | 2 | All Maps","protocol":17,"map":"koth_lakeside_final","folder":"tf","game":"Team Fortress","app_id":440,"player_count":0,"max_players":24,"Bots":0,"server_type":"Dedicated","server_os":"Linux","password":true,"vac":true,"version":"7932396","steam_id":85568392924469994,"keywords":["cp","nocrits","nodmgspread","uncletopia"],"game_id":440,"stv_port":27026,"stv_name":"Uncletopia | New York City | 2 | All Maps | STV","players":null},{"server_id":15,"name":"Uncletopia | New York City | 3 | Stopwatch Beta","name_short":"nyc-3","host":"nyc-1.us.uncletopia.com","port":27035,"enabled":true,"region":"us-east","cc":"us","latitude":40.73061,"longitude":-73.93524,"reserved":0,"last_update":"0001-01-01T00:00:00Z","name_a2s":"Uncletopia | New York City | 3 | Stopwatch Beta","protocol":17,"map":"cp_granary","folder":"tf","game":"Team Fortress","app_id":440,"player_count":0,"max_players":24,"Bots":0,"server_type":"Dedicated","server_os":"Linux","password":true,"vac":true,"version":"7932396","steam_id":85568392924742820,"keywords":["cp","nocrits","nodmgspread","uncletopia"],"game_id":440,"stv_port":27036,"stv_name":"Uncletopia | New York City | 3 | Stopwatch Beta | STV","players":null},{"server_id":16,"name":"Uncletopia | New York City | 4 | Community","name_short":"nyc-4","host":"nyc-1.us.uncletopia.com","port":27045,"enabled":true,"region":"us-east","cc":"us","latitude":40.73061,"longitude":-73.93524,"reserved":0,"last_update":"0001-01-01T00:00:00Z","name_a2s":"Uncletopia | New York City | 4 | Community","protocol":17,"map":"workshop/pl_shoreleave_rc2.ugc1238849347","folder":"tf","game":"Team Fortress","app_id":440,"player_count":0,"max_players":24,"Bots":0,"server_type":"Dedicated","server_os":"Linux","password":true,"vac":true,"version":"7932396","steam_id":85568392924742821,"keywords":["nocrits","nodmgspread","payload","uncletopia"],"game_id":440,"stv_port":27046,"stv_name":"Uncletopia | New York City | 4 | Community | STV","players":null},{"server_id":142,"name":"Uncletopia | São Paulo | 1 | All Maps","name_short":"sao-1","host":"sao-1.br.uncletopia.com","port":27015,"enabled":true,"region":"sa","cc":"br","latitude":-23.533773,"longitude":-46.62529,"reserved":0,"last_update":"0001-01-01T00:00:00Z","name_a2s":"Uncletopia | São Paulo | 1 | All Maps","protocol":17,"map":"pl_snowycoast","folder":"tf","game":"Team Fortress","app_id":440,"player_count":0,"max_players":24,"Bots":0,"server_type":"Dedicated","server_os":"Linux","password":true,"vac":true,"version":"7932396","steam_id":85568392924469996,"keywords":["nocrits","nodmgspread","payload","uncletopia"],"game_id":440,"stv_port":27016,"stv_name":"Uncletopia | São Paulo | 1 | All Maps | STV","players":null},{"server_id":143,"name":"Uncletopia | São Paulo | 2 | All Maps","name_short":"sao-2","host":"sao-2.br.uncletopia.com","port":27015,"enabled":true,"region":"sa","cc":"br","latitude":-23.533773,"longitude":-46.62529,"reserved":0,"last_update":"0001-01-01T00:00:00Z","name_a2s":"Uncletopia | São Paulo | 2 | All Maps","protocol":17,"map":"pl_swiftwater_final1","folder":"tf","game":"Team Fortress","app_id":440,"player_count":0,"max_players":24,"Bots":0,"server_type":"Dedicated","server_os":"Linux","password":true,"vac":true,"version":"7932396","steam_id":85568392924485349,"keywords":["nocrits","nodmgspread","payload","uncletopia"],"game_id":440,"stv_port":27016,"stv_name":"Uncletopia | São Paulo | 2 | All Maps | STV","players":null},{"server_id":7,"name":"Uncletopia | Seattle | 1 | All Maps","name_short":"sea-1","host":"sea-1.us.uncletopia.com","port":27015,"enabled":true,"region":"us-west","cc":"us","latitude":47.608013,"longitude":-122.33517,"reserved":0,"last_update":"0001-01-01T00:00:00Z","name_a2s":"Uncletopia | Seattle | 1 | All Maps","protocol":17,"map":"pl_badwater","folder":"tf","game":"Team Fortress","app_id":440,"player_count":24,"max_players":24,"Bots":0,"server_type":"Dedicated","server_os":"Linux","password":true,"vac":true,"version":"7932396","steam_id":85568392924469997,"keywords":["nocrits","nodmgspread","payload","uncletopia"],"game_id":440,"stv_port":27016,"stv_name":"Uncletopia | Seattle | 1 | All Maps | STV","players":[{"user_id":343,"name":"flameboy50","steam_id":76561198258638052,"connected_time":1615000000000,"state":"active","ping":60},{"user_id":243,"name":"summerlis","steam_id":76561198165324438,"connected_time":7703000000000,"state":"active","ping":61},{"user_id":352,"name":"Y2K ^_^","steam_id":76561199191855486,"connected_time":908000000000,"state":"active","ping":47},{"user_id":351,"name":"Shark Sandwich","steam_id":76561198025007938,"connected_time":1427000000000,"state":"active","ping":55},{"user_id":338,"name":"Bob","steam_id":76561198238859416,"connected_time":1724000000000,"state":"active","ping":85},{"user_id":356,"name":"makeshift_burrito","steam_id":76561198042510825,"connected_time":583000000000,"state":"active","ping":75},{"user_id":322,"name":"ふわふわ毛布","steam_id":76561198088403016,"connected_time":3367000000000,"state":"active","ping":169},{"user_id":362,"name":"Frigus","steam_id":76561198408533295,"connected_time":6000000000,"state":"spawning","ping":48},{"user_id":305,"name":"Sir Lattè of the coffee table","steam_id":76561198272403814,"connected_time":4043000000000,"state":"active","ping":55},{"user_id":337,"name":"Greskrendtregk","steam_id":76561197969553142,"connected_time":1787000000000,"state":"active","ping":70},{"user_id":353,"name":"Craftyjumper","steam_id":76561198126421562,"connected_time":903000000000,"state":"active","ping":86},{"user_id":359,"name":"nescoceo","steam_id":76561198040801160,"connected_time":375000000000,"state":"active","ping":74},{"user_id":342,"name":"Cardboardcoin","steam_id":76561199421284163,"connected_time":1625000000000,"state":"active","ping":97},{"user_id":321,"name":"Moomin","steam_id":76561198072726213,"connected_time":3451000000000,"state":"active","ping":92},{"user_id":348,"name":"Dimple #TF2Center","steam_id":76561198980324190,"connected_time":1512000000000,"state":"active","ping":48},{"user_id":357,"name":"hannah1","steam_id":76561198094801861,"connected_time":449000000000,"state":"active","ping":67},{"user_id":345,"name":"AlecTheNefarious","steam_id":76561198035291230,"connected_time":1571000000000,"state":"active","ping":102},{"user_id":354,"name":"gloobern","steam_id":76561198341190679,"connected_time":840000000000,"state":"active","ping":62},{"user_id":358,"name":"Ryshy02","steam_id":76561198055425447,"connected_time":390000000000,"state":"active","ping":114},{"user_id":360,"name":"Reposas","steam_id":76561198058803197,"connected_time":374000000000,"state":"active","ping":104},{"user_id":292,"name":"parallax","steam_id":76561198004438881,"connected_time":4870000000000,"state":"active","ping":88},{"user_id":324,"name":"Toaster","steam_id":76561198039891934,"connected_time":2994000000000,"state":"active","ping":78},{"user_id":330,"name":"Whisper!","steam_id":76561198119609795,"connected_time":2599000000000,"state":"active","ping":78},{"user_id":350,"name":"Lé Mon","steam_id":76561198078626283,"connected_time":1511000000000,"state":"active","ping":126}]},{"server_id":119,"name":"Uncletopia | Seattle | 2 | All Maps","name_short":"sea-2","host":"sea-1.us.uncletopia.com","port":27025,"enabled":true,"region":"us-west","cc":"us","latitude":47.608013,"longitude":-122.33517,"reserved":0,"last_update":"0001-01-01T00:00:00Z","name_a2s":"Uncletopia | Seattle | 2 | All Maps","protocol":17,"map":"cp_snakewater_final1","folder":"tf","game":"Team Fortress","app_id":440,"player_count":0,"max_players":24,"Bots":0,"server_type":"Dedicated","server_os":"Linux","password":true,"vac":true,"version":"7932396","steam_id":85568392924469998,"keywords":["cp","nocrits","nodmgspread","uncletopia"],"game_id":440,"stv_port":27026,"stv_name":"Uncletopia | Seattle | 2 | All Maps | STV","players":null},{"server_id":406,"name":"Uncletopia | Seattle | 3 | Stopwatch Beta","name_short":"sea-3","host":"sea-1.us.uncletopia.com","port":27035,"enabled":true,"region":"us-west","cc":"us","latitude":47.608013,"longitude":-122.33517,"reserved":0,"last_update":"0001-01-01T00:00:00Z","name_a2s":"Uncletopia | Seattle | 3 | Stopwatch Beta","protocol":17,"map":"workshop/koth_product_final.ugc454272353","folder":"tf","game":"Team Fortress","app_id":440,"player_count":0,"max_players":24,"Bots":0,"server_type":"Dedicated","server_os":"Linux","password":true,"vac":true,"version":"7932396","steam_id":85568392924515217,"keywords":["cp","nocrits","nodmgspread","uncletopia"],"game_id":440,"stv_port":27036,"stv_name":"Uncletopia | Seattle | 3 | Stopwatch Beta | STV","players":null},{"server_id":17,"name":"Uncletopia | San Francisco | 1 | All Maps","name_short":"sfo-1","host":"sfo-1.us.uncletopia.com","port":27015,"enabled":true,"region":"us-west","cc":"us","latitude":37.77397,"longitude":-122.4313,"reserved":0,"last_update":"0001-01-01T00:00:00Z","name_a2s":"Uncletopia | San Francisco | 1 | All Maps","protocol":17,"map":"koth_highpass","folder":"tf","game":"Team Fortress","app_id":440,"player_count":0,"max_players":24,"Bots":0,"server_type":"Dedicated","server_os":"Linux","password":true,"vac":true,"version":"7932396","steam_id":85568392924469999,"keywords":["cp","nocrits","nodmgspread","uncletopia"],"game_id":440,"stv_port":27016,"stv_name":"Uncletopia | San Francisco | 1 | All Maps | STV","players":null},{"server_id":18,"name":"Uncletopia | San Francisco | 2 | All Maps","name_short":"sfo-2","host":"sfo-1.us.uncletopia.com","port":27025,"enabled":true,"region":"us-west","cc":"us","latitude":37.77397,"longitude":-122.4313,"reserved":0,"last_update":"0001-01-01T00:00:00Z","name_a2s":"Uncletopia | San Francisco | 2 | All Maps","protocol":17,"map":"pl_barnblitz","folder":"tf","game":"Team Fortress","app_id":440,"player_count":0,"max_players":24,"Bots":0,"server_type":"Dedicated","server_os":"Linux","password":true,"vac":true,"version":"7932396","steam_id":85568392924470000,"keywords":["nocrits","nodmgspread","payload","uncletopia"],"game_id":440,"stv_port":27026,"stv_name":"Uncletopia | San Francisco | 2 | All Maps | STV","players":null},{"server_id":19,"name":"Uncletopia | San Francisco | 3 | Stopwatch Beta","name_short":"sfo-3","host":"sfo-1.us.uncletopia.com","port":27035,"enabled":true,"region":"us-west","cc":"us","latitude":37.77397,"longitude":-122.4313,"reserved":0,"last_update":"0001-01-01T00:00:00Z","name_a2s":"Uncletopia | San Francisco | 3 | Stopwatch Beta","protocol":17,"map":"pl_borneo","folder":"tf","game":"Team Fortress","app_id":440,"player_count":0,"max_players":24,"Bots":0,"server_type":"Dedicated","server_os":"Linux","password":true,"vac":true,"version":"7932396","steam_id":85568392924742824,"keywords":["nocrits","nodmgspread","payload","uncletopia"],"game_id":440,"stv_port":27036,"stv_name":"Uncletopia | San Francisco | 3 | Stopwatch Beta | STV","players":null},{"server_id":20,"name":"Uncletopia | San Francisco | 4 | Community","name_short":"sfo-4","host":"sfo-1.us.uncletopia.com","port":27045,"enabled":true,"region":"us-west","cc":"us","latitude":37.77397,"longitude":-122.4313,"reserved":0,"last_update":"0001-01-01T00:00:00Z","name_a2s":"Uncletopia | San Francisco | 4 | Community","protocol":17,"map":"workshop/cp_alloy_rc3.ugc592805587","folder":"tf","game":"Team Fortress","app_id":440,"player_count":0,"max_players":24,"Bots":0,"server_type":"Dedicated","server_os":"Linux","password":true,"vac":true,"version":"7932396","steam_id":85568392924742826,"keywords":["cp","nocrits","nodmgspread","uncletopia"],"game_id":440,"stv_port":27046,"stv_name":"Uncletopia | San Francisco | 4 | Community | STV","players":null},{"server_id":141,"name":"Uncletopia | Sydney | 1 | All Maps","name_short":"syd-1","host":"syd-1.au.uncletopia.com","port":27015,"enabled":true,"region":"au","cc":"au","latitude":-33.865143,"longitude":151.2099,"reserved":0,"last_update":"0001-01-01T00:00:00Z","name_a2s":"Uncletopia | Sydney | 1 | All Maps","protocol":17,"map":"pl_pier","folder":"tf","game":"Team Fortress","app_id":440,"player_count":0,"max_players":24,"Bots":0,"server_type":"Dedicated","server_os":"Linux","password":true,"vac":true,"version":"7932396","steam_id":85568392924470001,"keywords":["nocrits","nodmgspread","payload","uncletopia"],"game_id":440,"stv_port":27016,"stv_name":"Uncletopia | Sydney | 1 | All Maps | STV","players":null},{"server_id":123,"name":"Uncletopia | Sydney | 2 | All Maps","name_short":"syd-2","host":"syd-1.au.uncletopia.com","port":27025,"enabled":true,"region":"au","cc":"au","latitude":-33.865143,"longitude":151.2099,"reserved":0,"last_update":"0001-01-01T00:00:00Z","name_a2s":"Uncletopia | Sydney | 2 | All Maps","protocol":17,"map":"koth_lakeside_final","folder":"tf","game":"Team Fortress","app_id":440,"player_count":0,"max_players":24,"Bots":0,"server_type":"Dedicated","server_os":"Linux","password":true,"vac":true,"version":"7932396","steam_id":85568392924470002,"keywords":["cp","nocrits","nodmgspread","uncletopia"],"game_id":440,"stv_port":27026,"stv_name":"Uncletopia | Sydney | 2 | All Maps | STV","players":null},{"server_id":395,"name":"Uncletopia | Sydney | 3 | All Maps","name_short":"syd-3","host":"syd-1.au.uncletopia.com","port":27035,"enabled":true,"region":"au","cc":"au","latitude":-33.865143,"longitude":151.2099,"reserved":0,"last_update":"0001-01-01T00:00:00Z","name_a2s":"Uncletopia | Sydney | 3 | All Maps","protocol":17,"map":"pl_barnblitz","folder":"tf","game":"Team Fortress","app_id":440,"player_count":0,"max_players":24,"Bots":0,"server_type":"Dedicated","server_os":"Linux","password":true,"vac":true,"version":"7932396","steam_id":85568392925194467,"keywords":["nocrits","nodmgspread","payload","uncletopia"],"game_id":440,"stv_port":27036,"stv_name":"Uncletopia | Sydney | 3 | All Maps | STV","players":null},{"server_id":396,"name":"Uncletopia | Sydney | 4 | All Maps","name_short":"syd-4","host":"syd-1.au.uncletopia.com","port":27045,"enabled":true,"region":"au","cc":"au","latitude":-33.865143,"longitude":151.2099,"reserved":0,"last_update":"0001-01-01T00:00:00Z","name_a2s":"Uncletopia | Sydney | 4 | All Maps","protocol":17,"map":"pl_pier","folder":"tf","game":"Team Fortress","app_id":440,"player_count":0,"max_players":24,"Bots":0,"server_type":"Dedicated","server_os":"Linux","password":true,"vac":true,"version":"7932396","steam_id":85568392925397958,"keywords":["nocrits","nodmgspread","payload","uncletopia"],"game_id":440,"stv_port":27046,"stv_name":"Uncletopia | Sydney | 4 | All Maps | STV","players":null},{"server_id":58,"name":"Uncletopia | Sydney | 5 | Stopwatch Beta","name_short":"syd-5","host":"syd-1.au.uncletopia.com","port":27055,"enabled":true,"region":"au","cc":"au","latitude":-33.865143,"longitude":151.2099,"reserved":0,"last_update":"0001-01-01T00:00:00Z","name_a2s":"Uncletopia | Sydney | 5 | Stopwatch Beta","protocol":17,"map":"pl_borneo","folder":"tf","game":"Team Fortress","app_id":440,"player_count":0,"max_players":24,"Bots":0,"server_type":"Dedicated","server_os":"Linux","password":true,"vac":true,"version":"7932396","steam_id":85568392925397959,"keywords":["nocrits","nodmgspread","payload","uncletopia"],"game_id":440,"stv_port":27056,"stv_name":"Uncletopia | Sydney | 5 | Stopwatch Beta | STV","players":null},{"server_id":59,"name":"Uncletopia | Sydney | 6 | Community","name_short":"syd-6","host":"syd-1.au.uncletopia.com","port":27065,"enabled":true,"region":"au","cc":"au","latitude":-33.865143,"longitude":151.2099,"reserved":0,"last_update":"0001-01-01T00:00:00Z","name_a2s":"Uncletopia | Sydney | 6 | Community","protocol":17,"map":"pl_badwater","folder":"tf","game":"Team Fortress","app_id":440,"player_count":0,"max_players":24,"Bots":0,"server_type":"Dedicated","server_os":"Linux","password":true,"vac":true,"version":"7932396","steam_id":85568392925397960,"keywords":["nocrits","nodmgspread","payload","uncletopia"],"game_id":440,"stv_port":27066,"stv_name":"Uncletopia | Sydney | 6 | Community | STV","players":null},{"server_id":49,"name":"Uncletopia | Warsaw | 1 | All Maps","name_short":"waw-1","host":"waw-1.pl.uncletopia.com","port":27015,"enabled":true,"region":"eu","cc":"pl","latitude":52.2297,"longitude":21.017532,"reserved":0,"last_update":"0001-01-01T00:00:00Z","name_a2s":"","protocol":0,"map":"","folder":"","game":"","app_id":0,"player_count":0,"max_players":0,"Bots":0,"server_type":"","server_os":"","password":false,"vac":false,"version":"","steam_id":0,"keywords":null,"game_id":0,"stv_port":0,"stv_name":"","players":null},{"server_id":50,"name":"Uncletopia | Warsaw | 2 | All Maps","name_short":"waw-2","host":"waw-1.pl.uncletopia.com","port":27025,"enabled":true,"region":"eu","cc":"pl","latitude":52.2297,"longitude":21.017532,"reserved":0,"last_update":"0001-01-01T00:00:00Z","name_a2s":"Uncletopia | Warsaw | 2 | All Maps","protocol":17,"map":"pl_upward","folder":"tf","game":"Team Fortress","app_id":440,"player_count":20,"max_players":24,"Bots":0,"server_type":"Dedicated","server_os":"Linux","password":true,"vac":true,"version":"7932396","steam_id":85568392925397851,"keywords":["nocrits","nodmgspread","payload","uncletopia"],"game_id":440,"stv_port":27026,"stv_name":"Uncletopia | Warsaw | 2 | All Maps | STV","players":[{"user_id":58,"name":"Sertilbage","steam_id":76561198087850568,"connected_time":929000000000,"state":"active","ping":93},{"user_id":77,"name":"Theodd857","steam_id":76561198451805725,"connected_time":108000000000,"state":"active","ping":83},{"user_id":78,"name":"Flying skyhigh","steam_id":76561198372971096,"connected_time":104000000000,"state":"active","ping":101},{"user_id":28,"name":"Laryssa","steam_id":76561198271084076,"connected_time":3557000000000,"state":"active","ping":61},{"user_id":29,"name":"TheRock","steam_id":76561198386889558,"connected_time":3540000000000,"state":"active","ping":64},{"user_id":30,"name":"TumultousTeacups","steam_id":76561198287800213,"connected_time":3520000000000,"state":"active","ping":72},{"user_id":31,"name":"Guthlaf","steam_id":76561198153564078,"connected_time":3519000000000,"state":"active","ping":71},{"user_id":32,"name":"Hrabia","steam_id":76561198164608139,"connected_time":3483000000000,"state":"active","ping":58},{"user_id":62,"name":"Cure Marine","steam_id":76561198051118755,"connected_time":846000000000,"state":"active","ping":47},{"user_id":65,"name":"András","steam_id":76561198272546996,"connected_time":549000000000,"state":"active","ping":82},{"user_id":80,"name":"rummy","steam_id":76561197997573379,"connected_time":94000000000,"state":"active","ping":73},{"user_id":67,"name":"Sizzelmoon","steam_id":76561198165994472,"connected_time":424000000000,"state":"active","ping":61},{"user_id":81,"name":"noot","steam_id":76561198148074472,"connected_time":80000000000,"state":"active","ping":60},{"user_id":69,"name":"Gorzel","steam_id":76561198828273330,"connected_time":283000000000,"state":"active","ping":52},{"user_id":70,"name":"nope","steam_id":76561198147277460,"connected_time":256000000000,"state":"active","ping":75},{"user_id":71,"name":"beng ting","steam_id":76561198023211417,"connected_time":251000000000,"state":"active","ping":130},{"user_id":73,"name":"105","steam_id":76561198256619964,"connected_time":199000000000,"state":"active","ping":81},{"user_id":76,"name":"go play rimworld","steam_id":76561199397932924,"connected_time":161000000000,"state":"active","ping":41},{"user_id":82,"name":"Bash","steam_id":76561198013235573,"connected_time":55000000000,"state":"active","ping":87},{"user_id":83,"name":"Sacco","steam_id":76561199048451187,"connected_time":52000000000,"state":"active","ping":79}]},{"server_id":51,"name":"Uncletopia | Warsaw | 3 | All Maps","name_short":"waw-3","host":"waw-1.pl.uncletopia.com","port":27035,"enabled":true,"region":"eu","cc":"pl","latitude":52.2297,"longitude":21.017532,"reserved":0,"last_update":"0001-01-01T00:00:00Z","name_a2s":"Uncletopia | Warsaw | 3 | All Maps","protocol":17,"map":"cp_sunshine","folder":"tf","game":"Team Fortress","app_id":440,"player_count":0,"max_players":24,"Bots":0,"server_type":"Dedicated","server_os":"Linux","password":true,"vac":true,"version":"7932396","steam_id":85568392925397852,"keywords":["cp","nocrits","nodmgspread","uncletopia"],"game_id":440,"stv_port":27036,"stv_name":"Uncletopia | Warsaw | 3 | All Maps | STV","players":null},{"server_id":52,"name":"Uncletopia | Warsaw | 4 | All Maps","name_short":"waw-4","host":"waw-1.pl.uncletopia.com","port":27045,"enabled":true,"region":"eu","cc":"pl","latitude":52.2297,"longitude":21.017532,"reserved":0,"last_update":"0001-01-01T00:00:00Z","name_a2s":"Uncletopia | Warsaw | 4 | All Maps","protocol":17,"map":"cp_snakewater_final1","folder":"tf","game":"Team Fortress","app_id":440,"player_count":0,"max_players":24,"Bots":0,"server_type":"Dedicated","server_os":"Linux","password":true,"vac":true,"version":"7932396","steam_id":85568392925397853,"keywords":["cp","nocrits","nodmgspread","uncletopia"],"game_id":440,"stv_port":27046,"stv_name":"Uncletopia | Warsaw | 4 | All Maps | STV","players":null},{"server_id":53,"name":"Uncletopia | Warsaw | 5 | Stopwatch Beta","name_short":"waw-5","host":"waw-1.pl.uncletopia.com","port":27055,"enabled":true,"region":"eu","cc":"pl","latitude":52.2297,"longitude":21.017532,"reserved":0,"last_update":"0001-01-01T00:00:00Z","name_a2s":"Uncletopia | Warsaw | 5 | Stopwatch Beta","protocol":17,"map":"workshop/koth_product_final.ugc454272353","folder":"tf","game":"Team Fortress","app_id":440,"player_count":0,"max_players":24,"Bots":0,"server_type":"Dedicated","server_os":"Linux","password":true,"vac":true,"version":"7932396","steam_id":85568392925397854,"keywords":["cp","nocrits","nodmgspread","uncletopia"],"game_id":440,"stv_port":27056,"stv_name":"Uncletopia | Warsaw | 5 | Stopwatch Beta | STV","players":null},{"server_id":54,"name":"Uncletopia | Warsaw | 6 | Community","name_short":"waw-6","host":"waw-1.pl.uncletopia.com","port":27065,"enabled":true,"region":"eu","cc":"pl","latitude":52.2297,"longitude":21.017532,"reserved":0,"last_update":"0001-01-01T00:00:00Z","name_a2s":"Uncletopia | Warsaw | 6 | Community","protocol":17,"map":"workshop/koth_product_final.ugc454272353","folder":"tf","game":"Team Fortress","app_id":440,"player_count":0,"max_players":24,"Bots":0,"server_type":"Dedicated","server_os":"Linux","password":true,"vac":true,"version":"7932396","steam_id":85568392925397856,"keywords":["cp","nocrits","nodmgspread","uncletopia"],"game_id":440,"stv_port":27066,"stv_name":"Uncletopia | Warsaw | 6 | Community | STV","players":null}]}