{"status":true,"message":"","result":[{"server_id":9,"name":"Uncletopia | Atlanta | 1 | All Maps","name_short":"atl-1","host":"atl-1.us.uncletopia.com","port":27015,"enabled":true,"region":"us-east","cc":"us","latitude":33.753746,"longitude":-84.38633,"reserved":0,"last_update":"0001-01-01T00:00:00Z","name_a2s":"Uncletopia | Atlanta | 1 | All Maps","protocol":17,"map":"pl_swiftwater_final1","folder":"tf","game":"Team Fortress","app_id":440,"player_count":24,"max_players":24,"Bots":0,"server_type":"Dedicated","server_os":"Linux","password":true,"vac":true,"version":"7757534","steam_id":85568392924469982,"keywords":["nocrits","nodmgspread","payload","uncletopia"],"game_id":440,"stv_port":27016,"stv_name":"Uncletopia | Atlanta | 1 | All Maps | STV","players":[{"user_id":209,"name":"the doo doo man","steam_id":76561198057076267,"connected_time":3221000000000,"state":"active","ping":60},{"user_id":191,"name":"‚úøÁãêÂ¶ªakemi","steam_id":76561198406252824,"connected_time":5180000000000,"state":"active","ping":107},{"user_id":206,"name":"Ejaculation Zach","steam_id":76561198203765200,"connected_time":3728000000000,"state":"active","ping":79},{"user_id":230,"name":"Lilith","steam_id":76561198125102885,"connected_time":208000000000,"state":"active","ping":65},{"user_id":215,"name":"Emails","steam_id":76561198836919458,"connected_time":2684000000000,"state":"active","ping":68},{"user_id":200,"name":"could you repeat that","steam_id":76561198098781227,"connected_time":4250000000000,"state":"active","ping":71},{"user_id":226,"name":"Fantastic Mr. Fox Appreciator","steam_id":76561198096306325,"connected_time":1034000000000,"state":"active","ping":104},{"user_id":222,"name":"Boop","steam_id":76561198376703875,"connected_time":1043000000000,"state":"active","ping":69},{"user_id":189,"name":"BIG HOG","steam_id":76561198079923652,"connected_time":5597000000000,"state":"active","ping":71},{"user_id":220,"name":"marguerite","steam_id":76561198170873495,"connected_time":1078000000000,"state":"active","ping":49},{"user_id":180,"name":"I'm Only 4 Inches","steam_id":76561198055542546,"connected_time":7111000000000,"state":"active","ping":71},{"user_id":218,"name":"lil hog","steam_id":76561199230929836,"connected_time":1733000000000,"state":"active","ping":79},{"user_id":231,"name":"Broken Cereal‚àö","steam_id":76561198087489795,"connected_time":178000000000,"state":"active","ping":66},{"user_id":199,"name":"inky (Coolest)","steam_id":76561198968337022,"connected_time":4294000000000,"state":"active","ping":56},{"user_id":223,"name":"Ashes!","steam_id":76561197998475441,"connected_time":1042000000000,"state":"active","ping":71},{"user_id":224,"name":"Nazmir Boglord","steam_id":76561198162890584,"connected_time":1038000000000,"state":"active","ping":64},{"user_id":232,"name":"Ninty","steam_id":76561199364725776,"connected_time":13000000000,"state":"spawning","ping":87},{"user_id":190,"name":"my name is big boobs","steam_id":76561198103496593,"connected_time":5259000000000,"state":"active","ping":45},{"user_id":225,"name":"NBA Youngboy","steam_id":76561199118797200,"connected_time":1038000000000,"state":"active","ping":63},{"user_id":227,"name":"town.midi","steam_id":76561198059041027,"connected_time":1011000000000,"state":"active","ping":119},{"user_id":219,"name":"Albino Jellyfish","steam_id":76561198208561097,"connected_time":1536000000000,"state":"active","ping":70},{"user_id":184,"name":"mu","steam_id":76561198249206656,"connected_time":6353000000000,"state":"active","ping":88},{"user_id":213,"name":"theconceptoflove","steam_id":76561199096810067,"connected_time":2860000000000,"state":"active","ping":78},{"user_id":229,"name":"mio","steam_id":76561198239286750,"connected_time":541000000000,"state":"active","ping":69}]},{"server_id":104,"name":"Uncletopia | Atlanta | 2 | All Maps","name_short":"atl-2","host":"atl-1.us.uncletopia.com","port":27025,"enabled":true,"region":"us-east","cc":"us","latitude":33.753746,"longitude":-84.38633,"reserved":0,"last_update":"0001-01-01T00:00:00Z","name_a2s":"Uncletopia | Atlanta | 2 | All Maps","protocol":17,"map":"koth_nucleus","folder":"tf","game":"Team Fortress","app_id":440,"player_count":23,"max_players":24,"Bots":0,"server_type":"Dedicated","server_os":"Linux","password":true,"vac":true,"version":"7757534","steam_id":85568392924469983,"keywords":["cp","nocrits","nodmgspread","uncletopia"],"game_id":440,"stv_port":27026,"stv_name":"Uncletopia | Atlanta | 2 | All Maps | STV","players":[{"user_id":68,"name":"Saturn","steam_id":76561198043870818,"connected_time":3218000000000,"state":"active","ping":105},{"user_id":103,"name":"Not selling my lollichop; cope.","steam_id":76561198075325837,"connected_time":288000000000,"state":"active","ping":60},{"user_id":106,"name":"Noisgamer02","steam_id":76561198129665722,"connected_time":77000000000,"state":"active","ping":68},{"user_id":102,"name":"Saristan","steam_id":76561198093346048,"connected_time":307000000000,"state":"active","ping":66},{"user_id":83,"name":"BasicPeaches","steam_id":76561198190890150,"connected_time":1906000000000,"state":"active","ping":86},{"user_id":85,"name":"ghetto smosh enthusiast","steam_id":76561199204276856,"connected_time":1767000000000,"state":"active","ping":60},{"user_id":98,"name":"Cave Spider","steam_id":76561198090419068,"connected_time":849000000000,"state":"active","ping":137},{"user_id":63,"name":"Draco6257","steam_id":76561199147322448,"connected_time":3450000000000,"state":"active","ping":48},{"user_id":97,"name":"MrQuestion","steam_id":76561197996492622,"connected_time":1032000000000,"state":"active","ping":161},{"user_id":86,"name":"Scoron","steam_id":76561198062099305,"connected_time":1751000000000,"state":"active","ping":119},{"user_id":100,"name":"Jambi","steam_id":76561198846091685,"connected_time":795000000000,"state":"active","ping":54},{"user_id":95,"name":"Kymat","steam_id":76561198056367793,"connected_time":1188000000000,"state":"active","ping":87},{"user_id":105,"name":"ArchimediesMD","steam_id":76561198110352252,"connected_time":268000000000,"state":"active","ping":92},{"user_id":107,"name":"Based","steam_id":76561199089316436,"connected_time":32000000000,"state":"active","ping":104},{"user_id":94,"name":"Oopsie Daisy ‚ùã","steam_id":76561198042144492,"connected_time":1317000000000,"state":"active","ping":56},{"user_id":41,"name":"Anxious Nerd Bird","steam_id":76561198112178602,"connected_time":4150000000000,"state":"active","ping":116},{"user_id":99,"name":"LordZahe","steam_id":76561198241749034,"connected_time":834000000000,"state":"active","ping":72},{"user_id":84,"name":"subway fanpage","steam_id":76561199057369742,"connected_time":1770000000000,"state":"active","ping":104},{"user_id":104,"name":"dasani hotdog water","steam_id":76561198986534519,"connected_time":286000000000,"state":"active","ping":119},{"user_id":93,"name":"DO THE DEVIL CHALLENGE","steam_id":76561198045437723,"connected_time":1480000000000,"state":"active","ping":62},{"user_id":89,"name":"JiffyJelly","steam_id":76561198407800887,"connected_time":1698000000000,"state":"active","ping":69},{"user_id":72,"name":"Sergeant Joker #savetf2","steam_id":76561198854616604,"connected_time":3076000000000,"state":"active","ping":87},{"user_id":90,"name":"creamy","steam_id":76561198157435832,"connected_time":1643000000000,"state":"active","ping":93}]},{"server_id":400,"name":"Uncletopia | Atlanta | 3 | Community","name_short":"atl-3","host":"atl-1.us.uncletopia.com","port":27035,"enabled":true,"region":"us-east","cc":"us","latitude":33.753746,"longitude":-84.38633,"reserved":0,"last_update":"0001-01-01T00:00:00Z","name_a2s":"Uncletopia | Atlanta | 3 | Community","protocol":17,"map":"workshop/koth_kemptown_rc1.ugc767410655","folder":"tf","game":"Team Fortress","app_id":440,"player_count":0,"max_players":24,"Bots":0,"server_type":"Dedicated","server_os":"Linux","password":true,"vac":true,"version":"7757534","steam_id":85568392924515187,"keywords":["cp","nocrits","nodmgspread","uncletopia"],"game_id":440,"stv_port":27036,"stv_name":"Uncletopia | Atlanta | 3 | Community | STV","players":null},{"server_id":401,"name":"Uncletopia | Atlanta | 4 | No Payload","name_short":"atl-4","host":"atl-1.us.uncletopia.com","port":27045,"enabled":true,"region":"us-east","cc":"us","latitude":33.753746,"longitude":-84.38633,"reserved":0,"last_update":"0001-01-01T00:00:00Z","name_a2s":"","protocol":0,"map":"","folder":"","game":"","app_id":0,"player_count":0,"max_players":0,"Bots":0,"server_type":"","server_os":"","password":false,"vac":false,"version":"","steam_id":0,"keywords":null,"game_id":0,"stv_port":0,"stv_name":"","players":null},{"server_id":2,"name":"Uncletopia | Chicago | 1 | All Maps","name_short":"chi-1","host":"chi-1.us.uncletopia.com","port":27015,"enabled":true,"region":"us-central","cc":"us","latitude":41.881832,"longitude":-87.62318,"reserved":0,"last_update":"0001-01-01T00:00:00Z","name_a2s":"Uncletopia | Chicago | 1 | All Maps","protocol":17,"map":"pl_upward","folder":"tf","game":"Team Fortress","app_id":440,"player_count":24,"max_players":24,"Bots":0,"server_type":"Dedicated","server_os":"Linux","password":true,"vac":true,"version":"7757534","steam_id":85568392924469984,"keywords":["nocrits","nodmgspread","payload","uncletopia"],"game_id":440,"stv_port":27016,"stv_name":"Uncletopia | Chicago | 1 | All Maps | STV","players":[{"user_id":206,"name":"Dragonofponies","steam_id":76561199016800803,"connected_time":1020000000000,"state":"active","ping":78},{"user_id":182,"name":"Kid named download","steam_id":76561199192074448,"connected_time":3131000000000,"state":"active","ping":85},{"user_id":186,"name":"[√úBER] Bunnyboy","steam_id":76561198298416058,"connected_time":3001000000000,"state":"active","ping":66},{"user_id":193,"name":"DocLucky","steam_id":76561199093899249,"connected_time":2048000000000,"state":"active","ping":158},{"user_id":173,"name":"b. loke","steam_id":76561198371235800,"connected_time":3467000000000,"state":"active","ping":80},{"user_id":194,"name":"capybara","steam_id":76561198182288455,"connected_time":1881000000000,"state":"active","ping":60},{"user_id":95,"name":"HeisenBurger","steam_id":76561198040632080,"connected_time":9958000000000,"state":"active","ping":45},{"user_id":207,"name":"Ring A Ding","steam_id":76561199205871164,"connected_time":978000000000,"state":"active","ping":87},{"user_id":203,"name":"Admiral Crumbs","steam_id":76561198108791583,"connected_time":1337000000000,"state":"active","ping":71},{"user_id":216,"name":"somewhere someday","steam_id":76561198129682583,"connected_time":536000000000,"state":"active","ping":72},{"user_id":163,"name":"richard clock","steam_id":76561198048455671,"connected_time":4348000000000,"state":"active","ping":55},{"user_id":208,"name":"yum.","steam_id":76561198343145607,"connected_time":968000000000,"state":"active","ping":38},{"user_id":215,"name":"beta central","steam_id":76561198301876831,"connected_time":545000000000,"state":"active","ping":56},{"user_id":187,"name":"YoshaBoss","steam_id":76561198449656454,"connected_time":2954000000000,"state":"active","ping":75},{"user_id":200,"name":"ansoonii","steam_id":76561198092494136,"connected_time":1540000000000,"state":"active","ping":60},{"user_id":189,"name":"Your Local Queer Librarian","steam_id":76561198013077080,"connected_time":2740000000000,"state":"active","ping":60},{"user_id":160,"name":"Tilly","steam_id":76561198054825100,"connected_time":4808000000000,"state":"active","ping":60},{"user_id":209,"name":"PopePurple","steam_id":76561198080955830,"connected_time":960000000000,"state":"active","ping":102},{"user_id":210,"name":"Scout","steam_id":76561198865519822,"connected_time":943000000000,"state":"active","ping":74},{"user_id":211,"name":"asm_ghost","steam_id":76561199205363547,"connected_time":939000000000,"state":"active","ping":116},{"user_id":214,"name":"Monster","steam_id":76561198189429665,"connected_time":888000000000,"state":"active","ping":65},{"user_id":199,"name":"Rat Bastard","steam_id":76561198153443658,"connected_time":1676000000000,"state":"active","ping":77},{"user_id":213,"name":"LukeLeal","steam_id":76561198049822995,"connected_time":930000000000,"state":"active","ping":166},{"user_id":218,"name":"gatorbelt","steam_id":76561198145784505,"connected_time":66000000000,"state":"active","ping":96}]},{"server_id":106,"name":"Uncletopia | Chicago | 2 | All Maps","name_short":"chi-2","host":"chi-1.us.uncletopia.com","port":27025,"enabled":true,"region":"us-central","cc":"us","latitude":41.881832,"longitude":-87.62318,"reserved":0,"last_update":"0001-01-01T00:00:00Z","name_a2s":"Uncletopia | Chicago | 2 | All Maps","protocol":17,"map":"cp_altitude","folder":"tf","game":"Team Fortress","app_id":440,"player_count":0,"max_players":24,"Bots":0,"server_type":"Dedicated","server_os":"Linux","password":true,"vac":true,"version":"7757534","steam_id":85568392924469985,"keywords":["cp","nocrits","nodmgspread","uncletopia"],"game_id":440,"stv_port":27026,"stv_name":"Uncletopia | Chicago | 2 | All Maps | STV","players":null},{"server_id":402,"name":"Uncletopia | Chicago | 3 | All Maps","name_short":"chi-3","host":"chi-1.us.uncletopia.com","port":27035,"enabled":true,"region":"us-central","cc":"us","latitude":41.881832,"longitude":-87.62318,"reserved":0,"last_update":"0001-01-01T00:00:00Z","name_a2s":"Uncletopia | Chicago | 3 | All Maps","protocol":17,"map":"cp_snakewater_final1","folder":"tf","game":"Team Fortress","app_id":440,"player_count":0,"max_players":24,"Bots":0,"server_type":"Dedicated","server_os":"Linux","password":true,"vac":true,"version":"7757534","steam_id":85568392924515191,"keywords":["cp","nocrits","nodmgspread","uncletopia"],"game_id":440,"stv_port":27036,"stv_name":"Uncletopia | Chicago | 3 | All Maps | STV","players":null},{"server_id":403,"name":"Uncletopia | Chicago | 4 | All Maps","name_short":"chi-4","host":"chi-1.us.uncletopia.com","port":27045,"enabled":true,"region":"us-central","cc":"us","latitude":41.881832,"longitude":-87.62318,"reserved":0,"last_update":"0001-01-01T00:00:00Z","name_a2s":"Uncletopia | Chicago | 4 | All Maps","protocol":17,"map":"koth_lakeside_final","folder":"tf","game":"Team Fortress","app_id":440,"player_count":0,"max_players":24,"Bots":0,"server_type":"Dedicated","server_os":"Linux","password":true,"vac":true,"version":"7757534","steam_id":85568392924515193,"keywords":["cp","nocrits","nodmgspread","uncletopia"],"game_id":440,"stv_port":27046,"stv_name":"Uncletopia | Chicago | 4 | All Maps | STV","players":null},{"server_id":36,"name":"Uncletopia | Chicago | 5 | All Maps","name_short":"chi-5","host":"chi-2.us.uncletopia.com","port":27015,"enabled":true,"region":"us-central","cc":"us","latitude":41.881832,"longitude":-87.62318,"reserved":0,"last_update":"0001-01-01T00:00:00Z","name_a2s":"Uncletopia | Chicago | 5 | All Maps","protocol":17,"map":"cp_well","folder":"tf","game":"Team Fortress","app_id":440,"player_count":24,"max_players":24,"Bots":0,"server_type":"Dedicated","server_os":"Linux","password":true,"vac":true,"version":"7757534","steam_id":85568392924866362,"keywords":["cp","nocrits","nodmgspread","uncletopia"],"game_id":440,"stv_port":27016,"stv_name":"Uncletopia | Chicago | 5 | All Maps | STV","players":[{"user_id":404,"name":"Sevice","steam_id":76561198108904001,"connected_time":3209000000000,"state":"active","ping":63},{"user_id":469,"name":"John16Mark","steam_id":76561198119445407,"connected_time":650000000000,"state":"active","ping":120},{"user_id":413,"name":"NUt","steam_id":76561198031007966,"connected_time":2829000000000,"state":"active","ping":72},{"user_id":466,"name":"Jackyard","steam_id":76561198093137702,"connected_time":767000000000,"state":"active","ping":74},{"user_id":473,"name":"Evolution","steam_id":76561198144767370,"connected_time":596000000000,"state":"active","ping":55},{"user_id":471,"name":"super dookie 69","steam_id":76561198300660227,"connected_time":635000000000,"state":"active","ping":39},{"user_id":467,"name":"the spy from team fortress 2","steam_id":76561198047797306,"connected_time":760000000000,"state":"active","ping":60},{"user_id":465,"name":"Guile (Not A Tree?)","steam_id":76561197995840607,"connected_time":797000000000,"state":"active","ping":54},{"user_id":457,"name":"DrBenjas","steam_id":76561198345883103,"connected_time":1201000000000,"state":"active","ping":97},{"user_id":447,"name":"[DEEP] Danmar33","steam_id":76561198056453091,"connected_time":1622000000000,"state":"active","ping":49},{"user_id":399,"name":"uhooter","steam_id":76561198007829078,"connected_time":3917000000000,"state":"active","ping":49},{"user_id":472,"name":"Monorchid","steam_id":76561199008858355,"connected_time":634000000000,"state":"active","ping":104},{"user_id":461,"name":"[DEEP] Fitts1099","steam_id":76561198044986906,"connected_time":1104000000000,"state":"active","ping":49},{"user_id":454,"name":"Gato","steam_id":76561198063521721,"connected_time":1374000000000,"state":"active","ping":120},{"user_id":421,"name":"Walter White","steam_id":76561199030987614,"connected_time":2345000000000,"state":"active","ping":86},{"user_id":387,"name":"I Am Alpharius","steam_id":76561198799197135,"connected_time":4336000000000,"state":"active","ping":56},{"user_id":476,"name":"heywix","steam_id":76561198147446578,"connected_time":412000000000,"state":"active","ping":100},{"user_id":474,"name":"Repent","steam_id":76561198121933439,"connected_time":536000000000,"state":"active","ping":92},{"user_id":458,"name":"Argo","steam_id":76561198353725622,"connected_time":1192000000000,"state":"active","ping":75},{"user_id":453,"name":"Ash40000","steam_id":76561198092841526,"connected_time":1426000000000,"state":"active","ping":76},{"user_id":477,"name":"Snake Handler","steam_id":76561198027198306,"connected_time":383000000000,"state":"active","ping":60},{"user_id":446,"name":"hoodwink00‚ù§","steam_id":76561198133869796,"connected_time":1659000000000,"state":"active","ping":91},{"user_id":475,"name":"ally of big tobacco","steam_id":76561198169927835,"connected_time":498000000000,"state":"active","ping":72},{"user_id":442,"name":"Cousin Corn on the Cob","steam_id":76561198049837377,"connected_time":1774000000000,"state":"active","ping":49}]},{"server_id":37,"name":"Uncletopia | Chicago | 6 | All Maps","name_short":"chi-6","host":"chi-2.us.uncletopia.com","port":27025,"enabled":true,"region":"us-central","cc":"us","latitude":41.881832,"longitude":-87.62318,"reserved":0,"last_update":"0001-01-01T00:00:00Z","name_a2s":"Uncletopia | Chicago | 6 | All Maps","protocol":17,"map":"pl_borneo","folder":"tf","game":"Team Fortress","app_id":440,"player_count":0,"max_players":24,"Bots":0,"server_type":"Dedicated","server_os":"Linux","password":true,"vac":true,"version":"7757534","steam_id":85568392924866363,"keywords":["nocrits","nodmgspread","payload","uncletopia"],"game_id":440,"stv_port":27026,"stv_name":"Uncletopia | Chicago | 6 | All Maps | STV","players":null},{"server_id":38,"name":"Uncletopia | Chicago | 7 | Stopwatch Beta","name_short":"chi-7","host":"chi-2.us.uncletopia.com","port":27035,"enabled":true,"region":"us-central","cc":"us","latitude":41.881832,"longitude":-87.62318,"reserved":0,"last_update":"0001-01-01T00:00:00Z","name_a2s":"Uncletopia | Chicago | 7 | Stopwatch Beta","protocol":17,"map":"pl_barnblitz","folder":"tf","game":"Team Fortress","app_id":440,"player_count":0,"max_players":24,"Bots":0,"server_type":"Dedicated","server_os":"Linux","password":true,"vac":true,"version":"7757534","steam_id":85568392924866364,"keywords":["nocrits","nodmgspread","payload","uncletopia"],"game_id":440,"stv_port":27036,"stv_name":"Uncletopia | Chicago | 7 | Stopwatch Beta | STV","players":null},{"server_id":39,"name":"Uncletopia | Chicago | 8 | Community","name_short":"chi-8","host":"chi-2.us.uncletopia.com","port":27045,"enabled":true,"region":"us-central","cc":"us","latitude":41.881832,"longitude":-87.62318,"reserved":0,"last_update":"0001-01-01T00:00:00Z","name_a2s":"Uncletopia | Chicago | 8 | Community","protocol":17,"map":"koth_cascade","folder":"tf","game":"Team Fortress","app_id":440,"player_count":0,"max_players":24,"Bots":0,"server_type":"Dedicated","server_os":"Linux","password":true,"vac":true,"version":"7757534","steam_id":85568392924866365,"keywords":["cp","nocrits","nodmgspread","uncletopia"],"game_id":440,"stv_port":27046,"stv_name":"Uncletopia | Chicago | 8 | Community | STV","players":null},{"server_id":8,"name":"Uncletopia | Dallas | 1 | All Maps","name_short":"dal-1","host":"dal-1.us.uncletopia.com","port":27015,"enabled":true,"region":"us-central","cc":"us","latitude":32.779167,"longitude":-96.80889,"reserved":0,"last_update":"0001-01-01T00:00:00Z","name_a2s":"Uncletopia | Dallas | 1 | All Maps","protocol":17,"map":"koth_cascade","folder":"tf","game":"Team Fortress","app_id":440,"player_count":9,"max_players":24,"Bots":0,"server_type":"Dedicated","server_os":"Linux","password":true,"vac":true,"version":"7757534","steam_id":85568392924469986,"keywords":["cp","nocrits","nodmgspread","uncletopia"],"game_id":440,"stv_port":27016,"stv_name":"Uncletopia | Dallas | 1 | All Maps | STV","players":[{"user_id":20,"name":"Goodboish","steam_id":76561198170403119,"connected_time":562000000000,"state":"active","ping":86},{"user_id":21,"name":"‚ô°ùöÇùö¢ùöïùöüùöíùöä‚ô°","steam_id":76561198327386698,"connected_time":497000000000,"state":"active","ping":97},{"user_id":22,"name":"TechnoBear2099","steam_id":76561198238863596,"connected_time":339000000000,"state":"active","ping":44},{"user_id":23,"name":"Thequirka","steam_id":76561198968058652,"connected_time":276000000000,"state":"active","ping":97},{"user_id":24,"name":"Arrluk","steam_id":76561198396679452,"connected_time":236000000000,"state":"active","ping":60},{"user_id":25,"name":"daniel_5000","steam_id":76561199029189825,"connected_time":221000000000,"state":"active","ping":91},{"user_id":26,"name":"Aloha :3","steam_id":76561198148517055,"connected_time":183000000000,"state":"active","ping":130},{"user_id":28,"name":"Blue Protogen - 001198","steam_id":76561198145791867,"connected_time":95000000000,"state":"active","ping":75},{"user_id":29,"name":"Fraggin' Ragle","steam_id":76561198043334491,"connected_time":50000000000,"state":"spawning","ping":407}]},{"server_id":108,"name":"Uncletopia | Dallas | 2 | All Maps","name_short":"dal-2","host":"dal-1.us.uncletopia.com","port":27025,"enabled":true,"region":"us-central","cc":"us","latitude":32.779167,"longitude":-96.80889,"reserved":0,"last_update":"0001-01-01T00:00:00Z","name_a2s":"Uncletopia | Dallas | 2 | All Maps","protocol":17,"map":"koth_cascade","folder":"tf","game":"Team Fortress","app_id":440,"player_count":0,"max_players":24,"Bots":0,"server_type":"Dedicated","server_os":"Linux","password":true,"vac":true,"version":"7757534","steam_id":85568392924469988,"keywords":["cp","nocrits","nodmgspread","uncletopia"],"game_id":440,"stv_port":27026,"stv_name":"Uncletopia | Dallas | 2 | All Maps | STV","players":null},{"server_id":5,"name":"Uncletopia | Frankfurt | 1 | All Maps","name_short":"frk-1","host":"frk-1.de.uncletopia.com","port":27015,"enabled":true,"region":"eu","cc":"de","latitude":50.110924,"longitude":8.682127,"reserved":0,"last_update":"0001-01-01T00:00:00Z","name_a2s":"Uncletopia | Frankfurt | 1 | All Maps","protocol":17,"map":"pl_goldrush","folder":"tf","game":"Team Fortress","app_id":440,"player_count":24,"max_players":24,"Bots":0,"server_type":"Dedicated","server_os":"Linux","password":true,"vac":true,"version":"7757534","steam_id":85568392924469989,"keywords":["nocrits","nodmgspread","payload","uncletopia"],"game_id":440,"stv_port":27016,"stv_name":"Uncletopia | Frankfurt | 1 | All Maps | STV","players":[{"user_id":345,"name":"DraGOs512","steam_id":76561198438519964,"connected_time":45000000000,"state":"active","ping":87},{"user_id":291,"name":"Doctor Taint","steam_id":76561198315474018,"connected_time":3586000000000,"state":"active","ping":76},{"user_id":298,"name":"Swede1291","steam_id":76561198067175500,"connected_time":3357000000000,"state":"active","ping":62},{"user_id":338,"name":"Oceanic | tuesday maybe","steam_id":76561197979741827,"connected_time":1140000000000,"state":"active","ping":67},{"user_id":330,"name":"Tea guy","steam_id":76561198797847641,"connected_time":1715000000000,"state":"active","ping":86},{"user_id":339,"name":"dEzZe „ÉÑ","steam_id":76561197960291106,"connected_time":1060000000000,"state":"active","ping":44},{"user_id":341,"name":"hsgg","steam_id":76561198057603612,"connected_time":323000000000,"state":"active","ping":54},{"user_id":327,"name":"Krabs","steam_id":76561198161679477,"connected_time":1774000000000,"state":"active","ping":60},{"user_id":295,"name":"LeLiar","steam_id":76561199058927327,"connected_time":3477000000000,"state":"active","ping":99},{"user_id":214,"name":"Jeeworth","steam_id":76561198797972504,"connected_time":7163000000000,"state":"active","ping":82},{"user_id":296,"name":"Never √úber Me","steam_id":76561198140522687,"connected_time":3370000000000,"state":"active","ping":72},{"user_id":343,"name":"onion knight","steam_id":76561198328543549,"connected_time":138000000000,"state":"active","ping":86},{"user_id":278,"name":"dirty","steam_id":76561197995572935,"connected_time":4036000000000,"state":"active","ping":80},{"user_id":321,"name":"noodlehairronaldoprime","steam_id":76561199471954402,"connected_time":1957000000000,"state":"active","ping":61},{"user_id":342,"name":"Atronic","steam_id":76561198354960567,"connected_time":144000000000,"state":"active","ping":51},{"user_id":323,"name":"Doctor Rudy G. Numpad","steam_id":76561198440881106,"connected_time":1905000000000,"state":"active","ping":73},{"user_id":340,"name":"B4LL3R","steam_id":76561198976760649,"connected_time":802000000000,"state":"active","ping":67},{"user_id":265,"name":"Owlet","steam_id":76561198065613974,"connected_time":4966000000000,"state":"active","ping":64},{"user_id":334,"name":"Sunchouse","steam_id":76561198453479806,"connected_time":1675000000000,"state":"active","ping":76},{"user_id":318,"name":"The White Alpaca","steam_id":76561198059064870,"connected_time":2308000000000,"state":"active","ping":117},{"user_id":313,"name":"anders McFlanders","steam_id":76561198022811995,"connected_time":2802000000000,"state":"active","ping":59},{"user_id":309,"name":"murdaman","steam_id":76561198175433731,"connected_time":2904000000000,"state":"active","ping":75},{"user_id":337,"name":"0","steam_id":76561198267909207,"connected_time":1552000000000,"state":"active","ping":78},{"user_id":326,"name":"Big Tits","steam_id":76561198071226377,"connected_time":1787000000000,"state":"active","ping":71}]},{"server_id":110,"name":"Uncletopia | Frankfurt | 2 | All Maps","name_short":"frk-2","host":"frk-1.de.uncletopia.com","port":27025,"enabled":true,"region":"eu","cc":"de","latitude":50.110924,"longitude":8.682127,"reserved":0,"last_update":"0001-01-01T00:00:00Z","name_a2s":"Uncletopia | Frankfurt | 2 | All Maps","protocol":17,"map":"pl_barnblitz","folder":"tf","game":"Team Fortress","app_id":440,"player_count":16,"max_players":24,"Bots":0,"server_type":"Dedicated","server_os":"Linux","password":true,"vac":true,"version":"7757534","steam_id":85568392924469990,"keywords":["nocrits","nodmgspread","payload","uncletopia"],"game_id":440,"stv_port":27026,"stv_name":"Uncletopia | Frankfurt | 2 | All Maps | STV","players":[{"user_id":505,"name":"Krefa12","steam_id":76561198268375393,"connected_time":604000000000,"state":"connecting","ping":93},{"user_id":506,"name":"Destinys","steam_id":76561198056132894,"connected_time":562000000000,"state":"connecting","ping":62},{"user_id":516,"name":"Valfezant","steam_id":76561199063983797,"connected_time":46000000000,"state":"connecting","ping":71},{"user_id":497,"name":"CRWND","steam_id":76561198329810027,"connected_time":1212000000000,"state":"connecting","ping":77},{"user_id":442,"name":"nytronytronytro","steam_id":76561198080496833,"connected_time":3785000000000,"state":"connecting","ping":99},{"user_id":502,"name":"GEP Gun","steam_id":76561197981821003,"connected_time":888000000000,"state":"spawning","ping":98},{"user_id":513,"name":"AmadStatistician","steam_id":76561198163654770,"connected_time":105000000000,"state":"connecting","ping":72},{"user_id":457,"name":"tm","steam_id":76561198256619964,"connected_time":2952000000000,"state":"connecting","ping":99},{"user_id":508,"name":"benifis163","steam_id":76561198420973492,"connected_time":546000000000,"state":"connecting","ping":109},{"user_id":455,"name":"download beck 720p","steam_id":76561198163244605,"connected_time":2954000000000,"state":"connecting","ping":82},{"user_id":452,"name":"Deva Path","steam_id":76561198085763542,"connected_time":3056000000000,"state":"connecting","ping":79},{"user_id":514,"name":"howabe","steam_id":76561197996486818,"connected_time":87000000000,"state":"connecting","ping":53},{"user_id":475,"name":"Cranto","steam_id":76561198101745576,"connected_time":2126000000000,"state":"connecting","ping":74},{"user_id":515,"name":"‚úà","steam_id":76561198296214683,"connected_time":79000000000,"state":"connecting","ping":77}]},{"server_id":308,"name":"Uncletopia | Frankfurt | 3 | All Maps","name_short":"frk-3","host":"frk-1.de.uncletopia.com","port":27035,"enabled":true,"region":"eu","cc":"de","latitude":50.110924,"longitude":8.682127,"reserved":0,"last_update":"0001-01-01T00:00:00Z","name_a2s":"Uncletopia | Frankfurt | 3 | All Maps","protocol":17,"map":"cp_dustbowl","folder":"tf","game":"Team Fortress","app_id":440,"player_count":24,"max_players":24,"Bots":0,"server_type":"Dedicated","server_os":"Linux","password":true,"vac":true,"version":"7757534","steam_id":85568392924504274,"keywords":["cp","nocrits","nodmgspread","uncletopia"],"game_id":440,"stv_port":27036,"stv_name":"Uncletopia | Frankfurt | 3 | All Maps | STV","players":[{"user_id":143,"name":"Creb","steam_id":76561198984970920,"connected_time":3226000000000,"state":"active","ping":112},{"user_id":114,"name":"d u k k i","steam_id":76561198071807437,"connected_time":5591000000000,"state":"active","ping":128},{"user_id":183,"name":"Dustbowl3","steam_id":76561198073240337,"connected_time":432000000000,"state":"active","ping":61},{"user_id":142,"name":"plazma","steam_id":76561198886594048,"connected_time":3268000000000,"state":"active","ping":96},{"user_id":171,"name":"that fat croc from donkey kong","steam_id":76561198159172495,"connected_time":2017000000000,"state":"active","ping":79},{"user_id":153,"name":"limbicsystem","steam_id":76561198025612680,"connected_time":2796000000000,"state":"active","ping":69},{"user_id":168,"name":"Hyperek","steam_id":76561198130797464,"connected_time":2266000000000,"state":"active","ping":72},{"user_id":181,"name":"Farmercy","steam_id":76561198000038039,"connected_time":820000000000,"state":"active","ping":59},{"user_id":172,"name":"Bobo","steam_id":76561198052308399,"connected_time":1947000000000,"state":"active","ping":59},{"user_id":179,"name":"Per√§miehen√§","steam_id":76561197968945306,"connected_time":1232000000000,"state":"active","ping":74},{"user_id":157,"name":"nux","steam_id":76561199241115962,"connected_time":2732000000000,"state":"active","ping":134},{"user_id":164,"name":"nachtraaf","steam_id":76561197960473205,"connected_time":2625000000000,"state":"active","ping":61},{"user_id":158,"name":"Big Al","steam_id":76561198067692439,"connected_time":2723000000000,"state":"active","ping":131},{"user_id":178,"name":"Lord","steam_id":76561198241305816,"connected_time":1285000000000,"state":"active","ping":113},{"user_id":159,"name":"Creative","steam_id":76561198835034247,"connected_time":2700000000000,"state":"active","ping":85},{"user_id":162,"name":"rabbitface26","steam_id":76561198327540113,"connected_time":2644000000000,"state":"active","ping":57},{"user_id":160,"name":"Dozer","steam_id":76561197998742338,"connected_time":2694000000000,"state":"active","ping":67},{"user_id":180,"name":"Gorogaz","steam_id":76561198207157679,"connected_time":883000000000,"state":"active","ping":65},{"user_id":174,"name":"Dor_atar","steam_id":76561198973980542,"connected_time":1648000000000,"state":"active","ping":74},{"user_id":165,"name":"eet fuk","steam_id":76561198043326128,"connected_time":2620000000000,"state":"active","ping":89},{"user_id":166,"name":"Chambersite","steam_id":76561198197022399,"connected_time":2563000000000,"state":"active","ping":67},{"user_id":92,"name":"medicinal man","steam_id":76561198202668788,"connected_time":7024000000000,"state":"active","ping":63},{"user_id":177,"name":"Sigma","steam_id":76561199088506542,"connected_time":1508000000000,"state":"active","ping":46},{"user_id":77,"name":"ldshwt","steam_id":76561198090364357,"connected_time":8103000000000,"state":"active","ping":49}]},{"server_id":309,"name":"Uncletopia | Frankfurt | 4 | All Maps","name_short":"frk-4","host":"frk-1.de.uncletopia.com","port":27045,"enabled":true,"region":"eu","cc":"de","latitude":50.110924,"longitude":8.682127,"reserved":0,"last_update":"0001-01-01T00:00:00Z","name_a2s":"Uncletopia | Frankfurt | 4 | All Maps","protocol":17,"map":"cp_sunshine","folder":"tf","game":"Team Fortress","app_id":440,"player_count":24,"max_players":24,"Bots":0,"server_type":"Dedicated","server_os":"Linux","password":true,"vac":true,"version":"7757534","steam_id":85568392924504275,"keywords":["cp","nocrits","nodmgspread","uncletopia"],"game_id":440,"stv_port":27046,"stv_name":"Uncletopia | Frankfurt | 4 | All Maps | STV","players":[{"user_id":414,"name":"Underdog","steam_id":76561198060012688,"connected_time":2631000000000,"state":"active","ping":64},{"user_id":415,"name":"HOT LOIS","steam_id":76561198302623594,"connected_time":2612000000000,"state":"active","ping":90},{"user_id":444,"name":"ginger cunt","steam_id":76561198334528186,"connected_time":975000000000,"state":"active","ping":66},{"user_id":437,"name":"Jonathan","steam_id":76561198087988880,"connected_time":1643000000000,"state":"active","ping":45},{"user_id":356,"name":"HilldogGaming","steam_id":76561198082209322,"connected_time":6981000000000,"state":"active","ping":95},{"user_id":432,"name":"Joseph#saveTF2","steam_id":76561199200682330,"connected_time":2040000000000,"state":"active","ping":101},{"user_id":440,"name":"real trap piss","steam_id":76561198055010039,"connected_time":1155000000000,"state":"active","ping":60},{"user_id":387,"name":"Gr√∏nkj√¶r","steam_id":76561198041075280,"connected_time":5636000000000,"state":"active","ping":75},{"user_id":417,"name":"Kleiner Engel","steam_id":76561198009922500,"connected_time":2553000000000,"state":"active","ping":60},{"user_id":445,"name":"X-tis","steam_id":76561198043837480,"connected_time":458000000000,"state":"active","ping":73},{"user_id":362,"name":"kamekame","steam_id":76561198047108054,"connected_time":6681000000000,"state":"active","ping":106},{"user_id":389,"name":"ozhmium","steam_id":76561198060762216,"connected_time":4836000000000,"state":"active","ping":84},{"user_id":441,"name":"lambrusco di sorbara","steam_id":76561198066071855,"connected_time":1117000000000,"state":"active","ping":60},{"user_id":436,"name":"Vitun Jonne","steam_id":76561198401737380,"connected_time":1735000000000,"state":"active","ping":56},{"user_id":424,"name":"Hetmanych","steam_id":76561198870926865,"connected_time":2467000000000,"state":"active","ping":51},{"user_id":429,"name":"pfear","steam_id":76561197999207328,"connected_time":2235000000000,"state":"active","ping":75},{"user_id":439,"name":"LarsInABox","steam_id":76561198028329262,"connected_time":1224000000000,"state":"active","ping":68},{"user_id":438,"name":"EdSuedi","steam_id":76561199387956486,"connected_time":1449000000000,"state":"active","ping":51},{"user_id":430,"name":"static","steam_id":76561198836825741,"connected_time":2229000000000,"state":"active","ping":62},{"user_id":442,"name":"Kendo-6","steam_id":76561198318748304,"connected_time":1049000000000,"state":"active","ping":123},{"user_id":422,"name":"KirTeanEesti","steam_id":76561198834316896,"connected_time":2480000000000,"state":"active","ping":100},{"user_id":377,"name":"FoOzTV","steam_id":76561197998636728,"connected_time":6407000000000,"state":"active","ping":69},{"user_id":408,"name":"Quartzy","steam_id":76561198313301520,"connected_time":2949000000000,"state":"active","ping":45},{"user_id":428,"name":"Udinese Dion","steam_id":76561198067931573,"connected_time":2288000000000,"state":"active","ping":50}]},{"server_id":310,"name":"Uncletopia | Frankfurt | 5 | All Maps","name_short":"frk-5","host":"frk-1.de.uncletopia.com","port":27055,"enabled":true,"region":"eu","cc":"de","latitude":50.110924,"longitude":8.682127,"reserved":0,"last_update":"0001-01-01T00:00:00Z","name_a2s":"Uncletopia | Frankfurt | 5 | All Maps","protocol":17,"map":"pl_barnblitz","folder":"tf","game":"Team Fortress","app_id":440,"player_count":22,"max_players":24,"Bots":0,"server_type":"Dedicated","server_os":"Linux","password":true,"vac":true,"version":"7757534","steam_id":85568392924504277,"keywords":["nocrits","nodmgspread","payload","uncletopia"],"game_id":440,"stv_port":27056,"stv_name":"Uncletopia | Frankfurt | 5 | All Maps | STV","players":[{"user_id":392,"name":"food","steam_id":76561198308341534,"connected_time":178000000000,"state":"active","ping":60},{"user_id":391,"name":"Xriasp","steam_id":76561198104721321,"connected_time":225000000000,"state":"active","ping":69},{"user_id":377,"name":"Datenegassie","steam_id":76561198089417032,"connected_time":1418000000000,"state":"active","ping":63},{"user_id":355,"name":"Rahu 'Siebren' Godless","steam_id":76561198276259175,"connected_time":2959000000000,"state":"active","ping":106},{"user_id":388,"name":"Wyodu","steam_id":76561198406237593,"connected_time":500000000000,"state":"active","ping":55},{"user_id":386,"name":"Meki","steam_id":76561198108279631,"connected_time":765000000000,"state":"active","ping":94},{"user_id":390,"name":"HoLy","steam_id":76561197997431870,"connected_time":236000000000,"state":"active","ping":61},{"user_id":259,"name":"Kildon","steam_id":76561198134661558,"connected_time":8190000000000,"state":"active","ping":85},{"user_id":380,"name":"Gnaisse","steam_id":76561198010560642,"connected_time":1397000000000,"state":"active","ping":82},{"user_id":363,"name":"Tzujko","steam_id":76561198414707694,"connected_time":2487000000000,"state":"active","ping":147},{"user_id":387,"name":"M0rph","steam_id":76561198127339176,"connected_time":678000000000,"state":"active","ping":59},{"user_id":368,"name":"gah dayum","steam_id":76561198099200059,"connected_time":2230000000000,"state":"active","ping":47},{"user_id":364,"name":"LivEssense","steam_id":76561198052476979,"connected_time":2484000000000,"state":"active","ping":79},{"user_id":365,"name":"Sharkplut","steam_id":76561198973649647,"connected_time":2481000000000,"state":"active","ping":64},{"user_id":287,"name":"Chad","steam_id":76561198037309490,"connected_time":6128000000000,"state":"active","ping":65},{"user_id":298,"name":"ANDROMEDA","steam_id":76561199213073534,"connected_time":5685000000000,"state":"active","ping":75},{"user_id":371,"name":"Pepegi","steam_id":76561198001230113,"connected_time":2090000000000,"state":"active","ping":75},{"user_id":250,"name":"Sinny","steam_id":76561197999598422,"connected_time":8899000000000,"state":"active","ping":72},{"user_id":367,"name":"Bastard'Nick","steam_id":76561198044044651,"connected_time":2305000000000,"state":"active","ping":68},{"user_id":320,"name":"Bob Sacamano","steam_id":76561198085610701,"connected_time":4040000000000,"state":"active","ping":88},{"user_id":373,"name":"Hey, I¬¥m Andy!","steam_id":76561198060337777,"connected_time":1746000000000,"state":"active","ping":80},{"user_id":383,"name":"a Regurar Barroon","steam_id":76561198834913692,"connected_time":1289000000000,"state":"active","ping":60}]},{"server_id":311,"name":"Uncletopia | Frankfurt | 6 | All Maps","name_short":"frk-6","host":"frk-1.de.uncletopia.com","port":27065,"enabled":true,"region":"eu","cc":"de","latitude":50.110924,"longitude":8.682127,"reserved":0,"last_update":"0001-01-01T00:00:00Z","name_a2s":"Uncletopia | Frankfurt | 6 | All Maps","protocol":17,"map":"pl_badwater","folder":"tf","game":"Team Fortress","app_id":440,"player_count":24,"max_players":24,"Bots":0,"server_type":"Dedicated","server_os":"Linux","password":true,"vac":true,"version":"7757534","steam_id":85568392924504278,"keywords":["nocrits","nodmgspread","payload","uncletopia"],"game_id":440,"stv_port":27066,"stv_name":"Uncletopia | Frankfurt | 6 | All Maps | STV","players":[{"user_id":182,"name":"EQPL aramyis","steam_id":76561199080688428,"connected_time":220000000000,"state":"active","ping":83},{"user_id":178,"name":"meriones","steam_id":76561198034234373,"connected_time":720000000000,"state":"active","ping":58},{"user_id":168,"name":"Paul B√§umer","steam_id":76561198308302932,"connected_time":934000000000,"state":"active","ping":96},{"user_id":166,"name":"Stanowski","steam_id":76561198180532546,"connected_time":1055000000000,"state":"active","ping":76},{"user_id":180,"name":"Be on my ....!?","steam_id":76561198067204908,"connected_time":482000000000,"state":"active","ping":71},{"user_id":169,"name":"JohkupohkuXD","steam_id":76561198391108762,"connected_time":931000000000,"state":"active","ping":88},{"user_id":158,"name":"Dakeyras","steam_id":76561198057069564,"connected_time":1992000000000,"state":"active","ping":110},{"user_id":173,"name":"coree","steam_id":76561199082156030,"connected_time":895000000000,"state":"active","ping":84},{"user_id":170,"name":"Russenluster","steam_id":76561198118016220,"connected_time":931000000000,"state":"active","ping":56},{"user_id":162,"name":"New","steam_id":76561198402195911,"connected_time":1554000000000,"state":"active","ping":110},{"user_id":155,"name":"bacon","steam_id":76561198986835013,"connected_time":2323000000000,"state":"active","ping":84},{"user_id":117,"name":"one tap hedchot","steam_id":76561198106049954,"connected_time":4806000000000,"state":"active","ping":78},{"user_id":129,"name":"killer of noob, winner of game","steam_id":76561198190583242,"connected_time":3964000000000,"state":"active","ping":67},{"user_id":174,"name":"Professional facestab","steam_id":76561198258721056,"connected_time":885000000000,"state":"active","ping":53},{"user_id":179,"name":"Swedish Vegan","steam_id":76561198042775020,"connected_time":535000000000,"state":"active","ping":76},{"user_id":175,"name":"moser23","steam_id":76561197960543171,"connected_time":859000000000,"state":"active","ping":50},{"user_id":115,"name":"Lyra","steam_id":76561198043601838,"connected_time":5430000000000,"state":"active","ping":83},{"user_id":181,"name":"Gwonam","steam_id":76561198044298051,"connected_time":339000000000,"state":"active","ping":62},{"user_id":153,"name":"Pats","steam_id":76561198418538887,"connected_time":2445000000000,"state":"active","ping":93},{"user_id":143,"name":"Omni","steam_id":76561197964320557,"connected_time":3248000000000,"state":"active","ping":62},{"user_id":163,"name":"acamedicus","steam_id":76561199171591060,"connected_time":1261000000000,"state":"active","ping":78},{"user_id":167,"name":"Bonduelle#Savetf2","steam_id":76561199041992422,"connected_time":1035000000000,"state":"active","ping":155},{"user_id":177,"name":"Strangerdanger","steam_id":76561198206728500,"connected_time":842000000000,"state":"active","ping":75},{"user_id":151,"name":"smk","steam_id":76561198068027379,"connected_time":2586000000000,"state":"active","ping":83}]},{"server_id":23,"name":"Uncletopia | Frankfurt | 7 | Stopwatch Beta","name_short":"frk-7","host":"frk-1.de.uncletopia.com","port":27075,"enabled":true,"region":"eu","cc":"de","latitude":50.110924,"longitude":8.682127,"reserved":0,"last_update":"0001-01-01T00:00:00Z","name_a2s":"Uncletopia | Frankfurt | 7 | Stopwatch Beta","protocol":17,"map":"koth_highpass","folder":"tf","game":"Team Fortress","app_id":440,"player_count":0,"max_players":24,"Bots":0,"server_type":"Dedicated","server_os":"Linux","password":true,"vac":true,"version":"7757534","steam_id":85568392924742827,"keywords":["cp","nocrits","nodmgspread","uncletopia"],"game_id":440,"stv_port":27076,"stv_name":"Uncletopia | Frankfurt | 7 | Stopwatch Beta | STV","players":null},{"server_id":24,"name":"Uncletopia | Frankfurt | 8 | Community","name_short":"frk-8","host":"frk-1.de.uncletopia.com","port":27085,"enabled":true,"region":"eu","cc":"de","latitude":50.110924,"longitude":8.682127,"reserved":0,"last_update":"0001-01-01T00:00:00Z","name_a2s":"Uncletopia | Frankfurt | 8 | Community","protocol":17,"map":"koth_lakeside_final","folder":"tf","game":"Team Fortress","app_id":440,"player_count":0,"max_players":24,"Bots":0,"server_type":"Dedicated","server_os":"Linux","password":true,"vac":true,"version":"7757534","steam_id":85568392924742828,"keywords":["cp","nocrits","nodmgspread","uncletopia"],"game_id":440,"stv_port":27086,"stv_name":"Uncletopia | Frankfurt | 8 | Community | STV","players":null},{"server_id":202,"name":"Uncletopia | Hong Kong | 1 | All Maps","name_short":"hgk-1","host":"hgk-1.hk.uncletopia.com","port":27015,"enabled":true,"region":"asia","cc":"hk","latitude":22.302711,"longitude":114.177216,"reserved":0,"last_update":"0001-01-01T00:00:00Z","name_a2s":"Uncletopia | Hong Kong | 1 | All Maps","protocol":17,"map":"koth_cascade","folder":"tf","game":"Team Fortress","app_id":440,"player_count":0,"max_players":24,"Bots":0,"server_type":"Dedicated","server_os":"Linux","password":true,"vac":true,"version":"7757534","steam_id":85568392924494504,"keywords":["cp","nocrits","nodmgspread","uncletopia"],"game_id":440,"stv_port":27016,"stv_name":"Uncletopia | Hong Kong | 1 | All Maps | STV","players":null},{"server_id":1,"name":"Uncletopia | Los Angeles | 1 | All Maps","name_short":"lax-1","host":"lax-1.us.uncletopia.com","port":27015,"enabled":true,"region":"us-west","cc":"us","latitude":33.94279,"longitude":-118.41004,"reserved":0,"last_update":"0001-01-01T00:00:00Z","name_a2s":"Uncletopia | Los Angeles | 1 | All Maps","protocol":17,"map":"koth_lakeside_final","folder":"tf","game":"Team Fortress","app_id":440,"player_count":0,"max_players":24,"Bots":0,"server_type":"Dedicated","server_os":"Linux","password":true,"vac":true,"version":"7757534","steam_id":85568392924469991,"keywords":["cp","nocrits","nodmgspread","uncletopia"],"game_id":440,"stv_port":27016,"stv_name":"Uncletopia | Los Angeles | 1 | All Maps | STV","players":null},{"server_id":112,"name":"Uncletopia | Los Angeles | 2 | All Maps","name_short":"lax-2","host":"lax-1.us.uncletopia.com","port":27025,"enabled":true,"region":"us-west","cc":"us","latitude":33.94279,"longitude":-118.41004,"reserved":0,"last_update":"0001-01-01T00:00:00Z","name_a2s":"Uncletopia | Los Angeles | 2 | All Maps","protocol":17,"map":"pl_frontier_final","folder":"tf","game":"Team Fortress","app_id":440,"player_count":24,"max_players":24,"Bots":0,"server_type":"Dedicated","server_os":"Linux","password":true,"vac":true,"version":"7757534","steam_id":85568392924469992,"keywords":["nocrits","nodmgspread","payload","uncletopia"],"game_id":440,"stv_port":27026,"stv_name":"Uncletopia | Los Angeles | 2 | All Maps | STV","players":[{"user_id":68,"name":"carol in HR","steam_id":76561198071775268,"connected_time":1760000000000,"state":"active","ping":99},{"user_id":72,"name":"Pornelius Hubert","steam_id":76561198186128723,"connected_time":1503000000000,"state":"active","ping":87},{"user_id":83,"name":"fish","steam_id":76561198440986029,"connected_time":275000000000,"state":"active","ping":51},{"user_id":81,"name":"Business_Steve","steam_id":76561199204289190,"connected_time":364000000000,"state":"active","ping":169},{"user_id":10,"name":"Atlas Fugged :DD","steam_id":76561198018753989,"connected_time":4459000000000,"state":"active","ping":69},{"user_id":69,"name":"MORE BOUNCE TO THE OUNCE","steam_id":76561198243399336,"connected_time":1749000000000,"state":"active","ping":67},{"user_id":77,"name":"Mrpeagod","steam_id":76561198138985101,"connected_time":504000000000,"state":"active","ping":117},{"user_id":76,"name":"FlashofAsh","steam_id":76561198400422981,"connected_time":565000000000,"state":"active","ping":96},{"user_id":78,"name":"Portal2Player","steam_id":76561198062870114,"connected_time":474000000000,"state":"active","ping":123},{"user_id":33,"name":"Drinking on the Job","steam_id":76561199158508890,"connected_time":3361000000000,"state":"active","ping":104},{"user_id":71,"name":"Thaberii","steam_id":76561198275818707,"connected_time":1508000000000,"state":"active","ping":56},{"user_id":53,"name":"Margit the Full Refund","steam_id":76561198171298450,"connected_time":2358000000000,"state":"active","ping":89},{"user_id":79,"name":"Special Needs Kajiu","steam_id":76561198060395370,"connected_time":459000000000,"state":"active","ping":115},{"user_id":22,"name":"Mediarch","steam_id":76561198050765729,"connected_time":3743000000000,"state":"active","ping":89},{"user_id":45,"name":"dubious little creature","steam_id":76561198113251746,"connected_time":2709000000000,"state":"active","ping":58},{"user_id":75,"name":"BBL Sponsor","steam_id":76561199093733603,"connected_time":582000000000,"state":"active","ping":55},{"user_id":47,"name":"Mini","steam_id":76561198119708149,"connected_time":2620000000000,"state":"active","ping":57},{"user_id":49,"name":"Deborp","steam_id":76561198118868430,"connected_time":2603000000000,"state":"active","ping":116},{"user_id":73,"name":"jeff__100","steam_id":76561198080870439,"connected_time":934000000000,"state":"active","ping":98},{"user_id":80,"name":"BurningKev","steam_id":76561198057688837,"connected_time":433000000000,"state":"active","ping":83},{"user_id":58,"name":"GLXy","steam_id":76561198207551544,"connected_time":2234000000000,"state":"active","ping":90},{"user_id":74,"name":"internet","steam_id":76561197975080641,"connected_time":673000000000,"state":"active","ping":53},{"user_id":84,"name":"vera","steam_id":76561198318851246,"connected_time":249000000000,"state":"active","ping":58},{"user_id":61,"name":"The Bees Unwashed Knees","steam_id":76561198208625672,"connected_time":2129000000000,"state":"active","ping":66}]},{"server_id":324,"name":"Uncletopia | Los Angeles | 3 | All Maps","name_short":"lax-3","host":"lax-1.us.uncletopia.com","port":27035,"enabled":true,"region":"us-west","cc":"us","latitude":33.94279,"longitude":-118.41004,"reserved":0,"last_update":"0001-01-01T00:00:00Z","name_a2s":"Uncletopia | Los Angeles | 3 | All Maps","protocol":17,"map":"pl_barnblitz","folder":"tf","game":"Team Fortress","app_id":440,"player_count":0,"max_players":24,"Bots":0,"server_type":"Dedicated","server_os":"Linux","password":true,"vac":true,"version":"7757534","steam_id":85568392924510198,"keywords":["nocrits","nodmgspread","payload","uncletopia"],"game_id":440,"stv_port":27036,"stv_name":"Uncletopia | Los Angeles | 3 | All Maps | STV","players":null},{"server_id":25,"name":"Uncletopia | Los Angeles | 4 | Stopwatch Beta","name_short":"lax-4","host":"lax-1.us.uncletopia.com","port":27045,"enabled":true,"region":"us-west","cc":"us","latitude":33.94279,"longitude":-118.41004,"reserved":0,"last_update":"0001-01-01T00:00:00Z","name_a2s":"Uncletopia | Los Angeles | 4 | Stopwatch Beta","protocol":17,"map":"pl_swiftwater_final1","folder":"tf","game":"Team Fortress","app_id":440,"player_count":0,"max_players":24,"Bots":0,"server_type":"Dedicated","server_os":"Linux","password":true,"vac":true,"version":"7757534","steam_id":85568392924510199,"keywords":["nocrits","nodmgspread","payload","uncletopia"],"game_id":440,"stv_port":27046,"stv_name":"Uncletopia | Los Angeles | 4 | Stopwatch Beta | STV","players":null},{"server_id":11,"name":"Uncletopia | London | 1 | All Maps","name_short":"lon-1","host":"lon-1.uk.uncletopia.com","port":27015,"enabled":true,"region":"eu","cc":"gb","latitude":51.509865,"longitude":-0.118092,"reserved":0,"last_update":"0001-01-01T00:00:00Z","name_a2s":"Uncletopia | London | 1 | All Maps","protocol":17,"map":"pl_snowycoast","folder":"tf","game":"Team Fortress","app_id":440,"player_count":24,"max_players":24,"Bots":0,"server_type":"Dedicated","server_os":"Linux","password":true,"vac":true,"version":"7757534","steam_id":85568392924367362,"keywords":["nocrits","nodmgspread","payload","uncletopia"],"game_id":440,"stv_port":27016,"stv_name":"Uncletopia | London | 1 | All Maps | STV","players":[{"user_id":385,"name":"Economic crisis","steam_id":76561198063562843,"connected_time":1839000000000,"state":"active","ping":63},{"user_id":394,"name":"Fwebbie","steam_id":76561199006875621,"connected_time":508000000000,"state":"active","ping":60},{"user_id":387,"name":"CrusherUK","steam_id":76561198153173185,"connected_time":1489000000000,"state":"active","ping":52},{"user_id":372,"name":"MRLOLENO","steam_id":76561198450911838,"connected_time":2969000000000,"state":"active","ping":64},{"user_id":364,"name":"Hermitcrack","steam_id":76561198149216441,"connected_time":3196000000000,"state":"active","ping":73},{"user_id":339,"name":"shooer","steam_id":76561198110531281,"connected_time":5027000000000,"state":"active","ping":69},{"user_id":378,"name":"transgender e-girl","steam_id":76561198168589809,"connected_time":2691000000000,"state":"active","ping":64},{"user_id":384,"name":"cult","steam_id":76561198188647690,"connected_time":2067000000000,"state":"active","ping":76},{"user_id":359,"name":"BreadBubbles","steam_id":76561198174332826,"connected_time":3550000000000,"state":"active","ping":69},{"user_id":392,"name":"jimmy bob","steam_id":76561198319583692,"connected_time":684000000000,"state":"active","ping":63},{"user_id":397,"name":"Mannequin","steam_id":76561198128833974,"connected_time":42000000000,"state":"spawning","ping":65},{"user_id":382,"name":"Oxy:*","steam_id":76561198275120049,"connected_time":2415000000000,"state":"active","ping":70},{"user_id":343,"name":"player","steam_id":76561198054474684,"connected_time":4928000000000,"state":"active","ping":82},{"user_id":374,"name":"mommyüñ§x_x","steam_id":76561199204257697,"connected_time":2771000000000,"state":"active","ping":49},{"user_id":349,"name":"Topia","steam_id":76561198163571788,"connected_time":4645000000000,"state":"active","ping":81},{"user_id":255,"name":"‚ô• Aura says Trans Rights ‚ô•","steam_id":76561198066258544,"connected_time":13545000000000,"state":"active","ping":65},{"user_id":370,"name":"Desj","steam_id":76561198114212636,"connected_time":3062000000000,"state":"active","ping":59},{"user_id":390,"name":"Wuffington","steam_id":76561198033762881,"connected_time":707000000000,"state":"active","ping":47},{"user_id":376,"name":"Ed","steam_id":76561198135081318,"connected_time":2730000000000,"state":"active","ping":54},{"user_id":393,"name":"trite","steam_id":76561197983765323,"connected_time":670000000000,"state":"active","ping":51},{"user_id":383,"name":"Q","steam_id":76561198276440993,"connected_time":2343000000000,"state":"active","ping":44},{"user_id":395,"name":"DrMaxie","steam_id":76561198117445222,"connected_time":403000000000,"state":"active","ping":52},{"user_id":284,"name":"Ansari","steam_id":76561198074982971,"connected_time":10753000000000,"state":"active","ping":67},{"user_id":388,"name":"Amy2Cute","steam_id":76561198291015553,"connected_time":956000000000,"state":"active","ping":56}]},{"server_id":114,"name":"Uncletopia | London | 2 | All Maps","name_short":"lon-2","host":"lon-1.uk.uncletopia.com","port":27025,"enabled":true,"region":"eu","cc":"gb","latitude":51.509865,"longitude":-0.118092,"reserved":0,"last_update":"0001-01-01T00:00:00Z","name_a2s":"Uncletopia | London | 2 | All Maps","protocol":17,"map":"pl_pier","folder":"tf","game":"Team Fortress","app_id":440,"player_count":23,"max_players":24,"Bots":0,"server_type":"Dedicated","server_os":"Linux","password":true,"vac":true,"version":"7757534","steam_id":85568392924470941,"keywords":["nocrits","nodmgspread","payload","uncletopia"],"game_id":440,"stv_port":27026,"stv_name":"Uncletopia | London | 2 | All Maps | STV","players":[{"user_id":86,"name":"Whiter Wlat","steam_id":76561198408012164,"connected_time":716000000000,"state":"active","ping":151},{"user_id":56,"name":"The Butterman#SaveTF2","steam_id":76561198065057086,"connected_time":3437000000000,"state":"active","ping":73},{"user_id":91,"name":"Jam","steam_id":76561198010277932,"connected_time":441000000000,"state":"active","ping":49},{"user_id":88,"name":"Big Knoxy","steam_id":76561198291107227,"connected_time":616000000000,"state":"active","ping":61},{"user_id":25,"name":"bayzoes","steam_id":76561198117472639,"connected_time":4318000000000,"state":"active","ping":42},{"user_id":26,"name":"Regan","steam_id":76561198100631086,"connected_time":4314000000000,"state":"active","ping":60},{"user_id":27,"name":"British Disapproval","steam_id":76561198001375260,"connected_time":4296000000000,"state":"active","ping":58},{"user_id":83,"name":"jaime8D","steam_id":76561197980590671,"connected_time":732000000000,"state":"active","ping":86},{"user_id":79,"name":"Thors","steam_id":76561197968739075,"connected_time":1685000000000,"state":"active","ping":45},{"user_id":60,"name":"anti","steam_id":76561198313440475,"connected_time":3373000000000,"state":"active","ping":80},{"user_id":94,"name":"DocTwoEight","steam_id":76561198153488940,"connected_time":106000000000,"state":"active","ping":77},{"user_id":82,"name":"frbuz","steam_id":76561198327135462,"connected_time":1325000000000,"state":"active","ping":175},{"user_id":35,"name":"Kes","steam_id":76561198095288832,"connected_time":4017000000000,"state":"active","ping":53},{"user_id":80,"name":"enterkeshi","steam_id":76561199134284873,"connected_time":1556000000000,"state":"active","ping":90},{"user_id":95,"name":"bowchika wowa #SlavaUkraine","steam_id":76561198159564550,"connected_time":97000000000,"state":"active","ping":72},{"user_id":97,"name":"–±–ª–∏–Ω!","steam_id":76561198808819694,"connected_time":46000000000,"state":"active","ping":55},{"user_id":90,"name":"Een schaap zonder slaap","steam_id":76561198084808410,"connected_time":595000000000,"state":"active","ping":58},{"user_id":92,"name":"Edison Trent","steam_id":76561198067133145,"connected_time":432000000000,"state":"active","ping":67},{"user_id":72,"name":"yes, yes, yes","steam_id":76561198881083725,"connected_time":2089000000000,"state":"active","ping":60},{"user_id":84,"name":"jo","steam_id":76561198109074418,"connected_time":729000000000,"state":"active","ping":62},{"user_id":76,"name":"ParussMan","steam_id":76561198446245146,"connected_time":1976000000000,"state":"active","ping":117},{"user_id":68,"name":"Sgreff","steam_id":76561198036304365,"connected_time":2758000000000,"state":"active","ping":45},{"user_id":96,"name":"Dwevy","steam_id":76561198090379437,"connected_time":90000000000,"state":"active","ping":47}]},{"server_id":320,"name":"Uncletopia | London | 3 | All Maps","name_short":"lon-3","host":"lon-1.uk.uncletopia.com","port":27035,"enabled":true,"region":"eu","cc":"gb","latitude":51.509865,"longitude":-0.118092,"reserved":0,"last_update":"0001-01-01T00:00:00Z","name_a2s":"Uncletopia | London | 3 | All Maps","protocol":17,"map":"cp_sunshine","folder":"tf","game":"Team Fortress","app_id":440,"player_count":24,"max_players":24,"Bots":0,"server_type":"Dedicated","server_os":"Linux","password":true,"vac":true,"version":"7757534","steam_id":85568392924510192,"keywords":["cp","nocrits","nodmgspread","uncletopia"],"game_id":440,"stv_port":27036,"stv_name":"Uncletopia | London | 3 | All Maps | STV","players":[{"user_id":125,"name":"Baki ‡∂û","steam_id":76561198193615529,"connected_time":871000000000,"state":"active","ping":65},{"user_id":128,"name":"revenant christ","steam_id":76561198031573426,"connected_time":466000000000,"state":"active","ping":62},{"user_id":127,"name":"Shynii","steam_id":76561198194682105,"connected_time":821000000000,"state":"active","ping":60},{"user_id":14,"name":"Moobin","steam_id":76561198099999156,"connected_time":6231000000000,"state":"active","ping":67},{"user_id":85,"name":"Woa","steam_id":76561198345683201,"connected_time":3411000000000,"state":"active","ping":76},{"user_id":121,"name":"Welder","steam_id":76561198355300561,"connected_time":1046000000000,"state":"active","ping":71},{"user_id":131,"name":"Michael","steam_id":76561198003146906,"connected_time":293000000000,"state":"active","ping":58},{"user_id":126,"name":"Waltcha","steam_id":76561198007691468,"connected_time":862000000000,"state":"active","ping":65},{"user_id":100,"name":"Eck","steam_id":76561198170101474,"connected_time":1849000000000,"state":"active","ping":60},{"user_id":65,"name":"Circular","steam_id":76561198001536710,"connected_time":4784000000000,"state":"active","ping":46},{"user_id":123,"name":"Svilar","steam_id":76561198828348612,"connected_time":981000000000,"state":"active","ping":117},{"user_id":132,"name":"daddy cheese","steam_id":76561199049128913,"connected_time":282000000000,"state":"active","ping":71},{"user_id":117,"name":"Raingnome @SaveTF2","steam_id":76561198007394958,"connected_time":1210000000000,"state":"active","ping":55},{"user_id":40,"name":"slifty","steam_id":76561198166682199,"connected_time":5578000000000,"state":"active","ping":53},{"user_id":58,"name":"Balls","steam_id":76561198086400484,"connected_time":4914000000000,"state":"active","ping":75},{"user_id":97,"name":"Flal","steam_id":76561198453819816,"connected_time":2692000000000,"state":"active","ping":68},{"user_id":118,"name":"Saint","steam_id":76561198003296382,"connected_time":1203000000000,"state":"active","ping":79},{"user_id":119,"name":"üóªüé¥Hadrian Maloneüé¥üóª","steam_id":76561198036151103,"connected_time":1125000000000,"state":"active","ping":56},{"user_id":109,"name":"Jampine","steam_id":76561198040419080,"connected_time":1645000000000,"state":"active","ping":79},{"user_id":35,"name":"RLCrazyCat3","steam_id":76561197983757878,"connected_time":5685000000000,"state":"active","ping":69},{"user_id":134,"name":"nyanezt","steam_id":76561198253734265,"connected_time":52000000000,"state":"active","ping":105},{"user_id":98,"name":"Dr Sex","steam_id":76561198029044617,"connected_time":2688000000000,"state":"active","ping":45},{"user_id":130,"name":"LuGiO","steam_id":76561198404105206,"connected_time":413000000000,"state":"active","ping":69},{"user_id":120,"name":"Sneikijs","steam_id":76561198052549308,"connected_time":1097000000000,"state":"active","ping":43}]},{"server_id":321,"name":"Uncletopia | London | 4 | All Maps","name_short":"lon-4","host":"lon-1.uk.uncletopia.com","port":27045,"enabled":true,"region":"eu","cc":"gb","latitude":51.509865,"longitude":-0.118092,"reserved":0,"last_update":"0001-01-01T00:00:00Z","name_a2s":"Uncletopia | London | 4 | All Maps","protocol":17,"map":"koth_viaduct","folder":"tf","game":"Team Fortress","app_id":440,"player_count":0,"max_players":24,"Bots":0,"server_type":"Dedicated","server_os":"Linux","password":true,"vac":true,"version":"7757534","steam_id":85568392924510193,"keywords":["cp","nocrits","nodmgspread","uncletopia"],"game_id":440,"stv_port":27046,"stv_name":"Uncletopia | London | 4 | All Maps | STV","players":null},{"server_id":21,"name":"Uncletopia | London | 5 | All Maps","name_short":"lon-5","host":"lon-1.uk.uncletopia.com","port":27055,"enabled":true,"region":"eu","cc":"gb","latitude":51.509865,"longitude":-0.118092,"reserved":0,"last_update":"0001-01-01T00:00:00Z","name_a2s":"Uncletopia | London | 5 | All Maps","protocol":17,"map":"koth_cascade","folder":"tf","game":"Team Fortress","app_id":440,"player_count":5,"max_players":24,"Bots":0,"server_type":"Dedicated","server_os":"Linux","password":true,"vac":true,"version":"7757534","steam_id":85568392924742829,"keywords":["cp","nocrits","nodmgspread","uncletopia"],"game_id":440,"stv_port":27056,"stv_name":"Uncletopia | London | 5 | All Maps | STV","players":[{"user_id":22,"name":"A_GingerIdiot","steam_id":76561198313306026,"connected_time":1669000000000,"state":"active","ping":52},{"user_id":24,"name":"SoupER","steam_id":76561198063056668,"connected_time":957000000000,"state":"active","ping":50},{"user_id":18,"name":"ran is running","steam_id":76561199443185667,"connected_time":2153000000000,"state":"active","ping":127},{"user_id":19,"name":"justin_ (f2p) (real)","steam_id":76561198839843428,"connected_time":2135000000000,"state":"active","ping":118},{"user_id":26,"name":"DurchfallmannID","steam_id":76561199177593481,"connected_time":268000000000,"state":"active","ping":290}]},{"server_id":22,"name":"Uncletopia | London | 6 | All Maps","name_short":"lon-6","host":"lon-1.uk.uncletopia.com","port":27065,"enabled":true,"region":"eu","cc":"gb","latitude":51.509865,"longitude":-0.118092,"reserved":0,"last_update":"0001-01-01T00:00:00Z","name_a2s":"Uncletopia | London | 6 | All Maps","protocol":17,"map":"koth_viaduct","folder":"tf","game":"Team Fortress","app_id":440,"player_count":0,"max_players":24,"Bots":0,"server_type":"Dedicated","server_os":"Linux","password":true,"vac":true,"version":"7757534","steam_id":85568392924742830,"keywords":["cp","nocrits","nodmgspread","uncletopia"],"game_id":440,"stv_port":27066,"stv_name":"Uncletopia | London | 6 | All Maps | STV","players":null},{"server_id":40,"name":"Uncletopia | London | 7 | No Payload","name_short":"lon-7","host":"lon-1.uk.uncletopia.com","port":27075,"enabled":true,"region":"eu","cc":"gb","latitude":51.509865,"longitude":-0.118092,"reserved":0,"last_update":"0001-01-01T00:00:00Z","name_a2s":"Uncletopia | London | 7 | No Payload","protocol":17,"map":"cp_process_final","folder":"tf","game":"Team Fortress","app_id":440,"player_count":24,"max_players":24,"Bots":0,"server_type":"Dedicated","server_os":"Linux","password":true,"vac":true,"version":"7757534","steam_id":85568392924964314,"keywords":["cp","nocrits","nodmgspread","uncletopia"],"game_id":440,"stv_port":27076,"stv_name":"Uncletopia | London | 7 | No Payload | STV","players":[{"user_id":231,"name":"Mistress of the universe","steam_id":76561198115988477,"connected_time":4800000000000,"state":"active","ping":66},{"user_id":296,"name":"vlad","steam_id":76561198325405090,"connected_time":42000000000,"state":"active","ping":59},{"user_id":260,"name":"Anti_Dragon","steam_id":76561198969060607,"connected_time":2274000000000,"state":"active","ping":124},{"user_id":265,"name":"BingusDingus","steam_id":76561198310983903,"connected_time":1386000000000,"state":"active","ping":45},{"user_id":288,"name":"schmick","steam_id":76561198039537958,"connected_time":372000000000,"state":"active","ping":70},{"user_id":290,"name":"Simple Giggenomics","steam_id":76561198070986689,"connected_time":352000000000,"state":"active","ping":50},{"user_id":267,"name":"cw446","steam_id":76561198056983371,"connected_time":1165000000000,"state":"active","ping":59},{"user_id":295,"name":"i am bread","steam_id":76561199180277321,"connected_time":143000000000,"state":"spawning","ping":50},{"user_id":251,"name":"le big mac #queue4passtime","steam_id":76561199026378253,"connected_time":2565000000000,"state":"active","ping":63},{"user_id":286,"name":"Grumtsior","steam_id":76561198043563111,"connected_time":414000000000,"state":"active","ping":65},{"user_id":261,"name":"quickfast","steam_id":76561199438900919,"connected_time":2134000000000,"state":"active","ping":43},{"user_id":239,"name":"Der Herr Doktor","steam_id":76561198119476089,"connected_time":3806000000000,"state":"active","ping":73},{"user_id":278,"name":"Summer ‚ô•","steam_id":76561198047723907,"connected_time":790000000000,"state":"active","ping":37},{"user_id":287,"name":"Riebeck","steam_id":76561198272953951,"connected_time":382000000000,"state":"active","ping":74},{"user_id":293,"name":"halo 3 rat","steam_id":76561198439007717,"connected_time":241000000000,"state":"active","ping":76},{"user_id":256,"name":"Jakub Jezus Varga","steam_id":76561198263696133,"connected_time":2393000000000,"state":"active","ping":76},{"user_id":291,"name":"Yawny","steam_id":76561198095813991,"connected_time":317000000000,"state":"active","ping":120},{"user_id":298,"name":"‚ú™ m_br3","steam_id":76561198044981990,"connected_time":26000000000,"state":"active","ping":80},{"user_id":292,"name":"Girlboy Theenie","steam_id":76561198029025500,"connected_time":305000000000,"state":"active","ping":72},{"user_id":297,"name":"mt","steam_id":76561197961319303,"connected_time":33000000000,"state":"active","ping":60},{"user_id":283,"name":"squo","steam_id":76561198324357479,"connected_time":733000000000,"state":"active","ping":88},{"user_id":284,"name":"tanyathsus","steam_id":76561198089522447,"connected_time":644000000000,"state":"active","ping":61},{"user_id":259,"name":"Somor","steam_id":76561198169396119,"connected_time":2331000000000,"state":"active","ping":62},{"user_id":237,"name":"Pootis penser","steam_id":76561198944032480,"connected_time":4070000000000,"state":"active","ping":97}]},{"server_id":41,"name":"Uncletopia | London | 8 | Community","name_short":"lon-8","host":"lon-1.uk.uncletopia.com","port":27085,"enabled":true,"region":"eu","cc":"gb","latitude":51.509865,"longitude":-0.118092,"reserved":0,"last_update":"0001-01-01T00:00:00Z","name_a2s":"Uncletopia | London | 8 | Community","protocol":17,"map":"workshop/pl_emerge_rc2.ugc888027758","folder":"tf","game":"Team Fortress","app_id":440,"player_count":24,"max_players":24,"Bots":0,"server_type":"Dedicated","server_os":"Linux","password":true,"vac":true,"version":"7757534","steam_id":85568392924964315,"keywords":["nocrits","nodmgspread","payload","uncletopia"],"game_id":440,"stv_port":27086,"stv_name":"Uncletopia | London | 8 | Community | STV","players":[{"user_id":512,"name":"hud_saytext_time 0","steam_id":76561198010327228,"connected_time":1697000000000,"state":"active","ping":63},{"user_id":499,"name":"Uncle Owen","steam_id":76561198157999291,"connected_time":2493000000000,"state":"active","ping":91},{"user_id":508,"name":"Spetse","steam_id":76561197990649972,"connected_time":2267000000000,"state":"active","ping":88},{"user_id":446,"name":"Fran","steam_id":76561199070516960,"connected_time":5138000000000,"state":"active","ping":68},{"user_id":491,"name":"Bob.","steam_id":76561198330093822,"connected_time":3122000000000,"state":"active","ping":82},{"user_id":535,"name":"prophits","steam_id":76561198011854314,"connected_time":770000000000,"state":"active","ping":73},{"user_id":534,"name":"Gearless","steam_id":76561198362367074,"connected_time":853000000000,"state":"active","ping":96},{"user_id":516,"name":"ItzDigit4l","steam_id":76561198979147416,"connected_time":1487000000000,"state":"active","ping":68},{"user_id":527,"name":"AWJ ÀÜ-ÀÜ","steam_id":76561198053628243,"connected_time":925000000000,"state":"active","ping":40},{"user_id":531,"name":"AYE","steam_id":76561198181368101,"connected_time":885000000000,"state":"active","ping":61},{"user_id":513,"name":"Glitchpower64","steam_id":76561198994710718,"connected_time":1517000000000,"state":"active","ping":58},{"user_id":541,"name":"Halapatra","steam_id":76561199004923871,"connected_time":477000000000,"state":"active","ping":101},{"user_id":539,"name":"FunnyCool","steam_id":76561198029843142,"connected_time":579000000000,"state":"active","ping":67},{"user_id":542,"name":"Killer Queen","steam_id":76561198860424456,"connected_time":369000000000,"state":"active","ping":67},{"user_id":507,"name":"ultimatech","steam_id":76561198165843922,"connected_time":2341000000000,"state":"active","ping":89},{"user_id":543,"name":":\u003ezem","steam_id":76561198864329072,"connected_time":167000000000,"state":"active","ping":88},{"user_id":461,"name":"Silverstorm","steam_id":76561198118175267,"connected_time":4520000000000,"state":"active","ping":70},{"user_id":444,"name":"senior pomidor","steam_id":76561198123659806,"connected_time":5770000000000,"state":"active","ping":101},{"user_id":533,"name":"Step back","steam_id":76561198063855616,"connected_time":879000000000,"state":"active","ping":76},{"user_id":528,"name":"Tea","steam_id":76561198799243030,"connected_time":912000000000,"state":"active","ping":57},{"user_id":529,"name":"silicon based life form","steam_id":76561199127121346,"connected_time":903000000000,"state":"active","ping":53},{"user_id":480,"name":"Farao Ramses II","steam_id":76561198078722712,"connected_time":3736000000000,"state":"active","ping":45},{"user_id":540,"name":"[fll.fi] Kaarlo","steam_id":76561198015176252,"connected_time":561000000000,"state":"active","ping":90},{"user_id":497,"name":"Unfortunate","steam_id":76561198125500777,"connected_time":2690000000000,"state":"active","ping":91}]},{"server_id":300,"name":"Uncletopia | Montr√©al | 1 | All Maps","name_short":"mtl-1","host":"mtl-1.ca.uncletopia.com","port":27015,"enabled":true,"region":"us-east","cc":"ca","latitude":45.50889,"longitude":-73.56167,"reserved":0,"last_update":"0001-01-01T00:00:00Z","name_a2s":"Uncletopia | Montr√©al | 1 | All Maps","protocol":17,"map":"pl_upward","folder":"tf","game":"Team Fortress","app_id":440,"player_count":0,"max_players":24,"Bots":0,"server_type":"Dedicated","server_os":"Linux","password":true,"vac":true,"version":"7757534","steam_id":85568392924500087,"keywords":["nocrits","nodmgspread","payload","uncletopia"],"game_id":440,"stv_port":27016,"stv_name":"Uncletopia | Montr√©al | 1 | All Maps | STV","players":null},{"server_id":301,"name":"Uncletopia | Montr√©al | 2 | All Maps","name_short":"mtl-2","host":"mtl-1.ca.uncletopia.com","port":27025,"enabled":true,"region":"us-east","cc":"ca","latitude":45.50889,"longitude":-73.56167,"reserved":0,"last_update":"0001-01-01T00:00:00Z","name_a2s":"Uncletopia | Montr√©al | 2 | All Maps","protocol":17,"map":"pl_snowycoast","folder":"tf","game":"Team Fortress","app_id":440,"player_count":0,"max_players":24,"Bots":0,"server_type":"Dedicated","server_os":"Linux","password":true,"vac":true,"version":"7757534","steam_id":85568392924500088,"keywords":["nocrits","nodmgspread","payload","uncletopia"],"game_id":440,"stv_port":27026,"stv_name":"Uncletopia | Montr√©al | 2 | All Maps | STV","players":null},{"server_id":302,"name":"Uncletopia | Montr√©al | 3 | All Maps","name_short":"mtl-3","host":"mtl-1.ca.uncletopia.com","port":27035,"enabled":true,"region":"us-east","cc":"ca","latitude":45.50889,"longitude":-73.56167,"reserved":0,"last_update":"0001-01-01T00:00:00Z","name_a2s":"Uncletopia | Montr√©al | 3 | All Maps","protocol":17,"map":"pl_swiftwater_final1","folder":"tf","game":"Team Fortress","app_id":440,"player_count":0,"max_players":24,"Bots":0,"server_type":"Dedicated","server_os":"Linux","password":true,"vac":true,"version":"7757534","steam_id":85568392924500089,"keywords":["nocrits","nodmgspread","payload","uncletopia"],"game_id":440,"stv_port":27036,"stv_name":"Uncletopia | Montr√©al | 3 | All Maps | STV","players":null},{"server_id":303,"name":"Uncletopia | Montr√©al | 4 | No Payload","name_short":"mtl-4","host":"mtl-1.ca.uncletopia.com","port":27045,"enabled":true,"region":"us-east","cc":"ca","latitude":45.50889,"longitude":-73.56167,"reserved":0,"last_update":"0001-01-01T00:00:00Z","name_a2s":"Uncletopia | Montr√©al | 4 | No Payload","protocol":17,"map":"pl_pier","folder":"tf","game":"Team Fortress","app_id":440,"player_count":0,"max_players":24,"Bots":0,"server_type":"Dedicated","server_os":"Linux","password":true,"vac":true,"version":"7757534","steam_id":85568392924500090,"keywords":["nocrits","nodmgspread","payload","uncletopia"],"game_id":440,"stv_port":27046,"stv_name":"Uncletopia | Montr√©al | 4 | No Payload | STV","players":null},{"server_id":13,"name":"Uncletopia | New York City | 1 | All Maps","name_short":"nyc-1","host":"nyc-1.us.uncletopia.com","port":27015,"enabled":true,"region":"us-east","cc":"us","latitude":40.73061,"longitude":-73.93524,"reserved":0,"last_update":"0001-01-01T00:00:00Z","name_a2s":"Uncletopia | New York City | 1 | All Maps","protocol":17,"map":"pl_upward","folder":"tf","game":"Team Fortress","app_id":440,"player_count":0,"max_players":24,"Bots":0,"server_type":"Dedicated","server_os":"Linux","password":true,"vac":true,"version":"7757534","steam_id":85568392924469993,"keywords":["nocrits","nodmgspread","payload","uncletopia"],"game_id":440,"stv_port":27016,"stv_name":"Uncletopia | New York City | 1 | All Maps | STV","players":null},{"server_id":14,"name":"Uncletopia | New York City | 2 | All Maps","name_short":"nyc-2","host":"nyc-1.us.uncletopia.com","port":27025,"enabled":true,"region":"us-east","cc":"us","latitude":40.73061,"longitude":-73.93524,"reserved":0,"last_update":"0001-01-01T00:00:00Z","name_a2s":"Uncletopia | New York City | 2 | All Maps","protocol":17,"map":"koth_viaduct","folder":"tf","game":"Team Fortress","app_id":440,"player_count":0,"max_players":24,"Bots":0,"server_type":"Dedicated","server_os":"Linux","password":true,"vac":true,"version":"7757534","steam_id":85568392924469994,"keywords":["cp","nocrits","nodmgspread","uncletopia"],"game_id":440,"stv_port":27026,"stv_name":"Uncletopia | New York City | 2 | All Maps | STV","players":null},{"server_id":15,"name":"Uncletopia | New York City | 3 | Stopwatch Beta","name_short":"nyc-3","host":"nyc-1.us.uncletopia.com","port":27035,"enabled":true,"region":"us-east","cc":"us","latitude":40.73061,"longitude":-73.93524,"reserved":0,"last_update":"0001-01-01T00:00:00Z","name_a2s":"Uncletopia | New York City | 3 | Stopwatch Beta","protocol":17,"map":"pl_upward","folder":"tf","game":"Team Fortress","app_id":440,"player_count":0,"max_players":24,"Bots":0,"server_type":"Dedicated","server_os":"Linux","password":true,"vac":true,"version":"7757534","steam_id":85568392924742820,"keywords":["nocrits","nodmgspread","payload","uncletopia"],"game_id":440,"stv_port":27036,"stv_name":"Uncletopia | New York City | 3 | Stopwatch Beta | STV","players":null},{"server_id":16,"name":"Uncletopia | New York City | 4 | Community","name_short":"nyc-4","host":"nyc-1.us.uncletopia.com","port":27045,"enabled":true,"region":"us-east","cc":"us","latitude":40.73061,"longitude":-73.93524,"reserved":0,"last_update":"0001-01-01T00:00:00Z","name_a2s":"Uncletopia | New York City | 4 | Community","protocol":17,"map":"workshop/cp_hazyfort_rc6.ugc1365963729","folder":"tf","game":"Team Fortress","app_id":440,"player_count":23,"max_players":24,"Bots":0,"server_type":"Dedicated","server_os":"Linux","password":true,"vac":true,"version":"7757534","steam_id":85568392924742821,"keywords":["cp","nocrits","nodmgspread","uncletopia"],"game_id":440,"stv_port":27046,"stv_name":"Uncletopia | New York City | 4 | Community | STV","players":[{"user_id":66,"name":"Belmore","steam_id":76561198009355231,"connected_time":3972000000000,"state":"active","ping":115},{"user_id":73,"name":"Valerie","steam_id":76561198243188782,"connected_time":3283000000000,"state":"active","ping":56},{"user_id":98,"name":"MagicMuffinman","steam_id":76561198149255313,"connected_time":1369000000000,"state":"active","ping":78},{"user_id":85,"name":"proon","steam_id":76561198155983535,"connected_time":1989000000000,"state":"active","ping":49},{"user_id":108,"name":"c","steam_id":76561198118319408,"connected_time":909000000000,"state":"active","ping":72},{"user_id":65,"name":"‡ºò ‚ãÜÀöüéßCaffeine‚òï*Àñ¬∞","steam_id":76561199259309294,"connected_time":4017000000000,"state":"active","ping":77},{"user_id":119,"name":"CousinCarL","steam_id":76561198028421250,"connected_time":179000000000,"state":"active","ping":54},{"user_id":62,"name":"üÖúüÖîüÖîüÖöüÖ¢üÖ£üÖî\ufffd\ufffd\ufffd","steam_id":76561197999748343,"connected_time":4346000000000,"state":"active","ping":75},{"user_id":115,"name":"cody","steam_id":76561198847749278,"connected_time":693000000000,"state":"active","ping":87},{"user_id":80,"name":"King Sans","steam_id":76561198294198517,"connected_time":2331000000000,"state":"active","ping":44},{"user_id":76,"name":"ÔºîÔºê Ôº¶Ôº∞Ôº≥","steam_id":76561198272394965,"connected_time":3026000000000,"state":"active","ping":107},{"user_id":84,"name":"Dr. FeelGoose","steam_id":76561198029496191,"connected_time":2082000000000,"state":"active","ping":115},{"user_id":102,"name":"stardust","steam_id":76561198413930183,"connected_time":1144000000000,"state":"active","ping":44},{"user_id":113,"name":"xen","steam_id":76561198048568188,"connected_time":793000000000,"state":"active","ping":48},{"user_id":94,"name":"xeno","steam_id":76561198393166244,"connected_time":1554000000000,"state":"active","ping":74},{"user_id":120,"name":"NathanSomething","steam_id":76561198927509821,"connected_time":33000000000,"state":"spawning","ping":355},{"user_id":89,"name":"SIGMA GRINDSET","steam_id":76561198310993000,"connected_time":1810000000000,"state":"active","ping":117},{"user_id":111,"name":"you forgot the sauce","steam_id":76561198387016713,"connected_time":861000000000,"state":"active","ping":67},{"user_id":114,"name":"Fermenting Kiwi","steam_id":76561198253303497,"connected_time":766000000000,"state":"active","ping":91},{"user_id":92,"name":"aeiou_404","steam_id":76561199179614321,"connected_time":1661000000000,"state":"active","ping":58},{"user_id":105,"name":"TechnoNeko22","steam_id":76561198335866466,"connected_time":1052000000000,"state":"active","ping":100},{"user_id":96,"name":"quack","steam_id":76561198138783216,"connected_time":1534000000000,"state":"active","ping":66},{"user_id":118,"name":"MeatShield 2000","steam_id":76561199375192850,"connected_time":507000000000,"state":"active","ping":115}]},{"server_id":142,"name":"Uncletopia | S√£o Paulo | 1 | All Maps","name_short":"sao-1","host":"sao-1.br.uncletopia.com","port":27015,"enabled":true,"region":"sa","cc":"br","latitude":-23.533773,"longitude":-46.62529,"reserved":0,"last_update":"0001-01-01T00:00:00Z","name_a2s":"Uncletopia | S√£o Paulo | 1 | All Maps","protocol":17,"map":"koth_lakeside_final","folder":"tf","game":"Team Fortress","app_id":440,"player_count":0,"max_players":24,"Bots":0,"server_type":"Dedicated","server_os":"Linux","password":true,"vac":true,"version":"7757534","steam_id":85568392924469996,"keywords":["cp","nocrits","nodmgspread","uncletopia"],"game_id":440,"stv_port":27016,"stv_name":"Uncletopia | S√£o Paulo | 1 | All Maps | STV","players":null},{"server_id":143,"name":"Uncletopia | S√£o Paulo | 2 | All Maps","name_short":"sao-2","host":"sao-2.br.uncletopia.com","port":27015,"enabled":true,"region":"sa","cc":"br","latitude":-23.533773,"longitude":-46.62529,"reserved":0,"last_update":"0001-01-01T00:00:00Z","name_a2s":"Uncletopia | S√£o Paulo | 2 | All Maps","protocol":17,"map":"pl_pier","folder":"tf","game":"Team Fortress","app_id":440,"player_count":0,"max_players":24,"Bots":0,"server_type":"Dedicated","server_os":"Linux","password":true,"vac":true,"version":"7757534","steam_id":85568392924485349,"keywords":["nocrits","nodmgspread","payload","uncletopia"],"game_id":440,"stv_port":27016,"stv_name":"Uncletopia | S√£o Paulo | 2 | All Maps | STV","players":null},{"server_id":7,"name":"Uncletopia | Seattle | 1 | All Maps","name_short":"sea-1","host":"sea-1.us.uncletopia.com","port":27015,"enabled":true,"region":"us-west","cc":"us","latitude":47.608013,"longitude":-122.33517,"reserved":0,"last_update":"0001-01-01T00:00:00Z","name_a2s":"Uncletopia | Seattle | 1 | All Maps","protocol":17,"map":"ctf_2fort","folder":"tf","game":"Team Fortress","app_id":440,"player_count":23,"max_players":24,"Bots":0,"server_type":"Dedicated","server_os":"Linux","password":true,"vac":true,"version":"7757534","steam_id":85568392924469997,"keywords":["ctf","nocrits","nodmgspread","uncletopia"],"game_id":440,"stv_port":27016,"stv_name":"Uncletopia | Seattle | 1 | All Maps | STV","players":[{"user_id":356,"name":"vertice","steam_id":76561199117182718,"connected_time":757000000000,"state":"active","ping":75},{"user_id":355,"name":"JayBurb","steam_id":76561199119579978,"connected_time":1130000000000,"state":"active","ping":121},{"user_id":362,"name":"Cassandra (She/her)","steam_id":76561198094123940,"connected_time":43000000000,"state":"spawning","ping":119},{"user_id":316,"name":"Vic„ÉÑ","steam_id":76561198256732090,"connected_time":3620000000000,"state":"active","ping":45},{"user_id":335,"name":"ro","steam_id":76561198935253634,"connected_time":2220000000000,"state":"active","ping":81},{"user_id":330,"name":"bob gaming","steam_id":76561198163993775,"connected_time":2399000000000,"state":"active","ping":133},{"user_id":359,"name":"The Potato Romancer","steam_id":76561198204197648,"connected_time":277000000000,"state":"active","ping":89},{"user_id":354,"name":"Biggie Grug","steam_id":76561198042998887,"connected_time":1422000000000,"state":"active","ping":60},{"user_id":325,"name":"Dabidio","steam_id":76561198347107425,"connected_time":2595000000000,"state":"active","ping":55},{"user_id":205,"name":"sheep girl \u003c3","steam_id":76561198068189558,"connected_time":7696000000000,"state":"active","ping":61},{"user_id":337,"name":"AUSTRALIUM GIBUS","steam_id":76561198111890714,"connected_time":2159000000000,"state":"active","ping":80},{"user_id":353,"name":"Interrobang","steam_id":76561198385044529,"connected_time":1519000000000,"state":"active","ping":125},{"user_id":343,"name":"Expendez","steam_id":76561198049484556,"connected_time":1947000000000,"state":"active","ping":105},{"user_id":361,"name":"Superbacon24","steam_id":76561198121223443,"connected_time":188000000000,"state":"active","ping":65},{"user_id":345,"name":"Pocket","steam_id":76561198049804640,"connected_time":1910000000000,"state":"active","ping":70},{"user_id":322,"name":"Mr8bittripper","steam_id":76561198133894229,"connected_time":2953000000000,"state":"active","ping":58},{"user_id":341,"name":"Salt and Fries","steam_id":76561198102272728,"connected_time":2044000000000,"state":"active","ping":76},{"user_id":235,"name":"‚ú™ Y V E S","steam_id":76561198299479796,"connected_time":6455000000000,"state":"active","ping":75},{"user_id":315,"name":"jeremy2010.","steam_id":76561198080851298,"connected_time":3622000000000,"state":"active","ping":71},{"user_id":298,"name":"daBigBoss","steam_id":76561198120428029,"connected_time":4013000000000,"state":"active","ping":76},{"user_id":212,"name":"Lunk","steam_id":76561198083037471,"connected_time":7577000000000,"state":"active","ping":90},{"user_id":346,"name":"JayJayMed320 (She/Her)","steam_id":76561198286568264,"connected_time":1874000000000,"state":"active","ping":51},{"user_id":320,"name":"liftin'","steam_id":76561199089515791,"connected_time":3525000000000,"state":"active","ping":79}]},{"server_id":119,"name":"Uncletopia | Seattle | 2 | All Maps","name_short":"sea-2","host":"sea-1.us.uncletopia.com","port":27025,"enabled":true,"region":"us-west","cc":"us","latitude":47.608013,"longitude":-122.33517,"reserved":0,"last_update":"0001-01-01T00:00:00Z","name_a2s":"Uncletopia | Seattle | 2 | All Maps","protocol":17,"map":"cp_sunshine","folder":"tf","game":"Team Fortress","app_id":440,"player_count":24,"max_players":24,"Bots":0,"server_type":"Dedicated","server_os":"Linux","password":true,"vac":true,"version":"7757534","steam_id":85568392924469998,"keywords":["cp","nocrits","nodmgspread","uncletopia"],"game_id":440,"stv_port":27026,"stv_name":"Uncletopia | Seattle | 2 | All Maps | STV","players":[{"user_id":250,"name":"motherfucker 2.0","steam_id":76561198141189209,"connected_time":2828000000000,"state":"active","ping":95},{"user_id":246,"name":"Lesbian Futa Mommy","steam_id":76561198130479030,"connected_time":3529000000000,"state":"active","ping":59},{"user_id":234,"name":"Daddy Topps","steam_id":76561198203594332,"connected_time":4912000000000,"state":"active","ping":43},{"user_id":251,"name":"Cryonics","steam_id":76561198314197911,"connected_time":2784000000000,"state":"active","ping":109},{"user_id":262,"name":"The Dumper","steam_id":76561198147302569,"connected_time":2209000000000,"state":"active","ping":127},{"user_id":278,"name":"Sunny","steam_id":76561198052779825,"connected_time":1335000000000,"state":"active","ping":68},{"user_id":238,"name":"rustyorion","steam_id":76561198439186347,"connected_time":4318000000000,"state":"active","ping":57},{"user_id":290,"name":"chikin.sauce","steam_id":76561198042464635,"connected_time":480000000000,"state":"active","ping":111},{"user_id":286,"name":"‚ô• Milo Stefferson ‚ô• (Soupca","steam_id":76561198056269538,"connected_time":900000000000,"state":"active","ping":60},{"user_id":285,"name":"raison d'√™tre","steam_id":76561198212421513,"connected_time":995000000000,"state":"active","ping":81},{"user_id":289,"name":"costa","steam_id":76561198881144114,"connected_time":572000000000,"state":"active","ping":51},{"user_id":279,"name":"Snugglepuss","steam_id":76561198986510143,"connected_time":1268000000000,"state":"active","ping":110},{"user_id":275,"name":"pep","steam_id":76561198009276239,"connected_time":1460000000000,"state":"active","ping":62},{"user_id":280,"name":"neet","steam_id":76561197968115168,"connected_time":1250000000000,"state":"active","ping":106},{"user_id":283,"name":"Tom Foolery","steam_id":76561198142772896,"connected_time":1216000000000,"state":"active","ping":95},{"user_id":216,"name":"ROGUE-PLANET","steam_id":76561198116023052,"connected_time":5625000000000,"state":"active","ping":77},{"user_id":271,"name":"SenTreats","steam_id":76561198085835841,"connected_time":1788000000000,"state":"active","ping":99},{"user_id":292,"name":"Skabbety","steam_id":76561198168044257,"connected_time":96000000000,"state":"active","ping":42},{"user_id":276,"name":"comfycaffeine","steam_id":76561198058690096,"connected_time":1403000000000,"state":"active","ping":46},{"user_id":291,"name":"shy guy","steam_id":76561198151246059,"connected_time":479000000000,"state":"active","ping":86},{"user_id":281,"name":"Jack\u0026Coke","steam_id":76561198045199164,"connected_time":1247000000000,"state":"active","ping":46},{"user_id":189,"name":"Wacks","steam_id":76561198079476100,"connected_time":8159000000000,"state":"active","ping":72},{"user_id":288,"name":"The Pepsi¬Æ Superbowl¬Æ!","steam_id":76561198080828981,"connected_time":746000000000,"state":"active","ping":78},{"user_id":282,"name":"Erick","steam_id":76561198176406475,"connected_time":1221000000000,"state":"active","ping":113}]},{"server_id":406,"name":"Uncletopia | Seattle | 3 | Stopwatch Beta","name_short":"sea-3","host":"sea-1.us.uncletopia.com","port":27035,"enabled":true,"region":"us-west","cc":"us","latitude":47.608013,"longitude":-122.33517,"reserved":0,"last_update":"0001-01-01T00:00:00Z","name_a2s":"Uncletopia | Seattle | 3 | Stopwatch Beta","protocol":17,"map":"cp_dustbowl","folder":"tf","game":"Team Fortress","app_id":440,"player_count":0,"max_players":24,"Bots":0,"server_type":"Dedicated","server_os":"Linux","password":true,"vac":true,"version":"7757534","steam_id":85568392924515217,"keywords":["cp","nocrits","nodmgspread","uncletopia"],"game_id":440,"stv_port":27036,"stv_name":"Uncletopia | Seattle | 3 | Stopwatch Beta | STV","players":null},{"server_id":17,"name":"Uncletopia | San Francisco | 1 | All Maps","name_short":"sfo-1","host":"sfo-1.us.uncletopia.com","port":27015,"enabled":true,"region":"us-west","cc":"us","latitude":37.77397,"longitude":-122.4313,"reserved":0,"last_update":"0001-01-01T00:00:00Z","name_a2s":"Uncletopia | San Francisco | 1 | All Maps","protocol":17,"map":"cp_process_final","folder":"tf","game":"Team Fortress","app_id":440,"player_count":0,"max_players":24,"Bots":0,"server_type":"Dedicated","server_os":"Linux","password":true,"vac":true,"version":"7757534","steam_id":85568392924469999,"keywords":["cp","nocrits","nodmgspread","uncletopia"],"game_id":440,"stv_port":27016,"stv_name":"Uncletopia | San Francisco | 1 | All Maps | STV","players":null},{"server_id":18,"name":"Uncletopia | San Francisco | 2 | All Maps","name_short":"sfo-2","host":"sfo-1.us.uncletopia.com","port":27025,"enabled":true,"region":"us-west","cc":"us","latitude":37.77397,"longitude":-122.4313,"reserved":0,"last_update":"0001-01-01T00:00:00Z","name_a2s":"Uncletopia | San Francisco | 2 | All Maps","protocol":17,"map":"koth_highpass","folder":"tf","game":"Team Fortress","app_id":440,"player_count":0,"max_players":24,"Bots":0,"server_type":"Dedicated","server_os":"Linux","password":true,"vac":true,"version":"7757534","steam_id":85568392924470000,"keywords":["cp","nocrits","nodmgspread","uncletopia"],"game_id":440,"stv_port":27026,"stv_name":"Uncletopia | San Francisco | 2 | All Maps | STV","players":null},{"server_id":19,"name":"Uncletopia | San Francisco | 3 | Stopwatch Beta","name_short":"sfo-3","host":"sfo-1.us.uncletopia.com","port":27035,"enabled":true,"region":"us-west","cc":"us","latitude":37.77397,"longitude":-122.4313,"reserved":0,"last_update":"0001-01-01T00:00:00Z","name_a2s":"Uncletopia | San Francisco | 3 | Stopwatch Beta","protocol":17,"map":"koth_highpass","folder":"tf","game":"Team Fortress","app_id":440,"player_count":0,"max_players":24,"Bots":0,"server_type":"Dedicated","server_os":"Linux","password":true,"vac":true,"version":"7757534","steam_id":85568392924742824,"keywords":["cp","nocrits","nodmgspread","uncletopia"],"game_id":440,"stv_port":27036,"stv_name":"Uncletopia | San Francisco | 3 | Stopwatch Beta | STV","players":null},{"server_id":20,"name":"Uncletopia | San Francisco | 4 | Community","name_short":"sfo-4","host":"sfo-1.us.uncletopia.com","port":27045,"enabled":true,"region":"us-west","cc":"us","latitude":37.77397,"longitude":-122.4313,"reserved":0,"last_update":"0001-01-01T00:00:00Z","name_a2s":"Uncletopia | San Francisco | 4 | Community","protocol":17,"map":"cp_altitude","folder":"tf","game":"Team Fortress","app_id":440,"player_count":0,"max_players":24,"Bots":0,"server_type":"Dedicated","server_os":"Linux","password":true,"vac":true,"version":"7757534","steam_id":85568392924742826,"keywords":["cp","nocrits","nodmgspread","uncletopia"],"game_id":440,"stv_port":27046,"stv_name":"Uncletopia | San Francisco | 4 | Community | STV","players":null},{"server_id":141,"name":"Uncletopia | Sydney | 1 | All Maps","name_short":"syd-1","host":"syd-1.au.uncletopia.com","port":27015,"enabled":true,"region":"au","cc":"au","latitude":-33.865143,"longitude":151.2099,"reserved":0,"last_update":"0001-01-01T00:00:00Z","name_a2s":"Uncletopia | Sydney | 1 | All Maps","protocol":17,"map":"koth_viaduct","folder":"tf","game":"Team Fortress","app_id":440,"player_count":0,"max_players":24,"Bots":0,"server_type":"Dedicated","server_os":"Linux","password":true,"vac":true,"version":"7757534","steam_id":85568392924470001,"keywords":["cp","nocrits","nodmgspread","uncletopia"],"game_id":440,"stv_port":27016,"stv_name":"Uncletopia | Sydney | 1 | All Maps | STV","players":null},{"server_id":123,"name":"Uncletopia | Sydney | 2 | All Maps","name_short":"syd-2","host":"syd-1.au.uncletopia.com","port":27025,"enabled":true,"region":"au","cc":"au","latitude":-33.865143,"longitude":151.2099,"reserved":0,"last_update":"0001-01-01T00:00:00Z","name_a2s":"Uncletopia | Sydney | 2 | All Maps","protocol":17,"map":"cp_process_final","folder":"tf","game":"Team Fortress","app_id":440,"player_count":0,"max_players":24,"Bots":0,"server_type":"Dedicated","server_os":"Linux","password":true,"vac":true,"version":"7757534","steam_id":85568392924470002,"keywords":["cp","nocrits","nodmgspread","uncletopia"],"game_id":440,"stv_port":27026,"stv_name":"Uncletopia | Sydney | 2 | All Maps | STV","players":null},{"server_id":395,"name":"Uncletopia | Sydney | 3 | All Maps","name_short":"syd-3","host":"syd-1.au.uncletopia.com","port":27035,"enabled":true,"region":"au","cc":"au","latitude":-33.865143,"longitude":151.2099,"reserved":0,"last_update":"0001-01-01T00:00:00Z","name_a2s":"Uncletopia | Sydney | 3 | All Maps","protocol":17,"map":"pl_swiftwater_final1","folder":"tf","game":"Team Fortress","app_id":440,"player_count":0,"max_players":24,"Bots":0,"server_type":"Dedicated","server_os":"Linux","password":true,"vac":true,"version":"7757534","steam_id":85568392925194467,"keywords":["nocrits","nodmgspread","payload","uncletopia"],"game_id":440,"stv_port":27036,"stv_name":"Uncletopia | Sydney | 3 | All Maps | STV","players":null},{"server_id":396,"name":"Uncletopia | Sydney | 4 | All Maps","name_short":"syd-4","host":"syd-1.au.uncletopia.com","port":27045,"enabled":true,"region":"au","cc":"au","latitude":-33.865143,"longitude":151.2099,"reserved":0,"last_update":"0001-01-01T00:00:00Z","name_a2s":"Uncletopia | Sydney | 4 | All Maps","protocol":17,"map":"koth_highpass","folder":"tf","game":"Team Fortress","app_id":440,"player_count":0,"max_players":24,"Bots":0,"server_type":"Dedicated","server_os":"Linux","password":true,"vac":true,"version":"7757534","steam_id":85568392925397958,"keywords":["cp","nocrits","nodmgspread","uncletopia"],"game_id":440,"stv_port":27046,"stv_name":"Uncletopia | Sydney | 4 | All Maps | STV","players":null},{"server_id":58,"name":"Uncletopia | Sydney | 5 | Stopwatch Beta","name_short":"syd-5","host":"syd-1.au.uncletopia.com","port":27055,"enabled":true,"region":"au","cc":"au","latitude":-33.865143,"longitude":151.2099,"reserved":0,"last_update":"0001-01-01T00:00:00Z","name_a2s":"Uncletopia | Sydney | 5 | Stopwatch Beta","protocol":17,"map":"koth_cascade","folder":"tf","game":"Team Fortress","app_id":440,"player_count":0,"max_players":24,"Bots":0,"server_type":"Dedicated","server_os":"Linux","password":true,"vac":true,"version":"7757534","steam_id":85568392925397959,"keywords":["cp","nocrits","nodmgspread","uncletopia"],"game_id":440,"stv_port":27056,"stv_name":"Uncletopia | Sydney | 5 | Stopwatch Beta | STV","players":null},{"server_id":59,"name":"Uncletopia | Sydney | 6 | Community","name_short":"syd-6","host":"syd-1.au.uncletopia.com","port":27065,"enabled":true,"region":"au","cc":"au","latitude":-33.865143,"longitude":151.2099,"reserved":0,"last_update":"0001-01-01T00:00:00Z","name_a2s":"Uncletopia | Sydney | 6 | Community","protocol":17,"map":"cp_snakewater_final1","folder":"tf","game":"Team Fortress","app_id":440,"player_count":0,"max_players":24,"Bots":0,"server_type":"Dedicated","server_os":"Linux","password":true,"vac":true,"version":"7757534","steam_id":85568392925397960,"keywords":["cp","nocrits","nodmgspread","uncletopia"],"game_id":440,"stv_port":27066,"stv_name":"Uncletopia | Sydney | 6 | Community | STV","players":null},{"server_id":49,"name":"Uncletopia | Warsaw | 1 | All Maps","name_short":"waw-1","host":"waw-1.pl.uncletopia.com","port":27015,"enabled":true,"region":"eu","cc":"pl","latitude":52.2297,"longitude":21.017532,"reserved":0,"last_update":"0001-01-01T00:00:00Z","name_a2s":"","protocol":0,"map":"","folder":"","game":"","app_id":0,"player_count":0,"max_players":0,"Bots":0,"server_type":"","server_os":"","password":false,"vac":false,"version":"","steam_id":0,"keywords":null,"game_id":0,"stv_port":0,"stv_name":"","players":null},{"server_id":50,"name":"Uncletopia | Warsaw | 2 | All Maps","name_short":"waw-2","host":"waw-1.pl.uncletopia.com","port":27025,"enabled":true,"region":"eu","cc":"pl","latitude":52.2297,"longitude":21.017532,"reserved":0,"last_update":"0001-01-01T00:00:00Z","name_a2s":"Uncletopia | Warsaw | 2 | All Maps","protocol":17,"map":"koth_viaduct","folder":"tf","game":"Team Fortress","app_id":440,"player_count":0,"max_players":24,"Bots":0,"server_type":"Dedicated","server_os":"Linux","password":true,"vac":true,"version":"7757534","steam_id":85568392925397851,"keywords":["cp","nocrits","nodmgspread","uncletopia"],"game_id":440,"stv_port":27026,"stv_name":"Uncletopia | Warsaw | 2 | All Maps | STV","players":null},{"server_id":51,"name":"Uncletopia | Warsaw | 3 | All Maps","name_short":"waw-3","host":"waw-1.pl.uncletopia.com","port":27035,"enabled":true,"region":"eu","cc":"pl","latitude":52.2297,"longitude":21.017532,"reserved":0,"last_update":"0001-01-01T00:00:00Z","name_a2s":"Uncletopia | Warsaw | 3 | All Maps","protocol":17,"map":"cp_altitude","folder":"tf","game":"Team Fortress","app_id":440,"player_count":0,"max_players":24,"Bots":0,"server_type":"Dedicated","server_os":"Linux","password":true,"vac":true,"version":"7757534","steam_id":85568392925397852,"keywords":["cp","nocrits","nodmgspread","uncletopia"],"game_id":440,"stv_port":27036,"stv_name":"Uncletopia | Warsaw | 3 | All Maps | STV","players":null},{"server_id":52,"name":"Uncletopia | Warsaw | 4 | All Maps","name_short":"waw-4","host":"waw-1.pl.uncletopia.com","port":27045,"enabled":true,"region":"eu","cc":"pl","latitude":52.2297,"longitude":21.017532,"reserved":0,"last_update":"0001-01-01T00:00:00Z","name_a2s":"Uncletopia | Warsaw | 4 | All Maps","protocol":17,"map":"cp_snakewater_final1","folder":"tf","game":"Team Fortress","app_id":440,"player_count":0,"max_players":24,"Bots":0,"server_type":"Dedicated","server_os":"Linux","password":true,"vac":true,"version":"7757534","steam_id":85568392925397853,"keywords":["cp","nocrits","nodmgspread","uncletopia"],"game_id":440,"stv_port":27046,"stv_name":"Uncletopia | Warsaw | 4 | All Maps | STV","players":null},{"server_id":53,"name":"Uncletopia | Warsaw | 5 | Stopwatch Beta","name_short":"waw-5","host":"waw-1.pl.uncletopia.com","port":27055,"enabled":true,"region":"eu","cc":"pl","latitude":52.2297,"longitude":21.017532,"reserved":0,"last_update":"0001-01-01T00:00:00Z","name_a2s":"Uncletopia | Warsaw | 5 | Stopwatch Beta","protocol":17,"map":"workshop/pl_vigil_rc9.ugc1266210012","folder":"tf","game":"Team Fortress","app_id":440,"player_count":0,"max_players":24,"Bots":0,"server_type":"Dedicated","server_os":"Linux","password":true,"vac":true,"version":"7757534","steam_id":85568392925397854,"keywords":["nocrits","nodmgspread","payload","uncletopia"],"game_id":440,"stv_port":27056,"stv_name":"Uncletopia | Warsaw | 5 | Stopwatch Beta | STV","players":null},{"server_id":54,"name":"Uncletopia | Warsaw | 6 | Community","name_short":"waw-6","host":"waw-1.pl.uncletopia.com","port":27065,"enabled":true,"region":"eu","cc":"pl","latitude":52.2297,"longitude":21.017532,"reserved":0,"last_update":"0001-01-01T00:00:00Z","name_a2s":"Uncletopia | Warsaw | 6 | Community","protocol":17,"map":"koth_lakeside_final","folder":"tf","game":"Team Fortress","app_id":440,"player_count":0,"max_players":24,"Bots":0,"server_type":"Dedicated","server_os":"Linux","password":true,"vac":true,"version":"7757534","steam_id":85568392925397856,"keywords":["cp","nocrits","nodmgspread","uncletopia"],"game_id":440,"stv_port":27066,"stv_name":"Uncletopia | Warsaw | 6 | Community | STV","players":null}]}