{"status":true,"message":"","result":[{"server_id":9,"name":"Uncletopia | Atlanta | 1 | All Maps","name_short":"atl-1","host":"atl-1.us.uncletopia.com","port":27015,"enabled":true,"region":"us-east","cc":"us","latitude":33.753746,"longitude":-84.38633,"reserved":0,"last_update":"0001-01-01T00:00:00Z","name_a2s":"Uncletopia | Atlanta | 1 | All Maps","protocol":17,"map":"cp_mercenarypark","folder":"tf","game":"Team Fortress","app_id":440,"player_count":25,"max_players":24,"Bots":0,"server_type":"Dedicated","server_os":"Linux","password":true,"vac":true,"version":"7882260","steam_id":85568392924469982,"keywords":["cp","nocrits","nodmgspread","uncletopia"],"game_id":440,"stv_port":27016,"stv_name":"Uncletopia | Atlanta | 1 | All Maps | STV","players":[{"user_id":237,"name":"Mr. Pink","steam_id":76561198065858172,"connected_time":1272000000000,"state":"active","ping":62},{"user_id":230,"name":"Degree","steam_id":76561198059812393,"connected_time":1566000000000,"state":"active","ping":76},{"user_id":206,"name":"tasty","steam_id":76561198083839061,"connected_time":2972000000000,"state":"active","ping":73},{"user_id":200,"name":"Magma","steam_id":76561198108261173,"connected_time":3709000000000,"state":"active","ping":67},{"user_id":248,"name":"catfish from toontown","steam_id":76561198060070002,"connected_time":383000000000,"state":"active","ping":89},{"user_id":56,"name":"William Wallace","steam_id":76561199343316814,"connected_time":13478000000000,"state":"active","ping":61},{"user_id":246,"name":"scrapheap","steam_id":76561198202407087,"connected_time":499000000000,"state":"active","ping":94},{"user_id":223,"name":"bmg #killtf2","steam_id":76561198328578605,"connected_time":2423000000000,"state":"active","ping":45},{"user_id":154,"name":"DrBenjas","steam_id":76561198345883103,"connected_time":6933000000000,"state":"active","ping":87},{"user_id":228,"name":"TwizzstedLlama","steam_id":76561198054021548,"connected_time":1602000000000,"state":"active","ping":70},{"user_id":249,"name":"Galaxy_42","steam_id":76561198845514831,"connected_time":6000000000,"state":"spawning","ping":29},{"user_id":244,"name":"wolf from rust TF2EASY.COM","steam_id":76561198172732375,"connected_time":570000000000,"state":"active","ping":82},{"user_id":207,"name":"Smug Pug","steam_id":76561198059423334,"connected_time":2932000000000,"state":"active","ping":66},{"user_id":241,"name":"i love tummy!!!","steam_id":76561198319992602,"connected_time":650000000000,"state":"active","ping":74},{"user_id":240,"name":"TurnupDig75","steam_id":76561198852375121,"connected_time":854000000000,"state":"active","ping":89},{"user_id":215,"name":"Cursed Dog","steam_id":76561198090785078,"connected_time":2725000000000,"state":"active","ping":93},{"user_id":209,"name":"Awenova","steam_id":76561198322928940,"connected_time":2872000000000,"state":"active","ping":78},{"user_id":231,"name":"alchemist","steam_id":76561198042595246,"connected_time":1532000000000,"state":"active","ping":60},{"user_id":229,"name":"sunny","steam_id":76561198069380992,"connected_time":1587000000000,"state":"active","ping":70},{"user_id":225,"name":"ThatOnePlagueDoc","steam_id":76561199176804090,"connected_time":2254000000000,"state":"active","ping":67},{"user_id":247,"name":"pool shark","steam_id":76561198130191179,"connected_time":409000000000,"state":"active","ping":102},{"user_id":233,"name":"Bean Adjecant","steam_id":76561198039188307,"connected_time":1516000000000,"state":"active","ping":90},{"user_id":250,"name":"thomasdee725!!!","steam_id":76561199189526173,"connected_time":6000000000,"state":"spawning","ping":118},{"user_id":198,"name":"jimmyfnaf172198yay","steam_id":76561198311446636,"connected_time":3970000000000,"state":"active","ping":78},{"user_id":234,"name":"sssaturn","steam_id":76561198118761367,"connected_time":1508000000000,"state":"active","ping":51}]},{"server_id":104,"name":"Uncletopia | Atlanta | 2 | All Maps","name_short":"atl-2","host":"atl-1.us.uncletopia.com","port":27025,"enabled":true,"region":"us-east","cc":"us","latitude":33.753746,"longitude":-84.38633,"reserved":0,"last_update":"0001-01-01T00:00:00Z","name_a2s":"Uncletopia | Atlanta | 2 | All Maps","protocol":17,"map":"pl_badwater","folder":"tf","game":"Team Fortress","app_id":440,"player_count":24,"max_players":24,"Bots":0,"server_type":"Dedicated","server_os":"Linux","password":true,"vac":true,"version":"7882260","steam_id":85568392924469983,"keywords":["nocrits","nodmgspread","payload","uncletopia"],"game_id":440,"stv_port":27026,"stv_name":"Uncletopia | Atlanta | 2 | All Maps | STV","players":[{"user_id":64,"name":"Rickle Pick","steam_id":76561198055226070,"connected_time":873000000000,"state":"connecting","ping":61},{"user_id":81,"name":"sock","steam_id":76561199117597830,"connected_time":275000000000,"state":"connecting","ping":42},{"user_id":42,"name":"Noahthecrazy1","steam_id":76561199152995909,"connected_time":2249000000000,"state":"connecting","ping":88},{"user_id":72,"name":"Nukeboy","steam_id":76561198291998703,"connected_time":535000000000,"state":"connecting","ping":111},{"user_id":74,"name":"Alan","steam_id":76561198977083959,"connected_time":392000000000,"state":"connecting","ping":139},{"user_id":88,"name":"chiswola","steam_id":76561198046920142,"connected_time":135000000000,"state":"connecting","ping":99},{"user_id":55,"name":"idk100987","steam_id":76561199447977988,"connected_time":1422000000000,"state":"connecting","ping":145},{"user_id":86,"name":"KeyMaster28150","steam_id":76561199482024428,"connected_time":169000000000,"state":"connecting","ping":108},{"user_id":23,"name":"GoofyAhGamingGuy","steam_id":76561199331315881,"connected_time":2770000000000,"state":"connecting","ping":106},{"user_id":69,"name":"the silly","steam_id":76561198850632709,"connected_time":656000000000,"state":"connecting","ping":65},{"user_id":76,"name":"Jesse Bear","steam_id":76561198217075305,"connected_time":349000000000,"state":"connecting","ping":98},{"user_id":61,"name":"Sup m8","steam_id":76561198081659121,"connected_time":1013000000000,"state":"connecting","ping":62},{"user_id":77,"name":"The Cool Man","steam_id":76561198096420556,"connected_time":331000000000,"state":"connecting","ping":107},{"user_id":51,"name":"Spooky Android","steam_id":76561198101671207,"connected_time":1563000000000,"state":"connecting","ping":77},{"user_id":79,"name":"TheDuckEgg","steam_id":76561199152008153,"connected_time":296000000000,"state":"connecting","ping":128},{"user_id":80,"name":"Angry Ginger","steam_id":76561198256929349,"connected_time":288000000000,"state":"connecting","ping":95},{"user_id":52,"name":"Ba-Zing-Ga","steam_id":76561198323260286,"connected_time":1511000000000,"state":"connecting","ping":94},{"user_id":87,"name":"rican312","steam_id":76561198841770570,"connected_time":168000000000,"state":"connecting","ping":103},{"user_id":66,"name":"McSmitten","steam_id":76561198022358379,"connected_time":795000000000,"state":"connecting","ping":72},{"user_id":89,"name":"Bee","steam_id":76561198074681324,"connected_time":39000000000,"state":"connecting","ping":75},{"user_id":70,"name":"chamber","steam_id":76561198165283913,"connected_time":624000000000,"state":"connecting","ping":110},{"user_id":84,"name":"aleksei","steam_id":76561199061380038,"connected_time":255000000000,"state":"connecting","ping":57},{"user_id":57,"name":"Oopsie Daisy ‚ùã","steam_id":76561198042144492,"connected_time":1358000000000,"state":"connecting","ping":56},{"user_id":85,"name":"Smiles","steam_id":76561198107197973,"connected_time":254000000000,"state":"connecting","ping":91}]},{"server_id":400,"name":"Uncletopia | Atlanta | 3 | Community","name_short":"atl-3","host":"atl-1.us.uncletopia.com","port":27035,"enabled":true,"region":"us-east","cc":"us","latitude":33.753746,"longitude":-84.38633,"reserved":0,"last_update":"0001-01-01T00:00:00Z","name_a2s":"Uncletopia | Atlanta | 3 | Community","protocol":17,"map":"workshop/pl_corrode_rc2.ugc546577989","folder":"tf","game":"Team Fortress","app_id":440,"player_count":0,"max_players":24,"Bots":0,"server_type":"Dedicated","server_os":"Linux","password":true,"vac":true,"version":"7882260","steam_id":85568392924515187,"keywords":["nocrits","nodmgspread","payload","uncletopia"],"game_id":440,"stv_port":27036,"stv_name":"Uncletopia | Atlanta | 3 | Community | STV","players":null},{"server_id":401,"name":"Uncletopia | Atlanta | 4 | No Payload","name_short":"atl-4","host":"atl-1.us.uncletopia.com","port":27045,"enabled":true,"region":"us-east","cc":"us","latitude":33.753746,"longitude":-84.38633,"reserved":0,"last_update":"0001-01-01T00:00:00Z","name_a2s":"","protocol":0,"map":"","folder":"","game":"","app_id":0,"player_count":0,"max_players":0,"Bots":0,"server_type":"","server_os":"","password":false,"vac":false,"version":"","steam_id":0,"keywords":null,"game_id":0,"stv_port":0,"stv_name":"","players":null},{"server_id":2,"name":"Uncletopia | Chicago | 1 | All Maps","name_short":"chi-1","host":"chi-1.us.uncletopia.com","port":27015,"enabled":true,"region":"us-central","cc":"us","latitude":41.881832,"longitude":-87.62318,"reserved":0,"last_update":"0001-01-01T00:00:00Z","name_a2s":"Uncletopia | Chicago | 1 | All Maps","protocol":17,"map":"cp_gorge","folder":"tf","game":"Team Fortress","app_id":440,"player_count":24,"max_players":24,"Bots":0,"server_type":"Dedicated","server_os":"Linux","password":true,"vac":true,"version":"7882260","steam_id":85568392924469984,"keywords":["cp","nocrits","nodmgspread","uncletopia"],"game_id":440,"stv_port":27016,"stv_name":"Uncletopia | Chicago | 1 | All Maps | STV","players":[{"user_id":439,"name":"badasscoolboy57","steam_id":76561198795412055,"connected_time":934000000000,"state":"active","ping":77},{"user_id":435,"name":"Tyco","steam_id":76561197978414167,"connected_time":1123000000000,"state":"active","ping":72},{"user_id":419,"name":"Notsocreative","steam_id":76561198236372202,"connected_time":1976000000000,"state":"active","ping":76},{"user_id":397,"name":"t.tv/ibbKitty‚àë:3","steam_id":76561198110858518,"connected_time":3601000000000,"state":"active","ping":60},{"user_id":443,"name":"that's showbiz, baybee","steam_id":76561197998258233,"connected_time":638000000000,"state":"active","ping":76},{"user_id":432,"name":"Ninja Steave","steam_id":76561197985884951,"connected_time":1356000000000,"state":"active","ping":62},{"user_id":431,"name":"boy from the rafters","steam_id":76561198042926224,"connected_time":1365000000000,"state":"active","ping":85},{"user_id":415,"name":"Owen","steam_id":76561198025446908,"connected_time":1993000000000,"state":"active","ping":63},{"user_id":423,"name":"friendly bird","steam_id":76561199091130683,"connected_time":1956000000000,"state":"active","ping":87},{"user_id":442,"name":"Doubting Dave","steam_id":76561198066410749,"connected_time":678000000000,"state":"active","ping":73},{"user_id":355,"name":"Famelegion","steam_id":76561198958341424,"connected_time":6064000000000,"state":"active","ping":89},{"user_id":437,"name":"Blackbird","steam_id":76561198127818333,"connected_time":1065000000000,"state":"active","ping":60},{"user_id":429,"name":"Ta5K","steam_id":76561198939558155,"connected_time":1544000000000,"state":"active","ping":43},{"user_id":447,"name":"Young Sanity","steam_id":76561198395766307,"connected_time":176000000000,"state":"active","ping":44},{"user_id":400,"name":"Zoot","steam_id":76561198121944243,"connected_time":3593000000000,"state":"active","ping":77},{"user_id":385,"name":"chen","steam_id":76561198064872330,"connected_time":4802000000000,"state":"active","ping":87},{"user_id":445,"name":"AkimboAoki","steam_id":76561198158323058,"connected_time":270000000000,"state":"active","ping":90},{"user_id":416,"name":"blob","steam_id":76561198122375328,"connected_time":1992000000000,"state":"active","ping":58},{"user_id":363,"name":"I'm practicing pyro","steam_id":76561198207987376,"connected_time":5667000000000,"state":"active","ping":50},{"user_id":438,"name":"StonedGiant","steam_id":76561197984386932,"connected_time":992000000000,"state":"active","ping":62},{"user_id":441,"name":"PooSmoker","steam_id":76561198254312303,"connected_time":895000000000,"state":"active","ping":88},{"user_id":448,"name":"Peazy","steam_id":76561198168365864,"connected_time":133000000000,"state":"active","ping":89},{"user_id":421,"name":"strctfsh","steam_id":76561198083619784,"connected_time":1966000000000,"state":"active","ping":45},{"user_id":446,"name":"asbestos","steam_id":76561198079178866,"connected_time":198000000000,"state":"active","ping":64}]},{"server_id":106,"name":"Uncletopia | Chicago | 2 | All Maps","name_short":"chi-2","host":"chi-1.us.uncletopia.com","port":27025,"enabled":true,"region":"us-central","cc":"us","latitude":41.881832,"longitude":-87.62318,"reserved":0,"last_update":"0001-01-01T00:00:00Z","name_a2s":"Uncletopia | Chicago | 2 | All Maps","protocol":17,"map":"koth_viaduct","folder":"tf","game":"Team Fortress","app_id":440,"player_count":0,"max_players":24,"Bots":0,"server_type":"Dedicated","server_os":"Linux","password":true,"vac":true,"version":"7882260","steam_id":85568392924469985,"keywords":["cp","nocrits","nodmgspread","uncletopia"],"game_id":440,"stv_port":27026,"stv_name":"Uncletopia | Chicago | 2 | All Maps | STV","players":null},{"server_id":402,"name":"Uncletopia | Chicago | 3 | All Maps","name_short":"chi-3","host":"chi-1.us.uncletopia.com","port":27035,"enabled":true,"region":"us-central","cc":"us","latitude":41.881832,"longitude":-87.62318,"reserved":0,"last_update":"0001-01-01T00:00:00Z","name_a2s":"Uncletopia | Chicago | 3 | All Maps","protocol":17,"map":"pl_swiftwater_final1","folder":"tf","game":"Team Fortress","app_id":440,"player_count":24,"max_players":24,"Bots":0,"server_type":"Dedicated","server_os":"Linux","password":true,"vac":true,"version":"7882260","steam_id":85568392924515191,"keywords":["nocrits","nodmgspread","payload","uncletopia"],"game_id":440,"stv_port":27036,"stv_name":"Uncletopia | Chicago | 3 | All Maps | STV","players":[{"user_id":112,"name":"Auto_Correct","steam_id":76561198254988078,"connected_time":6612000000000,"state":"active","ping":82},{"user_id":169,"name":"GooniOoni","steam_id":76561198102154561,"connected_time":908000000000,"state":"active","ping":37},{"user_id":167,"name":"Fobby #Savetf2","steam_id":76561198047681469,"connected_time":1365000000000,"state":"active","ping":74},{"user_id":158,"name":"Jacklackz (fumo fan)","steam_id":76561199120063501,"connected_time":2021000000000,"state":"active","ping":74},{"user_id":159,"name":"Mr Bit","steam_id":76561198406074422,"connected_time":1931000000000,"state":"active","ping":66},{"user_id":182,"name":"hollybranches","steam_id":76561198251700328,"connected_time":11000000000,"state":"spawning","ping":69},{"user_id":170,"name":"Coconut Gun","steam_id":76561198017331048,"connected_time":875000000000,"state":"active","ping":59},{"user_id":152,"name":"TheLonliestThelonius","steam_id":76561198097657243,"connected_time":2578000000000,"state":"active","ping":79},{"user_id":135,"name":"TheSquirrelofHuscurl","steam_id":76561198073379623,"connected_time":4229000000000,"state":"active","ping":90},{"user_id":100,"name":"TheGhostThatWas","steam_id":76561198055836483,"connected_time":7332000000000,"state":"active","ping":60},{"user_id":168,"name":"Mega","steam_id":76561198121258379,"connected_time":1249000000000,"state":"active","ping":78},{"user_id":164,"name":"Temujin","steam_id":76561198030936583,"connected_time":1630000000000,"state":"active","ping":57},{"user_id":175,"name":"SnazzyCelestial","steam_id":76561198328763813,"connected_time":658000000000,"state":"active","ping":81},{"user_id":173,"name":"Shady Businessman","steam_id":76561198143855968,"connected_time":700000000000,"state":"active","ping":91},{"user_id":138,"name":"Vibey","steam_id":76561198342873474,"connected_time":4003000000000,"state":"active","ping":71},{"user_id":137,"name":"Mr.Bady","steam_id":76561199094651706,"connected_time":4036000000000,"state":"active","ping":67},{"user_id":180,"name":"Cosmic Torgue","steam_id":76561198828724945,"connected_time":195000000000,"state":"active","ping":84},{"user_id":174,"name":"nikeshoe92","steam_id":76561197973093864,"connected_time":687000000000,"state":"active","ping":68},{"user_id":177,"name":"Jarqueelius","steam_id":76561199076397545,"connected_time":507000000000,"state":"active","ping":66},{"user_id":115,"name":"Bomberman6868","steam_id":76561198101086506,"connected_time":6322000000000,"state":"active","ping":46},{"user_id":155,"name":"Owl Pacino","steam_id":76561197979970666,"connected_time":2133000000000,"state":"active","ping":57},{"user_id":171,"name":"Mr. Sauce","steam_id":76561198055512324,"connected_time":840000000000,"state":"active","ping":67},{"user_id":146,"name":"help I'm on controller","steam_id":76561198159579919,"connected_time":3581000000000,"state":"active","ping":66},{"user_id":156,"name":"Bandee","steam_id":76561198974233692,"connected_time":2118000000000,"state":"active","ping":79}]},{"server_id":403,"name":"Uncletopia | Chicago | 4 | All Maps","name_short":"chi-4","host":"chi-1.us.uncletopia.com","port":27045,"enabled":true,"region":"us-central","cc":"us","latitude":41.881832,"longitude":-87.62318,"reserved":0,"last_update":"0001-01-01T00:00:00Z","name_a2s":"Uncletopia | Chicago | 4 | All Maps","protocol":17,"map":"pl_upward","folder":"tf","game":"Team Fortress","app_id":440,"player_count":24,"max_players":24,"Bots":0,"server_type":"Dedicated","server_os":"Linux","password":true,"vac":true,"version":"7882260","steam_id":85568392924515193,"keywords":["nocrits","nodmgspread","payload","uncletopia"],"game_id":440,"stv_port":27046,"stv_name":"Uncletopia | Chicago | 4 | All Maps | STV","players":[{"user_id":330,"name":"Masotan","steam_id":76561199047187302,"connected_time":30000000000,"state":"spawning","ping":52},{"user_id":317,"name":"reis","steam_id":76561199232952016,"connected_time":576000000000,"state":"active","ping":179},{"user_id":281,"name":"lilly\u003c33","steam_id":76561198975373601,"connected_time":2995000000000,"state":"active","ping":68},{"user_id":308,"name":"Rein [‚áÑ]","steam_id":76561198300340427,"connected_time":937000000000,"state":"active","ping":62},{"user_id":318,"name":"bean goblin #savetf2","steam_id":76561199185148234,"connected_time":572000000000,"state":"active","ping":133},{"user_id":316,"name":"jumbi","steam_id":76561198353456379,"connected_time":649000000000,"state":"active","ping":67},{"user_id":227,"name":"Hindmost","steam_id":76561199081837220,"connected_time":6904000000000,"state":"active","ping":81},{"user_id":314,"name":"An Axe Man With An Axe Plan","steam_id":76561199031265293,"connected_time":758000000000,"state":"active","ping":70},{"user_id":328,"name":"‚õ•zen‚õ•","steam_id":76561199098746585,"connected_time":268000000000,"state":"active","ping":52},{"user_id":291,"name":"Drachma","steam_id":76561198007310514,"connected_time":2660000000000,"state":"active","ping":72},{"user_id":327,"name":"R√∂ntgen","steam_id":76561197993492325,"connected_time":424000000000,"state":"active","ping":96},{"user_id":329,"name":"d-_-b","steam_id":76561198120725877,"connected_time":57000000000,"state":"active","ping":46},{"user_id":301,"name":"J21","steam_id":76561198066590783,"connected_time":2058000000000,"state":"active","ping":75},{"user_id":302,"name":"Tortellini","steam_id":76561198211521176,"connected_time":2001000000000,"state":"active","ping":64},{"user_id":321,"name":"DJ Taj Mahal","steam_id":76561198024504491,"connected_time":494000000000,"state":"active","ping":43},{"user_id":326,"name":"Elevator","steam_id":76561198974286387,"connected_time":461000000000,"state":"active","ping":71},{"user_id":322,"name":"BugsAreMyWorstEnemy","steam_id":76561199440395505,"connected_time":491000000000,"state":"active","ping":421},{"user_id":323,"name":"iSaH","steam_id":76561198305136202,"connected_time":484000000000,"state":"active","ping":114},{"user_id":324,"name":"Ex-PFC Wintergreen","steam_id":76561198203851303,"connected_time":481000000000,"state":"active","ping":80},{"user_id":266,"name":"max","steam_id":76561198953695435,"connected_time":4499000000000,"state":"active","ping":76},{"user_id":325,"name":"parmesan","steam_id":76561198118304061,"connected_time":473000000000,"state":"active","ping":100},{"user_id":304,"name":"ILL EAGLE","steam_id":76561198048157121,"connected_time":1938000000000,"state":"active","ping":87},{"user_id":287,"name":"Mediziner's prodigy","steam_id":76561198329034706,"connected_time":2898000000000,"state":"active","ping":66},{"user_id":229,"name":"Trippy","steam_id":76561199090730294,"connected_time":6864000000000,"state":"active","ping":66}]},{"server_id":36,"name":"Uncletopia | Chicago | 5 | All Maps","name_short":"chi-5","host":"chi-2.us.uncletopia.com","port":27015,"enabled":true,"region":"us-central","cc":"us","latitude":41.881832,"longitude":-87.62318,"reserved":0,"last_update":"0001-01-01T00:00:00Z","name_a2s":"Uncletopia | Chicago | 5 | All Maps","protocol":17,"map":"cp_mountainlab","folder":"tf","game":"Team Fortress","app_id":440,"player_count":0,"max_players":24,"Bots":0,"server_type":"Dedicated","server_os":"Linux","password":true,"vac":true,"version":"7882260","steam_id":85568392924866362,"keywords":["cp","nocrits","nodmgspread","uncletopia"],"game_id":440,"stv_port":27016,"stv_name":"Uncletopia | Chicago | 5 | All Maps | STV","players":null},{"server_id":37,"name":"Uncletopia | Chicago | 6 | All Maps","name_short":"chi-6","host":"chi-2.us.uncletopia.com","port":27025,"enabled":true,"region":"us-central","cc":"us","latitude":41.881832,"longitude":-87.62318,"reserved":0,"last_update":"0001-01-01T00:00:00Z","name_a2s":"Uncletopia | Chicago | 6 | All Maps","protocol":17,"map":"cp_altitude","folder":"tf","game":"Team Fortress","app_id":440,"player_count":1,"max_players":24,"Bots":0,"server_type":"Dedicated","server_os":"Linux","password":true,"vac":true,"version":"7882260","steam_id":85568392924866363,"keywords":["cp","nocrits","nodmgspread","uncletopia"],"game_id":440,"stv_port":27026,"stv_name":"Uncletopia | Chicago | 6 | All Maps | STV","players":[{"user_id":6,"name":"CJspellsfish","steam_id":76561198277342368,"connected_time":178000000000,"state":"active","ping":92}]},{"server_id":38,"name":"Uncletopia | Chicago | 7 | Stopwatch Beta","name_short":"chi-7","host":"chi-2.us.uncletopia.com","port":27035,"enabled":true,"region":"us-central","cc":"us","latitude":41.881832,"longitude":-87.62318,"reserved":0,"last_update":"0001-01-01T00:00:00Z","name_a2s":"Uncletopia | Chicago | 7 | Stopwatch Beta","protocol":17,"map":"pl_upward","folder":"tf","game":"Team Fortress","app_id":440,"player_count":0,"max_players":24,"Bots":0,"server_type":"Dedicated","server_os":"Linux","password":true,"vac":true,"version":"7882260","steam_id":85568392924866364,"keywords":["nocrits","nodmgspread","payload","uncletopia"],"game_id":440,"stv_port":27036,"stv_name":"Uncletopia | Chicago | 7 | Stopwatch Beta | STV","players":null},{"server_id":39,"name":"Uncletopia | Chicago | 8 | Community","name_short":"chi-8","host":"chi-2.us.uncletopia.com","port":27045,"enabled":true,"region":"us-central","cc":"us","latitude":41.881832,"longitude":-87.62318,"reserved":0,"last_update":"0001-01-01T00:00:00Z","name_a2s":"Uncletopia | Chicago | 8 | Community","protocol":17,"map":"workshop/cp_alloy_rc3.ugc592805587","folder":"tf","game":"Team Fortress","app_id":440,"player_count":0,"max_players":24,"Bots":0,"server_type":"Dedicated","server_os":"Linux","password":true,"vac":true,"version":"7882260","steam_id":85568392924866365,"keywords":["cp","nocrits","nodmgspread","uncletopia"],"game_id":440,"stv_port":27046,"stv_name":"Uncletopia | Chicago | 8 | Community | STV","players":null},{"server_id":8,"name":"Uncletopia | Dallas | 1 | All Maps","name_short":"dal-1","host":"dal-1.us.uncletopia.com","port":27015,"enabled":true,"region":"us-central","cc":"us","latitude":32.779167,"longitude":-96.80889,"reserved":0,"last_update":"0001-01-01T00:00:00Z","name_a2s":"Uncletopia | Dallas | 1 | All Maps","protocol":17,"map":"cp_steel","folder":"tf","game":"Team Fortress","app_id":440,"player_count":23,"max_players":24,"Bots":0,"server_type":"Dedicated","server_os":"Linux","password":true,"vac":true,"version":"7882260","steam_id":85568392924469986,"keywords":["cp","nocrits","nodmgspread","uncletopia"],"game_id":440,"stv_port":27016,"stv_name":"Uncletopia | Dallas | 1 | All Maps | STV","players":[{"user_id":364,"name":"chaffy","steam_id":76561198021754567,"connected_time":4751000000000,"state":"active","ping":55},{"user_id":404,"name":"comet sooicidy","steam_id":76561198025173479,"connected_time":2601000000000,"state":"active","ping":100},{"user_id":349,"name":"toptier","steam_id":76561199059257565,"connected_time":6146000000000,"state":"active","ping":85},{"user_id":418,"name":"gatlinharrold","steam_id":76561199444424876,"connected_time":1055000000000,"state":"active","ping":71},{"user_id":296,"name":"Moomin","steam_id":76561198072726213,"connected_time":10020000000000,"state":"active","ping":77},{"user_id":380,"name":"The Mayo Man","steam_id":76561197995377425,"connected_time":4419000000000,"state":"active","ping":68},{"user_id":397,"name":"NerpMC","steam_id":76561199380119436,"connected_time":3041000000000,"state":"active","ping":103},{"user_id":408,"name":"EightySix","steam_id":76561198186678831,"connected_time":1876000000000,"state":"active","ping":89},{"user_id":413,"name":"CrazyCow","steam_id":76561198097431272,"connected_time":1261000000000,"state":"active","ping":72},{"user_id":405,"name":"Sariff","steam_id":76561198136446352,"connected_time":2581000000000,"state":"active","ping":79},{"user_id":422,"name":"Kng","steam_id":76561198993248203,"connected_time":349000000000,"state":"active","ping":82},{"user_id":368,"name":"aintnowaiyboi","steam_id":76561198301372369,"connected_time":4709000000000,"state":"active","ping":38},{"user_id":402,"name":"Mr. Soupman","steam_id":76561198021649598,"connected_time":2851000000000,"state":"active","ping":78},{"user_id":336,"name":"TurkeyJuice","steam_id":76561198193109422,"connected_time":7351000000000,"state":"active","ping":60},{"user_id":421,"name":"Phosu","steam_id":76561198180162801,"connected_time":717000000000,"state":"active","ping":68},{"user_id":415,"name":"lolgamer247","steam_id":76561198974645534,"connected_time":1133000000000,"state":"active","ping":129},{"user_id":410,"name":"IDFWU","steam_id":76561198086525936,"connected_time":1492000000000,"state":"active","ping":86},{"user_id":392,"name":"Fantastic Mr. Fox Appreciator","steam_id":76561198096306325,"connected_time":3270000000000,"state":"active","ping":92},{"user_id":385,"name":"steak","steam_id":76561199220381413,"connected_time":4313000000000,"state":"active","ping":107},{"user_id":416,"name":"CheeseLikeSubstance","steam_id":76561197977170646,"connected_time":1112000000000,"state":"active","ping":75},{"user_id":417,"name":"malarkeyman","steam_id":76561198844473584,"connected_time":1077000000000,"state":"active","ping":66},{"user_id":391,"name":"chikin.sauce","steam_id":76561198042464635,"connected_time":3808000000000,"state":"active","ping":63},{"user_id":419,"name":"Project_Counter","steam_id":76561198152786076,"connected_time":1045000000000,"state":"active","ping":56}]},{"server_id":108,"name":"Uncletopia | Dallas | 2 | All Maps","name_short":"dal-2","host":"dal-1.us.uncletopia.com","port":27025,"enabled":true,"region":"us-central","cc":"us","latitude":32.779167,"longitude":-96.80889,"reserved":0,"last_update":"0001-01-01T00:00:00Z","name_a2s":"Uncletopia | Dallas | 2 | All Maps","protocol":17,"map":"cp_altitude","folder":"tf","game":"Team Fortress","app_id":440,"player_count":22,"max_players":24,"Bots":0,"server_type":"Dedicated","server_os":"Linux","password":true,"vac":true,"version":"7882260","steam_id":85568392924469988,"keywords":["cp","nocrits","nodmgspread","uncletopia"],"game_id":440,"stv_port":27026,"stv_name":"Uncletopia | Dallas | 2 | All Maps | STV","players":[{"user_id":120,"name":"Engineer Gaming","steam_id":76561199386119444,"connected_time":371000000000,"state":"active","ping":87},{"user_id":66,"name":"VixianUwU","steam_id":76561198948815060,"connected_time":3298000000000,"state":"active","ping":75},{"user_id":121,"name":"Vem","steam_id":76561198117273112,"connected_time":338000000000,"state":"active","ping":96},{"user_id":71,"name":"Rustyorion","steam_id":76561198439186347,"connected_time":3211000000000,"state":"active","ping":108},{"user_id":68,"name":"b","steam_id":76561198376231372,"connected_time":3282000000000,"state":"active","ping":90},{"user_id":117,"name":"TrustworthyStranger","steam_id":76561198154105678,"connected_time":522000000000,"state":"active","ping":68},{"user_id":92,"name":"Tying the knot","steam_id":76561198247794130,"connected_time":2433000000000,"state":"active","ping":64},{"user_id":111,"name":"DMM","steam_id":76561198065426171,"connected_time":800000000000,"state":"active","ping":57},{"user_id":112,"name":"fishburger","steam_id":76561198142586591,"connected_time":792000000000,"state":"active","ping":60},{"user_id":94,"name":"Nyplestheclown","steam_id":76561198028600291,"connected_time":2340000000000,"state":"active","ping":49},{"user_id":113,"name":"Microreo","steam_id":76561198006966554,"connected_time":789000000000,"state":"active","ping":94},{"user_id":115,"name":"Col Ngohk","steam_id":76561198241643372,"connected_time":727000000000,"state":"active","ping":100},{"user_id":118,"name":"Norkkom","steam_id":76561198027073521,"connected_time":500000000000,"state":"active","ping":94},{"user_id":103,"name":"123","steam_id":76561198106308056,"connected_time":2131000000000,"state":"active","ping":75},{"user_id":90,"name":"GeekyNerd54","steam_id":76561198314982395,"connected_time":2537000000000,"state":"active","ping":70},{"user_id":91,"name":"CasTR34","steam_id":76561198381561291,"connected_time":2503000000000,"state":"active","ping":66},{"user_id":116,"name":"Windamyre","steam_id":76561198183493927,"connected_time":721000000000,"state":"active","ping":76},{"user_id":107,"name":"Hollister's Tree","steam_id":76561198982631429,"connected_time":861000000000,"state":"active","ping":68},{"user_id":108,"name":"melko","steam_id":76561198806496924,"connected_time":859000000000,"state":"active","ping":165},{"user_id":119,"name":"RedPeng1","steam_id":76561198979539470,"connected_time":449000000000,"state":"active","ping":51},{"user_id":32,"name":"King","steam_id":76561198039763676,"connected_time":6496000000000,"state":"active","ping":76},{"user_id":33,"name":"Colorblind","steam_id":76561198017120466,"connected_time":6496000000000,"state":"active","ping":81}]},{"server_id":5,"name":"Uncletopia | Frankfurt | 1 | All Maps","name_short":"frk-1","host":"frk-1.de.uncletopia.com","port":27015,"enabled":true,"region":"eu","cc":"de","latitude":50.110924,"longitude":8.682127,"reserved":0,"last_update":"0001-01-01T00:00:00Z","name_a2s":"Uncletopia | Frankfurt | 1 | All Maps","protocol":17,"map":"pl_badwater","folder":"tf","game":"Team Fortress","app_id":440,"player_count":24,"max_players":24,"Bots":0,"server_type":"Dedicated","server_os":"Linux","password":true,"vac":true,"version":"7882260","steam_id":85568392924469989,"keywords":["nocrits","nodmgspread","payload","uncletopia"],"game_id":440,"stv_port":27016,"stv_name":"Uncletopia | Frankfurt | 1 | All Maps | STV","players":[{"user_id":536,"name":"JayKey","steam_id":76561198008847925,"connected_time":2417000000000,"state":"active","ping":60},{"user_id":522,"name":"Uncle Dane fan_29","steam_id":76561198087962709,"connected_time":3522000000000,"state":"active","ping":97},{"user_id":550,"name":"ARROGANT","steam_id":76561198113089831,"connected_time":2070000000000,"state":"active","ping":98},{"user_id":574,"name":"Qestes","steam_id":76561198172417590,"connected_time":101000000000,"state":"active","ping":74},{"user_id":551,"name":"domek brexit geezerüá¨üáß","steam_id":76561198048447632,"connected_time":2004000000000,"state":"active","ping":66},{"user_id":539,"name":"Mr_Joergen","steam_id":76561198364713702,"connected_time":2228000000000,"state":"active","ping":71},{"user_id":514,"name":"VampiuS","steam_id":76561197998827007,"connected_time":3995000000000,"state":"active","ping":54},{"user_id":561,"name":"vdl","steam_id":76561198044583116,"connected_time":595000000000,"state":"active","ping":93},{"user_id":562,"name":"Washed Up","steam_id":76561198347336086,"connected_time":580000000000,"state":"active","ping":59},{"user_id":559,"name":"Serton‚ôù","steam_id":76561198011061126,"connected_time":1026000000000,"state":"active","ping":91},{"user_id":570,"name":"Hoxton","steam_id":76561198129209505,"connected_time":273000000000,"state":"active","ping":70},{"user_id":567,"name":"MrBanana","steam_id":76561198116021623,"connected_time":500000000000,"state":"active","ping":48},{"user_id":560,"name":"AxyzS | affenbr0t_6o4","steam_id":76561197981823456,"connected_time":1021000000000,"state":"active","ping":62},{"user_id":556,"name":"wgbubl","steam_id":76561199133004884,"connected_time":1248000000000,"state":"active","ping":95},{"user_id":512,"name":"Waltcha","steam_id":76561198007691468,"connected_time":4126000000000,"state":"active","ping":63},{"user_id":568,"name":"Deacon Dracul","steam_id":76561198046880663,"connected_time":446000000000,"state":"active","ping":105},{"user_id":558,"name":"Sarah Obama Michella","steam_id":76561198078996559,"connected_time":1234000000000,"state":"active","ping":78},{"user_id":528,"name":"wasps","steam_id":76561198049485054,"connected_time":3196000000000,"state":"active","ping":85},{"user_id":563,"name":"Pyrolander","steam_id":76561198050785450,"connected_time":558000000000,"state":"active","ping":54},{"user_id":572,"name":"Beni ü¶ßüçå","steam_id":76561198011340227,"connected_time":159000000000,"state":"active","ping":74},{"user_id":569,"name":"Fr√§ulein Flauschig","steam_id":76561197991269023,"connected_time":342000000000,"state":"active","ping":52},{"user_id":571,"name":"damn, that bussy can squirt","steam_id":76561198050214002,"connected_time":214000000000,"state":"active","ping":60},{"user_id":548,"name":"Mr. Watch","steam_id":76561198276103501,"connected_time":2106000000000,"state":"active","ping":83},{"user_id":533,"name":"–ï–º–Ω–µ_–ì—Ä–æ–≤","steam_id":76561198079990237,"connected_time":2743000000000,"state":"active","ping":122}]},{"server_id":110,"name":"Uncletopia | Frankfurt | 2 | All Maps","name_short":"frk-2","host":"frk-1.de.uncletopia.com","port":27025,"enabled":true,"region":"eu","cc":"de","latitude":50.110924,"longitude":8.682127,"reserved":0,"last_update":"0001-01-01T00:00:00Z","name_a2s":"Uncletopia | Frankfurt | 2 | All Maps","protocol":17,"map":"pl_thundermountain","folder":"tf","game":"Team Fortress","app_id":440,"player_count":24,"max_players":24,"Bots":0,"server_type":"Dedicated","server_os":"Linux","password":true,"vac":true,"version":"7882260","steam_id":85568392924469990,"keywords":["nocrits","nodmgspread","payload","uncletopia"],"game_id":440,"stv_port":27026,"stv_name":"Uncletopia | Frankfurt | 2 | All Maps | STV","players":[{"user_id":557,"name":"strohkopf9","steam_id":76561198059349860,"connected_time":4394000000000,"state":"active","ping":67},{"user_id":609,"name":"own","steam_id":76561197972447260,"connected_time":956000000000,"state":"active","ping":55},{"user_id":608,"name":"S Ka Y","steam_id":76561197993423450,"connected_time":1018000000000,"state":"active","ping":48},{"user_id":621,"name":"neophyte78","steam_id":76561198010009076,"connected_time":151000000000,"state":"active","ping":62},{"user_id":615,"name":"Yellow Sarong","steam_id":76561198114056695,"connected_time":433000000000,"state":"active","ping":70},{"user_id":606,"name":"galaxy","steam_id":76561198164819022,"connected_time":1194000000000,"state":"active","ping":64},{"user_id":616,"name":"–Ø –†–£–°–°–ö–ò–ô","steam_id":76561198992201716,"connected_time":373000000000,"state":"active","ping":76},{"user_id":617,"name":"Mr.Pyro","steam_id":76561198349370712,"connected_time":361000000000,"state":"active","ping":99},{"user_id":610,"name":"jaime8D","steam_id":76561197980590671,"connected_time":886000000000,"state":"active","ping":89},{"user_id":567,"name":"pharmacist","steam_id":76561198274424248,"connected_time":3894000000000,"state":"active","ping":107},{"user_id":589,"name":"Bad Guy [‚áÑ] #SaveTF2","steam_id":76561199039772329,"connected_time":2105000000000,"state":"active","ping":119},{"user_id":605,"name":"Qiep","steam_id":76561198068742826,"connected_time":1224000000000,"state":"active","ping":60},{"user_id":601,"name":"hunte","steam_id":76561198063483484,"connected_time":1452000000000,"state":"active","ping":67},{"user_id":624,"name":"Use The Finger","steam_id":76561198050203563,"connected_time":62000000000,"state":"active","ping":68},{"user_id":628,"name":"The.Real.Genesis","steam_id":76561198999652040,"connected_time":27000000000,"state":"active","ping":44},{"user_id":620,"name":"strideŒî","steam_id":76561199007826093,"connected_time":303000000000,"state":"active","ping":71},{"user_id":625,"name":"TheH@cker","steam_id":76561198172701090,"connected_time":38000000000,"state":"active","ping":79},{"user_id":623,"name":"Foo.","steam_id":76561198000013666,"connected_time":146000000000,"state":"active","ping":55},{"user_id":612,"name":"Bromoneto","steam_id":76561198876695014,"connected_time":790000000000,"state":"active","ping":87},{"user_id":572,"name":"[fN]drender","steam_id":76561198134490670,"connected_time":3488000000000,"state":"active","ping":71},{"user_id":599,"name":"joebot","steam_id":76561197975606100,"connected_time":1635000000000,"state":"active","ping":140},{"user_id":626,"name":"Bogadoo jonsen","steam_id":76561198218613716,"connected_time":34000000000,"state":"active","ping":110},{"user_id":627,"name":"Danio211","steam_id":76561199228698878,"connected_time":28000000000,"state":"active","ping":231},{"user_id":629,"name":"Marquis de Hoto","steam_id":76561198080687708,"connected_time":25000000000,"state":"spawning","ping":50}]},{"server_id":308,"name":"Uncletopia | Frankfurt | 3 | All Maps","name_short":"frk-3","host":"frk-1.de.uncletopia.com","port":27035,"enabled":true,"region":"eu","cc":"de","latitude":50.110924,"longitude":8.682127,"reserved":0,"last_update":"0001-01-01T00:00:00Z","name_a2s":"Uncletopia | Frankfurt | 3 | All Maps","protocol":17,"map":"pl_barnblitz","folder":"tf","game":"Team Fortress","app_id":440,"player_count":23,"max_players":24,"Bots":0,"server_type":"Dedicated","server_os":"Linux","password":true,"vac":true,"version":"7882260","steam_id":85568392924504274,"keywords":["nocrits","nodmgspread","payload","uncletopia"],"game_id":440,"stv_port":27036,"stv_name":"Uncletopia | Frankfurt | 3 | All Maps | STV","players":[{"user_id":306,"name":"IDon'tNeedACoolName","steam_id":76561198013547503,"connected_time":6331000000000,"state":"active","ping":68},{"user_id":404,"name":"Per√§miehen√§","steam_id":76561197968945306,"connected_time":371000000000,"state":"active","ping":75},{"user_id":375,"name":"eduardo","steam_id":76561198014491925,"connected_time":1579000000000,"state":"active","ping":77},{"user_id":349,"name":"Juan F. Kennedy","steam_id":76561198084228819,"connected_time":2576000000000,"state":"active","ping":64},{"user_id":351,"name":"Iopata","steam_id":76561198820264239,"connected_time":2546000000000,"state":"active","ping":139},{"user_id":331,"name":"Walter Hartwell White Gaming","steam_id":76561198061996646,"connected_time":4275000000000,"state":"active","ping":72},{"user_id":310,"name":"rets","steam_id":76561198061551392,"connected_time":6310000000000,"state":"active","ping":49},{"user_id":406,"name":"‚àö(-Wolf)","steam_id":76561198024769704,"connected_time":316000000000,"state":"active","ping":91},{"user_id":408,"name":"I sold the penis scooter","steam_id":76561198173218318,"connected_time":262000000000,"state":"active","ping":48},{"user_id":362,"name":"/hm/","steam_id":76561199213268288,"connected_time":2179000000000,"state":"active","ping":84},{"user_id":366,"name":"foergel","steam_id":76561197996542195,"connected_time":1799000000000,"state":"active","ping":69},{"user_id":363,"name":"Carrot (woman)","steam_id":76561198139404261,"connected_time":2056000000000,"state":"active","ping":56},{"user_id":319,"name":"Max Power","steam_id":76561198019269089,"connected_time":5851000000000,"state":"active","ping":48},{"user_id":355,"name":"pano","steam_id":76561198157446722,"connected_time":2488000000000,"state":"active","ping":65},{"user_id":333,"name":"Lucstardeluxe","steam_id":76561198056530288,"connected_time":4248000000000,"state":"active","ping":69},{"user_id":370,"name":"StumpKnuckle","steam_id":76561197995325320,"connected_time":1733000000000,"state":"active","ping":70},{"user_id":358,"name":"ossop","steam_id":76561198045271499,"connected_time":2418000000000,"state":"active","ping":73},{"user_id":372,"name":"√Ñ√§rik ‚ô£","steam_id":76561198131871737,"connected_time":1687000000000,"state":"active","ping":54},{"user_id":320,"name":"Master Of Noob","steam_id":76561198217926783,"connected_time":5639000000000,"state":"active","ping":65},{"user_id":410,"name":"Playad","steam_id":76561198977412147,"connected_time":111000000000,"state":"active","ping":58},{"user_id":389,"name":"Famous Anus","steam_id":76561198413675639,"connected_time":1023000000000,"state":"active","ping":64},{"user_id":388,"name":"dafydd","steam_id":76561198052200325,"connected_time":1127000000000,"state":"active","ping":75},{"user_id":394,"name":"finbar","steam_id":76561198056812396,"connected_time":750000000000,"state":"active","ping":111}]},{"server_id":309,"name":"Uncletopia | Frankfurt | 4 | All Maps","name_short":"frk-4","host":"frk-1.de.uncletopia.com","port":27045,"enabled":true,"region":"eu","cc":"de","latitude":50.110924,"longitude":8.682127,"reserved":0,"last_update":"0001-01-01T00:00:00Z","name_a2s":"Uncletopia | Frankfurt | 4 | All Maps","protocol":17,"map":"pl_swiftwater_final1","folder":"tf","game":"Team Fortress","app_id":440,"player_count":24,"max_players":24,"Bots":0,"server_type":"Dedicated","server_os":"Linux","password":true,"vac":true,"version":"7882260","steam_id":85568392924504275,"keywords":["nocrits","nodmgspread","payload","uncletopia"],"game_id":440,"stv_port":27046,"stv_name":"Uncletopia | Frankfurt | 4 | All Maps | STV","players":[{"user_id":183,"name":"peso enjoyer","steam_id":76561198798177799,"connected_time":672000000000,"state":"active","ping":77},{"user_id":187,"name":"dabuttsniffer","steam_id":76561198369227367,"connected_time":106000000000,"state":"active","ping":93},{"user_id":141,"name":"Spectral Sloth","steam_id":76561198170083139,"connected_time":3631000000000,"state":"active","ping":78},{"user_id":103,"name":"Mr.TEA","steam_id":76561198014381591,"connected_time":6903000000000,"state":"active","ping":66},{"user_id":77,"name":"mixxxa_french","steam_id":76561198085098243,"connected_time":8787000000000,"state":"active","ping":113},{"user_id":161,"name":"Your Lovely Medic","steam_id":76561198039326848,"connected_time":1814000000000,"state":"active","ping":62},{"user_id":177,"name":"Milosz52","steam_id":76561199060940204,"connected_time":1008000000000,"state":"active","ping":82},{"user_id":176,"name":"alice","steam_id":76561198269200388,"connected_time":1172000000000,"state":"active","ping":74},{"user_id":175,"name":"WICKED BARSIK","steam_id":76561198120927230,"connected_time":1209000000000,"state":"active","ping":111},{"user_id":162,"name":"1ggy","steam_id":76561199051285912,"connected_time":1796000000000,"state":"active","ping":75},{"user_id":174,"name":"manKe","steam_id":76561198008564860,"connected_time":1241000000000,"state":"active","ping":60},{"user_id":182,"name":"NoLongerSwiming","steam_id":76561199408731222,"connected_time":920000000000,"state":"active","ping":78},{"user_id":180,"name":"a freakin' knight","steam_id":76561198371341044,"connected_time":934000000000,"state":"active","ping":142},{"user_id":164,"name":"shadow wizard money gang","steam_id":76561199244678611,"connected_time":1768000000000,"state":"active","ping":87},{"user_id":152,"name":"Jim Milton","steam_id":76561198055788070,"connected_time":2855000000000,"state":"active","ping":55},{"user_id":148,"name":"Solymr ibn Wali Barad","steam_id":76561198044008976,"connected_time":2967000000000,"state":"active","ping":69},{"user_id":134,"name":"etc","steam_id":76561197998394797,"connected_time":4489000000000,"state":"active","ping":56},{"user_id":188,"name":"PIF","steam_id":76561197994712966,"connected_time":65000000000,"state":"active","ping":95},{"user_id":109,"name":"I_Forgot_My_Name","steam_id":76561198173424578,"connected_time":6798000000000,"state":"active","ping":66},{"user_id":159,"name":"BumiiBum","steam_id":76561198210682456,"connected_time":2038000000000,"state":"active","ping":61},{"user_id":138,"name":"–ø—Ä–æ339","steam_id":76561198428111079,"connected_time":4239000000000,"state":"active","ping":100},{"user_id":181,"name":"sBLOCKER  85","steam_id":76561198939078994,"connected_time":925000000000,"state":"active","ping":145},{"user_id":184,"name":"Hey, I¬¥m Andy!","steam_id":76561198060337777,"connected_time":371000000000,"state":"active","ping":72},{"user_id":156,"name":"SCRAMMMBLED","steam_id":76561197998307746,"connected_time":2331000000000,"state":"active","ping":63}]},{"server_id":310,"name":"Uncletopia | Frankfurt | 5 | All Maps","name_short":"frk-5","host":"frk-1.de.uncletopia.com","port":27055,"enabled":true,"region":"eu","cc":"de","latitude":50.110924,"longitude":8.682127,"reserved":0,"last_update":"0001-01-01T00:00:00Z","name_a2s":"Uncletopia | Frankfurt | 5 | All Maps","protocol":17,"map":"pl_swiftwater_final1","folder":"tf","game":"Team Fortress","app_id":440,"player_count":0,"max_players":24,"Bots":0,"server_type":"Dedicated","server_os":"Linux","password":true,"vac":true,"version":"7882260","steam_id":85568392924504277,"keywords":["nocrits","nodmgspread","payload","uncletopia"],"game_id":440,"stv_port":27056,"stv_name":"Uncletopia | Frankfurt | 5 | All Maps | STV","players":null},{"server_id":311,"name":"Uncletopia | Frankfurt | 6 | All Maps","name_short":"frk-6","host":"frk-1.de.uncletopia.com","port":27065,"enabled":true,"region":"eu","cc":"de","latitude":50.110924,"longitude":8.682127,"reserved":0,"last_update":"0001-01-01T00:00:00Z","name_a2s":"Uncletopia | Frankfurt | 6 | All Maps","protocol":17,"map":"pl_snowycoast","folder":"tf","game":"Team Fortress","app_id":440,"player_count":1,"max_players":24,"Bots":0,"server_type":"Dedicated","server_os":"Linux","password":true,"vac":true,"version":"7882260","steam_id":85568392924504278,"keywords":["nocrits","nodmgspread","payload","uncletopia"],"game_id":440,"stv_port":27066,"stv_name":"Uncletopia | Frankfurt | 6 | All Maps | STV","players":[{"user_id":11,"name":"ANGELFISH","steam_id":76561198027536466,"connected_time":69000000000,"state":"active","ping":94}]},{"server_id":23,"name":"Uncletopia | Frankfurt | 7 | Stopwatch Beta","name_short":"frk-7","host":"frk-1.de.uncletopia.com","port":27075,"enabled":true,"region":"eu","cc":"de","latitude":50.110924,"longitude":8.682127,"reserved":0,"last_update":"0001-01-01T00:00:00Z","name_a2s":"Uncletopia | Frankfurt | 7 | Stopwatch Beta","protocol":17,"map":"workshop/koth_clearcut_b15.ugc2107050255","folder":"tf","game":"Team Fortress","app_id":440,"player_count":0,"max_players":24,"Bots":0,"server_type":"Dedicated","server_os":"Linux","password":true,"vac":true,"version":"7882260","steam_id":85568392924742827,"keywords":["cp","nocrits","nodmgspread","uncletopia"],"game_id":440,"stv_port":27076,"stv_name":"Uncletopia | Frankfurt | 7 | Stopwatch Beta | STV","players":null},{"server_id":24,"name":"Uncletopia | Frankfurt | 8 | Community","name_short":"frk-8","host":"frk-1.de.uncletopia.com","port":27085,"enabled":true,"region":"eu","cc":"de","latitude":50.110924,"longitude":8.682127,"reserved":0,"last_update":"0001-01-01T00:00:00Z","name_a2s":"Uncletopia | Frankfurt | 8 | Community","protocol":17,"map":"workshop/cp_croissant_final.ugc458840209","folder":"tf","game":"Team Fortress","app_id":440,"player_count":21,"max_players":24,"Bots":0,"server_type":"Dedicated","server_os":"Linux","password":true,"vac":true,"version":"7882260","steam_id":85568392924742828,"keywords":["cp","nocrits","nodmgspread","uncletopia"],"game_id":440,"stv_port":27086,"stv_name":"Uncletopia | Frankfurt | 8 | Community | STV","players":[{"user_id":418,"name":"roblan11","steam_id":76561198066839258,"connected_time":1252000000000,"state":"active","ping":43},{"user_id":416,"name":"Mak≈Çowicz","steam_id":76561198281831506,"connected_time":1360000000000,"state":"active","ping":79},{"user_id":412,"name":"Alice can't hit pipes","steam_id":76561198052410860,"connected_time":1601000000000,"state":"active","ping":143},{"user_id":380,"name":"Volky","steam_id":76561199027614048,"connected_time":2759000000000,"state":"active","ping":54},{"user_id":415,"name":"Sybille Sirky","steam_id":76561198082407725,"connected_time":1418000000000,"state":"active","ping":56},{"user_id":382,"name":"idiot with a plan","steam_id":76561198253503043,"connected_time":2710000000000,"state":"active","ping":56},{"user_id":417,"name":"Lukas","steam_id":76561198009118452,"connected_time":1300000000000,"state":"active","ping":50},{"user_id":385,"name":"pond","steam_id":76561198214849363,"connected_time":2532000000000,"state":"active","ping":76},{"user_id":434,"name":"GMsU | Rebikas","steam_id":76561198077053764,"connected_time":479000000000,"state":"active","ping":39},{"user_id":394,"name":"karlgaming","steam_id":76561199102495468,"connected_time":2148000000000,"state":"active","ping":73},{"user_id":420,"name":"Technic","steam_id":76561198128096130,"connected_time":1236000000000,"state":"active","ping":63},{"user_id":429,"name":"Rodia","steam_id":76561197968293161,"connected_time":1022000000000,"state":"active","ping":59},{"user_id":400,"name":"Borloxos","steam_id":76561198123110073,"connected_time":2089000000000,"state":"active","ping":60},{"user_id":435,"name":"PerskuleBenener","steam_id":76561198156899375,"connected_time":177000000000,"state":"active","ping":75},{"user_id":402,"name":"D0kai","steam_id":76561198389271720,"connected_time":2076000000000,"state":"active","ping":63},{"user_id":425,"name":"Kysiol2000(„Å•‚óâ·¥•‚óâ)„Å•","steam_id":76561198154284303,"connected_time":1118000000000,"state":"active","ping":73},{"user_id":432,"name":"DelT","steam_id":76561198204007537,"connected_time":893000000000,"state":"active","ping":45},{"user_id":430,"name":"B.batt","steam_id":76561198998684199,"connected_time":948000000000,"state":"active","ping":115},{"user_id":410,"name":"Rook","steam_id":76561197995204779,"connected_time":1788000000000,"state":"active","ping":55},{"user_id":427,"name":"GMsU | Acoul","steam_id":76561198229222992,"connected_time":1113000000000,"state":"active","ping":49},{"user_id":428,"name":"Janh2000","steam_id":76561198030017609,"connected_time":1102000000000,"state":"active","ping":99}]},{"server_id":202,"name":"Uncletopia | Hong Kong | 1 | All Maps","name_short":"hgk-1","host":"hgk-1.hk.uncletopia.com","port":27015,"enabled":true,"region":"asia","cc":"hk","latitude":22.302711,"longitude":114.177216,"reserved":0,"last_update":"0001-01-01T00:00:00Z","name_a2s":"Uncletopia | Hong Kong | 1 | All Maps","protocol":17,"map":"cp_altitude","folder":"tf","game":"Team Fortress","app_id":440,"player_count":0,"max_players":24,"Bots":0,"server_type":"Dedicated","server_os":"Linux","password":true,"vac":true,"version":"7882260","steam_id":85568392924494504,"keywords":["cp","nocrits","nodmgspread","uncletopia"],"game_id":440,"stv_port":27016,"stv_name":"Uncletopia | Hong Kong | 1 | All Maps | STV","players":null},{"server_id":1,"name":"Uncletopia | Los Angeles | 1 | All Maps","name_short":"lax-1","host":"lax-1.us.uncletopia.com","port":27015,"enabled":true,"region":"us-west","cc":"us","latitude":33.94279,"longitude":-118.41004,"reserved":0,"last_update":"0001-01-01T00:00:00Z","name_a2s":"Uncletopia | Los Angeles | 1 | All Maps","protocol":17,"map":"pl_snowycoast","folder":"tf","game":"Team Fortress","app_id":440,"player_count":0,"max_players":24,"Bots":0,"server_type":"Dedicated","server_os":"Linux","password":true,"vac":true,"version":"7882260","steam_id":85568392924469991,"keywords":["nocrits","nodmgspread","payload","uncletopia"],"game_id":440,"stv_port":27016,"stv_name":"Uncletopia | Los Angeles | 1 | All Maps | STV","players":null},{"server_id":112,"name":"Uncletopia | Los Angeles | 2 | All Maps","name_short":"lax-2","host":"lax-1.us.uncletopia.com","port":27025,"enabled":true,"region":"us-west","cc":"us","latitude":33.94279,"longitude":-118.41004,"reserved":0,"last_update":"0001-01-01T00:00:00Z","name_a2s":"Uncletopia | Los Angeles | 2 | All Maps","protocol":17,"map":"koth_cascade","folder":"tf","game":"Team Fortress","app_id":440,"player_count":0,"max_players":24,"Bots":0,"server_type":"Dedicated","server_os":"Linux","password":true,"vac":true,"version":"7882260","steam_id":85568392924469992,"keywords":["cp","nocrits","nodmgspread","uncletopia"],"game_id":440,"stv_port":27026,"stv_name":"Uncletopia | Los Angeles | 2 | All Maps | STV","players":null},{"server_id":324,"name":"Uncletopia | Los Angeles | 3 | All Maps","name_short":"lax-3","host":"lax-1.us.uncletopia.com","port":27035,"enabled":true,"region":"us-west","cc":"us","latitude":33.94279,"longitude":-118.41004,"reserved":0,"last_update":"0001-01-01T00:00:00Z","name_a2s":"Uncletopia | Los Angeles | 3 | All Maps","protocol":17,"map":"pl_swiftwater_final1","folder":"tf","game":"Team Fortress","app_id":440,"player_count":1,"max_players":24,"Bots":0,"server_type":"Dedicated","server_os":"Linux","password":true,"vac":true,"version":"7882260","steam_id":85568392924510198,"keywords":["nocrits","nodmgspread","payload","uncletopia"],"game_id":440,"stv_port":27036,"stv_name":"Uncletopia | Los Angeles | 3 | All Maps | STV","players":[{"user_id":5,"name":"StarGuyVI","steam_id":76561199366304746,"connected_time":145000000000,"state":"active","ping":111}]},{"server_id":25,"name":"Uncletopia | Los Angeles | 4 | Stopwatch Beta","name_short":"lax-4","host":"lax-1.us.uncletopia.com","port":27045,"enabled":true,"region":"us-west","cc":"us","latitude":33.94279,"longitude":-118.41004,"reserved":0,"last_update":"0001-01-01T00:00:00Z","name_a2s":"Uncletopia | Los Angeles | 4 | Stopwatch Beta","protocol":17,"map":"koth_viaduct","folder":"tf","game":"Team Fortress","app_id":440,"player_count":0,"max_players":24,"Bots":0,"server_type":"Dedicated","server_os":"Linux","password":true,"vac":true,"version":"7882260","steam_id":85568392924510199,"keywords":["cp","nocrits","nodmgspread","uncletopia"],"game_id":440,"stv_port":27046,"stv_name":"Uncletopia | Los Angeles | 4 | Stopwatch Beta | STV","players":null},{"server_id":11,"name":"Uncletopia | London | 1 | All Maps","name_short":"lon-1","host":"lon-1.uk.uncletopia.com","port":27015,"enabled":true,"region":"eu","cc":"gb","latitude":51.509865,"longitude":-0.118092,"reserved":0,"last_update":"0001-01-01T00:00:00Z","name_a2s":"Uncletopia | London | 1 | All Maps","protocol":17,"map":"koth_harvest_final","folder":"tf","game":"Team Fortress","app_id":440,"player_count":24,"max_players":24,"Bots":0,"server_type":"Dedicated","server_os":"Linux","password":true,"vac":true,"version":"7882260","steam_id":85568392924367362,"keywords":["cp","nocrits","nodmgspread","uncletopia"],"game_id":440,"stv_port":27016,"stv_name":"Uncletopia | London | 1 | All Maps | STV","players":[{"user_id":669,"name":"Prome","steam_id":76561199050383942,"connected_time":183000000000,"state":"active","ping":58},{"user_id":670,"name":"dragonos451","steam_id":76561198041146385,"connected_time":157000000000,"state":"active","ping":53},{"user_id":662,"name":"Darfsterman #rustclash","steam_id":76561199004139305,"connected_time":1629000000000,"state":"active","ping":63},{"user_id":659,"name":"DeadEye","steam_id":76561198197149558,"connected_time":1709000000000,"state":"active","ping":138},{"user_id":654,"name":"KnugenIV","steam_id":76561198127091993,"connected_time":1772000000000,"state":"active","ping":61},{"user_id":517,"name":"‚ô•aura‚ô•","steam_id":76561198066258544,"connected_time":12196000000000,"state":"active","ping":61},{"user_id":661,"name":"Envy","steam_id":76561198132723219,"connected_time":1643000000000,"state":"active","ping":105},{"user_id":664,"name":"Enessy","steam_id":76561198396068187,"connected_time":1085000000000,"state":"active","ping":79},{"user_id":667,"name":"gexfan3165","steam_id":76561199459414738,"connected_time":206000000000,"state":"active","ping":77},{"user_id":668,"name":"Captain Samo","steam_id":76561198047224482,"connected_time":195000000000,"state":"active","ping":59},{"user_id":648,"name":"Ash","steam_id":76561198148738525,"connected_time":2568000000000,"state":"active","ping":99},{"user_id":567,"name":"neJ","steam_id":76561198003397488,"connected_time":8852000000000,"state":"active","ping":86},{"user_id":649,"name":"eva.","steam_id":76561198054474684,"connected_time":2401000000000,"state":"active","ping":75},{"user_id":653,"name":"trite","steam_id":76561197983765323,"connected_time":1958000000000,"state":"active","ping":55},{"user_id":632,"name":"gr3821","steam_id":76561198091531010,"connected_time":3664000000000,"state":"active","ping":45},{"user_id":629,"name":"Mr_Pulse_","steam_id":76561198095001602,"connected_time":4081000000000,"state":"active","ping":105},{"user_id":645,"name":"Tout Petit Cerveau","steam_id":76561198120837915,"connected_time":2698000000000,"state":"active","ping":44},{"user_id":650,"name":"Akkie.","steam_id":76561198017619091,"connected_time":2222000000000,"state":"active","ping":61},{"user_id":658,"name":"mt","steam_id":76561197961319303,"connected_time":1716000000000,"state":"active","ping":54},{"user_id":671,"name":"Hrki","steam_id":76561198090451546,"connected_time":149000000000,"state":"active","ping":76},{"user_id":610,"name":"Gnarville","steam_id":76561198006373329,"connected_time":5698000000000,"state":"active","ping":51},{"user_id":652,"name":"Fred","steam_id":76561198107137362,"connected_time":2100000000000,"state":"active","ping":55},{"user_id":660,"name":"cream gravy","steam_id":76561198973069177,"connected_time":1708000000000,"state":"active","ping":60},{"user_id":635,"name":"jimmy bob","steam_id":76561198319583692,"connected_time":3578000000000,"state":"active","ping":60}]},{"server_id":114,"name":"Uncletopia | London | 2 | All Maps","name_short":"lon-2","host":"lon-1.uk.uncletopia.com","port":27025,"enabled":true,"region":"eu","cc":"gb","latitude":51.509865,"longitude":-0.118092,"reserved":0,"last_update":"0001-01-01T00:00:00Z","name_a2s":"Uncletopia | London | 2 | All Maps","protocol":17,"map":"pl_borneo","folder":"tf","game":"Team Fortress","app_id":440,"player_count":24,"max_players":24,"Bots":0,"server_type":"Dedicated","server_os":"Linux","password":true,"vac":true,"version":"7882260","steam_id":85568392924470941,"keywords":["nocrits","nodmgspread","payload","uncletopia"],"game_id":440,"stv_port":27026,"stv_name":"Uncletopia | London | 2 | All Maps | STV","players":[{"user_id":417,"name":"Drovecz_Hun","steam_id":76561198054703214,"connected_time":2869000000000,"state":"active","ping":87},{"user_id":431,"name":"Rage spell","steam_id":76561198279952779,"connected_time":1929000000000,"state":"active","ping":158},{"user_id":441,"name":"ack","steam_id":76561198139796077,"connected_time":1087000000000,"state":"active","ping":58},{"user_id":428,"name":"Cosmetic brain","steam_id":76561198055936410,"connected_time":2182000000000,"state":"active","ping":80},{"user_id":468,"name":"Aspartus","steam_id":76561198101385763,"connected_time":8000000000,"state":"spawning","ping":126},{"user_id":469,"name":"Eggy_The_Tyrone","steam_id":76561198036857277,"connected_time":6000000000,"state":"spawning","ping":57},{"user_id":466,"name":"vilehto","steam_id":76561198049343793,"connected_time":201000000000,"state":"active","ping":60},{"user_id":423,"name":"FoOzTV","steam_id":76561197998636728,"connected_time":2579000000000,"state":"active","ping":71},{"user_id":412,"name":"Snake-chan","steam_id":76561199044755854,"connected_time":3308000000000,"state":"active","ping":79},{"user_id":458,"name":"Syd","steam_id":76561198020515027,"connected_time":467000000000,"state":"active","ping":85},{"user_id":424,"name":"Cracked·¥±·µç·µç","steam_id":76561197977141367,"connected_time":2568000000000,"state":"active","ping":60},{"user_id":467,"name":"ptsd","steam_id":76561199382587543,"connected_time":103000000000,"state":"active","ping":75},{"user_id":453,"name":"Ott","steam_id":76561198276464481,"connected_time":652000000000,"state":"active","ping":62},{"user_id":379,"name":"Daishinkan","steam_id":76561199383437138,"connected_time":5961000000000,"state":"active","ping":123},{"user_id":460,"name":"Pablo.Fortnite.2011","steam_id":76561198259034983,"connected_time":437000000000,"state":"active","ping":74},{"user_id":433,"name":"Raingnome Noir","steam_id":76561198007394958,"connected_time":1826000000000,"state":"active","ping":54},{"user_id":452,"name":"DDUUCCKK","steam_id":76561198141953050,"connected_time":655000000000,"state":"active","ping":53},{"user_id":461,"name":"After8","steam_id":76561198090750865,"connected_time":308000000000,"state":"active","ping":71},{"user_id":454,"name":"the super duper amir gaming","steam_id":76561199238776676,"connected_time":630000000000,"state":"active","ping":77},{"user_id":332,"name":"Lucker","steam_id":76561198079469430,"connected_time":8647000000000,"state":"active","ping":61},{"user_id":464,"name":"machoswayy","steam_id":76561199482152596,"connected_time":243000000000,"state":"active","ping":160},{"user_id":465,"name":"Daemon","steam_id":76561198007015109,"connected_time":224000000000,"state":"active","ping":49},{"user_id":459,"name":"Delcup","steam_id":76561199006338376,"connected_time":464000000000,"state":"active","ping":119},{"user_id":263,"name":"Ark-e","steam_id":76561198261870909,"connected_time":12970000000000,"state":"active","ping":34}]},{"server_id":320,"name":"Uncletopia | London | 3 | All Maps","name_short":"lon-3","host":"lon-1.uk.uncletopia.com","port":27035,"enabled":true,"region":"eu","cc":"gb","latitude":51.509865,"longitude":-0.118092,"reserved":0,"last_update":"0001-01-01T00:00:00Z","name_a2s":"Uncletopia | London | 3 | All Maps","protocol":17,"map":"pl_badwater","folder":"tf","game":"Team Fortress","app_id":440,"player_count":24,"max_players":24,"Bots":0,"server_type":"Dedicated","server_os":"Linux","password":true,"vac":true,"version":"7882260","steam_id":85568392924510192,"keywords":["nocrits","nodmgspread","payload","uncletopia"],"game_id":440,"stv_port":27036,"stv_name":"Uncletopia | London | 3 | All Maps | STV","players":[{"user_id":28,"name":"stefanbejenari","steam_id":76561199466718294,"connected_time":3908000000000,"state":"active","ping":84},{"user_id":27,"name":"RLCrazyCat3","steam_id":76561197983757878,"connected_time":4333000000000,"state":"active","ping":63},{"user_id":72,"name":"Ecton","steam_id":76561198025103720,"connected_time":689000000000,"state":"active","ping":54},{"user_id":30,"name":"Soaya","steam_id":76561199101510855,"connected_time":3064000000000,"state":"active","ping":49},{"user_id":84,"name":"Faking.","steam_id":76561198823540483,"connected_time":131000000000,"state":"active","ping":76},{"user_id":80,"name":"se√±or meth coker","steam_id":76561198929410945,"connected_time":242000000000,"state":"active","ping":127},{"user_id":36,"name":"cock","steam_id":76561198307522022,"connected_time":2195000000000,"state":"active","ping":54},{"user_id":71,"name":"0lloe","steam_id":76561198070861443,"connected_time":702000000000,"state":"active","ping":54},{"user_id":38,"name":"JOHN GAMING (#1 gunspy)","steam_id":76561199085822219,"connected_time":2068000000000,"state":"active","ping":82},{"user_id":39,"name":"Automator_2","steam_id":76561198383941698,"connected_time":2022000000000,"state":"active","ping":62},{"user_id":45,"name":"Niko (She/They)","steam_id":76561198436817109,"connected_time":1743000000000,"state":"active","ping":45},{"user_id":69,"name":"meme.max08","steam_id":76561198341859619,"connected_time":843000000000,"state":"active","ping":58},{"user_id":73,"name":"Fresh","steam_id":76561198281238533,"connected_time":585000000000,"state":"active","ping":70},{"user_id":43,"name":"GoblinGaming","steam_id":76561198360395476,"connected_time":1880000000000,"state":"active","ping":54},{"user_id":79,"name":"skai","steam_id":76561198184881255,"connected_time":269000000000,"state":"active","ping":62},{"user_id":54,"name":"laza's boy","steam_id":76561199074095198,"connected_time":1385000000000,"state":"active","ping":114},{"user_id":64,"name":"apple","steam_id":76561198350676879,"connected_time":1190000000000,"state":"active","ping":89},{"user_id":65,"name":"Plep","steam_id":76561198840259819,"connected_time":1178000000000,"state":"active","ping":49},{"user_id":68,"name":"Favi","steam_id":76561198013236935,"connected_time":996000000000,"state":"active","ping":77},{"user_id":75,"name":"The2PLAYZ","steam_id":76561198352720404,"connected_time":446000000000,"state":"active","ping":84},{"user_id":57,"name":"HilldogGaming‚ôõ","steam_id":76561198082209322,"connected_time":1303000000000,"state":"active","ping":68},{"user_id":63,"name":"sokige","steam_id":76561198167112371,"connected_time":1199000000000,"state":"active","ping":106},{"user_id":59,"name":"Townsend And Sons","steam_id":76561199072698153,"connected_time":1287000000000,"state":"active","ping":73},{"user_id":82,"name":"presidentialAIDS","steam_id":76561199257284077,"connected_time":221000000000,"state":"active","ping":144}]},{"server_id":321,"name":"Uncletopia | London | 4 | All Maps","name_short":"lon-4","host":"lon-1.uk.uncletopia.com","port":27045,"enabled":true,"region":"eu","cc":"gb","latitude":51.509865,"longitude":-0.118092,"reserved":0,"last_update":"0001-01-01T00:00:00Z","name_a2s":"Uncletopia | London | 4 | All Maps","protocol":17,"map":"pl_frontier_final","folder":"tf","game":"Team Fortress","app_id":440,"player_count":24,"max_players":24,"Bots":0,"server_type":"Dedicated","server_os":"Linux","password":true,"vac":true,"version":"7882260","steam_id":85568392924510193,"keywords":["nocrits","nodmgspread","payload","uncletopia"],"game_id":440,"stv_port":27046,"stv_name":"Uncletopia | London | 4 | All Maps | STV","players":[{"user_id":183,"name":"Drunk russian with pyromania","steam_id":76561198195527328,"connected_time":100000000000,"state":"active","ping":47},{"user_id":163,"name":"Chen","steam_id":76561198440363619,"connected_time":1470000000000,"state":"active","ping":56},{"user_id":161,"name":"Vieenna Academy of Fine Arts","steam_id":76561199023559370,"connected_time":1604000000000,"state":"active","ping":100},{"user_id":159,"name":"yo","steam_id":76561199002023166,"connected_time":1994000000000,"state":"active","ping":101},{"user_id":178,"name":"Popop","steam_id":76561198004793795,"connected_time":818000000000,"state":"active","ping":48},{"user_id":170,"name":"Mr.noob","steam_id":76561199200442395,"connected_time":1315000000000,"state":"active","ping":78},{"user_id":180,"name":"Mayor Wank from Wanker Town","steam_id":76561197998253588,"connected_time":792000000000,"state":"active","ping":57},{"user_id":158,"name":"Kazemski","steam_id":76561198135343869,"connected_time":2646000000000,"state":"active","ping":114},{"user_id":165,"name":"Cookies and Bakies","steam_id":76561198017442928,"connected_time":1427000000000,"state":"active","ping":67},{"user_id":154,"name":"Menezeris","steam_id":76561198840506844,"connected_time":2819000000000,"state":"active","ping":60},{"user_id":184,"name":"Zank Frappa","steam_id":76561199227624104,"connected_time":72000000000,"state":"active","ping":68},{"user_id":148,"name":"Zerfesh","steam_id":76561198117534358,"connected_time":3024000000000,"state":"active","ping":100},{"user_id":157,"name":"Pa≈•ko Gener√°l","steam_id":76561198341579640,"connected_time":2782000000000,"state":"active","ping":78},{"user_id":181,"name":"G.R.E","steam_id":76561197979806514,"connected_time":762000000000,"state":"active","ping":45},{"user_id":129,"name":"iokoieon","steam_id":76561198065009070,"connected_time":4855000000000,"state":"active","ping":91},{"user_id":182,"name":"average sized joey","steam_id":76561198258504847,"connected_time":694000000000,"state":"active","ping":61},{"user_id":174,"name":"jj","steam_id":76561198079200985,"connected_time":1066000000000,"state":"active","ping":60},{"user_id":167,"name":"Rained Fellow","steam_id":76561198404557509,"connected_time":1407000000000,"state":"active","ping":61},{"user_id":141,"name":"astigmatic","steam_id":76561199103959197,"connected_time":3542000000000,"state":"active","ping":98},{"user_id":176,"name":"Dispenser builder","steam_id":76561198061735786,"connected_time":938000000000,"state":"active","ping":67},{"user_id":152,"name":"quickfast","steam_id":76561199438900919,"connected_time":2942000000000,"state":"active","ping":43},{"user_id":179,"name":"BazzarBaz","steam_id":76561198823420149,"connected_time":810000000000,"state":"active","ping":58},{"user_id":173,"name":"proxac","steam_id":76561198851157897,"connected_time":1228000000000,"state":"active","ping":64},{"user_id":168,"name":"AwterSix","steam_id":76561198042561678,"connected_time":1406000000000,"state":"active","ping":65}]},{"server_id":21,"name":"Uncletopia | London | 5 | All Maps","name_short":"lon-5","host":"lon-1.uk.uncletopia.com","port":27055,"enabled":true,"region":"eu","cc":"gb","latitude":51.509865,"longitude":-0.118092,"reserved":0,"last_update":"0001-01-01T00:00:00Z","name_a2s":"Uncletopia | London | 5 | All Maps","protocol":17,"map":"cp_process_final","folder":"tf","game":"Team Fortress","app_id":440,"player_count":23,"max_players":24,"Bots":0,"server_type":"Dedicated","server_os":"Linux","password":true,"vac":true,"version":"7882260","steam_id":85568392924742829,"keywords":["cp","nocrits","nodmgspread","uncletopia"],"game_id":440,"stv_port":27056,"stv_name":"Uncletopia | London | 5 | All Maps | STV","players":[{"user_id":104,"name":"¬°AL TURR√ìN!","steam_id":76561198087022264,"connected_time":1353000000000,"state":"active","ping":85},{"user_id":78,"name":"Vershal Smershal","steam_id":76561198116223995,"connected_time":3315000000000,"state":"active","ping":55},{"user_id":100,"name":"Endi","steam_id":76561198914938199,"connected_time":1575000000000,"state":"active","ping":105},{"user_id":109,"name":"Sylvanas","steam_id":76561198154904165,"connected_time":1222000000000,"state":"active","ping":105},{"user_id":110,"name":"elio","steam_id":76561198142662131,"connected_time":1197000000000,"state":"active","ping":69},{"user_id":99,"name":"I I","steam_id":76561199101935057,"connected_time":1965000000000,"state":"active","ping":99},{"user_id":101,"name":"Pipper","steam_id":76561197970326616,"connected_time":1479000000000,"state":"active","ping":76},{"user_id":122,"name":"Naga","steam_id":76561198133196222,"connected_time":501000000000,"state":"active","ping":55},{"user_id":113,"name":"ScaryTree","steam_id":76561199384362833,"connected_time":1118000000000,"state":"active","ping":52},{"user_id":108,"name":"JOL_MAX","steam_id":76561199196047539,"connected_time":1268000000000,"state":"active","ping":121},{"user_id":127,"name":"Callum","steam_id":76561199477878281,"connected_time":47000000000,"state":"active","ping":68},{"user_id":126,"name":"BEASTSLAYER","steam_id":76561197988085026,"connected_time":247000000000,"state":"active","ping":69},{"user_id":95,"name":"Cabbch","steam_id":76561198045955679,"connected_time":2383000000000,"state":"active","ping":57},{"user_id":37,"name":"Mi Manchi","steam_id":76561198171573129,"connected_time":5478000000000,"state":"active","ping":60},{"user_id":74,"name":"Memphis","steam_id":76561198045039038,"connected_time":3616000000000,"state":"active","ping":82},{"user_id":39,"name":"Bajas","steam_id":76561198179339326,"connected_time":5434000000000,"state":"active","ping":87},{"user_id":120,"name":"mindas tf2.LT","steam_id":76561198056839438,"connected_time":817000000000,"state":"active","ping":68},{"user_id":116,"name":"British Disapproval","steam_id":76561198001375260,"connected_time":1006000000000,"state":"active","ping":57},{"user_id":42,"name":"Margaret Thatcher","steam_id":76561198124463930,"connected_time":5356000000000,"state":"active","ping":44},{"user_id":121,"name":"PukeaNuke","steam_id":76561199406528643,"connected_time":803000000000,"state":"active","ping":46},{"user_id":118,"name":"Random","steam_id":76561199079951047,"connected_time":969000000000,"state":"active","ping":88},{"user_id":75,"name":"PoundlandPrince","steam_id":76561198052088053,"connected_time":3580000000000,"state":"active","ping":55},{"user_id":97,"name":"Slushy_","steam_id":76561198148649945,"connected_time":2350000000000,"state":"active","ping":100}]},{"server_id":22,"name":"Uncletopia | London | 6 | All Maps","name_short":"lon-6","host":"lon-1.uk.uncletopia.com","port":27065,"enabled":true,"region":"eu","cc":"gb","latitude":51.509865,"longitude":-0.118092,"reserved":0,"last_update":"0001-01-01T00:00:00Z","name_a2s":"Uncletopia | London | 6 | All Maps","protocol":17,"map":"pl_upward","folder":"tf","game":"Team Fortress","app_id":440,"player_count":24,"max_players":24,"Bots":0,"server_type":"Dedicated","server_os":"Linux","password":true,"vac":true,"version":"7882260","steam_id":85568392924742830,"keywords":["nocrits","nodmgspread","payload","uncletopia"],"game_id":440,"stv_port":27066,"stv_name":"Uncletopia | London | 6 | All Maps | STV","players":[{"user_id":10,"name":"Livicron","steam_id":76561199133754491,"connected_time":2953000000000,"state":"active","ping":86},{"user_id":50,"name":"Frylock","steam_id":76561198050292560,"connected_time":117000000000,"state":"active","ping":50},{"user_id":15,"name":"Wholesome","steam_id":76561198010329501,"connected_time":1503000000000,"state":"active","ping":73},{"user_id":17,"name":"vurtun","steam_id":76561198857395274,"connected_time":1363000000000,"state":"active","ping":58},{"user_id":18,"name":"single celled organism","steam_id":76561199060384919,"connected_time":1278000000000,"state":"active","ping":39},{"user_id":45,"name":"MEDiUM","steam_id":76561198112328561,"connected_time":414000000000,"state":"active","ping":90},{"user_id":49,"name":"Razorback from Team Fortress 2","steam_id":76561199214163032,"connected_time":203000000000,"state":"active","ping":92},{"user_id":31,"name":"Elora","steam_id":76561198040510572,"connected_time":719000000000,"state":"active","ping":36},{"user_id":22,"name":"Politick√© Provokace","steam_id":76561198412700635,"connected_time":943000000000,"state":"active","ping":71},{"user_id":23,"name":"The Son Of A Shepard","steam_id":76561198878905934,"connected_time":917000000000,"state":"active","ping":97},{"user_id":24,"name":"Ginger Mountain Man","steam_id":76561198272593857,"connected_time":871000000000,"state":"active","ping":147},{"user_id":25,"name":"Mr. Gaming","steam_id":76561198159360685,"connected_time":852000000000,"state":"active","ping":115},{"user_id":26,"name":"Mr. Sandman","steam_id":76561198281209867,"connected_time":829000000000,"state":"active","ping":60},{"user_id":27,"name":"ideamerit","steam_id":76561198934423030,"connected_time":790000000000,"state":"active","ping":84},{"user_id":28,"name":"BKA922","steam_id":76561198140035589,"connected_time":774000000000,"state":"active","ping":135},{"user_id":29,"name":"woman (rare)","steam_id":76561198274631806,"connected_time":773000000000,"state":"active","ping":48},{"user_id":43,"name":"pepper","steam_id":76561198059782462,"connected_time":506000000000,"state":"active","ping":61},{"user_id":34,"name":"OneManEnsemble","steam_id":76561198200890163,"connected_time":704000000000,"state":"active","ping":122},{"user_id":35,"name":"vsakijmaksim","steam_id":76561199478364223,"connected_time":687000000000,"state":"active","ping":122},{"user_id":44,"name":"MisterLegitimate","steam_id":76561199198559715,"connected_time":495000000000,"state":"active","ping":57},{"user_id":37,"name":"the joy of recycling","steam_id":76561198415564349,"connected_time":681000000000,"state":"active","ping":60},{"user_id":38,"name":"InT","steam_id":76561198155380945,"connected_time":667000000000,"state":"active","ping":135},{"user_id":42,"name":"Mr. Mundy","steam_id":76561198132008918,"connected_time":645000000000,"state":"active","ping":85},{"user_id":41,"name":"SuntanPikachu","steam_id":76561198121242476,"connected_time":652000000000,"state":"active","ping":72}]},{"server_id":40,"name":"Uncletopia | London | 7 | No Payload","name_short":"lon-7","host":"lon-1.uk.uncletopia.com","port":27075,"enabled":true,"region":"eu","cc":"gb","latitude":51.509865,"longitude":-0.118092,"reserved":0,"last_update":"0001-01-01T00:00:00Z","name_a2s":"Uncletopia | London | 7 | No Payload","protocol":17,"map":"cp_sunshine","folder":"tf","game":"Team Fortress","app_id":440,"player_count":24,"max_players":24,"Bots":0,"server_type":"Dedicated","server_os":"Linux","password":true,"vac":true,"version":"7882260","steam_id":85568392924964314,"keywords":["cp","nocrits","nodmgspread","uncletopia"],"game_id":440,"stv_port":27076,"stv_name":"Uncletopia | London | 7 | No Payload | STV","players":[{"user_id":268,"name":"–ê–Ω–¥—Ä–µ–π","steam_id":76561199004027817,"connected_time":2725000000000,"state":"active","ping":124},{"user_id":305,"name":"frammie","steam_id":76561198040904451,"connected_time":1076000000000,"state":"active","ping":46},{"user_id":159,"name":"Starach","steam_id":76561198084530972,"connected_time":9076000000000,"state":"active","ping":58},{"user_id":297,"name":"kag","steam_id":76561198059813166,"connected_time":1794000000000,"state":"active","ping":45},{"user_id":307,"name":"Lyncurion","steam_id":76561199260022725,"connected_time":493000000000,"state":"active","ping":77},{"user_id":239,"name":"wtabs","steam_id":76561198831766743,"connected_time":3552000000000,"state":"active","ping":81},{"user_id":308,"name":"Raymus","steam_id":76561198021330407,"connected_time":254000000000,"state":"active","ping":50},{"user_id":310,"name":"Saint","steam_id":76561198003296382,"connected_time":32000000000,"state":"spawning","ping":72},{"user_id":300,"name":"Pancake Bunny","steam_id":76561198008221326,"connected_time":1606000000000,"state":"active","ping":75},{"user_id":304,"name":"TheBeardedM1G","steam_id":76561198040208946,"connected_time":1204000000000,"state":"active","ping":45},{"user_id":229,"name":"Kitfist","steam_id":76561198048559338,"connected_time":4927000000000,"state":"active","ping":69},{"user_id":205,"name":"Der Herr Doktor","steam_id":76561198119476089,"connected_time":6620000000000,"state":"active","ping":66},{"user_id":302,"name":"Kibby","steam_id":76561197990056450,"connected_time":1275000000000,"state":"active","ping":53},{"user_id":194,"name":"Jonathan","steam_id":76561198087988880,"connected_time":7317000000000,"state":"active","ping":57},{"user_id":224,"name":"Space","steam_id":76561198021572167,"connected_time":5192000000000,"state":"active","ping":44},{"user_id":233,"name":"Maddie Downich","steam_id":76561198152392309,"connected_time":4397000000000,"state":"active","ping":45},{"user_id":209,"name":"Elsuedi","steam_id":76561198074722832,"connected_time":6109000000000,"state":"active","ping":65},{"user_id":212,"name":"LarsInABox","steam_id":76561198028329262,"connected_time":5882000000000,"state":"active","ping":69},{"user_id":298,"name":"gamer","steam_id":76561198052344629,"connected_time":1763000000000,"state":"active","ping":30},{"user_id":301,"name":"Dio","steam_id":76561198117685434,"connected_time":1491000000000,"state":"active","ping":86},{"user_id":177,"name":"hhhhhh","steam_id":76561198031982574,"connected_time":8366000000000,"state":"active","ping":67},{"user_id":264,"name":"Fat Pigeon","steam_id":76561198817940142,"connected_time":2866000000000,"state":"active","ping":46},{"user_id":228,"name":"Gimli","steam_id":76561198004149706,"connected_time":5032000000000,"state":"active","ping":61},{"user_id":280,"name":"mark of the outsider","steam_id":76561198309246388,"connected_time":2523000000000,"state":"active","ping":58}]},{"server_id":41,"name":"Uncletopia | London | 8 | Community","name_short":"lon-8","host":"lon-1.uk.uncletopia.com","port":27085,"enabled":true,"region":"eu","cc":"gb","latitude":51.509865,"longitude":-0.118092,"reserved":0,"last_update":"0001-01-01T00:00:00Z","name_a2s":"Uncletopia | London | 8 | Community","protocol":17,"map":"workshop/koth_trenchfoot_b1a.ugc731436616","folder":"tf","game":"Team Fortress","app_id":440,"player_count":0,"max_players":24,"Bots":0,"server_type":"Dedicated","server_os":"Linux","password":true,"vac":true,"version":"7882260","steam_id":85568392924964315,"keywords":["cp","nocrits","nodmgspread","uncletopia"],"game_id":440,"stv_port":27086,"stv_name":"Uncletopia | London | 8 | Community | STV","players":null},{"server_id":300,"name":"Uncletopia | Montr√©al | 1 | All Maps","name_short":"mtl-1","host":"mtl-1.ca.uncletopia.com","port":27015,"enabled":true,"region":"us-east","cc":"ca","latitude":45.50889,"longitude":-73.56167,"reserved":0,"last_update":"0001-01-01T00:00:00Z","name_a2s":"Uncletopia | Montr√©al | 1 | All Maps","protocol":17,"map":"cp_dustbowl","folder":"tf","game":"Team Fortress","app_id":440,"player_count":0,"max_players":24,"Bots":0,"server_type":"Dedicated","server_os":"Linux","password":true,"vac":true,"version":"7882260","steam_id":85568392924500087,"keywords":["cp","nocrits","nodmgspread","uncletopia"],"game_id":440,"stv_port":27016,"stv_name":"Uncletopia | Montr√©al | 1 | All Maps | STV","players":null},{"server_id":301,"name":"Uncletopia | Montr√©al | 2 | All Maps","name_short":"mtl-2","host":"mtl-1.ca.uncletopia.com","port":27025,"enabled":true,"region":"us-east","cc":"ca","latitude":45.50889,"longitude":-73.56167,"reserved":0,"last_update":"0001-01-01T00:00:00Z","name_a2s":"Uncletopia | Montr√©al | 2 | All Maps","protocol":17,"map":"pl_swiftwater_final1","folder":"tf","game":"Team Fortress","app_id":440,"player_count":0,"max_players":24,"Bots":0,"server_type":"Dedicated","server_os":"Linux","password":true,"vac":true,"version":"7882260","steam_id":85568392924500088,"keywords":["nocrits","nodmgspread","payload","uncletopia"],"game_id":440,"stv_port":27026,"stv_name":"Uncletopia | Montr√©al | 2 | All Maps | STV","players":null},{"server_id":302,"name":"Uncletopia | Montr√©al | 3 | All Maps","name_short":"mtl-3","host":"mtl-1.ca.uncletopia.com","port":27035,"enabled":true,"region":"us-east","cc":"ca","latitude":45.50889,"longitude":-73.56167,"reserved":0,"last_update":"0001-01-01T00:00:00Z","name_a2s":"Uncletopia | Montr√©al | 3 | All Maps","protocol":17,"map":"pl_swiftwater_final1","folder":"tf","game":"Team Fortress","app_id":440,"player_count":0,"max_players":24,"Bots":0,"server_type":"Dedicated","server_os":"Linux","password":true,"vac":true,"version":"7882260","steam_id":85568392924500089,"keywords":["nocrits","nodmgspread","payload","uncletopia"],"game_id":440,"stv_port":27036,"stv_name":"Uncletopia | Montr√©al | 3 | All Maps | STV","players":null},{"server_id":303,"name":"Uncletopia | Montr√©al | 4 | No Payload","name_short":"mtl-4","host":"mtl-1.ca.uncletopia.com","port":27045,"enabled":true,"region":"us-east","cc":"ca","latitude":45.50889,"longitude":-73.56167,"reserved":0,"last_update":"0001-01-01T00:00:00Z","name_a2s":"Uncletopia | Montr√©al | 4 | No Payload","protocol":17,"map":"koth_highpass","folder":"tf","game":"Team Fortress","app_id":440,"player_count":0,"max_players":24,"Bots":0,"server_type":"Dedicated","server_os":"Linux","password":true,"vac":true,"version":"7882260","steam_id":85568392924500090,"keywords":["cp","nocrits","nodmgspread","uncletopia"],"game_id":440,"stv_port":27046,"stv_name":"Uncletopia | Montr√©al | 4 | No Payload | STV","players":null},{"server_id":13,"name":"Uncletopia | New York City | 1 | All Maps","name_short":"nyc-1","host":"nyc-1.us.uncletopia.com","port":27015,"enabled":true,"region":"us-east","cc":"us","latitude":40.73061,"longitude":-73.93524,"reserved":0,"last_update":"0001-01-01T00:00:00Z","name_a2s":"Uncletopia | New York City | 1 | All Maps","protocol":17,"map":"pl_badwater","folder":"tf","game":"Team Fortress","app_id":440,"player_count":9,"max_players":24,"Bots":0,"server_type":"Dedicated","server_os":"Linux","password":true,"vac":true,"version":"7882260","steam_id":85568392924469993,"keywords":["nocrits","nodmgspread","payload","uncletopia"],"game_id":440,"stv_port":27016,"stv_name":"Uncletopia | New York City | 1 | All Maps | STV","players":[{"user_id":16,"name":"GoofyAh","steam_id":76561199466096920,"connected_time":1254000000000,"state":"active","ping":107},{"user_id":29,"name":"the fog","steam_id":76561198067289381,"connected_time":73000000000,"state":"active","ping":163},{"user_id":13,"name":"Fish","steam_id":76561199258053772,"connected_time":1344000000000,"state":"active","ping":67},{"user_id":18,"name":"Gaskranx","steam_id":76561198020269547,"connected_time":1036000000000,"state":"active","ping":54},{"user_id":24,"name":"Pinto","steam_id":76561199105386998,"connected_time":446000000000,"state":"active","ping":90},{"user_id":25,"name":"The Knight","steam_id":76561198055320626,"connected_time":393000000000,"state":"active","ping":161},{"user_id":30,"name":"nickname 123","steam_id":76561198080234033,"connected_time":48000000000,"state":"active","ping":68},{"user_id":27,"name":"Dumb Kid","steam_id":76561198304180941,"connected_time":210000000000,"state":"active","ping":102},{"user_id":31,"name":"Celestia","steam_id":76561198868600487,"connected_time":25000000000,"state":"active","ping":170}]},{"server_id":14,"name":"Uncletopia | New York City | 2 | All Maps","name_short":"nyc-2","host":"nyc-1.us.uncletopia.com","port":27025,"enabled":true,"region":"us-east","cc":"us","latitude":40.73061,"longitude":-73.93524,"reserved":0,"last_update":"0001-01-01T00:00:00Z","name_a2s":"Uncletopia | New York City | 2 | All Maps","protocol":17,"map":"koth_nucleus","folder":"tf","game":"Team Fortress","app_id":440,"player_count":24,"max_players":24,"Bots":0,"server_type":"Dedicated","server_os":"Linux","password":true,"vac":true,"version":"7882260","steam_id":85568392924469994,"keywords":["cp","nocrits","nodmgspread","uncletopia"],"game_id":440,"stv_port":27026,"stv_name":"Uncletopia | New York City | 2 | All Maps | STV","players":[{"user_id":79,"name":"moe","steam_id":76561198929586245,"connected_time":2181000000000,"state":"active","ping":106},{"user_id":46,"name":"SHADY SWEATER SALESMAN","steam_id":76561198014616865,"connected_time":5126000000000,"state":"active","ping":50},{"user_id":24,"name":"ChoiBoi9001","steam_id":76561199401392691,"connected_time":5807000000000,"state":"active","ping":72},{"user_id":97,"name":"Skiddy","steam_id":76561198125942665,"connected_time":421000000000,"state":"active","ping":59},{"user_id":82,"name":"Trotsky Gaming","steam_id":76561199101638460,"connected_time":1574000000000,"state":"active","ping":89},{"user_id":9,"name":"Periculosum PhD in Funny","steam_id":76561198123370914,"connected_time":6608000000000,"state":"active","ping":84},{"user_id":92,"name":"Nic0","steam_id":76561198305690218,"connected_time":709000000000,"state":"active","ping":58},{"user_id":86,"name":"desertcamila","steam_id":76561198249331208,"connected_time":737000000000,"state":"active","ping":66},{"user_id":100,"name":"Kasodani Kyouko","steam_id":76561198023178589,"connected_time":66000000000,"state":"active","ping":89},{"user_id":74,"name":"payload","steam_id":76561198063475894,"connected_time":2776000000000,"state":"active","ping":63},{"user_id":87,"name":"Gocel","steam_id":76561198071467515,"connected_time":729000000000,"state":"active","ping":42},{"user_id":85,"name":"Bee_Pirate","steam_id":76561199000599111,"connected_time":1458000000000,"state":"active","ping":74},{"user_id":67,"name":"Baron von Whoopsie","steam_id":76561197996691013,"connected_time":3337000000000,"state":"active","ping":65},{"user_id":88,"name":"bingle fantano 2","steam_id":76561197997139225,"connected_time":729000000000,"state":"active","ping":45},{"user_id":44,"name":"Soda","steam_id":76561198219209367,"connected_time":5171000000000,"state":"active","ping":84},{"user_id":31,"name":"Raptoria","steam_id":76561198105613110,"connected_time":5659000000000,"state":"active","ping":60},{"user_id":95,"name":"Voodo133","steam_id":76561198042670351,"connected_time":593000000000,"state":"active","ping":75},{"user_id":33,"name":"1-800-GHOST-DANCE","steam_id":76561198835430429,"connected_time":5616000000000,"state":"active","ping":62},{"user_id":99,"name":"peee pee man","steam_id":76561198044979205,"connected_time":131000000000,"state":"active","ping":50},{"user_id":75,"name":"Gentoo Linux Gaming","steam_id":76561197999657118,"connected_time":2396000000000,"state":"active","ping":71},{"user_id":78,"name":"Yesu","steam_id":76561198026522528,"connected_time":2325000000000,"state":"active","ping":56},{"user_id":76,"name":"A Puppy","steam_id":76561198828184456,"connected_time":2344000000000,"state":"active","ping":53},{"user_id":68,"name":"dr peppah chug!","steam_id":76561198068835693,"connected_time":3225000000000,"state":"active","ping":83},{"user_id":90,"name":"Nerrrd_","steam_id":76561198870129960,"connected_time":723000000000,"state":"active","ping":44}]},{"server_id":15,"name":"Uncletopia | New York City | 3 | Stopwatch Beta","name_short":"nyc-3","host":"nyc-1.us.uncletopia.com","port":27035,"enabled":true,"region":"us-east","cc":"us","latitude":40.73061,"longitude":-73.93524,"reserved":0,"last_update":"0001-01-01T00:00:00Z","name_a2s":"Uncletopia | New York City | 3 | Stopwatch Beta","protocol":17,"map":"pl_borneo","folder":"tf","game":"Team Fortress","app_id":440,"player_count":0,"max_players":24,"Bots":0,"server_type":"Dedicated","server_os":"Linux","password":true,"vac":true,"version":"7882260","steam_id":85568392924742820,"keywords":["nocrits","nodmgspread","payload","uncletopia"],"game_id":440,"stv_port":27036,"stv_name":"Uncletopia | New York City | 3 | Stopwatch Beta | STV","players":null},{"server_id":16,"name":"Uncletopia | New York City | 4 | Community","name_short":"nyc-4","host":"nyc-1.us.uncletopia.com","port":27045,"enabled":true,"region":"us-east","cc":"us","latitude":40.73061,"longitude":-73.93524,"reserved":0,"last_update":"0001-01-01T00:00:00Z","name_a2s":"Uncletopia | New York City | 4 | Community","protocol":17,"map":"cp_altitude","folder":"tf","game":"Team Fortress","app_id":440,"player_count":0,"max_players":24,"Bots":0,"server_type":"Dedicated","server_os":"Linux","password":true,"vac":true,"version":"7882260","steam_id":85568392924742821,"keywords":["cp","nocrits","nodmgspread","uncletopia"],"game_id":440,"stv_port":27046,"stv_name":"Uncletopia | New York City | 4 | Community | STV","players":null},{"server_id":142,"name":"Uncletopia | S√£o Paulo | 1 | All Maps","name_short":"sao-1","host":"sao-1.br.uncletopia.com","port":27015,"enabled":true,"region":"sa","cc":"br","latitude":-23.533773,"longitude":-46.62529,"reserved":0,"last_update":"0001-01-01T00:00:00Z","name_a2s":"Uncletopia | S√£o Paulo | 1 | All Maps","protocol":17,"map":"pl_upward","folder":"tf","game":"Team Fortress","app_id":440,"player_count":0,"max_players":24,"Bots":0,"server_type":"Dedicated","server_os":"Linux","password":true,"vac":true,"version":"7882260","steam_id":85568392924469996,"keywords":["nocrits","nodmgspread","payload","uncletopia"],"game_id":440,"stv_port":27016,"stv_name":"Uncletopia | S√£o Paulo | 1 | All Maps | STV","players":null},{"server_id":143,"name":"Uncletopia | S√£o Paulo | 2 | All Maps","name_short":"sao-2","host":"sao-2.br.uncletopia.com","port":27015,"enabled":true,"region":"sa","cc":"br","latitude":-23.533773,"longitude":-46.62529,"reserved":0,"last_update":"0001-01-01T00:00:00Z","name_a2s":"Uncletopia | S√£o Paulo | 2 | All Maps","protocol":17,"map":"koth_viaduct","folder":"tf","game":"Team Fortress","app_id":440,"player_count":0,"max_players":24,"Bots":0,"server_type":"Dedicated","server_os":"Linux","password":true,"vac":true,"version":"7882260","steam_id":85568392924485349,"keywords":["cp","nocrits","nodmgspread","uncletopia"],"game_id":440,"stv_port":27016,"stv_name":"Uncletopia | S√£o Paulo | 2 | All Maps | STV","players":null},{"server_id":7,"name":"Uncletopia | Seattle | 1 | All Maps","name_short":"sea-1","host":"sea-1.us.uncletopia.com","port":27015,"enabled":true,"region":"us-west","cc":"us","latitude":47.608013,"longitude":-122.33517,"reserved":0,"last_update":"0001-01-01T00:00:00Z","name_a2s":"Uncletopia | Seattle | 1 | All Maps","protocol":17,"map":"pl_frontier_final","folder":"tf","game":"Team Fortress","app_id":440,"player_count":24,"max_players":24,"Bots":0,"server_type":"Dedicated","server_os":"Linux","password":true,"vac":true,"version":"7882260","steam_id":85568392924469997,"keywords":["nocrits","nodmgspread","payload","uncletopia"],"game_id":440,"stv_port":27016,"stv_name":"Uncletopia | Seattle | 1 | All Maps | STV","players":[{"user_id":113,"name":"Portal2Player","steam_id":76561198062870114,"connected_time":4066000000000,"state":"active","ping":172},{"user_id":129,"name":"Eraser cat","steam_id":76561199045570463,"connected_time":2812000000000,"state":"active","ping":44},{"user_id":120,"name":"Party_Garden","steam_id":76561198136313469,"connected_time":3829000000000,"state":"active","ping":132},{"user_id":115,"name":"\\m/ Cyfun (she/it)","steam_id":76561197960882221,"connected_time":3991000000000,"state":"active","ping":94},{"user_id":116,"name":"Five","steam_id":76561198026640473,"connected_time":3953000000000,"state":"active","ping":59},{"user_id":142,"name":"lili","steam_id":76561199391478575,"connected_time":541000000000,"state":"active","ping":65},{"user_id":133,"name":"Noxitril_Enjoyer","steam_id":76561198870649125,"connected_time":2492000000000,"state":"active","ping":88},{"user_id":109,"name":"Wacks","steam_id":76561198079476100,"connected_time":4276000000000,"state":"active","ping":73},{"user_id":134,"name":"Noxus","steam_id":76561199009820852,"connected_time":2057000000000,"state":"active","ping":93},{"user_id":139,"name":"Solidus Joe","steam_id":76561198452540197,"connected_time":1619000000000,"state":"active","ping":51},{"user_id":141,"name":"Grilled Jizo","steam_id":76561199250875340,"connected_time":683000000000,"state":"active","ping":63},{"user_id":144,"name":"Pockets","steam_id":76561198001742296,"connected_time":323000000000,"state":"active","ping":106},{"user_id":128,"name":"Za Zombie","steam_id":76561198055545262,"connected_time":2915000000000,"state":"active","ping":89},{"user_id":94,"name":"biggstarknife","steam_id":76561199475769666,"connected_time":4755000000000,"state":"active","ping":119},{"user_id":137,"name":"Bishuhp","steam_id":76561198015062850,"connected_time":1642000000000,"state":"active","ping":53},{"user_id":132,"name":"Freeza","steam_id":76561198050341005,"connected_time":2575000000000,"state":"active","ping":59},{"user_id":135,"name":"Dr. Karl, the AUS Science Guy","steam_id":76561198031278747,"connected_time":1656000000000,"state":"active","ping":48},{"user_id":148,"name":"Skabbety","steam_id":76561198168044257,"connected_time":100000000000,"state":"active","ping":38},{"user_id":125,"name":"forest (italian)","steam_id":76561198157960257,"connected_time":2951000000000,"state":"active","ping":41},{"user_id":112,"name":"lox","steam_id":76561198288531493,"connected_time":4103000000000,"state":"active","ping":56},{"user_id":124,"name":"Keamy","steam_id":76561199471434875,"connected_time":2957000000000,"state":"active","ping":44},{"user_id":146,"name":"SquirrelAway‚Ñ¢","steam_id":76561197998828619,"connected_time":287000000000,"state":"active","ping":85},{"user_id":147,"name":"RandomGavin?","steam_id":76561199102839784,"connected_time":287000000000,"state":"active","ping":129},{"user_id":126,"name":"Nibotshooter","steam_id":76561199284825579,"connected_time":2951000000000,"state":"active","ping":89}]},{"server_id":119,"name":"Uncletopia | Seattle | 2 | All Maps","name_short":"sea-2","host":"sea-1.us.uncletopia.com","port":27025,"enabled":true,"region":"us-west","cc":"us","latitude":47.608013,"longitude":-122.33517,"reserved":0,"last_update":"0001-01-01T00:00:00Z","name_a2s":"Uncletopia | Seattle | 2 | All Maps","protocol":17,"map":"pl_snowycoast","folder":"tf","game":"Team Fortress","app_id":440,"player_count":24,"max_players":24,"Bots":0,"server_type":"Dedicated","server_os":"Linux","password":true,"vac":true,"version":"7882260","steam_id":85568392924469998,"keywords":["nocrits","nodmgspread","payload","uncletopia"],"game_id":440,"stv_port":27026,"stv_name":"Uncletopia | Seattle | 2 | All Maps | STV","players":[{"user_id":83,"name":"Kipper","steam_id":76561198008515450,"connected_time":664000000000,"state":"active","ping":77},{"user_id":72,"name":"a narwhal","steam_id":76561198014527353,"connected_time":1802000000000,"state":"active","ping":114},{"user_id":41,"name":"Dogg wader","steam_id":76561199090314340,"connected_time":4138000000000,"state":"active","ping":67},{"user_id":93,"name":"sillyjack","steam_id":76561198844273999,"connected_time":110000000000,"state":"active","ping":41},{"user_id":84,"name":"Coowil","steam_id":76561198070985437,"connected_time":607000000000,"state":"active","ping":39},{"user_id":90,"name":"damian penjamin luck","steam_id":76561198170381402,"connected_time":180000000000,"state":"active","ping":105},{"user_id":87,"name":"someone","steam_id":76561199467334502,"connected_time":251000000000,"state":"active","ping":71},{"user_id":86,"name":"Shark Sandwich","steam_id":76561198025007938,"connected_time":412000000000,"state":"active","ping":59},{"user_id":95,"name":"Helios","steam_id":76561199260846464,"connected_time":35000000000,"state":"active","ping":211},{"user_id":79,"name":"vanilla gorilla","steam_id":76561198007867721,"connected_time":1579000000000,"state":"active","ping":75},{"user_id":53,"name":"Nepeta in Solitary Confinement","steam_id":76561198864226651,"connected_time":3411000000000,"state":"active","ping":53},{"user_id":88,"name":"cilo","steam_id":76561198046163502,"connected_time":239000000000,"state":"active","ping":64},{"user_id":68,"name":"pafijohn","steam_id":76561198002535190,"connected_time":2299000000000,"state":"active","ping":74},{"user_id":57,"name":"Pre Pissed Pants","steam_id":76561198042143837,"connected_time":3245000000000,"state":"active","ping":67},{"user_id":80,"name":"Pickleball Smigglepants","steam_id":76561199060126941,"connected_time":1448000000000,"state":"active","ping":131},{"user_id":33,"name":"BOO HAWND","steam_id":76561198141617142,"connected_time":4414000000000,"state":"active","ping":149},{"user_id":81,"name":"A Crayon FEAST!","steam_id":76561198011675372,"connected_time":1391000000000,"state":"active","ping":56},{"user_id":82,"name":"dweaver","steam_id":76561198119610135,"connected_time":1023000000000,"state":"active","ping":84},{"user_id":37,"name":"Yummy Kabobz","steam_id":76561198067661705,"connected_time":4272000000000,"state":"active","ping":115},{"user_id":92,"name":"Training Arc","steam_id":76561198038832034,"connected_time":167000000000,"state":"active","ping":60},{"user_id":94,"name":"Wang of Wall St","steam_id":76561198047460598,"connected_time":103000000000,"state":"active","ping":128},{"user_id":58,"name":"the","steam_id":76561198003226288,"connected_time":2821000000000,"state":"active","ping":118},{"user_id":78,"name":"b3afy","steam_id":76561198084208649,"connected_time":1766000000000,"state":"active","ping":45},{"user_id":66,"name":"Power Jake","steam_id":76561198051510260,"connected_time":2405000000000,"state":"active","ping":61}]},{"server_id":406,"name":"Uncletopia | Seattle | 3 | Stopwatch Beta","name_short":"sea-3","host":"sea-1.us.uncletopia.com","port":27035,"enabled":true,"region":"us-west","cc":"us","latitude":47.608013,"longitude":-122.33517,"reserved":0,"last_update":"0001-01-01T00:00:00Z","name_a2s":"Uncletopia | Seattle | 3 | Stopwatch Beta","protocol":17,"map":"koth_viaduct","folder":"tf","game":"Team Fortress","app_id":440,"player_count":0,"max_players":24,"Bots":0,"server_type":"Dedicated","server_os":"Linux","password":true,"vac":true,"version":"7882260","steam_id":85568392924515217,"keywords":["cp","nocrits","nodmgspread","uncletopia"],"game_id":440,"stv_port":27036,"stv_name":"Uncletopia | Seattle | 3 | Stopwatch Beta | STV","players":null},{"server_id":17,"name":"Uncletopia | San Francisco | 1 | All Maps","name_short":"sfo-1","host":"sfo-1.us.uncletopia.com","port":27015,"enabled":true,"region":"us-west","cc":"us","latitude":37.77397,"longitude":-122.4313,"reserved":0,"last_update":"0001-01-01T00:00:00Z","name_a2s":"Uncletopia | San Francisco | 1 | All Maps","protocol":17,"map":"pl_swiftwater_final1","folder":"tf","game":"Team Fortress","app_id":440,"player_count":20,"max_players":24,"Bots":0,"server_type":"Dedicated","server_os":"Linux","password":true,"vac":true,"version":"7882260","steam_id":85568392924469999,"keywords":["nocrits","nodmgspread","payload","uncletopia"],"game_id":440,"stv_port":27016,"stv_name":"Uncletopia | San Francisco | 1 | All Maps | STV","players":[{"user_id":80,"name":"Grand","steam_id":76561198290143399,"connected_time":459000000000,"state":"active","ping":66},{"user_id":86,"name":"Vordt","steam_id":76561198040942866,"connected_time":50000000000,"state":"spawning","ping":102},{"user_id":84,"name":"advent","steam_id":76561198136475311,"connected_time":160000000000,"state":"active","ping":91},{"user_id":11,"name":"BoX_hEaD101","steam_id":76561198200875467,"connected_time":3839000000000,"state":"active","ping":70},{"user_id":85,"name":"A Gmod Virgin","steam_id":76561198420637458,"connected_time":77000000000,"state":"active","ping":73},{"user_id":87,"name":"Dino Doggo","steam_id":76561198314271909,"connected_time":47000000000,"state":"active","ping":127},{"user_id":40,"name":"Xylaite ÓÄî","steam_id":76561198210402325,"connected_time":2021000000000,"state":"active","ping":60},{"user_id":75,"name":"Karen","steam_id":76561198309442440,"connected_time":718000000000,"state":"active","ping":86},{"user_id":61,"name":"ForAPessimistImPrettyOptimistic","steam_id":76561198170128009,"connected_time":1340000000000,"state":"active","ping":53},{"user_id":50,"name":"Phat Cat","steam_id":76561198123017274,"connected_time":1676000000000,"state":"active","ping":117},{"user_id":27,"name":"pyhn","steam_id":76561198096412192,"connected_time":2408000000000,"state":"active","ping":95},{"user_id":56,"name":"incompetentmedic","steam_id":76561199466073856,"connected_time":1589000000000,"state":"active","ping":109},{"user_id":30,"name":"MithStyck","steam_id":76561198071538489,"connected_time":2167000000000,"state":"active","ping":86},{"user_id":81,"name":"Sporp","steam_id":76561197987957133,"connected_time":438000000000,"state":"active","ping":141},{"user_id":48,"name":"Satori Komeiji","steam_id":76561198158211423,"connected_time":1692000000000,"state":"active","ping":50},{"user_id":35,"name":"ORANGE","steam_id":76561198000401769,"connected_time":2091000000000,"state":"active","ping":61},{"user_id":65,"name":"Ockulus","steam_id":76561199069638460,"connected_time":1053000000000,"state":"active","ping":56},{"user_id":78,"name":"Random","steam_id":76561199116602799,"connected_time":606000000000,"state":"active","ping":184},{"user_id":53,"name":"Evenaris","steam_id":76561198087544319,"connected_time":1636000000000,"state":"active","ping":55},{"user_id":82,"name":"chicken","steam_id":76561198196998007,"connected_time":283000000000,"state":"active","ping":48}]},{"server_id":18,"name":"Uncletopia | San Francisco | 2 | All Maps","name_short":"sfo-2","host":"sfo-1.us.uncletopia.com","port":27025,"enabled":true,"region":"us-west","cc":"us","latitude":37.77397,"longitude":-122.4313,"reserved":0,"last_update":"0001-01-01T00:00:00Z","name_a2s":"Uncletopia | San Francisco | 2 | All Maps","protocol":17,"map":"pl_frontier_final","folder":"tf","game":"Team Fortress","app_id":440,"player_count":1,"max_players":24,"Bots":0,"server_type":"Dedicated","server_os":"Linux","password":true,"vac":true,"version":"7882260","steam_id":85568392924470000,"keywords":["nocrits","nodmgspread","payload","uncletopia"],"game_id":440,"stv_port":27026,"stv_name":"Uncletopia | San Francisco | 2 | All Maps | STV","players":[{"user_id":3,"name":"OneTrueMako","steam_id":76561199108504378,"connected_time":487000000000,"state":"active","ping":142}]},{"server_id":19,"name":"Uncletopia | San Francisco | 3 | Stopwatch Beta","name_short":"sfo-3","host":"sfo-1.us.uncletopia.com","port":27035,"enabled":true,"region":"us-west","cc":"us","latitude":37.77397,"longitude":-122.4313,"reserved":0,"last_update":"0001-01-01T00:00:00Z","name_a2s":"Uncletopia | San Francisco | 3 | Stopwatch Beta","protocol":17,"map":"pl_snowycoast","folder":"tf","game":"Team Fortress","app_id":440,"player_count":0,"max_players":24,"Bots":0,"server_type":"Dedicated","server_os":"Linux","password":true,"vac":true,"version":"7882260","steam_id":85568392924742824,"keywords":["nocrits","nodmgspread","payload","uncletopia"],"game_id":440,"stv_port":27036,"stv_name":"Uncletopia | San Francisco | 3 | Stopwatch Beta | STV","players":null},{"server_id":20,"name":"Uncletopia | San Francisco | 4 | Community","name_short":"sfo-4","host":"sfo-1.us.uncletopia.com","port":27045,"enabled":true,"region":"us-west","cc":"us","latitude":37.77397,"longitude":-122.4313,"reserved":0,"last_update":"0001-01-01T00:00:00Z","name_a2s":"Uncletopia | San Francisco | 4 | Community","protocol":17,"map":"pl_swiftwater_final1","folder":"tf","game":"Team Fortress","app_id":440,"player_count":0,"max_players":24,"Bots":0,"server_type":"Dedicated","server_os":"Linux","password":true,"vac":true,"version":"7882260","steam_id":85568392924742826,"keywords":["nocrits","nodmgspread","payload","uncletopia"],"game_id":440,"stv_port":27046,"stv_name":"Uncletopia | San Francisco | 4 | Community | STV","players":null},{"server_id":141,"name":"Uncletopia | Sydney | 1 | All Maps","name_short":"syd-1","host":"syd-1.au.uncletopia.com","port":27015,"enabled":true,"region":"au","cc":"au","latitude":-33.865143,"longitude":151.2099,"reserved":0,"last_update":"0001-01-01T00:00:00Z","name_a2s":"Uncletopia | Sydney | 1 | All Maps","protocol":17,"map":"cp_altitude","folder":"tf","game":"Team Fortress","app_id":440,"player_count":0,"max_players":24,"Bots":0,"server_type":"Dedicated","server_os":"Linux","password":true,"vac":true,"version":"7882260","steam_id":85568392924470001,"keywords":["cp","nocrits","nodmgspread","uncletopia"],"game_id":440,"stv_port":27016,"stv_name":"Uncletopia | Sydney | 1 | All Maps | STV","players":null},{"server_id":123,"name":"Uncletopia | Sydney | 2 | All Maps","name_short":"syd-2","host":"syd-1.au.uncletopia.com","port":27025,"enabled":true,"region":"au","cc":"au","latitude":-33.865143,"longitude":151.2099,"reserved":0,"last_update":"0001-01-01T00:00:00Z","name_a2s":"Uncletopia | Sydney | 2 | All Maps","protocol":17,"map":"cp_snakewater_final1","folder":"tf","game":"Team Fortress","app_id":440,"player_count":0,"max_players":24,"Bots":0,"server_type":"Dedicated","server_os":"Linux","password":true,"vac":true,"version":"7882260","steam_id":85568392924470002,"keywords":["cp","nocrits","nodmgspread","uncletopia"],"game_id":440,"stv_port":27026,"stv_name":"Uncletopia | Sydney | 2 | All Maps | STV","players":null},{"server_id":395,"name":"Uncletopia | Sydney | 3 | All Maps","name_short":"syd-3","host":"syd-1.au.uncletopia.com","port":27035,"enabled":true,"region":"au","cc":"au","latitude":-33.865143,"longitude":151.2099,"reserved":0,"last_update":"0001-01-01T00:00:00Z","name_a2s":"Uncletopia | Sydney | 3 | All Maps","protocol":17,"map":"pl_badwater","folder":"tf","game":"Team Fortress","app_id":440,"player_count":0,"max_players":24,"Bots":0,"server_type":"Dedicated","server_os":"Linux","password":true,"vac":true,"version":"7882260","steam_id":85568392925194467,"keywords":["nocrits","nodmgspread","payload","uncletopia"],"game_id":440,"stv_port":27036,"stv_name":"Uncletopia | Sydney | 3 | All Maps | STV","players":null},{"server_id":396,"name":"Uncletopia | Sydney | 4 | All Maps","name_short":"syd-4","host":"syd-1.au.uncletopia.com","port":27045,"enabled":true,"region":"au","cc":"au","latitude":-33.865143,"longitude":151.2099,"reserved":0,"last_update":"0001-01-01T00:00:00Z","name_a2s":"Uncletopia | Sydney | 4 | All Maps","protocol":17,"map":"cp_altitude","folder":"tf","game":"Team Fortress","app_id":440,"player_count":0,"max_players":24,"Bots":0,"server_type":"Dedicated","server_os":"Linux","password":true,"vac":true,"version":"7882260","steam_id":85568392925397958,"keywords":["cp","nocrits","nodmgspread","uncletopia"],"game_id":440,"stv_port":27046,"stv_name":"Uncletopia | Sydney | 4 | All Maps | STV","players":null},{"server_id":58,"name":"Uncletopia | Sydney | 5 | Stopwatch Beta","name_short":"syd-5","host":"syd-1.au.uncletopia.com","port":27055,"enabled":true,"region":"au","cc":"au","latitude":-33.865143,"longitude":151.2099,"reserved":0,"last_update":"0001-01-01T00:00:00Z","name_a2s":"Uncletopia | Sydney | 5 | Stopwatch Beta","protocol":17,"map":"koth_viaduct","folder":"tf","game":"Team Fortress","app_id":440,"player_count":0,"max_players":24,"Bots":0,"server_type":"Dedicated","server_os":"Linux","password":true,"vac":true,"version":"7882260","steam_id":85568392925397959,"keywords":["cp","nocrits","nodmgspread","uncletopia"],"game_id":440,"stv_port":27056,"stv_name":"Uncletopia | Sydney | 5 | Stopwatch Beta | STV","players":null},{"server_id":59,"name":"Uncletopia | Sydney | 6 | Community","name_short":"syd-6","host":"syd-1.au.uncletopia.com","port":27065,"enabled":true,"region":"au","cc":"au","latitude":-33.865143,"longitude":151.2099,"reserved":0,"last_update":"0001-01-01T00:00:00Z","name_a2s":"Uncletopia | Sydney | 6 | Community","protocol":17,"map":"pl_upward","folder":"tf","game":"Team Fortress","app_id":440,"player_count":0,"max_players":24,"Bots":0,"server_type":"Dedicated","server_os":"Linux","password":true,"vac":true,"version":"7882260","steam_id":85568392925397960,"keywords":["nocrits","nodmgspread","payload","uncletopia"],"game_id":440,"stv_port":27066,"stv_name":"Uncletopia | Sydney | 6 | Community | STV","players":null},{"server_id":49,"name":"Uncletopia | Warsaw | 1 | All Maps","name_short":"waw-1","host":"waw-1.pl.uncletopia.com","port":27015,"enabled":true,"region":"eu","cc":"pl","latitude":52.2297,"longitude":21.017532,"reserved":0,"last_update":"0001-01-01T00:00:00Z","name_a2s":"","protocol":0,"map":"","folder":"","game":"","app_id":0,"player_count":0,"max_players":0,"Bots":0,"server_type":"","server_os":"","password":false,"vac":false,"version":"","steam_id":0,"keywords":null,"game_id":0,"stv_port":0,"stv_name":"","players":null},{"server_id":50,"name":"Uncletopia | Warsaw | 2 | All Maps","name_short":"waw-2","host":"waw-1.pl.uncletopia.com","port":27025,"enabled":true,"region":"eu","cc":"pl","latitude":52.2297,"longitude":21.017532,"reserved":0,"last_update":"0001-01-01T00:00:00Z","name_a2s":"Uncletopia | Warsaw | 2 | All Maps","protocol":17,"map":"koth_viaduct","folder":"tf","game":"Team Fortress","app_id":440,"player_count":0,"max_players":24,"Bots":0,"server_type":"Dedicated","server_os":"Linux","password":true,"vac":true,"version":"7882260","steam_id":85568392925397851,"keywords":["cp","nocrits","nodmgspread","uncletopia"],"game_id":440,"stv_port":27026,"stv_name":"Uncletopia | Warsaw | 2 | All Maps | STV","players":null},{"server_id":51,"name":"Uncletopia | Warsaw | 3 | All Maps","name_short":"waw-3","host":"waw-1.pl.uncletopia.com","port":27035,"enabled":true,"region":"eu","cc":"pl","latitude":52.2297,"longitude":21.017532,"reserved":0,"last_update":"0001-01-01T00:00:00Z","name_a2s":"Uncletopia | Warsaw | 3 | All Maps","protocol":17,"map":"pl_badwater","folder":"tf","game":"Team Fortress","app_id":440,"player_count":0,"max_players":24,"Bots":0,"server_type":"Dedicated","server_os":"Linux","password":true,"vac":true,"version":"7882260","steam_id":85568392925397852,"keywords":["nocrits","nodmgspread","payload","uncletopia"],"game_id":440,"stv_port":27036,"stv_name":"Uncletopia | Warsaw | 3 | All Maps | STV","players":null},{"server_id":52,"name":"Uncletopia | Warsaw | 4 | All Maps","name_short":"waw-4","host":"waw-1.pl.uncletopia.com","port":27045,"enabled":true,"region":"eu","cc":"pl","latitude":52.2297,"longitude":21.017532,"reserved":0,"last_update":"0001-01-01T00:00:00Z","name_a2s":"Uncletopia | Warsaw | 4 | All Maps","protocol":17,"map":"koth_cascade","folder":"tf","game":"Team Fortress","app_id":440,"player_count":0,"max_players":24,"Bots":0,"server_type":"Dedicated","server_os":"Linux","password":true,"vac":true,"version":"7882260","steam_id":85568392925397853,"keywords":["cp","nocrits","nodmgspread","uncletopia"],"game_id":440,"stv_port":27046,"stv_name":"Uncletopia | Warsaw | 4 | All Maps | STV","players":null},{"server_id":53,"name":"Uncletopia | Warsaw | 5 | Stopwatch Beta","name_short":"waw-5","host":"waw-1.pl.uncletopia.com","port":27055,"enabled":true,"region":"eu","cc":"pl","latitude":52.2297,"longitude":21.017532,"reserved":0,"last_update":"0001-01-01T00:00:00Z","name_a2s":"Uncletopia | Warsaw | 5 | Stopwatch Beta","protocol":17,"map":"cp_gullywash_final1","folder":"tf","game":"Team Fortress","app_id":440,"player_count":0,"max_players":24,"Bots":0,"server_type":"Dedicated","server_os":"Linux","password":true,"vac":true,"version":"7882260","steam_id":85568392925397854,"keywords":["cp","nocrits","nodmgspread","uncletopia"],"game_id":440,"stv_port":27056,"stv_name":"Uncletopia | Warsaw | 5 | Stopwatch Beta | STV","players":null},{"server_id":54,"name":"Uncletopia | Warsaw | 6 | Community","name_short":"waw-6","host":"waw-1.pl.uncletopia.com","port":27065,"enabled":true,"region":"eu","cc":"pl","latitude":52.2297,"longitude":21.017532,"reserved":0,"last_update":"0001-01-01T00:00:00Z","name_a2s":"Uncletopia | Warsaw | 6 | Community","protocol":17,"map":"workshop/pl_vigil_rc9.ugc1266210012","folder":"tf","game":"Team Fortress","app_id":440,"player_count":21,"max_players":24,"Bots":0,"server_type":"Dedicated","server_os":"Linux","password":true,"vac":true,"version":"7882260","steam_id":85568392925397856,"keywords":["nocrits","nodmgspread","payload","uncletopia"],"game_id":440,"stv_port":27066,"stv_name":"Uncletopia | Warsaw | 6 | Community | STV","players":[{"user_id":7,"name":"EddieTheBear","steam_id":76561197962698753,"connected_time":4788000000000,"state":"active","ping":88},{"user_id":8,"name":"Tortoise01Swe","steam_id":76561198118673227,"connected_time":4779000000000,"state":"active","ping":95},{"user_id":9,"name":"DOODL","steam_id":76561198358378176,"connected_time":4775000000000,"state":"active","ping":98},{"user_id":10,"name":"Gardvord","steam_id":76561198120715753,"connected_time":4767000000000,"state":"active","ping":99},{"user_id":11,"name":"Elix","steam_id":76561198157179447,"connected_time":4746000000000,"state":"active","ping":76},{"user_id":65,"name":"Doggo225","steam_id":76561198166707002,"connected_time":160000000000,"state":"active","ping":68},{"user_id":67,"name":"SHFO","steam_id":76561198132104112,"connected_time":85000000000,"state":"spawning","ping":541},{"user_id":22,"name":"Smiasykao","steam_id":76561198253132954,"connected_time":3407000000000,"state":"active","ping":80},{"user_id":63,"name":"go play rimworld","steam_id":76561199397932924,"connected_time":452000000000,"state":"active","ping":45},{"user_id":61,"name":"CRIT","steam_id":76561199195096783,"connected_time":564000000000,"state":"active","ping":75},{"user_id":68,"name":"Plow cheese","steam_id":76561198142478067,"connected_time":66000000000,"state":"active","ping":103},{"user_id":62,"name":"Engophanobia","steam_id":76561198071860413,"connected_time":561000000000,"state":"active","ping":70},{"user_id":69,"name":"KeTlEr","steam_id":76561198100957443,"connected_time":33000000000,"state":"spawning","ping":201},{"user_id":20,"name":"Xestoch","steam_id":76561197999642906,"connected_time":3529000000000,"state":"active","ping":141},{"user_id":23,"name":"JareJare","steam_id":76561199040893751,"connected_time":3357000000000,"state":"active","ping":68},{"user_id":42,"name":"marysiad≈Ço18","steam_id":76561198130366273,"connected_time":1591000000000,"state":"active","ping":56},{"user_id":45,"name":"szmen","steam_id":76561198072569764,"connected_time":1491000000000,"state":"active","ping":60},{"user_id":48,"name":"Dozorce oblouku","steam_id":76561198048683488,"connected_time":1339000000000,"state":"active","ping":63},{"user_id":59,"name":"Mother Puncher","steam_id":76561198150448445,"connected_time":982000000000,"state":"active","ping":58},{"user_id":55,"name":"Penis Scout","steam_id":76561198860424456,"connected_time":1137000000000,"state":"active","ping":60},{"user_id":31,"name":"kingusiad≈Ço21","steam_id":76561198848777986,"connected_time":2766000000000,"state":"active","ping":48}]}]}