{"status":true,"message":"","result":[{"server_id":9,"name":"Uncletopia | Atlanta | 1 | All Maps","name_short":"atl-1","host":"atl-1.us.uncletopia.com","port":27015,"enabled":true,"region":"us-east","cc":"us","latitude":33.753746,"longitude":-84.38633,"reserved":0,"last_update":"0001-01-01T00:00:00Z","name_a2s":"Uncletopia | Atlanta | 1 | All Maps","protocol":17,"map":"pl_frontier_final","folder":"tf","game":"Team Fortress","app_id":440,"player_count":24,"max_players":24,"Bots":0,"server_type":"Dedicated","server_os":"Linux","password":true,"vac":true,"version":"7961495","steam_id":85568392924469982,"keywords":["nocrits","nodmgspread","payload","uncletopia"],"game_id":440,"stv_port":27016,"stv_name":"Uncletopia | Atlanta | 1 | All Maps | STV","players":null},{"server_id":104,"name":"Uncletopia | Atlanta | 2 | All Maps","name_short":"atl-2","host":"atl-1.us.uncletopia.com","port":27025,"enabled":true,"region":"us-east","cc":"us","latitude":33.753746,"longitude":-84.38633,"reserved":0,"last_update":"0001-01-01T00:00:00Z","name_a2s":"Uncletopia | Atlanta | 2 | All Maps","protocol":17,"map":"pl_snowycoast","folder":"tf","game":"Team Fortress","app_id":440,"player_count":0,"max_players":24,"Bots":0,"server_type":"Dedicated","server_os":"Linux","password":true,"vac":true,"version":"7961495","steam_id":85568392924469983,"keywords":["nocrits","nodmgspread","payload","uncletopia"],"game_id":440,"stv_port":27026,"stv_name":"Uncletopia | Atlanta | 2 | All Maps | STV","players":null},{"server_id":400,"name":"Uncletopia | Atlanta | 3 | Stopwatch","name_short":"atl-3","host":"atl-1.us.uncletopia.com","port":27035,"enabled":true,"region":"us-east","cc":"us","latitude":33.753746,"longitude":-84.38633,"reserved":0,"last_update":"0001-01-01T00:00:00Z","name_a2s":"Uncletopia | Atlanta | 3 | Stopwatch","protocol":17,"map":"cp_gullywash_final1","folder":"tf","game":"Team Fortress","app_id":440,"player_count":5,"max_players":24,"Bots":0,"server_type":"Dedicated","server_os":"Linux","password":true,"vac":true,"version":"7961495","steam_id":85568392924515187,"keywords":["cp","nocrits","nodmgspread","uncletopia"],"game_id":440,"stv_port":27036,"stv_name":"Uncletopia | Atlanta | 3 | Stopwatch | STV","players":null},{"server_id":401,"name":"Uncletopia | Atlanta | 4 | Community","name_short":"atl-4","host":"atl-1.us.uncletopia.com","port":27045,"enabled":true,"region":"us-east","cc":"us","latitude":33.753746,"longitude":-84.38633,"reserved":0,"last_update":"0001-01-01T00:00:00Z","name_a2s":"Uncletopia | Atlanta | 4 | Community","protocol":17,"map":"koth_ashville_final","folder":"tf","game":"Team Fortress","app_id":440,"player_count":0,"max_players":24,"Bots":0,"server_type":"Dedicated","server_os":"Linux","password":true,"vac":true,"version":"7961495","steam_id":85568392924515188,"keywords":["cp","nocrits","nodmgspread","uncletopia"],"game_id":440,"stv_port":27046,"stv_name":"Uncletopia | Atlanta | 4 | Community | STV","players":null},{"server_id":2,"name":"Uncletopia | Chicago | 1 | All Maps","name_short":"chi-1","host":"chi-1.us.uncletopia.com","port":27015,"enabled":true,"region":"us-central","cc":"us","latitude":41.881832,"longitude":-87.62318,"reserved":0,"last_update":"0001-01-01T00:00:00Z","name_a2s":"Uncletopia | Chicago | 1 | All Maps","protocol":17,"map":"pl_upward","folder":"tf","game":"Team Fortress","app_id":440,"player_count":24,"max_players":24,"Bots":0,"server_type":"Dedicated","server_os":"Linux","password":true,"vac":true,"version":"7961495","steam_id":85568392924469984,"keywords":["nocrits","nodmgspread","payload","uncletopia"],"game_id":440,"stv_port":27016,"stv_name":"Uncletopia | Chicago | 1 | All Maps | STV","players":[{"user_id":854,"name":"TruthHut","steam_id":76561198093452436,"connected_time":451000000000,"state":"active","ping":84},{"user_id":832,"name":"Epicmullen","steam_id":76561198259850795,"connected_time":1695000000000,"state":"active","ping":71},{"user_id":811,"name":"loser","steam_id":76561198259380127,"connected_time":3998000000000,"state":"active","ping":60},{"user_id":861,"name":"plsplsplslol","steam_id":76561198868084626,"connected_time":259000000000,"state":"active","ping":110},{"user_id":835,"name":"SirEverything","steam_id":76561199152393848,"connected_time":1615000000000,"state":"active","ping":70},{"user_id":856,"name":"Krabby","steam_id":76561198038002264,"connected_time":369000000000,"state":"active","ping":75},{"user_id":837,"name":"mwee machine","steam_id":76561198047126327,"connected_time":1543000000000,"state":"active","ping":75},{"user_id":841,"name":"Buddybudman","steam_id":76561198144316911,"connected_time":1465000000000,"state":"active","ping":74},{"user_id":842,"name":"`o2","steam_id":76561197992030936,"connected_time":1418000000000,"state":"active","ping":68},{"user_id":843,"name":"JoJoJo","steam_id":76561198067153390,"connected_time":1396000000000,"state":"active","ping":50},{"user_id":788,"name":"Astoriae!","steam_id":76561199090168858,"connected_time":6197000000000,"state":"active","ping":67},{"user_id":855,"name":"frank","steam_id":76561198137777483,"connected_time":440000000000,"state":"active","ping":63},{"user_id":862,"name":"Bunni","steam_id":76561198065169997,"connected_time":226000000000,"state":"active","ping":87},{"user_id":858,"name":"CandorDanceFloor","steam_id":76561198062980511,"connected_time":330000000000,"state":"active","ping":77},{"user_id":859,"name":"Smug Pug","steam_id":76561198059423334,"connected_time":316000000000,"state":"active","ping":53},{"user_id":828,"name":"joyeuxnoelle","steam_id":76561198062423120,"connected_time":2326000000000,"state":"active","ping":72},{"user_id":844,"name":"Juno","steam_id":76561198042417277,"connected_time":1393000000000,"state":"active","ping":57},{"user_id":850,"name":"Wicket","steam_id":76561198044023036,"connected_time":1175000000000,"state":"active","ping":46},{"user_id":860,"name":"Prsm","steam_id":76561198053344995,"connected_time":315000000000,"state":"active","ping":58},{"user_id":863,"name":"Wyatt","steam_id":76561199068781227,"connected_time":94000000000,"state":"active","ping":102},{"user_id":848,"name":"Crowvette","steam_id":76561198000457496,"connected_time":1253000000000,"state":"active","ping":90},{"user_id":852,"name":"stevie ape-shit","steam_id":76561198243965308,"connected_time":962000000000,"state":"active","ping":83},{"user_id":830,"name":"HOMIE","steam_id":76561198057325155,"connected_time":2273000000000,"state":"active","ping":65},{"user_id":853,"name":"volta","steam_id":76561199214283884,"connected_time":550000000000,"state":"active","ping":102}]},{"server_id":106,"name":"Uncletopia | Chicago | 2 | All Maps","name_short":"chi-2","host":"chi-1.us.uncletopia.com","port":27025,"enabled":true,"region":"us-central","cc":"us","latitude":41.881832,"longitude":-87.62318,"reserved":0,"last_update":"0001-01-01T00:00:00Z","name_a2s":"Uncletopia | Chicago | 2 | All Maps","protocol":17,"map":"pl_badwater","folder":"tf","game":"Team Fortress","app_id":440,"player_count":24,"max_players":24,"Bots":0,"server_type":"Dedicated","server_os":"Linux","password":true,"vac":true,"version":"7961495","steam_id":85568392924469985,"keywords":["nocrits","nodmgspread","payload","uncletopia"],"game_id":440,"stv_port":27026,"stv_name":"Uncletopia | Chicago | 2 | All Maps | STV","players":[{"user_id":688,"name":"Osteo-Oligarch","steam_id":76561198164731896,"connected_time":168000000000,"state":"active","ping":71},{"user_id":665,"name":"Goblin","steam_id":76561198338245497,"connected_time":2221000000000,"state":"active","ping":46},{"user_id":679,"name":"poggerchamp","steam_id":76561199145124973,"connected_time":1041000000000,"state":"active","ping":75},{"user_id":689,"name":"menk3","steam_id":76561198120888597,"connected_time":166000000000,"state":"active","ping":70},{"user_id":685,"name":"Nordie","steam_id":76561198102297774,"connected_time":535000000000,"state":"active","ping":62},{"user_id":640,"name":"Rambly Dambly","steam_id":76561198844496567,"connected_time":4411000000000,"state":"active","ping":53},{"user_id":690,"name":"ghurt","steam_id":76561198110161551,"connected_time":130000000000,"state":"active","ping":61},{"user_id":691,"name":"\"The Doctor\"","steam_id":76561197970838975,"connected_time":129000000000,"state":"active","ping":73},{"user_id":678,"name":"Headshotsnake","steam_id":76561198067130248,"connected_time":1405000000000,"state":"active","ping":60},{"user_id":692,"name":"DOwOughnut","steam_id":76561198127572406,"connected_time":125000000000,"state":"active","ping":67},{"user_id":676,"name":"BeautifulDeer","steam_id":76561198119588300,"connected_time":1634000000000,"state":"active","ping":73},{"user_id":693,"name":"Grasshopper506","steam_id":76561198111633418,"connected_time":98000000000,"state":"active","ping":68},{"user_id":694,"name":"Dragus","steam_id":76561198032967285,"connected_time":82000000000,"state":"active","ping":48},{"user_id":651,"name":"Mr. Tickle","steam_id":76561198126684647,"connected_time":3059000000000,"state":"active","ping":52},{"user_id":673,"name":"A Fruit","steam_id":76561198951830050,"connected_time":2021000000000,"state":"active","ping":75},{"user_id":674,"name":"uhooter","steam_id":76561198007829078,"connected_time":1913000000000,"state":"active","ping":55},{"user_id":681,"name":"Laventhey","steam_id":76561198977523626,"connected_time":1032000000000,"state":"active","ping":68},{"user_id":677,"name":"Person","steam_id":76561198093244204,"connected_time":1444000000000,"state":"active","ping":75},{"user_id":670,"name":"VileEvilLevi","steam_id":76561199226291414,"connected_time":2191000000000,"state":"active","ping":85},{"user_id":682,"name":"RipHunter77","steam_id":76561198272973014,"connected_time":1024000000000,"state":"active","ping":77},{"user_id":695,"name":"bigchungusgaming(real)","steam_id":76561198273392037,"connected_time":80000000000,"state":"active","ping":115},{"user_id":696,"name":"Ayylmao","steam_id":76561198104780147,"connected_time":77000000000,"state":"active","ping":46},{"user_id":683,"name":"Raskal20","steam_id":76561199080269137,"connected_time":975000000000,"state":"active","ping":99},{"user_id":636,"name":"bryer","steam_id":76561198097122751,"connected_time":4539000000000,"state":"active","ping":60}]},{"server_id":402,"name":"Uncletopia | Chicago | 3 | All Maps","name_short":"chi-3","host":"chi-1.us.uncletopia.com","port":27035,"enabled":true,"region":"us-central","cc":"us","latitude":41.881832,"longitude":-87.62318,"reserved":0,"last_update":"0001-01-01T00:00:00Z","name_a2s":"Uncletopia | Chicago | 3 | All Maps","protocol":17,"map":"pl_barnblitz","folder":"tf","game":"Team Fortress","app_id":440,"player_count":24,"max_players":24,"Bots":0,"server_type":"Dedicated","server_os":"Linux","password":true,"vac":true,"version":"7961495","steam_id":85568392924515191,"keywords":["nocrits","nodmgspread","payload","uncletopia"],"game_id":440,"stv_port":27036,"stv_name":"Uncletopia | Chicago | 3 | All Maps | STV","players":[{"user_id":487,"name":"Bombsgamer","steam_id":76561198350009050,"connected_time":7478000000000,"state":"active","ping":80},{"user_id":562,"name":"xelph","steam_id":76561198443008847,"connected_time":1999000000000,"state":"active","ping":83},{"user_id":577,"name":"DirtMannly2024","steam_id":76561198199662083,"connected_time":281000000000,"state":"active","ping":101},{"user_id":573,"name":"The Bruce the Ship","steam_id":76561198271907916,"connected_time":405000000000,"state":"active","ping":56},{"user_id":567,"name":"Minmit__","steam_id":76561198218417512,"connected_time":1531000000000,"state":"active","ping":98},{"user_id":555,"name":"ElephantHydrogen4277882","steam_id":76561198175741741,"connected_time":2167000000000,"state":"active","ping":75},{"user_id":575,"name":"Ugly Princess","steam_id":76561198151044270,"connected_time":347000000000,"state":"active","ping":71},{"user_id":576,"name":"Kel","steam_id":76561198046283896,"connected_time":337000000000,"state":"active","ping":75},{"user_id":580,"name":"Social_Credit_Investor","steam_id":76561198282283679,"connected_time":227000000000,"state":"active","ping":84},{"user_id":574,"name":"dietcokefan42","steam_id":76561198135307995,"connected_time":372000000000,"state":"active","ping":70},{"user_id":578,"name":"Sariff","steam_id":76561198136446352,"connected_time":254000000000,"state":"active","ping":50},{"user_id":539,"name":"Duke Skywalker","steam_id":76561199231296521,"connected_time":3029000000000,"state":"active","ping":69},{"user_id":548,"name":"The Rock","steam_id":76561198433328517,"connected_time":2699000000000,"state":"active","ping":83},{"user_id":582,"name":"Tinnitus Enjoyer","steam_id":76561198046526036,"connected_time":195000000000,"state":"active","ping":100},{"user_id":415,"name":"aisu","steam_id":76561198043768507,"connected_time":14047000000000,"state":"active","ping":69},{"user_id":572,"name":"KTB","steam_id":76561197990744614,"connected_time":965000000000,"state":"active","ping":45},{"user_id":542,"name":"KYLE KYLESON","steam_id":76561198021920887,"connected_time":2932000000000,"state":"active","ping":36},{"user_id":581,"name":"NekoArc Zeon","steam_id":76561198096274909,"connected_time":226000000000,"state":"active","ping":72},{"user_id":583,"name":"Useless","steam_id":76561198116079299,"connected_time":130000000000,"state":"active","ping":100},{"user_id":566,"name":"SilentFootba11","steam_id":76561199006570947,"connected_time":1845000000000,"state":"active","ping":70},{"user_id":571,"name":"izzydex","steam_id":76561199101531034,"connected_time":979000000000,"state":"active","ping":60},{"user_id":544,"name":"üçíbutaüçí","steam_id":76561198135538212,"connected_time":2907000000000,"state":"active","ping":59},{"user_id":552,"name":"ImmortalProphet","steam_id":76561198012352477,"connected_time":2353000000000,"state":"active","ping":44},{"user_id":564,"name":"Xerkz","steam_id":76561198063335500,"connected_time":1917000000000,"state":"active","ping":100}]},{"server_id":403,"name":"Uncletopia | Chicago | 4 | All Maps","name_short":"chi-4","host":"chi-1.us.uncletopia.com","port":27045,"enabled":true,"region":"us-central","cc":"us","latitude":41.881832,"longitude":-87.62318,"reserved":0,"last_update":"0001-01-01T00:00:00Z","name_a2s":"Uncletopia | Chicago | 4 | All Maps","protocol":17,"map":"pl_borneo","folder":"tf","game":"Team Fortress","app_id":440,"player_count":24,"max_players":24,"Bots":0,"server_type":"Dedicated","server_os":"Linux","password":true,"vac":true,"version":"7961495","steam_id":85568392924515193,"keywords":["nocrits","nodmgspread","payload","uncletopia"],"game_id":440,"stv_port":27046,"stv_name":"Uncletopia | Chicago | 4 | All Maps | STV","players":[{"user_id":419,"name":"Urbanzpinapple","steam_id":76561198115426938,"connected_time":3094000000000,"state":"active","ping":79},{"user_id":444,"name":"Vess","steam_id":76561197972587155,"connected_time":1879000000000,"state":"active","ping":87},{"user_id":465,"name":"H.","steam_id":76561198074951179,"connected_time":35000000000,"state":"active","ping":60},{"user_id":462,"name":"FazeCumShot69‚Ñ¢","steam_id":76561199248475270,"connected_time":229000000000,"state":"active","ping":84},{"user_id":448,"name":"Stosh on Jream","steam_id":76561198043256782,"connected_time":1806000000000,"state":"active","ping":78},{"user_id":366,"name":"big sump","steam_id":76561198113364714,"connected_time":6422000000000,"state":"active","ping":60},{"user_id":461,"name":" ï‚Ä¢·¥•‚Ä¢ î the bear","steam_id":76561197989591976,"connected_time":641000000000,"state":"active","ping":75},{"user_id":449,"name":"4 life","steam_id":76561198175961598,"connected_time":1692000000000,"state":"active","ping":105},{"user_id":455,"name":"JustLooking","steam_id":76561198207877387,"connected_time":837000000000,"state":"active","ping":60},{"user_id":456,"name":"IMM0RTAL","steam_id":76561198013747901,"connected_time":801000000000,"state":"active","ping":73},{"user_id":464,"name":"feudal","steam_id":76561198057374871,"connected_time":44000000000,"state":"active","ping":60},{"user_id":467,"name":"A Shiny Meat Bicycle","steam_id":76561198358757709,"connected_time":20000000000,"state":"active","ping":91},{"user_id":371,"name":"Shrebbie","steam_id":76561198875230824,"connected_time":5912000000000,"state":"active","ping":61},{"user_id":441,"name":"Rukks","steam_id":76561197993918954,"connected_time":1955000000000,"state":"active","ping":89},{"user_id":374,"name":"move move move","steam_id":76561198224614084,"connected_time":5530000000000,"state":"active","ping":69},{"user_id":410,"name":"Triple Lizard","steam_id":76561198188459654,"connected_time":3638000000000,"state":"active","ping":61},{"user_id":468,"name":"Hypno_Kitty","steam_id":76561198978367946,"connected_time":15000000000,"state":"spawning","ping":64},{"user_id":469,"name":"fork","steam_id":76561198038003527,"connected_time":14000000000,"state":"spawning","ping":44},{"user_id":460,"name":"(TPT) Ghost","steam_id":76561198123262873,"connected_time":746000000000,"state":"active","ping":118},{"user_id":292,"name":"wepry","steam_id":76561198114091417,"connected_time":11390000000000,"state":"active","ping":47},{"user_id":470,"name":"Cooldog","steam_id":76561198080548713,"connected_time":11000000000,"state":"spawning","ping":56},{"user_id":431,"name":"Vroooooooooooooooom","steam_id":76561198139913628,"connected_time":2549000000000,"state":"active","ping":78},{"user_id":310,"name":"Anthid","steam_id":76561198074493797,"connected_time":10642000000000,"state":"active","ping":74},{"user_id":471,"name":"captainspatklz","steam_id":76561198432167270,"connected_time":10000000000,"state":"spawning","ping":60}]},{"server_id":36,"name":"Uncletopia | Chicago | 5 | All Maps","name_short":"chi-5","host":"chi-2.us.uncletopia.com","port":27015,"enabled":true,"region":"us-central","cc":"us","latitude":41.881832,"longitude":-87.62318,"reserved":0,"last_update":"0001-01-01T00:00:00Z","name_a2s":"Uncletopia | Chicago | 5 | All Maps","protocol":17,"map":"cp_altitude","folder":"tf","game":"Team Fortress","app_id":440,"player_count":1,"max_players":24,"Bots":0,"server_type":"Dedicated","server_os":"Linux","password":true,"vac":true,"version":"7961495","steam_id":85568392924866362,"keywords":["cp","nocrits","nodmgspread","uncletopia"],"game_id":440,"stv_port":27016,"stv_name":"Uncletopia | Chicago | 5 | All Maps | STV","players":[{"user_id":244,"name":"Echo","steam_id":76561198072092594,"connected_time":4012000000000,"state":"active","ping":62}]},{"server_id":37,"name":"Uncletopia | Chicago | 6 | All Maps","name_short":"chi-6","host":"chi-2.us.uncletopia.com","port":27025,"enabled":true,"region":"us-central","cc":"us","latitude":41.881832,"longitude":-87.62318,"reserved":0,"last_update":"0001-01-01T00:00:00Z","name_a2s":"Uncletopia | Chicago | 6 | All Maps","protocol":17,"map":"pl_snowycoast","folder":"tf","game":"Team Fortress","app_id":440,"player_count":24,"max_players":24,"Bots":0,"server_type":"Dedicated","server_os":"Linux","password":true,"vac":true,"version":"7961495","steam_id":85568392924866363,"keywords":["nocrits","nodmgspread","payload","uncletopia"],"game_id":440,"stv_port":27026,"stv_name":"Uncletopia | Chicago | 6 | All Maps | STV","players":[{"user_id":727,"name":"Jarryl97","steam_id":76561198055451373,"connected_time":4227000000000,"state":"active","ping":77},{"user_id":794,"name":"goblin?","steam_id":76561198007192438,"connected_time":125000000000,"state":"active","ping":66},{"user_id":786,"name":"The Sydney Sleeper Itself","steam_id":76561198180251763,"connected_time":553000000000,"state":"active","ping":64},{"user_id":788,"name":"Your Pal, Vegeta","steam_id":76561198064916816,"connected_time":501000000000,"state":"active","ping":85},{"user_id":773,"name":"Awenova","steam_id":76561198322928940,"connected_time":981000000000,"state":"active","ping":64},{"user_id":790,"name":"AnnieM","steam_id":76561199435467297,"connected_time":276000000000,"state":"active","ping":77},{"user_id":779,"name":"Torensz64(But weezer)","steam_id":76561198239036482,"connected_time":703000000000,"state":"active","ping":63},{"user_id":771,"name":"MR SKELTAL","steam_id":76561198031089598,"connected_time":1115000000000,"state":"active","ping":66},{"user_id":775,"name":"t.tv/Mikeymare_","steam_id":76561198977264806,"connected_time":810000000000,"state":"active","ping":76},{"user_id":791,"name":"The Great Degenerate","steam_id":76561198028617381,"connected_time":237000000000,"state":"active","ping":75},{"user_id":776,"name":"Ryoko","steam_id":76561198084725087,"connected_time":792000000000,"state":"active","ping":70},{"user_id":777,"name":"Shmeat inspectorTTV","steam_id":76561198995197649,"connected_time":790000000000,"state":"active","ping":72},{"user_id":758,"name":"Amoxicilina","steam_id":76561198168486429,"connected_time":2808000000000,"state":"active","ping":127},{"user_id":752,"name":"___Dogma___","steam_id":76561198879961615,"connected_time":2943000000000,"state":"active","ping":64},{"user_id":781,"name":"Ninjoth","steam_id":76561198038611753,"connected_time":670000000000,"state":"active","ping":88},{"user_id":792,"name":"CumPieQueen(800x1.21=968)","steam_id":76561198062284145,"connected_time":212000000000,"state":"active","ping":74},{"user_id":783,"name":"dota player 74712","steam_id":76561198193746389,"connected_time":607000000000,"state":"active","ping":93},{"user_id":789,"name":"Ranger","steam_id":76561198171091281,"connected_time":475000000000,"state":"active","ping":61},{"user_id":793,"name":"Fish","steam_id":76561199016308078,"connected_time":191000000000,"state":"active","ping":98},{"user_id":787,"name":"YOUR BOOBS","steam_id":76561198103496593,"connected_time":524000000000,"state":"active","ping":62},{"user_id":711,"name":"gay luigi","steam_id":76561198024409325,"connected_time":4862000000000,"state":"active","ping":61},{"user_id":715,"name":"Hindmost","steam_id":76561199081837220,"connected_time":4695000000000,"state":"active","ping":77},{"user_id":764,"name":"SiltyStar85","steam_id":76561198309175923,"connected_time":2288000000000,"state":"active","ping":90},{"user_id":761,"name":"RusticCarp42989","steam_id":76561198361151865,"connected_time":2550000000000,"state":"active","ping":115}]},{"server_id":38,"name":"Uncletopia | Chicago | 7 | Stopwatch","name_short":"chi-7","host":"chi-2.us.uncletopia.com","port":27035,"enabled":true,"region":"us-central","cc":"us","latitude":41.881832,"longitude":-87.62318,"reserved":0,"last_update":"0001-01-01T00:00:00Z","name_a2s":"Uncletopia | Chicago | 7 | Stopwatch","protocol":17,"map":"workshop/koth_ashville_final.ugc2130459942","folder":"tf","game":"Team Fortress","app_id":440,"player_count":0,"max_players":24,"Bots":0,"server_type":"Dedicated","server_os":"Linux","password":true,"vac":true,"version":"7961495","steam_id":85568392924866364,"keywords":["cp","nocrits","nodmgspread","uncletopia"],"game_id":440,"stv_port":27036,"stv_name":"Uncletopia | Chicago | 7 | Stopwatch | STV","players":null},{"server_id":39,"name":"Uncletopia | Chicago | 8 | Community","name_short":"chi-8","host":"chi-2.us.uncletopia.com","port":27045,"enabled":true,"region":"us-central","cc":"us","latitude":41.881832,"longitude":-87.62318,"reserved":0,"last_update":"0001-01-01T00:00:00Z","name_a2s":"Uncletopia | Chicago | 8 | Community","protocol":17,"map":"workshop/pl_boundary_final1.ugc456799153","folder":"tf","game":"Team Fortress","app_id":440,"player_count":15,"max_players":24,"Bots":0,"server_type":"Dedicated","server_os":"Linux","password":true,"vac":true,"version":"7961495","steam_id":85568392924866365,"keywords":["nocrits","nodmgspread","payload","uncletopia"],"game_id":440,"stv_port":27046,"stv_name":"Uncletopia | Chicago | 8 | Community | STV","players":[{"user_id":198,"name":"Gram Tokers Count Doinkula","steam_id":76561198112811565,"connected_time":693000000000,"state":"connecting","ping":91},{"user_id":197,"name":"Ace Chromatica","steam_id":76561198042211131,"connected_time":778000000000,"state":"connecting","ping":73},{"user_id":192,"name":"Blehnder","steam_id":76561198172097526,"connected_time":858000000000,"state":"connecting","ping":97},{"user_id":204,"name":"derpysplosion","steam_id":76561198329465332,"connected_time":33000000000,"state":"connecting","ping":174},{"user_id":191,"name":"Beef Jerky32","steam_id":76561198192526325,"connected_time":961000000000,"state":"connecting","ping":96},{"user_id":199,"name":"CabezaGrande","steam_id":76561197972555502,"connected_time":669000000000,"state":"connecting","ping":74},{"user_id":203,"name":"roddy ricch - ballin","steam_id":76561198111290441,"connected_time":50000000000,"state":"connecting","ping":79},{"user_id":186,"name":"Chicken","steam_id":76561198855273194,"connected_time":1208000000000,"state":"connecting","ping":79},{"user_id":162,"name":"‚ùÄRami‚ùÄ","steam_id":76561198993652475,"connected_time":4058000000000,"state":"connecting","ping":100},{"user_id":187,"name":"membean_membean","steam_id":76561198973965925,"connected_time":1191000000000,"state":"connecting","ping":67},{"user_id":165,"name":"wise","steam_id":76561198030066204,"connected_time":3916000000000,"state":"connecting","ping":74},{"user_id":185,"name":"Captain Demytri","steam_id":76561198097998607,"connected_time":1901000000000,"state":"connecting","ping":65}]},{"server_id":8,"name":"Uncletopia | Dallas | 1 | All Maps","name_short":"dal-1","host":"dal-1.us.uncletopia.com","port":27015,"enabled":true,"region":"us-central","cc":"us","latitude":32.779167,"longitude":-96.80889,"reserved":0,"last_update":"0001-01-01T00:00:00Z","name_a2s":"Uncletopia | Dallas | 1 | All Maps","protocol":17,"map":"cp_sunshine","folder":"tf","game":"Team Fortress","app_id":440,"player_count":24,"max_players":24,"Bots":0,"server_type":"Dedicated","server_os":"Linux","password":true,"vac":true,"version":"7961495","steam_id":85568392924469986,"keywords":["cp","nocrits","nodmgspread","uncletopia"],"game_id":440,"stv_port":27016,"stv_name":"Uncletopia | Dallas | 1 | All Maps | STV","players":[{"user_id":552,"name":"J3X","steam_id":76561198184753858,"connected_time":525000000000,"state":"active","ping":71},{"user_id":558,"name":"ShapedSilver","steam_id":76561199073305310,"connected_time":38000000000,"state":"active","ping":71},{"user_id":549,"name":"Bcuz","steam_id":76561197981318027,"connected_time":868000000000,"state":"active","ping":99},{"user_id":536,"name":"Sharen","steam_id":76561198208829080,"connected_time":1523000000000,"state":"active","ping":93},{"user_id":523,"name":"OddSlaush","steam_id":76561198043898488,"connected_time":3820000000000,"state":"active","ping":72},{"user_id":532,"name":"Darling","steam_id":76561198127525888,"connected_time":2448000000000,"state":"active","ping":47},{"user_id":496,"name":"StudioMania (#SAVETF2)","steam_id":76561198211315795,"connected_time":6632000000000,"state":"active","ping":76},{"user_id":553,"name":"Baby gaming","steam_id":76561198867319323,"connected_time":519000000000,"state":"active","ping":88},{"user_id":524,"name":"THRONGLER","steam_id":76561198198563466,"connected_time":3747000000000,"state":"active","ping":41},{"user_id":550,"name":"Sweet Tooth","steam_id":76561198830158092,"connected_time":679000000000,"state":"active","ping":85},{"user_id":547,"name":"Kng","steam_id":76561198993248203,"connected_time":1014000000000,"state":"active","ping":94},{"user_id":554,"name":"NAEM CHEGG","steam_id":76561199074984482,"connected_time":513000000000,"state":"active","ping":86},{"user_id":538,"name":"taishang","steam_id":76561198065328284,"connected_time":1488000000000,"state":"active","ping":80},{"user_id":557,"name":"ash","steam_id":76561198127890645,"connected_time":126000000000,"state":"active","ping":89},{"user_id":556,"name":"MrMind","steam_id":76561199321657653,"connected_time":364000000000,"state":"active","ping":75},{"user_id":533,"name":"Narrlocke","steam_id":76561198040588362,"connected_time":1980000000000,"state":"active","ping":80},{"user_id":501,"name":"Ojen","steam_id":76561197998414482,"connected_time":5968000000000,"state":"active","ping":78},{"user_id":477,"name":"dont scare the hoes","steam_id":76561198356626857,"connected_time":8997000000000,"state":"active","ping":45},{"user_id":544,"name":"shnowshner","steam_id":76561198066450438,"connected_time":1221000000000,"state":"active","ping":93},{"user_id":541,"name":"vera","steam_id":76561198318851246,"connected_time":1303000000000,"state":"active","ping":82},{"user_id":528,"name":"Primalset3909","steam_id":76561198038071550,"connected_time":3224000000000,"state":"active","ping":51},{"user_id":551,"name":"bimmy","steam_id":76561198013595716,"connected_time":621000000000,"state":"active","ping":93},{"user_id":500,"name":"LampMan","steam_id":76561198079857527,"connected_time":6070000000000,"state":"active","ping":51},{"user_id":502,"name":"alextruckman97","steam_id":76561198066867150,"connected_time":5967000000000,"state":"active","ping":83}]},{"server_id":108,"name":"Uncletopia | Dallas | 2 | All Maps","name_short":"dal-2","host":"dal-1.us.uncletopia.com","port":27025,"enabled":true,"region":"us-central","cc":"us","latitude":32.779167,"longitude":-96.80889,"reserved":0,"last_update":"0001-01-01T00:00:00Z","name_a2s":"Uncletopia | Dallas | 2 | All Maps","protocol":17,"map":"pl_badwater","folder":"tf","game":"Team Fortress","app_id":440,"player_count":24,"max_players":24,"Bots":0,"server_type":"Dedicated","server_os":"Linux","password":true,"vac":true,"version":"7961495","steam_id":85568392924469988,"keywords":["nocrits","nodmgspread","payload","uncletopia"],"game_id":440,"stv_port":27026,"stv_name":"Uncletopia | Dallas | 2 | All Maps | STV","players":[{"user_id":489,"name":"Withered Bonnie (Real)","steam_id":76561198423310113,"connected_time":2560000000000,"state":"active","ping":48},{"user_id":524,"name":"LivingRaccoon","steam_id":76561198035425632,"connected_time":572000000000,"state":"active","ping":88},{"user_id":516,"name":"Overture","steam_id":76561198364564873,"connected_time":920000000000,"state":"active","ping":110},{"user_id":478,"name":"Arc","steam_id":76561198057246982,"connected_time":5112000000000,"state":"active","ping":58},{"user_id":517,"name":"SaxxyBoy","steam_id":76561198111636919,"connected_time":896000000000,"state":"active","ping":70},{"user_id":451,"name":"Moshi Man","steam_id":76561198038249762,"connected_time":7992000000000,"state":"active","ping":88},{"user_id":518,"name":"Artincendies","steam_id":76561198242373456,"connected_time":798000000000,"state":"active","ping":68},{"user_id":504,"name":"Scroobles","steam_id":76561199197646696,"connected_time":1764000000000,"state":"active","ping":46},{"user_id":491,"name":"raya","steam_id":76561198051504581,"connected_time":2505000000000,"state":"active","ping":47},{"user_id":472,"name":"Tang","steam_id":76561198121340574,"connected_time":6110000000000,"state":"active","ping":80},{"user_id":503,"name":"steve","steam_id":76561198075510786,"connected_time":1783000000000,"state":"active","ping":70},{"user_id":481,"name":"Proud Swift City Resident","steam_id":76561198036283992,"connected_time":4167000000000,"state":"active","ping":83},{"user_id":509,"name":"MeepTheFrog","steam_id":76561198447438847,"connected_time":1570000000000,"state":"active","ping":61},{"user_id":511,"name":"Sex","steam_id":76561198818620540,"connected_time":1276000000000,"state":"active","ping":60},{"user_id":519,"name":"vawhn","steam_id":76561198396653021,"connected_time":768000000000,"state":"active","ping":78},{"user_id":520,"name":"Capyblappy","steam_id":76561198412600420,"connected_time":727000000000,"state":"active","ping":89},{"user_id":522,"name":"OniSlays","steam_id":76561198043875292,"connected_time":636000000000,"state":"active","ping":85},{"user_id":523,"name":"MantisToboggan","steam_id":76561197969447887,"connected_time":600000000000,"state":"active","ping":177},{"user_id":495,"name":"Icaruss","steam_id":76561199087157705,"connected_time":2412000000000,"state":"active","ping":107},{"user_id":525,"name":"Just Chuck","steam_id":76561198121697504,"connected_time":554000000000,"state":"active","ping":75},{"user_id":526,"name":"mac_cheese","steam_id":76561198071334162,"connected_time":546000000000,"state":"active","ping":90},{"user_id":527,"name":"California Police Department","steam_id":76561199071151136,"connected_time":530000000000,"state":"active","ping":75},{"user_id":528,"name":"BitPieStudios","steam_id":76561198059216393,"connected_time":441000000000,"state":"active","ping":90},{"user_id":466,"name":"HUESO","steam_id":76561198276383681,"connected_time":6288000000000,"state":"active","ping":83}]},{"server_id":404,"name":"Uncletopia | Dallas | 3 | All Maps","name_short":"dal-3","host":"dal-1.us.uncletopia.com","port":27035,"enabled":true,"region":"us-central","cc":"us","latitude":32.779167,"longitude":-96.80889,"reserved":0,"last_update":"0001-01-01T00:00:00Z","name_a2s":"Uncletopia | Dallas | 3 | All Maps","protocol":17,"map":"pl_swiftwater_final1","folder":"tf","game":"Team Fortress","app_id":440,"player_count":24,"max_players":24,"Bots":0,"server_type":"Dedicated","server_os":"Linux","password":true,"vac":true,"version":"7961495","steam_id":85568392924515219,"keywords":["nocrits","nodmgspread","payload","uncletopia"],"game_id":440,"stv_port":27036,"stv_name":"Uncletopia | Dallas | 3 | All Maps | STV","players":[{"user_id":343,"name":"IgnitusDragon","steam_id":76561198350526201,"connected_time":111000000000,"state":"active","ping":111},{"user_id":325,"name":"Maxini_","steam_id":76561198041077011,"connected_time":1078000000000,"state":"active","ping":80},{"user_id":316,"name":"Stolas","steam_id":76561199244587861,"connected_time":2356000000000,"state":"active","ping":116},{"user_id":326,"name":"keffers","steam_id":76561198202338796,"connected_time":1070000000000,"state":"active","ping":79},{"user_id":334,"name":"Fermenting Kiwi","steam_id":76561198253303497,"connected_time":449000000000,"state":"active","ping":72},{"user_id":340,"name":"rubix","steam_id":76561198134710399,"connected_time":165000000000,"state":"active","ping":55},{"user_id":228,"name":"Ninjegeabey","steam_id":76561198217717789,"connected_time":7298000000000,"state":"active","ping":67},{"user_id":341,"name":"SaaxoM","steam_id":76561198208256603,"connected_time":164000000000,"state":"active","ping":81},{"user_id":308,"name":"inax","steam_id":76561198398677744,"connected_time":2671000000000,"state":"active","ping":120},{"user_id":328,"name":"kips","steam_id":76561198047171706,"connected_time":1013000000000,"state":"active","ping":97},{"user_id":335,"name":"cypherzero","steam_id":76561199182960322,"connected_time":379000000000,"state":"active","ping":55},{"user_id":337,"name":"Terrorism","steam_id":76561198020561572,"connected_time":356000000000,"state":"active","ping":79},{"user_id":332,"name":"SplorbyChicken","steam_id":76561198023361567,"connected_time":898000000000,"state":"active","ping":77},{"user_id":339,"name":"John16Mark","steam_id":76561198119445407,"connected_time":284000000000,"state":"active","ping":63},{"user_id":317,"name":"air coming out the back of a ps","steam_id":76561198145264978,"connected_time":2288000000000,"state":"active","ping":75},{"user_id":231,"name":"Alchemist","steam_id":76561198094238189,"connected_time":7181000000000,"state":"active","ping":77},{"user_id":261,"name":"sylvyy","steam_id":76561198976976583,"connected_time":5491000000000,"state":"active","ping":86},{"user_id":336,"name":"JayRawgTV","steam_id":76561198044402840,"connected_time":365000000000,"state":"active","ping":45},{"user_id":342,"name":"H2OBourne","steam_id":76561198396293109,"connected_time":143000000000,"state":"active","ping":64},{"user_id":214,"name":"LtSalte","steam_id":76561198004721081,"connected_time":8417000000000,"state":"active","ping":102},{"user_id":338,"name":"Muselk","steam_id":76561199289676387,"connected_time":342000000000,"state":"active","ping":67},{"user_id":329,"name":"Maragi (ace defective)","steam_id":76561198051372868,"connected_time":989000000000,"state":"active","ping":76},{"user_id":330,"name":"P.C. Baby","steam_id":76561198067011379,"connected_time":973000000000,"state":"active","ping":92},{"user_id":331,"name":"hideyochest","steam_id":76561198090366059,"connected_time":973000000000,"state":"active","ping":43}]},{"server_id":405,"name":"Uncletopia | Dallas | 4 | Community","name_short":"dal-4","host":"dal-1.us.uncletopia.com","port":27045,"enabled":true,"region":"us-central","cc":"us","latitude":32.779167,"longitude":-96.80889,"reserved":0,"last_update":"0001-01-01T00:00:00Z","name_a2s":"Uncletopia | Dallas | 4 | Community","protocol":17,"map":"workshop/koth_ashville_final.ugc2130459942","folder":"tf","game":"Team Fortress","app_id":440,"player_count":0,"max_players":24,"Bots":0,"server_type":"Dedicated","server_os":"Linux","password":true,"vac":true,"version":"7961495","steam_id":85568392924515220,"keywords":["cp","nocrits","nodmgspread","uncletopia"],"game_id":440,"stv_port":27046,"stv_name":"Uncletopia | Dallas | 4 | Community | STV","players":null},{"server_id":5,"name":"Uncletopia | Frankfurt | 1 | All Maps","name_short":"frk-1","host":"frk-1.de.uncletopia.com","port":27015,"enabled":true,"region":"eu","cc":"de","latitude":50.110924,"longitude":8.682127,"reserved":0,"last_update":"0001-01-01T00:00:00Z","name_a2s":"Uncletopia | Frankfurt | 1 | All Maps","protocol":17,"map":"koth_highpass","folder":"tf","game":"Team Fortress","app_id":440,"player_count":0,"max_players":24,"Bots":0,"server_type":"Dedicated","server_os":"Linux","password":true,"vac":true,"version":"7961495","steam_id":85568392924469989,"keywords":["cp","nocrits","nodmgspread","uncletopia"],"game_id":440,"stv_port":27016,"stv_name":"Uncletopia | Frankfurt | 1 | All Maps | STV","players":null},{"server_id":110,"name":"Uncletopia | Frankfurt | 2 | All Maps","name_short":"frk-2","host":"frk-1.de.uncletopia.com","port":27025,"enabled":true,"region":"eu","cc":"de","latitude":50.110924,"longitude":8.682127,"reserved":0,"last_update":"0001-01-01T00:00:00Z","name_a2s":"Uncletopia | Frankfurt | 2 | All Maps","protocol":17,"map":"cp_dustbowl","folder":"tf","game":"Team Fortress","app_id":440,"player_count":0,"max_players":24,"Bots":0,"server_type":"Dedicated","server_os":"Linux","password":true,"vac":true,"version":"7961495","steam_id":85568392924469990,"keywords":["cp","nocrits","nodmgspread","uncletopia"],"game_id":440,"stv_port":27026,"stv_name":"Uncletopia | Frankfurt | 2 | All Maps | STV","players":null},{"server_id":308,"name":"Uncletopia | Frankfurt | 3 | All Maps","name_short":"frk-3","host":"frk-1.de.uncletopia.com","port":27035,"enabled":true,"region":"eu","cc":"de","latitude":50.110924,"longitude":8.682127,"reserved":0,"last_update":"0001-01-01T00:00:00Z","name_a2s":"Uncletopia | Frankfurt | 3 | All Maps","protocol":17,"map":"pl_barnblitz","folder":"tf","game":"Team Fortress","app_id":440,"player_count":0,"max_players":24,"Bots":0,"server_type":"Dedicated","server_os":"Linux","password":true,"vac":true,"version":"7961495","steam_id":85568392924504274,"keywords":["nocrits","nodmgspread","payload","uncletopia"],"game_id":440,"stv_port":27036,"stv_name":"Uncletopia | Frankfurt | 3 | All Maps | STV","players":null},{"server_id":309,"name":"Uncletopia | Frankfurt | 4 | All Maps","name_short":"frk-4","host":"frk-1.de.uncletopia.com","port":27045,"enabled":true,"region":"eu","cc":"de","latitude":50.110924,"longitude":8.682127,"reserved":0,"last_update":"0001-01-01T00:00:00Z","name_a2s":"Uncletopia | Frankfurt | 4 | All Maps","protocol":17,"map":"koth_highpass","folder":"tf","game":"Team Fortress","app_id":440,"player_count":0,"max_players":24,"Bots":0,"server_type":"Dedicated","server_os":"Linux","password":true,"vac":true,"version":"7961495","steam_id":85568392924504275,"keywords":["cp","nocrits","nodmgspread","uncletopia"],"game_id":440,"stv_port":27046,"stv_name":"Uncletopia | Frankfurt | 4 | All Maps | STV","players":null},{"server_id":310,"name":"Uncletopia | Frankfurt | 5 | All Maps","name_short":"frk-5","host":"frk-1.de.uncletopia.com","port":27055,"enabled":true,"region":"eu","cc":"de","latitude":50.110924,"longitude":8.682127,"reserved":0,"last_update":"0001-01-01T00:00:00Z","name_a2s":"Uncletopia | Frankfurt | 5 | All Maps","protocol":17,"map":"pl_badwater","folder":"tf","game":"Team Fortress","app_id":440,"player_count":0,"max_players":24,"Bots":0,"server_type":"Dedicated","server_os":"Linux","password":true,"vac":true,"version":"7961495","steam_id":85568392924504277,"keywords":["nocrits","nodmgspread","payload","uncletopia"],"game_id":440,"stv_port":27056,"stv_name":"Uncletopia | Frankfurt | 5 | All Maps | STV","players":null},{"server_id":311,"name":"Uncletopia | Frankfurt | 6 | All Maps","name_short":"frk-6","host":"frk-1.de.uncletopia.com","port":27065,"enabled":true,"region":"eu","cc":"de","latitude":50.110924,"longitude":8.682127,"reserved":0,"last_update":"0001-01-01T00:00:00Z","name_a2s":"Uncletopia | Frankfurt | 6 | All Maps","protocol":17,"map":"cp_altitude","folder":"tf","game":"Team Fortress","app_id":440,"player_count":0,"max_players":24,"Bots":0,"server_type":"Dedicated","server_os":"Linux","password":true,"vac":true,"version":"7961495","steam_id":85568392924504278,"keywords":["cp","nocrits","nodmgspread","uncletopia"],"game_id":440,"stv_port":27066,"stv_name":"Uncletopia | Frankfurt | 6 | All Maps | STV","players":null},{"server_id":23,"name":"Uncletopia | Frankfurt | 7 | Stopwatch","name_short":"frk-7","host":"frk-1.de.uncletopia.com","port":27075,"enabled":true,"region":"eu","cc":"de","latitude":50.110924,"longitude":8.682127,"reserved":0,"last_update":"0001-01-01T00:00:00Z","name_a2s":"Uncletopia | Frankfurt | 7 | Stopwatch","protocol":17,"map":"pl_frontier_final","folder":"tf","game":"Team Fortress","app_id":440,"player_count":0,"max_players":24,"Bots":0,"server_type":"Dedicated","server_os":"Linux","password":true,"vac":true,"version":"7961495","steam_id":85568392924742827,"keywords":["nocrits","nodmgspread","payload","uncletopia"],"game_id":440,"stv_port":27076,"stv_name":"Uncletopia | Frankfurt | 7 | Stopwatch | STV","players":null},{"server_id":24,"name":"Uncletopia | Frankfurt | 8 | Community","name_short":"frk-8","host":"frk-1.de.uncletopia.com","port":27085,"enabled":true,"region":"eu","cc":"de","latitude":50.110924,"longitude":8.682127,"reserved":0,"last_update":"0001-01-01T00:00:00Z","name_a2s":"Uncletopia | Frankfurt | 8 | Community","protocol":17,"map":"cp_mountainlab","folder":"tf","game":"Team Fortress","app_id":440,"player_count":0,"max_players":24,"Bots":0,"server_type":"Dedicated","server_os":"Linux","password":true,"vac":true,"version":"7961495","steam_id":85568392924742828,"keywords":["cp","nocrits","nodmgspread","uncletopia"],"game_id":440,"stv_port":27086,"stv_name":"Uncletopia | Frankfurt | 8 | Community | STV","players":null},{"server_id":202,"name":"Uncletopia | Hong Kong | 1 | All Maps","name_short":"hgk-1","host":"hgk-1.hk.uncletopia.com","port":27015,"enabled":true,"region":"asia","cc":"hk","latitude":22.302711,"longitude":114.177216,"reserved":0,"last_update":"0001-01-01T00:00:00Z","name_a2s":"Uncletopia | Hong Kong | 1 | All Maps","protocol":17,"map":"pl_borneo","folder":"tf","game":"Team Fortress","app_id":440,"player_count":3,"max_players":24,"Bots":0,"server_type":"Dedicated","server_os":"Linux","password":true,"vac":true,"version":"7961495","steam_id":85568392924494504,"keywords":["nocrits","nodmgspread","payload","uncletopia"],"game_id":440,"stv_port":27016,"stv_name":"Uncletopia | Hong Kong | 1 | All Maps | STV","players":[{"user_id":42,"name":"medic gaming","steam_id":76561199212822785,"connected_time":994000000000,"state":"active","ping":121},{"user_id":43,"name":"ArcticDolphin","steam_id":76561198203626319,"connected_time":750000000000,"state":"active","ping":123},{"user_id":45,"name":"timothylmao38","steam_id":76561199348861599,"connected_time":2000000000,"state":"spawning","ping":153}]},{"server_id":1,"name":"Uncletopia | Los Angeles | 1 | All Maps","name_short":"lax-1","host":"lax-1.us.uncletopia.com","port":27015,"enabled":true,"region":"us-west","cc":"us","latitude":33.94279,"longitude":-118.41004,"reserved":0,"last_update":"0001-01-01T00:00:00Z","name_a2s":"Uncletopia | Los Angeles | 1 | All Maps","protocol":17,"map":"pl_upward","folder":"tf","game":"Team Fortress","app_id":440,"player_count":24,"max_players":24,"Bots":0,"server_type":"Dedicated","server_os":"Linux","password":true,"vac":true,"version":"7961495","steam_id":85568392924469991,"keywords":["nocrits","nodmgspread","payload","uncletopia"],"game_id":440,"stv_port":27016,"stv_name":"Uncletopia | Los Angeles | 1 | All Maps | STV","players":[{"user_id":287,"name":"mcdonald's cashier","steam_id":76561198064631164,"connected_time":843000000000,"state":"active","ping":46},{"user_id":299,"name":"exx","steam_id":76561198090552145,"connected_time":184000000000,"state":"active","ping":45},{"user_id":298,"name":"PunyHappyFace","steam_id":76561198118059305,"connected_time":205000000000,"state":"active","ping":50},{"user_id":297,"name":"schnedwob","steam_id":76561197999146588,"connected_time":307000000000,"state":"active","ping":78},{"user_id":276,"name":"MonkeyNobody","steam_id":76561199451266605,"connected_time":2256000000000,"state":"active","ping":54},{"user_id":270,"name":"Owl_eyes","steam_id":76561198066199203,"connected_time":2873000000000,"state":"active","ping":59},{"user_id":300,"name":"Firedust19","steam_id":76561198153238631,"connected_time":154000000000,"state":"active","ping":71},{"user_id":281,"name":"Nicko","steam_id":76561198328490503,"connected_time":1980000000000,"state":"active","ping":178},{"user_id":243,"name":"FlexTape","steam_id":76561198871834867,"connected_time":5110000000000,"state":"active","ping":69},{"user_id":245,"name":"Igrium","steam_id":76561198119549811,"connected_time":4947000000000,"state":"active","ping":63},{"user_id":292,"name":"jayham","steam_id":76561199076196126,"connected_time":681000000000,"state":"active","ping":115},{"user_id":247,"name":"Velgrauder","steam_id":76561198848526938,"connected_time":4906000000000,"state":"active","ping":104},{"user_id":282,"name":"Birby","steam_id":76561198884009768,"connected_time":1940000000000,"state":"active","ping":68},{"user_id":301,"name":"D.A.V.I.D","steam_id":76561199443570634,"connected_time":145000000000,"state":"active","ping":114},{"user_id":293,"name":"Evelyn!","steam_id":76561198881145760,"connected_time":680000000000,"state":"active","ping":49},{"user_id":252,"name":"Waltuh White","steam_id":76561198964210411,"connected_time":4717000000000,"state":"active","ping":43},{"user_id":289,"name":"annoying pan scout","steam_id":76561198064194222,"connected_time":741000000000,"state":"active","ping":69},{"user_id":254,"name":"Jazpy","steam_id":76561198036872545,"connected_time":4698000000000,"state":"active","ping":69},{"user_id":280,"name":"type \"bad med\" to kick","steam_id":76561198076402476,"connected_time":2020000000000,"state":"active","ping":79},{"user_id":294,"name":"squid game","steam_id":76561199248960166,"connected_time":677000000000,"state":"active","ping":64},{"user_id":284,"name":":3","steam_id":76561198311564850,"connected_time":1608000000000,"state":"active","ping":56},{"user_id":259,"name":"Duckpin","steam_id":76561198147503700,"connected_time":4595000000000,"state":"active","ping":55},{"user_id":263,"name":"cool beans","steam_id":76561198045758072,"connected_time":4321000000000,"state":"active","ping":56},{"user_id":295,"name":"Type Three Dabeetus","steam_id":76561198062710038,"connected_time":675000000000,"state":"active","ping":49}]},{"server_id":112,"name":"Uncletopia | Los Angeles | 2 | All Maps","name_short":"lax-2","host":"lax-1.us.uncletopia.com","port":27025,"enabled":true,"region":"us-west","cc":"us","latitude":33.94279,"longitude":-118.41004,"reserved":0,"last_update":"0001-01-01T00:00:00Z","name_a2s":"Uncletopia | Los Angeles | 2 | All Maps","protocol":17,"map":"pl_frontier_final","folder":"tf","game":"Team Fortress","app_id":440,"player_count":24,"max_players":24,"Bots":0,"server_type":"Dedicated","server_os":"Linux","password":true,"vac":true,"version":"7961495","steam_id":85568392924469992,"keywords":["nocrits","nodmgspread","payload","uncletopia"],"game_id":440,"stv_port":27026,"stv_name":"Uncletopia | Los Angeles | 2 | All Maps | STV","players":[{"user_id":362,"name":"‚ù§ Ashley ‚ù§","steam_id":76561198056428303,"connected_time":4591000000000,"state":"active","ping":48},{"user_id":399,"name":"Dcoyotzi","steam_id":76561199124707627,"connected_time":1339000000000,"state":"active","ping":75},{"user_id":401,"name":"Turkeyman5","steam_id":76561198058178808,"connected_time":1159000000000,"state":"active","ping":90},{"user_id":403,"name":"Mr. Enforce","steam_id":76561198362168020,"connected_time":1129000000000,"state":"active","ping":100},{"user_id":402,"name":"Brigadier Brownie","steam_id":76561198040852898,"connected_time":1139000000000,"state":"active","ping":55},{"user_id":384,"name":"McDonald","steam_id":76561199028533497,"connected_time":2737000000000,"state":"active","ping":50},{"user_id":390,"name":"self sufficient kitten","steam_id":76561197960592612,"connected_time":2564000000000,"state":"active","ping":75},{"user_id":381,"name":"SAVECASEY","steam_id":76561198857896847,"connected_time":3036000000000,"state":"active","ping":44},{"user_id":363,"name":"Spread Joy, Not Hate","steam_id":76561198053117503,"connected_time":4348000000000,"state":"active","ping":82},{"user_id":394,"name":"Ralph Kramden (Slim Charles)","steam_id":76561197981687895,"connected_time":2166000000000,"state":"active","ping":57},{"user_id":395,"name":"sobaka","steam_id":76561198116008934,"connected_time":2165000000000,"state":"active","ping":61},{"user_id":346,"name":"puffer","steam_id":76561199049164456,"connected_time":6157000000000,"state":"active","ping":70},{"user_id":397,"name":"Marz","steam_id":76561198799364911,"connected_time":1715000000000,"state":"active","ping":96},{"user_id":405,"name":"beefgames","steam_id":76561198355628238,"connected_time":462000000000,"state":"active","ping":81},{"user_id":398,"name":"WhatAmIDoing","steam_id":76561199060028126,"connected_time":1441000000000,"state":"active","ping":70},{"user_id":237,"name":"master_minion","steam_id":76561198170693990,"connected_time":15363000000000,"state":"active","ping":50},{"user_id":348,"name":"Overmeme","steam_id":76561199455124144,"connected_time":6056000000000,"state":"active","ping":93},{"user_id":339,"name":"ACK","steam_id":76561198130390689,"connected_time":6612000000000,"state":"active","ping":71},{"user_id":396,"name":"nella","steam_id":76561198079349621,"connected_time":1985000000000,"state":"active","ping":52},{"user_id":400,"name":"MR DADDY","steam_id":76561198350794663,"connected_time":1292000000000,"state":"active","ping":108},{"user_id":369,"name":"firestabber","steam_id":76561198057055577,"connected_time":3942000000000,"state":"active","ping":75},{"user_id":406,"name":"T√ºCold","steam_id":76561198111278197,"connected_time":163000000000,"state":"active","ping":72},{"user_id":370,"name":"supcupman","steam_id":76561198051513866,"connected_time":3672000000000,"state":"active","ping":70},{"user_id":385,"name":"FROYO b4nny","steam_id":76561197970669109,"connected_time":2682000000000,"state":"active","ping":49}]},{"server_id":324,"name":"Uncletopia | Los Angeles | 3 | All Maps","name_short":"lax-3","host":"lax-1.us.uncletopia.com","port":27035,"enabled":true,"region":"us-west","cc":"us","latitude":33.94279,"longitude":-118.41004,"reserved":0,"last_update":"0001-01-01T00:00:00Z","name_a2s":"Uncletopia | Los Angeles | 3 | All Maps","protocol":17,"map":"pl_badwater","folder":"tf","game":"Team Fortress","app_id":440,"player_count":0,"max_players":24,"Bots":0,"server_type":"Dedicated","server_os":"Linux","password":true,"vac":true,"version":"7961495","steam_id":85568392924510198,"keywords":["nocrits","nodmgspread","payload","uncletopia"],"game_id":440,"stv_port":27036,"stv_name":"Uncletopia | Los Angeles | 3 | All Maps | STV","players":null},{"server_id":25,"name":"Uncletopia | Los Angeles | 4 | Stopwatch","name_short":"lax-4","host":"lax-1.us.uncletopia.com","port":27045,"enabled":true,"region":"us-west","cc":"us","latitude":33.94279,"longitude":-118.41004,"reserved":0,"last_update":"0001-01-01T00:00:00Z","name_a2s":"Uncletopia | Los Angeles | 4 | Stopwatch","protocol":17,"map":"workshop/koth_ramjam_rc1.ugc459778887","folder":"tf","game":"Team Fortress","app_id":440,"player_count":0,"max_players":24,"Bots":0,"server_type":"Dedicated","server_os":"Linux","password":true,"vac":true,"version":"7961495","steam_id":85568392924510199,"keywords":["cp","nocrits","nodmgspread","uncletopia"],"game_id":440,"stv_port":27046,"stv_name":"Uncletopia | Los Angeles | 4 | Stopwatch | STV","players":null},{"server_id":11,"name":"Uncletopia | London | 1 | All Maps","name_short":"lon-1","host":"lon-1.uk.uncletopia.com","port":27015,"enabled":true,"region":"eu","cc":"gb","latitude":51.509865,"longitude":-0.118092,"reserved":0,"last_update":"0001-01-01T00:00:00Z","name_a2s":"Uncletopia | London | 1 | All Maps","protocol":17,"map":"pl_borneo","folder":"tf","game":"Team Fortress","app_id":440,"player_count":17,"max_players":24,"Bots":0,"server_type":"Dedicated","server_os":"Linux","password":true,"vac":true,"version":"7961495","steam_id":85568392924367362,"keywords":["nocrits","nodmgspread","payload","uncletopia"],"game_id":440,"stv_port":27016,"stv_name":"Uncletopia | London | 1 | All Maps | STV","players":[{"user_id":868,"name":"waffle toaster","steam_id":76561198799089628,"connected_time":4120000000000,"state":"active","ping":38},{"user_id":896,"name":"Dalm (She/Her)","steam_id":76561198010878552,"connected_time":2142000000000,"state":"active","ping":46},{"user_id":892,"name":"CreepyYellowDuck","steam_id":76561198000479387,"connected_time":2599000000000,"state":"active","ping":37},{"user_id":917,"name":"Rogue","steam_id":76561199143593182,"connected_time":108000000000,"state":"active","ping":44},{"user_id":905,"name":"nug","steam_id":76561198055396568,"connected_time":1734000000000,"state":"active","ping":59},{"user_id":910,"name":"yodel","steam_id":76561198138777659,"connected_time":1229000000000,"state":"active","ping":48},{"user_id":799,"name":"Waltuh","steam_id":76561198079334270,"connected_time":9655000000000,"state":"active","ping":89},{"user_id":906,"name":"king k rool","steam_id":76561199179040672,"connected_time":1680000000000,"state":"active","ping":53},{"user_id":913,"name":"algae","steam_id":76561199215524659,"connected_time":795000000000,"state":"active","ping":113},{"user_id":909,"name":"xulera","steam_id":76561198080736030,"connected_time":1493000000000,"state":"active","ping":60},{"user_id":898,"name":"Sherlock Bond","steam_id":76561198042045955,"connected_time":2092000000000,"state":"active","ping":49},{"user_id":878,"name":"lagzer","steam_id":76561198029295449,"connected_time":3578000000000,"state":"active","ping":82},{"user_id":907,"name":"supershyguy147","steam_id":76561199208965131,"connected_time":1673000000000,"state":"active","ping":164},{"user_id":811,"name":"CHELOVEK_YAYCA","steam_id":76561198165428648,"connected_time":8732000000000,"state":"active","ping":129},{"user_id":912,"name":"xoxoxeno","steam_id":76561198019142095,"connected_time":855000000000,"state":"active","ping":61},{"user_id":885,"name":"SmolJak","steam_id":76561199057045168,"connected_time":3349000000000,"state":"active","ping":50},{"user_id":908,"name":"1 in a Trillion Football Moment","steam_id":76561199075279565,"connected_time":1609000000000,"state":"active","ping":158}]},{"server_id":114,"name":"Uncletopia | London | 2 | All Maps","name_short":"lon-2","host":"lon-1.uk.uncletopia.com","port":27025,"enabled":true,"region":"eu","cc":"gb","latitude":51.509865,"longitude":-0.118092,"reserved":0,"last_update":"0001-01-01T00:00:00Z","name_a2s":"Uncletopia | London | 2 | All Maps","protocol":17,"map":"koth_viaduct","folder":"tf","game":"Team Fortress","app_id":440,"player_count":0,"max_players":24,"Bots":0,"server_type":"Dedicated","server_os":"Linux","password":true,"vac":true,"version":"7961495","steam_id":85568392924470941,"keywords":["cp","nocrits","nodmgspread","uncletopia"],"game_id":440,"stv_port":27026,"stv_name":"Uncletopia | London | 2 | All Maps | STV","players":null},{"server_id":320,"name":"Uncletopia | London | 3 | All Maps","name_short":"lon-3","host":"lon-1.uk.uncletopia.com","port":27035,"enabled":true,"region":"eu","cc":"gb","latitude":51.509865,"longitude":-0.118092,"reserved":0,"last_update":"0001-01-01T00:00:00Z","name_a2s":"Uncletopia | London | 3 | All Maps","protocol":17,"map":"koth_highpass","folder":"tf","game":"Team Fortress","app_id":440,"player_count":0,"max_players":24,"Bots":0,"server_type":"Dedicated","server_os":"Linux","password":true,"vac":true,"version":"7961495","steam_id":85568392924510192,"keywords":["cp","nocrits","nodmgspread","uncletopia"],"game_id":440,"stv_port":27036,"stv_name":"Uncletopia | London | 3 | All Maps | STV","players":null},{"server_id":321,"name":"Uncletopia | London | 4 | All Maps","name_short":"lon-4","host":"lon-1.uk.uncletopia.com","port":27045,"enabled":true,"region":"eu","cc":"gb","latitude":51.509865,"longitude":-0.118092,"reserved":0,"last_update":"0001-01-01T00:00:00Z","name_a2s":"Uncletopia | London | 4 | All Maps","protocol":17,"map":"koth_highpass","folder":"tf","game":"Team Fortress","app_id":440,"player_count":0,"max_players":24,"Bots":0,"server_type":"Dedicated","server_os":"Linux","password":true,"vac":true,"version":"7961495","steam_id":85568392924510193,"keywords":["cp","nocrits","nodmgspread","uncletopia"],"game_id":440,"stv_port":27046,"stv_name":"Uncletopia | London | 4 | All Maps | STV","players":null},{"server_id":21,"name":"Uncletopia | London | 5 | All Maps","name_short":"lon-5","host":"lon-1.uk.uncletopia.com","port":27055,"enabled":true,"region":"eu","cc":"gb","latitude":51.509865,"longitude":-0.118092,"reserved":0,"last_update":"0001-01-01T00:00:00Z","name_a2s":"Uncletopia | London | 5 | All Maps","protocol":17,"map":"koth_lakeside_final","folder":"tf","game":"Team Fortress","app_id":440,"player_count":0,"max_players":24,"Bots":0,"server_type":"Dedicated","server_os":"Linux","password":true,"vac":true,"version":"7961495","steam_id":85568392924742829,"keywords":["cp","nocrits","nodmgspread","uncletopia"],"game_id":440,"stv_port":27056,"stv_name":"Uncletopia | London | 5 | All Maps | STV","players":null},{"server_id":22,"name":"Uncletopia | London | 6 | All Maps","name_short":"lon-6","host":"lon-1.uk.uncletopia.com","port":27065,"enabled":true,"region":"eu","cc":"gb","latitude":51.509865,"longitude":-0.118092,"reserved":0,"last_update":"0001-01-01T00:00:00Z","name_a2s":"Uncletopia | London | 6 | All Maps","protocol":17,"map":"pl_barnblitz","folder":"tf","game":"Team Fortress","app_id":440,"player_count":0,"max_players":24,"Bots":0,"server_type":"Dedicated","server_os":"Linux","password":true,"vac":true,"version":"7961495","steam_id":85568392924742830,"keywords":["nocrits","nodmgspread","payload","uncletopia"],"game_id":440,"stv_port":27066,"stv_name":"Uncletopia | London | 6 | All Maps | STV","players":null},{"server_id":40,"name":"Uncletopia | London | 7 | Stopwatch","name_short":"lon-7","host":"lon-1.uk.uncletopia.com","port":27075,"enabled":true,"region":"eu","cc":"gb","latitude":51.509865,"longitude":-0.118092,"reserved":0,"last_update":"0001-01-01T00:00:00Z","name_a2s":"Uncletopia | London | 7 | Stopwatch","protocol":17,"map":"workshop/koth_product_final.ugc454272353","folder":"tf","game":"Team Fortress","app_id":440,"player_count":0,"max_players":24,"Bots":0,"server_type":"Dedicated","server_os":"Linux","password":true,"vac":true,"version":"7961495","steam_id":85568392924964314,"keywords":["cp","nocrits","nodmgspread","uncletopia"],"game_id":440,"stv_port":27076,"stv_name":"Uncletopia | London | 7 | Stopwatch | STV","players":null},{"server_id":41,"name":"Uncletopia | London | 8 | Community","name_short":"lon-8","host":"lon-1.uk.uncletopia.com","port":27085,"enabled":true,"region":"eu","cc":"gb","latitude":51.509865,"longitude":-0.118092,"reserved":0,"last_update":"0001-01-01T00:00:00Z","name_a2s":"Uncletopia | London | 8 | Community","protocol":17,"map":"workshop/koth_trenchfoot_b1a.ugc731436616","folder":"tf","game":"Team Fortress","app_id":440,"player_count":0,"max_players":24,"Bots":0,"server_type":"Dedicated","server_os":"Linux","password":true,"vac":true,"version":"7961495","steam_id":85568392924964315,"keywords":["cp","nocrits","nodmgspread","uncletopia"],"game_id":440,"stv_port":27086,"stv_name":"Uncletopia | London | 8 | Community | STV","players":null},{"server_id":300,"name":"Uncletopia | Montr√©al | 1 | One Thousand Uncles","name_short":"mtl-1","host":"mtl-1.ca.uncletopia.com","port":27015,"enabled":true,"region":"us-east","cc":"ca","latitude":45.50889,"longitude":-73.56167,"reserved":0,"last_update":"0001-01-01T00:00:00Z","name_a2s":"","protocol":0,"map":"","folder":"","game":"","app_id":0,"player_count":4,"max_players":0,"Bots":0,"server_type":"","server_os":"","password":false,"vac":false,"version":"","steam_id":0,"keywords":null,"game_id":0,"stv_port":0,"stv_name":"","players":[{"user_id":479,"name":"space creep","steam_id":76561198025668545,"connected_time":640000000000,"state":"active","ping":50},{"user_id":480,"name":"Te Legend of Zegend:Sword Skord","steam_id":76561199431280503,"connected_time":120000000000,"state":"active","ping":56},{"user_id":360,"name":"Hektur Salmondchonka","steam_id":76561198136982572,"connected_time":9765000000000,"state":"active","ping":120},{"user_id":475,"name":"shy-_-guy42069","steam_id":76561199484725265,"connected_time":2172000000000,"state":"active","ping":77}]},{"server_id":301,"name":"Uncletopia | Montr√©al | 2 | One Thousand Uncles","name_short":"mtl-2","host":"mtl-1.ca.uncletopia.com","port":27025,"enabled":true,"region":"us-east","cc":"ca","latitude":45.50889,"longitude":-73.56167,"reserved":0,"last_update":"0001-01-01T00:00:00Z","name_a2s":"","protocol":0,"map":"","folder":"","game":"","app_id":0,"player_count":0,"max_players":0,"Bots":0,"server_type":"","server_os":"","password":false,"vac":false,"version":"","steam_id":0,"keywords":null,"game_id":0,"stv_port":0,"stv_name":"","players":null},{"server_id":302,"name":"Uncletopia | Montr√©al | 3 | One Thousand Uncles","name_short":"mtl-3","host":"mtl-1.ca.uncletopia.com","port":27035,"enabled":true,"region":"us-east","cc":"ca","latitude":45.50889,"longitude":-73.56167,"reserved":0,"last_update":"0001-01-01T00:00:00Z","name_a2s":"","protocol":0,"map":"","folder":"","game":"","app_id":0,"player_count":0,"max_players":0,"Bots":0,"server_type":"","server_os":"","password":false,"vac":false,"version":"","steam_id":0,"keywords":null,"game_id":0,"stv_port":0,"stv_name":"","players":null},{"server_id":13,"name":"Uncletopia | New York City | 1 | All Maps","name_short":"nyc-1","host":"nyc-1.us.uncletopia.com","port":27015,"enabled":true,"region":"us-east","cc":"us","latitude":40.73061,"longitude":-73.93524,"reserved":0,"last_update":"0001-01-01T00:00:00Z","name_a2s":"Uncletopia | New York City | 1 | All Maps","protocol":17,"map":"cp_gravelpit","folder":"tf","game":"Team Fortress","app_id":440,"player_count":23,"max_players":24,"Bots":0,"server_type":"Dedicated","server_os":"Linux","password":true,"vac":true,"version":"7961495","steam_id":85568392924469993,"keywords":["cp","nocrits","nodmgspread","uncletopia"],"game_id":440,"stv_port":27016,"stv_name":"Uncletopia | New York City | 1 | All Maps | STV","players":[{"user_id":510,"name":"oppenheimer style","steam_id":76561198026664629,"connected_time":1428000000000,"state":"active","ping":44},{"user_id":529,"name":"Wafflez","steam_id":76561198081611996,"connected_time":289000000000,"state":"active","ping":54},{"user_id":527,"name":"Ripping Heads","steam_id":76561198006146062,"connected_time":328000000000,"state":"active","ping":61},{"user_id":477,"name":"Udo","steam_id":76561198156860063,"connected_time":3082000000000,"state":"active","ping":69},{"user_id":493,"name":"tacofever","steam_id":76561198010966507,"connected_time":2294000000000,"state":"active","ping":112},{"user_id":478,"name":"Yandings","steam_id":76561198864521572,"connected_time":3012000000000,"state":"active","ping":65},{"user_id":530,"name":"byeahnana","steam_id":76561198402313572,"connected_time":242000000000,"state":"active","ping":105},{"user_id":533,"name":"kuu","steam_id":76561199185213820,"connected_time":99000000000,"state":"active","ping":50},{"user_id":531,"name":"PepsiCorp","steam_id":76561198380467894,"connected_time":204000000000,"state":"active","ping":58},{"user_id":534,"name":"Professor","steam_id":76561198097038169,"connected_time":46000000000,"state":"active","ping":63},{"user_id":517,"name":"ndvr","steam_id":76561199379200102,"connected_time":799000000000,"state":"active","ping":48},{"user_id":535,"name":"junebug","steam_id":76561198126662775,"connected_time":38000000000,"state":"active","ping":60},{"user_id":536,"name":"Neophyte","steam_id":76561198027183394,"connected_time":27000000000,"state":"active","ping":110},{"user_id":524,"name":"Reflector","steam_id":76561198078999855,"connected_time":412000000000,"state":"active","ping":68},{"user_id":525,"name":"ùíÜùíóùíäùíçArnoldGamingÔæ†","steam_id":76561198040140247,"connected_time":409000000000,"state":"active","ping":99},{"user_id":494,"name":"Bert.","steam_id":76561198140666346,"connected_time":2245000000000,"state":"active","ping":47},{"user_id":523,"name":"Minion Bob","steam_id":76561198023938170,"connected_time":568000000000,"state":"active","ping":69},{"user_id":489,"name":"Kraftlos","steam_id":76561198074350350,"connected_time":2489000000000,"state":"active","ping":59},{"user_id":526,"name":"Stabby","steam_id":76561198038180931,"connected_time":358000000000,"state":"active","ping":63},{"user_id":465,"name":"Gentoo Linux Gaming","steam_id":76561197999657118,"connected_time":4656000000000,"state":"active","ping":64},{"user_id":445,"name":"i hate my bitchmade son","steam_id":76561198044034546,"connected_time":5630000000000,"state":"active","ping":66},{"user_id":537,"name":"DistantJragon","steam_id":76561198117563641,"connected_time":4000000000,"state":"spawning","ping":59},{"user_id":502,"name":"Bee_Pirate","steam_id":76561199000599111,"connected_time":1730000000000,"state":"active","ping":57}]},{"server_id":14,"name":"Uncletopia | New York City | 2 | All Maps","name_short":"nyc-2","host":"nyc-1.us.uncletopia.com","port":27025,"enabled":true,"region":"us-east","cc":"us","latitude":40.73061,"longitude":-73.93524,"reserved":0,"last_update":"0001-01-01T00:00:00Z","name_a2s":"Uncletopia | New York City | 2 | All Maps","protocol":17,"map":"cp_process_final","folder":"tf","game":"Team Fortress","app_id":440,"player_count":24,"max_players":24,"Bots":0,"server_type":"Dedicated","server_os":"Linux","password":true,"vac":true,"version":"7961495","steam_id":85568392924469994,"keywords":["cp","nocrits","nodmgspread","uncletopia"],"game_id":440,"stv_port":27026,"stv_name":"Uncletopia | New York City | 2 | All Maps | STV","players":[{"user_id":342,"name":"UNAWARE","steam_id":76561198180951431,"connected_time":1919000000000,"state":"active","ping":48},{"user_id":341,"name":"Jmciano24","steam_id":76561198050723212,"connected_time":1940000000000,"state":"active","ping":50},{"user_id":348,"name":"pipebombrater","steam_id":76561199029030831,"connected_time":1133000000000,"state":"active","ping":62},{"user_id":356,"name":"Socialist Warrior","steam_id":76561198085664421,"connected_time":885000000000,"state":"active","ping":70},{"user_id":358,"name":"Rabid","steam_id":76561198111536571,"connected_time":134000000000,"state":"active","ping":69},{"user_id":321,"name":"take me back to november","steam_id":76561198099412571,"connected_time":2684000000000,"state":"active","ping":45},{"user_id":319,"name":"–¢—É–º–∞–Ω–Ω—ã–µ –Ω–µ–±–µ—Å–∞","steam_id":76561198061642978,"connected_time":2775000000000,"state":"active","ping":104},{"user_id":276,"name":"JJ","steam_id":76561198115405064,"connected_time":7327000000000,"state":"active","ping":75},{"user_id":350,"name":"Hammoidis","steam_id":76561198222776116,"connected_time":1096000000000,"state":"active","ping":75},{"user_id":301,"name":"Runny Eggs","steam_id":76561198006785882,"connected_time":5477000000000,"state":"active","ping":96},{"user_id":279,"name":"lilac brooch...","steam_id":76561198333718916,"connected_time":7277000000000,"state":"active","ping":75},{"user_id":322,"name":"Arbiter","steam_id":76561198072605849,"connected_time":2646000000000,"state":"active","ping":70},{"user_id":351,"name":"St. Michael","steam_id":76561198037611052,"connected_time":1090000000000,"state":"active","ping":89},{"user_id":291,"name":"Captain Canuck","steam_id":76561198069910409,"connected_time":6147000000000,"state":"active","ping":68},{"user_id":264,"name":"flappyflap2","steam_id":76561198285048973,"connected_time":9063000000000,"state":"active","ping":46},{"user_id":353,"name":"kikikikoboy","steam_id":76561198073380271,"connected_time":1053000000000,"state":"active","ping":70},{"user_id":298,"name":"blizzard","steam_id":76561198066056920,"connected_time":5527000000000,"state":"active","ping":103},{"user_id":329,"name":"Jona","steam_id":76561199096682977,"connected_time":2328000000000,"state":"active","ping":146},{"user_id":354,"name":"KBoneski ‚ô°","steam_id":76561198307409065,"connected_time":1051000000000,"state":"active","ping":77},{"user_id":357,"name":"Samrizo el Chorizo","steam_id":76561198009838162,"connected_time":236000000000,"state":"active","ping":52},{"user_id":325,"name":"Star Savant","steam_id":76561198120795942,"connected_time":2393000000000,"state":"active","ping":78},{"user_id":345,"name":"Flower Boy","steam_id":76561199128786637,"connected_time":1451000000000,"state":"active","ping":81},{"user_id":285,"name":"tailorturtle","steam_id":76561198107481127,"connected_time":7124000000000,"state":"active","ping":64},{"user_id":355,"name":"dansal","steam_id":76561197997042510,"connected_time":1024000000000,"state":"active","ping":92}]},{"server_id":15,"name":"Uncletopia | New York City | 3 | Stopwatch","name_short":"nyc-3","host":"nyc-1.us.uncletopia.com","port":27035,"enabled":true,"region":"us-east","cc":"us","latitude":40.73061,"longitude":-73.93524,"reserved":0,"last_update":"0001-01-01T00:00:00Z","name_a2s":"Uncletopia | New York City | 3 | Stopwatch","protocol":17,"map":"workshop/cp_process_f12.ugc2302948105","folder":"tf","game":"Team Fortress","app_id":440,"player_count":0,"max_players":24,"Bots":0,"server_type":"Dedicated","server_os":"Linux","password":true,"vac":true,"version":"7961495","steam_id":85568392924742820,"keywords":["cp","nocrits","nodmgspread","uncletopia"],"game_id":440,"stv_port":27036,"stv_name":"Uncletopia | New York City | 3 | Stopwatch | STV","players":null},{"server_id":16,"name":"Uncletopia | New York City | 4 | Community","name_short":"nyc-4","host":"nyc-1.us.uncletopia.com","port":27045,"enabled":true,"region":"us-east","cc":"us","latitude":40.73061,"longitude":-73.93524,"reserved":0,"last_update":"0001-01-01T00:00:00Z","name_a2s":"Uncletopia | New York City | 4 | Community","protocol":17,"map":"workshop/koth_product_final.ugc454272353","folder":"tf","game":"Team Fortress","app_id":440,"player_count":0,"max_players":24,"Bots":0,"server_type":"Dedicated","server_os":"Linux","password":true,"vac":true,"version":"7961495","steam_id":85568392924742821,"keywords":["cp","nocrits","nodmgspread","uncletopia"],"game_id":440,"stv_port":27046,"stv_name":"Uncletopia | New York City | 4 | Community | STV","players":null},{"server_id":142,"name":"Uncletopia | S√£o Paulo | 1 | All Maps","name_short":"sao-1","host":"sao-1.br.uncletopia.com","port":27015,"enabled":true,"region":"sa","cc":"br","latitude":-23.533773,"longitude":-46.62529,"reserved":0,"last_update":"0001-01-01T00:00:00Z","name_a2s":"Uncletopia | S√£o Paulo | 1 | All Maps","protocol":17,"map":"koth_viaduct","folder":"tf","game":"Team Fortress","app_id":440,"player_count":0,"max_players":24,"Bots":0,"server_type":"Dedicated","server_os":"Linux","password":true,"vac":true,"version":"7961495","steam_id":85568392924469996,"keywords":["cp","nocrits","nodmgspread","uncletopia"],"game_id":440,"stv_port":27016,"stv_name":"Uncletopia | S√£o Paulo | 1 | All Maps | STV","players":null},{"server_id":143,"name":"Uncletopia | S√£o Paulo | 2 | Community","name_short":"sao-2","host":"sao-2.br.uncletopia.com","port":27015,"enabled":true,"region":"sa","cc":"br","latitude":-23.533773,"longitude":-46.62529,"reserved":0,"last_update":"0001-01-01T00:00:00Z","name_a2s":"Uncletopia | S√£o Paulo | 2 | Community","protocol":17,"map":"workshop/koth_product_final.ugc454272353","folder":"tf","game":"Team Fortress","app_id":440,"player_count":0,"max_players":24,"Bots":0,"server_type":"Dedicated","server_os":"Linux","password":true,"vac":true,"version":"7961495","steam_id":85568392924485349,"keywords":["cp","nocrits","nodmgspread","uncletopia"],"game_id":440,"stv_port":27016,"stv_name":"Uncletopia | S√£o Paulo | 2 | Community | STV","players":null},{"server_id":7,"name":"Uncletopia | Seattle | 1 | All Maps","name_short":"sea-1","host":"sea-1.us.uncletopia.com","port":27015,"enabled":true,"region":"us-west","cc":"us","latitude":47.608013,"longitude":-122.33517,"reserved":0,"last_update":"0001-01-01T00:00:00Z","name_a2s":"Uncletopia | Seattle | 1 | All Maps","protocol":17,"map":"koth_highpass","folder":"tf","game":"Team Fortress","app_id":440,"player_count":25,"max_players":24,"Bots":0,"server_type":"Dedicated","server_os":"Linux","password":true,"vac":true,"version":"7961495","steam_id":85568392924469997,"keywords":["cp","nocrits","nodmgspread","uncletopia"],"game_id":440,"stv_port":27016,"stv_name":"Uncletopia | Seattle | 1 | All Maps | STV","players":[{"user_id":606,"name":"Juuichi11","steam_id":76561198141955085,"connected_time":3747000000000,"state":"active","ping":46},{"user_id":608,"name":"PopcornBucketGames","steam_id":76561199089562026,"connected_time":3592000000000,"state":"active","ping":44},{"user_id":640,"name":"Subaru Outback","steam_id":76561197992007399,"connected_time":1227000000000,"state":"active","ping":50},{"user_id":653,"name":"NEBULA","steam_id":76561198086878595,"connected_time":350000000000,"state":"active","ping":74},{"user_id":571,"name":"Streamline","steam_id":76561198031098638,"connected_time":5884000000000,"state":"active","ping":100},{"user_id":615,"name":"Cheezbeargur","steam_id":76561198164702899,"connected_time":2889000000000,"state":"active","ping":68},{"user_id":635,"name":"Forty","steam_id":76561198257410181,"connected_time":1476000000000,"state":"active","ping":57},{"user_id":630,"name":"lavender","steam_id":76561199069518286,"connected_time":1594000000000,"state":"active","ping":74},{"user_id":620,"name":"Doofenshmirtz Evil Inc.","steam_id":76561198439793697,"connected_time":2727000000000,"state":"active","ping":94},{"user_id":648,"name":"Daz","steam_id":76561198041431938,"connected_time":647000000000,"state":"active","ping":51},{"user_id":559,"name":"vfa","steam_id":76561198055729118,"connected_time":6722000000000,"state":"active","ping":59},{"user_id":641,"name":"Green eggs and ham","steam_id":76561198043507340,"connected_time":1222000000000,"state":"active","ping":45},{"user_id":649,"name":"Tyth","steam_id":76561198062543298,"connected_time":626000000000,"state":"active","ping":40},{"user_id":614,"name":"Athena","steam_id":76561198249736590,"connected_time":3145000000000,"state":"active","ping":51},{"user_id":643,"name":"Skabbety","steam_id":76561198168044257,"connected_time":705000000000,"state":"active","ping":40},{"user_id":591,"name":"Can of Oranges","steam_id":76561199121813529,"connected_time":4975000000000,"state":"active","ping":32},{"user_id":612,"name":"Sweets","steam_id":76561198998446307,"connected_time":3271000000000,"state":"active","ping":71},{"user_id":616,"name":"mrow","steam_id":76561198171840525,"connected_time":2888000000000,"state":"active","ping":57},{"user_id":645,"name":"Alf Creepypasta","steam_id":76561198841844093,"connected_time":693000000000,"state":"active","ping":77},{"user_id":644,"name":"SadFapping","steam_id":76561198076651049,"connected_time":705000000000,"state":"active","ping":54},{"user_id":646,"name":"Mii Guest C, From Wii Sports","steam_id":76561198197964803,"connected_time":682000000000,"state":"active","ping":54},{"user_id":652,"name":"M1ko","steam_id":76561199091191812,"connected_time":434000000000,"state":"active","ping":72},{"user_id":562,"name":"Mr.Autistik","steam_id":76561198861596654,"connected_time":6703000000000,"state":"active","ping":60},{"user_id":651,"name":"Vv","steam_id":76561199052196750,"connected_time":577000000000,"state":"active","ping":94},{"user_id":654,"name":"rushy :))","steam_id":76561198065825165,"connected_time":278000000000,"state":"active","ping":101}]},{"server_id":119,"name":"Uncletopia | Seattle | 2 | All Maps","name_short":"sea-2","host":"sea-1.us.uncletopia.com","port":27025,"enabled":true,"region":"us-west","cc":"us","latitude":47.608013,"longitude":-122.33517,"reserved":0,"last_update":"0001-01-01T00:00:00Z","name_a2s":"Uncletopia | Seattle | 2 | All Maps","protocol":17,"map":"cp_steel","folder":"tf","game":"Team Fortress","app_id":440,"player_count":23,"max_players":24,"Bots":0,"server_type":"Dedicated","server_os":"Linux","password":true,"vac":true,"version":"7961495","steam_id":85568392924469998,"keywords":["cp","nocrits","nodmgspread","uncletopia"],"game_id":440,"stv_port":27026,"stv_name":"Uncletopia | Seattle | 2 | All Maps | STV","players":[{"user_id":186,"name":"Crazy Hungarian","steam_id":76561198025498172,"connected_time":1219000000000,"state":"active","ping":63},{"user_id":34,"name":"ilun","steam_id":76561198042913843,"connected_time":13227000000000,"state":"active","ping":57},{"user_id":192,"name":"goofy goober","steam_id":76561199024079388,"connected_time":620000000000,"state":"active","ping":47},{"user_id":178,"name":"wugmup","steam_id":76561199096287734,"connected_time":1602000000000,"state":"active","ping":84},{"user_id":195,"name":"paint thinner victim","steam_id":76561198176069217,"connected_time":332000000000,"state":"active","ping":70},{"user_id":146,"name":"a familiar cat","steam_id":76561198080046542,"connected_time":5459000000000,"state":"active","ping":46},{"user_id":179,"name":"bingus :3","steam_id":76561199198633203,"connected_time":1580000000000,"state":"active","ping":95},{"user_id":138,"name":"wmjledger","steam_id":76561198443046861,"connected_time":5713000000000,"state":"active","ping":46},{"user_id":206,"name":"joe rippa","steam_id":76561198170402666,"connected_time":91000000000,"state":"active","ping":72},{"user_id":196,"name":"diamondskyir","steam_id":76561199223952268,"connected_time":332000000000,"state":"active","ping":31},{"user_id":149,"name":"SoCal Kaizer","steam_id":76561198334361081,"connected_time":5255000000000,"state":"active","ping":76},{"user_id":201,"name":"hamletespacial","steam_id":76561199084414649,"connected_time":291000000000,"state":"active","ping":89},{"user_id":200,"name":"Trips","steam_id":76561198054581597,"connected_time":295000000000,"state":"active","ping":63},{"user_id":202,"name":"*The* Wardoug41","steam_id":76561198255780869,"connected_time":264000000000,"state":"active","ping":97},{"user_id":188,"name":"Fart Smella","steam_id":76561198377835843,"connected_time":926000000000,"state":"active","ping":89},{"user_id":185,"name":"netoc6","steam_id":76561199065312168,"connected_time":1224000000000,"state":"active","ping":105},{"user_id":194,"name":"Branta","steam_id":76561199103842843,"connected_time":364000000000,"state":"active","ping":33},{"user_id":126,"name":"mlydw","steam_id":76561198206523304,"connected_time":6546000000000,"state":"active","ping":45},{"user_id":203,"name":"Chicago Shoplifter","steam_id":76561197986530028,"connected_time":257000000000,"state":"active","ping":89},{"user_id":170,"name":"5oc","steam_id":76561199196300397,"connected_time":2969000000000,"state":"active","ping":77},{"user_id":180,"name":"bonk man","steam_id":76561198386542309,"connected_time":1567000000000,"state":"active","ping":75},{"user_id":204,"name":"IRUMBLERI","steam_id":76561198285541599,"connected_time":234000000000,"state":"active","ping":52},{"user_id":190,"name":"McSpazatron","steam_id":76561198955942148,"connected_time":810000000000,"state":"active","ping":55}]},{"server_id":406,"name":"Uncletopia | Seattle | 3 | Stopwatch","name_short":"sea-3","host":"sea-1.us.uncletopia.com","port":27035,"enabled":true,"region":"us-west","cc":"us","latitude":47.608013,"longitude":-122.33517,"reserved":0,"last_update":"0001-01-01T00:00:00Z","name_a2s":"Uncletopia | Seattle | 3 | Stopwatch","protocol":17,"map":"cp_snakewater_final1","folder":"tf","game":"Team Fortress","app_id":440,"player_count":0,"max_players":24,"Bots":0,"server_type":"Dedicated","server_os":"Linux","password":true,"vac":true,"version":"7961495","steam_id":85568392924515217,"keywords":["cp","nocrits","nodmgspread","uncletopia"],"game_id":440,"stv_port":27036,"stv_name":"Uncletopia | Seattle | 3 | Stopwatch | STV","players":null},{"server_id":17,"name":"Uncletopia | San Francisco | 1 | All Maps","name_short":"sfo-1","host":"sfo-1.us.uncletopia.com","port":27015,"enabled":true,"region":"us-west","cc":"us","latitude":37.77397,"longitude":-122.4313,"reserved":0,"last_update":"0001-01-01T00:00:00Z","name_a2s":"Uncletopia | San Francisco | 1 | All Maps","protocol":17,"map":"cp_dustbowl","folder":"tf","game":"Team Fortress","app_id":440,"player_count":24,"max_players":24,"Bots":0,"server_type":"Dedicated","server_os":"Linux","password":true,"vac":true,"version":"7961495","steam_id":85568392924469999,"keywords":["cp","nocrits","nodmgspread","uncletopia"],"game_id":440,"stv_port":27016,"stv_name":"Uncletopia | San Francisco | 1 | All Maps | STV","players":[{"user_id":175,"name":"Pluto","steam_id":76561198012630802,"connected_time":1165000000000,"state":"active","ping":56},{"user_id":173,"name":"Dullahan","steam_id":76561198119668908,"connected_time":1311000000000,"state":"active","ping":86},{"user_id":149,"name":"hog cranker","steam_id":76561198073587145,"connected_time":3178000000000,"state":"active","ping":95},{"user_id":125,"name":"Satori Komeiji","steam_id":76561198158211423,"connected_time":5754000000000,"state":"active","ping":54},{"user_id":164,"name":"Megatron G","steam_id":76561198168864083,"connected_time":2181000000000,"state":"active","ping":63},{"user_id":180,"name":"FunnyGoomba","steam_id":76561198279865229,"connected_time":711000000000,"state":"active","ping":66},{"user_id":148,"name":"Shitty Pilot","steam_id":76561198042723469,"connected_time":3491000000000,"state":"active","ping":97},{"user_id":176,"name":"Gerbias","steam_id":76561198001002427,"connected_time":1143000000000,"state":"active","ping":62},{"user_id":131,"name":"Ian","steam_id":76561198159334435,"connected_time":5418000000000,"state":"active","ping":174},{"user_id":171,"name":"Keyboardbreaker","steam_id":76561198372836132,"connected_time":1725000000000,"state":"active","ping":63},{"user_id":91,"name":"Lambchop","steam_id":76561198043900363,"connected_time":9118000000000,"state":"active","ping":60},{"user_id":162,"name":"{·¥õ Ä_·¥Ñ·¥á Ä·¥ò} shullers","steam_id":76561198889997809,"connected_time":2228000000000,"state":"active","ping":60},{"user_id":142,"name":"Dex-Starr","steam_id":76561198121191509,"connected_time":3861000000000,"state":"active","ping":46},{"user_id":85,"name":"Quaalude","steam_id":76561198100177449,"connected_time":10134000000000,"state":"active","ping":75},{"user_id":143,"name":"nobody","steam_id":76561198294634769,"connected_time":3858000000000,"state":"active","ping":70},{"user_id":166,"name":"DisturBANCE","steam_id":76561198093266251,"connected_time":2163000000000,"state":"active","ping":109},{"user_id":177,"name":"ZeeKThe3rd","steam_id":76561198190156546,"connected_time":1134000000000,"state":"active","ping":53},{"user_id":139,"name":"Toasterduds","steam_id":76561198163477584,"connected_time":4261000000000,"state":"active","ping":66},{"user_id":169,"name":"I'm busy bee worker","steam_id":76561198329680103,"connected_time":2100000000000,"state":"active","ping":127},{"user_id":178,"name":"yummines","steam_id":76561197981540661,"connected_time":1120000000000,"state":"active","ping":94},{"user_id":63,"name":"hamilton","steam_id":76561198034096096,"connected_time":11992000000000,"state":"active","ping":123},{"user_id":119,"name":"Thunder","steam_id":76561198097721532,"connected_time":6268000000000,"state":"active","ping":61},{"user_id":78,"name":"Context","steam_id":76561197972634187,"connected_time":11000000000000,"state":"active","ping":33},{"user_id":181,"name":"Throws Before BrosÛ†Ä°","steam_id":76561197992905530,"connected_time":183000000000,"state":"active","ping":56}]},{"server_id":18,"name":"Uncletopia | San Francisco | 2 | All Maps","name_short":"sfo-2","host":"sfo-1.us.uncletopia.com","port":27025,"enabled":true,"region":"us-west","cc":"us","latitude":37.77397,"longitude":-122.4313,"reserved":0,"last_update":"0001-01-01T00:00:00Z","name_a2s":"Uncletopia | San Francisco | 2 | All Maps","protocol":17,"map":"pl_snowycoast","folder":"tf","game":"Team Fortress","app_id":440,"player_count":6,"max_players":24,"Bots":0,"server_type":"Dedicated","server_os":"Linux","password":true,"vac":true,"version":"7961495","steam_id":85568392924470000,"keywords":["nocrits","nodmgspread","payload","uncletopia"],"game_id":440,"stv_port":27026,"stv_name":"Uncletopia | San Francisco | 2 | All Maps | STV","players":[{"user_id":23,"name":"CheesyBlood","steam_id":76561198180306177,"connected_time":307000000000,"state":"active","ping":43},{"user_id":24,"name":"xX_SUPERSHITASS_Xx","steam_id":76561198100936843,"connected_time":293000000000,"state":"active","ping":52},{"user_id":27,"name":"StantyRJ","steam_id":76561198320663543,"connected_time":190000000000,"state":"active","ping":70},{"user_id":28,"name":"American Dad Funny Moments #32","steam_id":76561198254874328,"connected_time":91000000000,"state":"active","ping":72},{"user_id":29,"name":"Dr. Webkinz","steam_id":76561198101207200,"connected_time":28000000000,"state":"active","ping":86},{"user_id":30,"name":"Sothisq","steam_id":76561198124889064,"connected_time":7000000000,"state":"spawning","ping":59}]},{"server_id":19,"name":"Uncletopia | San Francisco | 3 | Stopwatch","name_short":"sfo-3","host":"sfo-1.us.uncletopia.com","port":27035,"enabled":true,"region":"us-west","cc":"us","latitude":37.77397,"longitude":-122.4313,"reserved":0,"last_update":"0001-01-01T00:00:00Z","name_a2s":"Uncletopia | San Francisco | 3 | Stopwatch","protocol":17,"map":"pl_pier","folder":"tf","game":"Team Fortress","app_id":440,"player_count":8,"max_players":24,"Bots":0,"server_type":"Dedicated","server_os":"Linux","password":true,"vac":true,"version":"7961495","steam_id":85568392924742824,"keywords":["nocrits","nodmgspread","payload","uncletopia"],"game_id":440,"stv_port":27036,"stv_name":"Uncletopia | San Francisco | 3 | Stopwatch | STV","players":[{"user_id":5,"name":"Goblin King","steam_id":76561199013403170,"connected_time":578000000000,"state":"active","ping":52},{"user_id":6,"name":"azureglxy","steam_id":76561198861388315,"connected_time":367000000000,"state":"active","ping":45},{"user_id":7,"name":"LeGreench","steam_id":76561199014317297,"connected_time":329000000000,"state":"active","ping":49},{"user_id":8,"name":"seasoul","steam_id":76561198883302327,"connected_time":309000000000,"state":"active","ping":56},{"user_id":9,"name":"Pyrolimited","steam_id":76561198195455657,"connected_time":160000000000,"state":"active","ping":62},{"user_id":10,"name":"don't get mad","steam_id":76561198064662875,"connected_time":124000000000,"state":"active","ping":45},{"user_id":12,"name":"Draco","steam_id":76561198292152534,"connected_time":83000000000,"state":"active","ping":48},{"user_id":13,"name":"Villchip","steam_id":76561198198599982,"connected_time":67000000000,"state":"active","ping":61}]},{"server_id":20,"name":"Uncletopia | San Francisco | 4 | Community","name_short":"sfo-4","host":"sfo-1.us.uncletopia.com","port":27045,"enabled":true,"region":"us-west","cc":"us","latitude":37.77397,"longitude":-122.4313,"reserved":0,"last_update":"0001-01-01T00:00:00Z","name_a2s":"Uncletopia | San Francisco | 4 | Community","protocol":17,"map":"workshop/rd_asteroid_redux_b1.ugc2154902912","folder":"tf","game":"Team Fortress","app_id":440,"player_count":0,"max_players":24,"Bots":0,"server_type":"Dedicated","server_os":"Linux","password":true,"vac":true,"version":"7961495","steam_id":85568392924742826,"keywords":["beta","nocrits","nodmgspread","rd","uncletopia"],"game_id":440,"stv_port":27046,"stv_name":"Uncletopia | San Francisco | 4 | Community | STV","players":null},{"server_id":141,"name":"Uncletopia | Sydney | 1 | All Maps","name_short":"syd-1","host":"syd-1.au.uncletopia.com","port":27015,"enabled":true,"region":"au","cc":"au","latitude":-33.865143,"longitude":151.2099,"reserved":0,"last_update":"0001-01-01T00:00:00Z","name_a2s":"Uncletopia | Sydney | 1 | All Maps","protocol":17,"map":"koth_highpass","folder":"tf","game":"Team Fortress","app_id":440,"player_count":6,"max_players":24,"Bots":0,"server_type":"Dedicated","server_os":"Linux","password":true,"vac":true,"version":"7961495","steam_id":85568392924470001,"keywords":["cp","nocrits","nodmgspread","uncletopia"],"game_id":440,"stv_port":27016,"stv_name":"Uncletopia | Sydney | 1 | All Maps | STV","players":[{"user_id":8,"name":"qeuvl","steam_id":76561198170727659,"connected_time":1757000000000,"state":"active","ping":69},{"user_id":14,"name":"Aquila","steam_id":76561198042520637,"connected_time":339000000000,"state":"active","ping":38},{"user_id":10,"name":"Chez","steam_id":76561198089925051,"connected_time":1156000000000,"state":"active","ping":89},{"user_id":12,"name":"the lightning guy","steam_id":76561199222027878,"connected_time":1065000000000,"state":"active","ping":62},{"user_id":15,"name":"‚òÜpandi","steam_id":76561198091731335,"connected_time":271000000000,"state":"active","ping":49},{"user_id":16,"name":"Toastie","steam_id":76561197990059475,"connected_time":111000000000,"state":"active","ping":43}]},{"server_id":123,"name":"Uncletopia | Sydney | 2 | All Maps","name_short":"syd-2","host":"syd-1.au.uncletopia.com","port":27025,"enabled":true,"region":"au","cc":"au","latitude":-33.865143,"longitude":151.2099,"reserved":0,"last_update":"0001-01-01T00:00:00Z","name_a2s":"Uncletopia | Sydney | 2 | All Maps","protocol":17,"map":"koth_lakeside_final","folder":"tf","game":"Team Fortress","app_id":440,"player_count":0,"max_players":24,"Bots":0,"server_type":"Dedicated","server_os":"Linux","password":true,"vac":true,"version":"7961495","steam_id":85568392924470002,"keywords":["cp","nocrits","nodmgspread","uncletopia"],"game_id":440,"stv_port":27026,"stv_name":"Uncletopia | Sydney | 2 | All Maps | STV","players":null},{"server_id":395,"name":"Uncletopia | Sydney | 3 | All Maps","name_short":"syd-3","host":"syd-1.au.uncletopia.com","port":27035,"enabled":true,"region":"au","cc":"au","latitude":-33.865143,"longitude":151.2099,"reserved":0,"last_update":"0001-01-01T00:00:00Z","name_a2s":"Uncletopia | Sydney | 3 | All Maps","protocol":17,"map":"pl_barnblitz","folder":"tf","game":"Team Fortress","app_id":440,"player_count":0,"max_players":24,"Bots":0,"server_type":"Dedicated","server_os":"Linux","password":true,"vac":true,"version":"7961495","steam_id":85568392925194467,"keywords":["nocrits","nodmgspread","payload","uncletopia"],"game_id":440,"stv_port":27036,"stv_name":"Uncletopia | Sydney | 3 | All Maps | STV","players":null},{"server_id":396,"name":"Uncletopia | Sydney | 4 | All Maps","name_short":"syd-4","host":"syd-1.au.uncletopia.com","port":27045,"enabled":true,"region":"au","cc":"au","latitude":-33.865143,"longitude":151.2099,"reserved":0,"last_update":"0001-01-01T00:00:00Z","name_a2s":"Uncletopia | Sydney | 4 | All Maps","protocol":17,"map":"cp_process_final","folder":"tf","game":"Team Fortress","app_id":440,"player_count":0,"max_players":24,"Bots":0,"server_type":"Dedicated","server_os":"Linux","password":true,"vac":true,"version":"7961495","steam_id":85568392925397958,"keywords":["cp","nocrits","nodmgspread","uncletopia"],"game_id":440,"stv_port":27046,"stv_name":"Uncletopia | Sydney | 4 | All Maps | STV","players":null},{"server_id":58,"name":"Uncletopia | Sydney | 5 | Stopwatch","name_short":"syd-5","host":"syd-1.au.uncletopia.com","port":27055,"enabled":true,"region":"au","cc":"au","latitude":-33.865143,"longitude":151.2099,"reserved":0,"last_update":"0001-01-01T00:00:00Z","name_a2s":"Uncletopia | Sydney | 5 | Stopwatch","protocol":17,"map":"pl_frontier_final","folder":"tf","game":"Team Fortress","app_id":440,"player_count":0,"max_players":24,"Bots":0,"server_type":"Dedicated","server_os":"Linux","password":true,"vac":true,"version":"7961495","steam_id":85568392925397959,"keywords":["nocrits","nodmgspread","payload","uncletopia"],"game_id":440,"stv_port":27056,"stv_name":"Uncletopia | Sydney | 5 | Stopwatch | STV","players":null},{"server_id":59,"name":"Uncletopia | Sydney | 6 | Community","name_short":"syd-6","host":"syd-1.au.uncletopia.com","port":27065,"enabled":true,"region":"au","cc":"au","latitude":-33.865143,"longitude":151.2099,"reserved":0,"last_update":"0001-01-01T00:00:00Z","name_a2s":"Uncletopia | Sydney | 6 | Community","protocol":17,"map":"workshop/rd_asteroid_redux_b1.ugc2154902912","folder":"tf","game":"Team Fortress","app_id":440,"player_count":0,"max_players":24,"Bots":0,"server_type":"Dedicated","server_os":"Linux","password":true,"vac":true,"version":"7961495","steam_id":85568392925397960,"keywords":["beta","nocrits","nodmgspread","rd","uncletopia"],"game_id":440,"stv_port":27066,"stv_name":"Uncletopia | Sydney | 6 | Community | STV","players":null},{"server_id":49,"name":"Uncletopia | Warsaw | 1 | One Thousand Uncles","name_short":"waw-1","host":"waw-1.pl.uncletopia.com","port":27015,"enabled":true,"region":"eu","cc":"pl","latitude":52.2297,"longitude":21.017532,"reserved":0,"last_update":"0001-01-01T00:00:00Z","name_a2s":"Uncletopia | Warsaw | 1 | One Thousand Uncles","protocol":17,"map":"koth_highpass","folder":"tf","game":"Team Fortress","app_id":440,"player_count":0,"max_players":32,"Bots":0,"server_type":"Dedicated","server_os":"Linux","password":true,"vac":true,"version":"7961495","steam_id":85568392925397850,"keywords":["alltalk","cp","danepve","increased_maxplayers","nocrits","norespawntime","uncletopia"],"game_id":440,"stv_port":0,"stv_name":"","players":null},{"server_id":50,"name":"Uncletopia | Warsaw | 2 | One Thousand Uncles","name_short":"waw-2","host":"waw-1.pl.uncletopia.com","port":27025,"enabled":true,"region":"eu","cc":"pl","latitude":52.2297,"longitude":21.017532,"reserved":0,"last_update":"0001-01-01T00:00:00Z","name_a2s":"Uncletopia | Warsaw | 2 | One Thousand Uncles","protocol":17,"map":"pl_goldrush","folder":"tf","game":"Team Fortress","app_id":440,"player_count":0,"max_players":32,"Bots":0,"server_type":"Dedicated","server_os":"Linux","password":true,"vac":true,"version":"7961495","steam_id":85568392925397851,"keywords":["alltalk","danepve","increased_maxplayers","nocrits","norespawntime","payload","uncletopia"],"game_id":440,"stv_port":0,"stv_name":"","players":null},{"server_id":51,"name":"Uncletopia | Warsaw | 3 | All Maps","name_short":"waw-3","host":"waw-1.pl.uncletopia.com","port":27035,"enabled":true,"region":"eu","cc":"pl","latitude":52.2297,"longitude":21.017532,"reserved":0,"last_update":"0001-01-01T00:00:00Z","name_a2s":"Uncletopia | Warsaw | 3 | All Maps","protocol":17,"map":"plr_pipeline","folder":"tf","game":"Team Fortress","app_id":440,"player_count":0,"max_players":24,"Bots":0,"server_type":"Dedicated","server_os":"Linux","password":true,"vac":true,"version":"7961495","steam_id":85568392925397852,"keywords":["nocrits","nodmgspread","payload","uncletopia"],"game_id":440,"stv_port":27036,"stv_name":"Uncletopia | Warsaw | 3 | All Maps | STV","players":null},{"server_id":52,"name":"Uncletopia | Warsaw | 4 | All Maps","name_short":"waw-4","host":"waw-1.pl.uncletopia.com","port":27045,"enabled":true,"region":"eu","cc":"pl","latitude":52.2297,"longitude":21.017532,"reserved":0,"last_update":"0001-01-01T00:00:00Z","name_a2s":"Uncletopia | Warsaw | 4 | All Maps","protocol":17,"map":"cp_coldfront","folder":"tf","game":"Team Fortress","app_id":440,"player_count":0,"max_players":24,"Bots":0,"server_type":"Dedicated","server_os":"Linux","password":true,"vac":true,"version":"7961495","steam_id":85568392925397853,"keywords":["cp","nocrits","nodmgspread","uncletopia"],"game_id":440,"stv_port":27046,"stv_name":"Uncletopia | Warsaw | 4 | All Maps | STV","players":null},{"server_id":53,"name":"Uncletopia | Warsaw | 5 | Stopwatch","name_short":"waw-5","host":"waw-1.pl.uncletopia.com","port":27055,"enabled":true,"region":"eu","cc":"pl","latitude":52.2297,"longitude":21.017532,"reserved":0,"last_update":"0001-01-01T00:00:00Z","name_a2s":"Uncletopia | Warsaw | 5 | Stopwatch","protocol":17,"map":"workshop/koth_bagel_rc6.ugc2514036946","folder":"tf","game":"Team Fortress","app_id":440,"player_count":0,"max_players":24,"Bots":0,"server_type":"Dedicated","server_os":"Linux","password":true,"vac":true,"version":"7961495","steam_id":85568392925397854,"keywords":["cp","nocrits","nodmgspread","uncletopia"],"game_id":440,"stv_port":27056,"stv_name":"Uncletopia | Warsaw | 5 | Stopwatch | STV","players":null},{"server_id":54,"name":"Uncletopia | Warsaw | 6 | Community","name_short":"waw-6","host":"waw-1.pl.uncletopia.com","port":27065,"enabled":true,"region":"eu","cc":"pl","latitude":52.2297,"longitude":21.017532,"reserved":0,"last_update":"0001-01-01T00:00:00Z","name_a2s":"Uncletopia | Warsaw | 6 | Community","protocol":17,"map":"workshop/pl_badwater_pro_v12.ugc2142942074","folder":"tf","game":"Team Fortress","app_id":440,"player_count":0,"max_players":24,"Bots":0,"server_type":"Dedicated","server_os":"Linux","password":true,"vac":true,"version":"7961495","steam_id":85568392925397856,"keywords":["nocrits","nodmgspread","payload","uncletopia"],"game_id":440,"stv_port":27066,"stv_name":"Uncletopia | Warsaw | 6 | Community | STV","players":null}]}