{"status":true,"message":"","result":[{"server_id":9,"name":"Uncletopia | Atlanta | 1 | All Maps","name_short":"atl-1","host":"atl-1.us.uncletopia.com","port":27015,"enabled":true,"region":"us-east","cc":"us","latitude":33.753746,"longitude":-84.38633,"reserved":0,"last_update":"0001-01-01T00:00:00Z","name_a2s":"Uncletopia | Atlanta | 1 | All Maps","protocol":17,"map":"pl_upward","folder":"tf","game":"Team Fortress","app_id":440,"player_count":24,"max_players":24,"Bots":0,"server_type":"Dedicated","server_os":"Linux","password":true,"vac":true,"version":"7961495","steam_id":85568392924469982,"keywords":["nocrits","nodmgspread","payload","uncletopia"],"game_id":440,"stv_port":27016,"stv_name":"Uncletopia | Atlanta | 1 | All Maps | STV","players":null},{"server_id":104,"name":"Uncletopia | Atlanta | 2 | All Maps","name_short":"atl-2","host":"atl-1.us.uncletopia.com","port":27025,"enabled":true,"region":"us-east","cc":"us","latitude":33.753746,"longitude":-84.38633,"reserved":0,"last_update":"0001-01-01T00:00:00Z","name_a2s":"Uncletopia | Atlanta | 2 | All Maps","protocol":17,"map":"cp_dustbowl","folder":"tf","game":"Team Fortress","app_id":440,"player_count":24,"max_players":24,"Bots":0,"server_type":"Dedicated","server_os":"Linux","password":true,"vac":true,"version":"7961495","steam_id":85568392924469983,"keywords":["cp","nocrits","nodmgspread","uncletopia"],"game_id":440,"stv_port":27026,"stv_name":"Uncletopia | Atlanta | 2 | All Maps | STV","players":null},{"server_id":400,"name":"Uncletopia | Atlanta | 3 | Stopwatch","name_short":"atl-3","host":"atl-1.us.uncletopia.com","port":27035,"enabled":true,"region":"us-east","cc":"us","latitude":33.753746,"longitude":-84.38633,"reserved":0,"last_update":"0001-01-01T00:00:00Z","name_a2s":"Uncletopia | Atlanta | 3 | Stopwatch","protocol":17,"map":"pl_vigil_rc10","folder":"tf","game":"Team Fortress","app_id":440,"player_count":0,"max_players":24,"Bots":0,"server_type":"Dedicated","server_os":"Linux","password":true,"vac":true,"version":"7961495","steam_id":85568392924515187,"keywords":["nocrits","nodmgspread","payload","uncletopia"],"game_id":440,"stv_port":27036,"stv_name":"Uncletopia | Atlanta | 3 | Stopwatch | STV","players":null},{"server_id":401,"name":"Uncletopia | Atlanta | 4 | Community","name_short":"atl-4","host":"atl-1.us.uncletopia.com","port":27045,"enabled":true,"region":"us-east","cc":"us","latitude":33.753746,"longitude":-84.38633,"reserved":0,"last_update":"0001-01-01T00:00:00Z","name_a2s":"Uncletopia | Atlanta | 4 | Community","protocol":17,"map":"cp_hazyfort_rc6","folder":"tf","game":"Team Fortress","app_id":440,"player_count":4,"max_players":24,"Bots":0,"server_type":"Dedicated","server_os":"Linux","password":true,"vac":true,"version":"7961495","steam_id":85568392924515188,"keywords":["cp","nocrits","nodmgspread","uncletopia"],"game_id":440,"stv_port":27046,"stv_name":"Uncletopia | Atlanta | 4 | Community | STV","players":null},{"server_id":2,"name":"Uncletopia | Chicago | 1 | All Maps","name_short":"chi-1","host":"chi-1.us.uncletopia.com","port":27015,"enabled":true,"region":"us-central","cc":"us","latitude":41.881832,"longitude":-87.62318,"reserved":0,"last_update":"0001-01-01T00:00:00Z","name_a2s":"Uncletopia | Chicago | 1 | All Maps","protocol":17,"map":"pl_snowycoast","folder":"tf","game":"Team Fortress","app_id":440,"player_count":24,"max_players":24,"Bots":0,"server_type":"Dedicated","server_os":"Linux","password":true,"vac":true,"version":"7961495","steam_id":85568392924469984,"keywords":["nocrits","nodmgspread","payload","uncletopia"],"game_id":440,"stv_port":27016,"stv_name":"Uncletopia | Chicago | 1 | All Maps | STV","players":[{"user_id":698,"name":"Swash","steam_id":76561197969421355,"connected_time":4820000000000,"state":"active","ping":69},{"user_id":768,"name":"Tommy Pickles (Very Cool)","steam_id":76561198391261463,"connected_time":294000000000,"state":"active","ping":74},{"user_id":751,"name":"Sentry Gun Main Man","steam_id":76561198327938247,"connected_time":1265000000000,"state":"active","ping":85},{"user_id":757,"name":"Crab Rangoon","steam_id":76561198059310510,"connected_time":574000000000,"state":"active","ping":66},{"user_id":740,"name":"WheelockWarlock","steam_id":76561198171456553,"connected_time":2445000000000,"state":"active","ping":94},{"user_id":769,"name":"Lorberry","steam_id":76561198023706058,"connected_time":274000000000,"state":"active","ping":35},{"user_id":764,"name":"Orakcaj","steam_id":76561198080563935,"connected_time":406000000000,"state":"active","ping":44},{"user_id":720,"name":"PKBEAST_7","steam_id":76561198177136537,"connected_time":3366000000000,"state":"active","ping":86},{"user_id":755,"name":"Bottom Trans Cowgirl","steam_id":76561198304239680,"connected_time":1135000000000,"state":"active","ping":81},{"user_id":715,"name":"Furry Saul Goodman","steam_id":76561198069580305,"connected_time":3700000000000,"state":"active","ping":54},{"user_id":752,"name":"Mank","steam_id":76561198189421005,"connected_time":1204000000000,"state":"active","ping":47},{"user_id":765,"name":"sleepy","steam_id":76561198840113089,"connected_time":397000000000,"state":"active","ping":70},{"user_id":701,"name":"Your Local Queer Librarian","steam_id":76561198013077080,"connected_time":4776000000000,"state":"active","ping":60},{"user_id":658,"name":"hej","steam_id":76561197996366940,"connected_time":9337000000000,"state":"active","ping":60},{"user_id":770,"name":"logos","steam_id":76561198038080028,"connected_time":271000000000,"state":"active","ping":84},{"user_id":666,"name":"MedRed™ #IATAH","steam_id":76561198002962970,"connected_time":8574000000000,"state":"active","ping":100},{"user_id":762,"name":"Ellis McGruber","steam_id":76561198060739536,"connected_time":506000000000,"state":"active","ping":73},{"user_id":748,"name":"A tree","steam_id":76561198309065247,"connected_time":1330000000000,"state":"active","ping":79},{"user_id":745,"name":"L to the OG","steam_id":76561199215811448,"connected_time":2236000000000,"state":"active","ping":75},{"user_id":772,"name":"Lycan","steam_id":76561198151499868,"connected_time":109000000000,"state":"active","ping":93},{"user_id":766,"name":"b","steam_id":76561198156336213,"connected_time":392000000000,"state":"active","ping":77},{"user_id":754,"name":"Tibalt Nyahuma","steam_id":76561198034779431,"connected_time":1175000000000,"state":"active","ping":82},{"user_id":771,"name":"eat Pant","steam_id":76561197974965536,"connected_time":269000000000,"state":"active","ping":66},{"user_id":750,"name":"DinkleBerg","steam_id":76561198891626233,"connected_time":1307000000000,"state":"active","ping":67}]},{"server_id":106,"name":"Uncletopia | Chicago | 2 | All Maps","name_short":"chi-2","host":"chi-1.us.uncletopia.com","port":27025,"enabled":true,"region":"us-central","cc":"us","latitude":41.881832,"longitude":-87.62318,"reserved":0,"last_update":"0001-01-01T00:00:00Z","name_a2s":"Uncletopia | Chicago | 2 | All Maps","protocol":17,"map":"pl_barnblitz","folder":"tf","game":"Team Fortress","app_id":440,"player_count":20,"max_players":24,"Bots":0,"server_type":"Dedicated","server_os":"Linux","password":true,"vac":true,"version":"7961495","steam_id":85568392924469985,"keywords":["nocrits","nodmgspread","payload","uncletopia"],"game_id":440,"stv_port":27026,"stv_name":"Uncletopia | Chicago | 2 | All Maps | STV","players":[{"user_id":572,"name":"c00kie","steam_id":76561198418178297,"connected_time":429000000000,"state":"active","ping":44},{"user_id":520,"name":"salty like Lot's wife","steam_id":76561197998619845,"connected_time":3486000000000,"state":"active","ping":67},{"user_id":564,"name":"Lord_Manship","steam_id":76561198045168765,"connected_time":933000000000,"state":"active","ping":82},{"user_id":573,"name":"Pinhead","steam_id":76561198088238544,"connected_time":379000000000,"state":"active","ping":69},{"user_id":542,"name":"mac_cheese","steam_id":76561198071334162,"connected_time":2576000000000,"state":"active","ping":105},{"user_id":528,"name":"Deathpill","steam_id":76561197994404793,"connected_time":3295000000000,"state":"active","ping":68},{"user_id":553,"name":"孫子","steam_id":76561198083112681,"connected_time":1216000000000,"state":"active","ping":51},{"user_id":549,"name":"Just Chuck","steam_id":76561198121697504,"connected_time":2066000000000,"state":"active","ping":67},{"user_id":574,"name":"Bronze Age Furvert","steam_id":76561198859118263,"connected_time":338000000000,"state":"active","ping":65},{"user_id":567,"name":"Kent C Straight","steam_id":76561198056190259,"connected_time":684000000000,"state":"active","ping":62},{"user_id":571,"name":"Ninetees","steam_id":76561198119483989,"connected_time":513000000000,"state":"active","ping":78},{"user_id":557,"name":"caca sniffer","steam_id":76561199099914725,"connected_time":1051000000000,"state":"active","ping":108},{"user_id":541,"name":"rainintokyo","steam_id":76561198436383373,"connected_time":2611000000000,"state":"active","ping":116},{"user_id":558,"name":"AntiCapitalist","steam_id":76561198055447355,"connected_time":1047000000000,"state":"active","ping":58},{"user_id":570,"name":"puppy :3","steam_id":76561198011196264,"connected_time":632000000000,"state":"active","ping":38},{"user_id":576,"name":"kezia","steam_id":76561198059815894,"connected_time":284000000000,"state":"active","ping":44},{"user_id":561,"name":"Plasmie{ylo}","steam_id":76561198083513154,"connected_time":1032000000000,"state":"active","ping":73},{"user_id":566,"name":"UNCLE RUCKUS","steam_id":76561199380604147,"connected_time":916000000000,"state":"active","ping":47},{"user_id":538,"name":"CMahaff","steam_id":76561198017229519,"connected_time":2982000000000,"state":"active","ping":73},{"user_id":547,"name":"Final_MarioXD","steam_id":76561199184862419,"connected_time":2243000000000,"state":"active","ping":91}]},{"server_id":402,"name":"Uncletopia | Chicago | 3 | All Maps","name_short":"chi-3","host":"chi-1.us.uncletopia.com","port":27035,"enabled":true,"region":"us-central","cc":"us","latitude":41.881832,"longitude":-87.62318,"reserved":0,"last_update":"0001-01-01T00:00:00Z","name_a2s":"Uncletopia | Chicago | 3 | All Maps","protocol":17,"map":"pl_snowycoast","folder":"tf","game":"Team Fortress","app_id":440,"player_count":24,"max_players":24,"Bots":0,"server_type":"Dedicated","server_os":"Linux","password":true,"vac":true,"version":"7961495","steam_id":85568392924515191,"keywords":["nocrits","nodmgspread","payload","uncletopia"],"game_id":440,"stv_port":27036,"stv_name":"Uncletopia | Chicago | 3 | All Maps | STV","players":[{"user_id":360,"name":"Stauxie","steam_id":76561198255030077,"connected_time":4915000000000,"state":"active","ping":89},{"user_id":361,"name":"nbwingdinger","steam_id":76561198412627015,"connected_time":4910000000000,"state":"active","ping":114},{"user_id":415,"name":"brroddyy","steam_id":76561198343540172,"connected_time":825000000000,"state":"active","ping":78},{"user_id":346,"name":"stick","steam_id":76561198049489094,"connected_time":6040000000000,"state":"active","ping":56},{"user_id":417,"name":"RAWRWAIFU","steam_id":76561198032118386,"connected_time":679000000000,"state":"active","ping":92},{"user_id":322,"name":"Six Piece Chicken McNobody","steam_id":76561198129848222,"connected_time":7810000000000,"state":"active","ping":70},{"user_id":375,"name":"Gerald Jay Sussman","steam_id":76561198114515026,"connected_time":3880000000000,"state":"active","ping":42},{"user_id":421,"name":"Mortal Flame","steam_id":76561198130698418,"connected_time":72000000000,"state":"active","ping":102},{"user_id":419,"name":"Egg","steam_id":76561198028157625,"connected_time":394000000000,"state":"active","ping":88},{"user_id":416,"name":"oof aim small brain","steam_id":76561198079925551,"connected_time":789000000000,"state":"active","ping":61},{"user_id":399,"name":"Nefy","steam_id":76561198030017316,"connected_time":2256000000000,"state":"active","ping":89},{"user_id":412,"name":"badboy6996","steam_id":76561197969386201,"connected_time":1614000000000,"state":"active","ping":45},{"user_id":376,"name":"[82DK] Ike","steam_id":76561198135256526,"connected_time":3822000000000,"state":"active","ping":67},{"user_id":352,"name":"gaming gerald","steam_id":76561198011707083,"connected_time":5465000000000,"state":"active","ping":56},{"user_id":403,"name":"-W3E- grim10465","steam_id":76561198045698581,"connected_time":2051000000000,"state":"active","ping":53},{"user_id":382,"name":"homewurk","steam_id":76561199080327081,"connected_time":3193000000000,"state":"active","ping":118},{"user_id":405,"name":"HOW2TAKEASHIT@ABITCHCRIB","steam_id":76561198144766439,"connected_time":2034000000000,"state":"active","ping":48},{"user_id":406,"name":"Who's Mutzy?","steam_id":76561198085858203,"connected_time":2028000000000,"state":"active","ping":56},{"user_id":408,"name":"kup","steam_id":76561198046816932,"connected_time":2013000000000,"state":"active","ping":60},{"user_id":367,"name":"the rizzler","steam_id":76561198012917426,"connected_time":4396000000000,"state":"active","ping":82},{"user_id":413,"name":"big steve","steam_id":76561199037050183,"connected_time":1443000000000,"state":"active","ping":100},{"user_id":420,"name":"relay","steam_id":76561198314662811,"connected_time":360000000000,"state":"active","ping":105},{"user_id":396,"name":"Raccoon.Of.Waffle.House","steam_id":76561199018770554,"connected_time":2767000000000,"state":"active","ping":101},{"user_id":409,"name":"Hatin Ass Al'","steam_id":76561199080912379,"connected_time":2002000000000,"state":"active","ping":107}]},{"server_id":403,"name":"Uncletopia | Chicago | 4 | All Maps","name_short":"chi-4","host":"chi-1.us.uncletopia.com","port":27045,"enabled":true,"region":"us-central","cc":"us","latitude":41.881832,"longitude":-87.62318,"reserved":0,"last_update":"0001-01-01T00:00:00Z","name_a2s":"Uncletopia | Chicago | 4 | All Maps","protocol":17,"map":"pl_upward","folder":"tf","game":"Team Fortress","app_id":440,"player_count":24,"max_players":24,"Bots":0,"server_type":"Dedicated","server_os":"Linux","password":true,"vac":true,"version":"7961495","steam_id":85568392924515193,"keywords":["nocrits","nodmgspread","payload","uncletopia"],"game_id":440,"stv_port":27046,"stv_name":"Uncletopia | Chicago | 4 | All Maps | STV","players":[{"user_id":250,"name":"ramrod","steam_id":76561197972297003,"connected_time":769000000000,"state":"active","ping":68},{"user_id":208,"name":"LeopoldVR","steam_id":76561198041597869,"connected_time":3748000000000,"state":"active","ping":81},{"user_id":231,"name":"bunsy","steam_id":76561198097292857,"connected_time":1348000000000,"state":"active","ping":78},{"user_id":242,"name":"Boboblin:)","steam_id":76561199030131717,"connected_time":1010000000000,"state":"active","ping":92},{"user_id":209,"name":"hot pants™","steam_id":76561198033652282,"connected_time":3747000000000,"state":"active","ping":78},{"user_id":210,"name":"Engie-Deer","steam_id":76561198817620456,"connected_time":3716000000000,"state":"active","ping":81},{"user_id":219,"name":"Ojen","steam_id":76561197998414482,"connected_time":3492000000000,"state":"active","ping":60},{"user_id":245,"name":"King","steam_id":76561198039763676,"connected_time":875000000000,"state":"active","ping":62},{"user_id":233,"name":"BoyKisser","steam_id":76561199200969139,"connected_time":1311000000000,"state":"active","ping":124},{"user_id":257,"name":"suds","steam_id":76561198157331724,"connected_time":56000000000,"state":"active","ping":46},{"user_id":235,"name":"Denzel McFlurry","steam_id":76561199231296521,"connected_time":1245000000000,"state":"active","ping":73},{"user_id":258,"name":"SouperBad","steam_id":76561198116690686,"connected_time":28000000000,"state":"spawning","ping":47},{"user_id":237,"name":"Ace Chromatica","steam_id":76561198042211131,"connected_time":1228000000000,"state":"active","ping":56},{"user_id":212,"name":"Jaguar lft/ring","steam_id":76561197971152439,"connected_time":3674000000000,"state":"active","ping":60},{"user_id":259,"name":"Engideer","steam_id":76561198145733164,"connected_time":23000000000,"state":"active","ping":72},{"user_id":254,"name":"leumas","steam_id":76561198240408540,"connected_time":90000000000,"state":"active","ping":57},{"user_id":253,"name":"im learning ):","steam_id":76561198083286148,"connected_time":470000000000,"state":"active","ping":70},{"user_id":204,"name":"Lord butter,stick","steam_id":76561198987249913,"connected_time":4006000000000,"state":"active","ping":73},{"user_id":255,"name":"B.O.W","steam_id":76561199012165476,"connected_time":89000000000,"state":"active","ping":51},{"user_id":216,"name":"qt pa 2t","steam_id":76561198066867150,"connected_time":3640000000000,"state":"active","ping":62},{"user_id":217,"name":"OddSlaush","steam_id":76561198043898488,"connected_time":3639000000000,"state":"active","ping":101},{"user_id":190,"name":"Dr Oshawott","steam_id":76561198042021629,"connected_time":4714000000000,"state":"active","ping":75},{"user_id":241,"name":"Kiervce","steam_id":76561199175427371,"connected_time":1120000000000,"state":"active","ping":68},{"user_id":251,"name":"Glowing5KY","steam_id":76561198850434905,"connected_time":747000000000,"state":"active","ping":118}]},{"server_id":36,"name":"Uncletopia | Chicago | 5 | All Maps","name_short":"chi-5","host":"chi-2.us.uncletopia.com","port":27015,"enabled":true,"region":"us-central","cc":"us","latitude":41.881832,"longitude":-87.62318,"reserved":0,"last_update":"0001-01-01T00:00:00Z","name_a2s":"Uncletopia | Chicago | 5 | All Maps","protocol":17,"map":"cp_dustbowl","folder":"tf","game":"Team Fortress","app_id":440,"player_count":15,"max_players":24,"Bots":0,"server_type":"Dedicated","server_os":"Linux","password":true,"vac":true,"version":"7961495","steam_id":85568392924866362,"keywords":["cp","nocrits","nodmgspread","uncletopia"],"game_id":440,"stv_port":27016,"stv_name":"Uncletopia | Chicago | 5 | All Maps | STV","players":[{"user_id":445,"name":"[NAME-REDACTED]","steam_id":76561198035682975,"connected_time":654000000000,"state":"active","ping":54},{"user_id":419,"name":"EpicNGamerz","steam_id":76561198304292582,"connected_time":1702000000000,"state":"active","ping":100},{"user_id":443,"name":"Coup de Grass","steam_id":76561198011643226,"connected_time":810000000000,"state":"active","ping":62},{"user_id":449,"name":"Herdez Hot Salsa","steam_id":76561197991740906,"connected_time":497000000000,"state":"active","ping":67},{"user_id":438,"name":"DerpMan","steam_id":76561198341191324,"connected_time":1064000000000,"state":"active","ping":102},{"user_id":394,"name":"c64guy","steam_id":76561198023022744,"connected_time":4493000000000,"state":"active","ping":59},{"user_id":349,"name":"Kantamoe","steam_id":76561198046661611,"connected_time":7348000000000,"state":"active","ping":82},{"user_id":446,"name":"wintermint","steam_id":76561198013735714,"connected_time":646000000000,"state":"active","ping":64},{"user_id":444,"name":"Sean","steam_id":76561198129453300,"connected_time":795000000000,"state":"active","ping":49},{"user_id":411,"name":"Rainbeon","steam_id":76561198046150531,"connected_time":2943000000000,"state":"active","ping":38},{"user_id":424,"name":"At","steam_id":76561198381841894,"connected_time":1562000000000,"state":"active","ping":59},{"user_id":425,"name":"ooidial","steam_id":76561199086221916,"connected_time":1529000000000,"state":"active","ping":75},{"user_id":450,"name":"Rat God","steam_id":76561198066161598,"connected_time":297000000000,"state":"active","ping":56},{"user_id":401,"name":"Skeleton Hotel","steam_id":76561198041704727,"connected_time":3949000000000,"state":"active","ping":60},{"user_id":434,"name":"General Mightyian11","steam_id":76561199125278476,"connected_time":1312000000000,"state":"active","ping":54}]},{"server_id":37,"name":"Uncletopia | Chicago | 6 | All Maps","name_short":"chi-6","host":"chi-2.us.uncletopia.com","port":27025,"enabled":true,"region":"us-central","cc":"us","latitude":41.881832,"longitude":-87.62318,"reserved":0,"last_update":"0001-01-01T00:00:00Z","name_a2s":"Uncletopia | Chicago | 6 | All Maps","protocol":17,"map":"pl_swiftwater_final1","folder":"tf","game":"Team Fortress","app_id":440,"player_count":23,"max_players":24,"Bots":0,"server_type":"Dedicated","server_os":"Linux","password":true,"vac":true,"version":"7961495","steam_id":85568392924866363,"keywords":["nocrits","nodmgspread","payload","uncletopia"],"game_id":440,"stv_port":27026,"stv_name":"Uncletopia | Chicago | 6 | All Maps | STV","players":[{"user_id":272,"name":"lytewerk","steam_id":76561198002819791,"connected_time":84000000000,"state":"active","ping":75},{"user_id":228,"name":"ok","steam_id":76561199074875663,"connected_time":2851000000000,"state":"active","ping":75},{"user_id":251,"name":"Wookie257","steam_id":76561198984452441,"connected_time":1425000000000,"state":"active","ping":73},{"user_id":269,"name":"SithDestroyer","steam_id":76561198183901886,"connected_time":188000000000,"state":"active","ping":97},{"user_id":195,"name":"WitheringLeo","steam_id":76561198046722918,"connected_time":5801000000000,"state":"active","ping":94},{"user_id":263,"name":"can man (cigarette advocate)","steam_id":76561197967844454,"connected_time":775000000000,"state":"active","ping":87},{"user_id":250,"name":"The_Stomach_Stone_Surgeon","steam_id":76561198044643725,"connected_time":1501000000000,"state":"active","ping":77},{"user_id":248,"name":"LILGI4THAW","steam_id":76561198403803842,"connected_time":1551000000000,"state":"active","ping":122},{"user_id":270,"name":"Powered","steam_id":76561199298693128,"connected_time":171000000000,"state":"active","ping":67},{"user_id":253,"name":"shmoney maker","steam_id":76561198241948526,"connected_time":1334000000000,"state":"active","ping":62},{"user_id":254,"name":"BigNugs","steam_id":76561198056402610,"connected_time":1330000000000,"state":"active","ping":69},{"user_id":264,"name":"eepy kitty :3","steam_id":76561198106313563,"connected_time":773000000000,"state":"active","ping":57},{"user_id":249,"name":"♥ alixei! ♥","steam_id":76561198014557455,"connected_time":1530000000000,"state":"active","ping":60},{"user_id":273,"name":"fun","steam_id":76561199469712812,"connected_time":44000000000,"state":"active","ping":132},{"user_id":265,"name":"Danny","steam_id":76561198404520757,"connected_time":749000000000,"state":"active","ping":78},{"user_id":246,"name":"Fortnite the movie","steam_id":76561199068219264,"connected_time":1635000000000,"state":"active","ping":59},{"user_id":266,"name":"your generic F2P","steam_id":76561199469164968,"connected_time":707000000000,"state":"active","ping":75},{"user_id":235,"name":"Jousty","steam_id":76561199162677853,"connected_time":2655000000000,"state":"active","ping":91},{"user_id":190,"name":"BANANA","steam_id":76561198418614551,"connected_time":6151000000000,"state":"active","ping":58},{"user_id":268,"name":"bogus","steam_id":76561198377555279,"connected_time":282000000000,"state":"active","ping":86},{"user_id":259,"name":"mersaults","steam_id":76561198079927127,"connected_time":1130000000000,"state":"active","ping":44},{"user_id":271,"name":"smooth brain","steam_id":76561198049253541,"connected_time":147000000000,"state":"active","ping":69},{"user_id":257,"name":"rattlin' bog","steam_id":76561198224551028,"connected_time":1204000000000,"state":"active","ping":72}]},{"server_id":38,"name":"Uncletopia | Chicago | 7 | Stopwatch","name_short":"chi-7","host":"chi-2.us.uncletopia.com","port":27035,"enabled":true,"region":"us-central","cc":"us","latitude":41.881832,"longitude":-87.62318,"reserved":0,"last_update":"0001-01-01T00:00:00Z","name_a2s":"Uncletopia | Chicago | 7 | Stopwatch","protocol":17,"map":"workshop/koth_ramjam_rc1.ugc459778887","folder":"tf","game":"Team Fortress","app_id":440,"player_count":23,"max_players":24,"Bots":0,"server_type":"Dedicated","server_os":"Linux","password":true,"vac":true,"version":"7961495","steam_id":85568392924866364,"keywords":["cp","nocrits","nodmgspread","uncletopia"],"game_id":440,"stv_port":27036,"stv_name":"Uncletopia | Chicago | 7 | Stopwatch | STV","players":[{"user_id":534,"name":"mmmghmpghmmmph","steam_id":76561199495570478,"connected_time":635000000000,"state":"active","ping":119},{"user_id":456,"name":"Turbulent Tilapia","steam_id":76561198004630011,"connected_time":3944000000000,"state":"active","ping":45},{"user_id":488,"name":"Cosmo","steam_id":76561199218315330,"connected_time":2671000000000,"state":"active","ping":71},{"user_id":467,"name":"yoodle doodle","steam_id":76561198054897884,"connected_time":3484000000000,"state":"active","ping":74},{"user_id":331,"name":"flu walrus","steam_id":76561198207940136,"connected_time":7450000000000,"state":"active","ping":79},{"user_id":468,"name":"joshtrademark","steam_id":76561198097422133,"connected_time":3459000000000,"state":"active","ping":61},{"user_id":533,"name":"SC|Formuoli","steam_id":76561198254354595,"connected_time":736000000000,"state":"active","ping":30},{"user_id":539,"name":"Stargriefer190","steam_id":76561198996425356,"connected_time":166000000000,"state":"active","ping":87},{"user_id":319,"name":"carcin","steam_id":76561198042271448,"connected_time":7547000000000,"state":"active","ping":60},{"user_id":326,"name":"Dirtin","steam_id":76561198082291174,"connected_time":7533000000000,"state":"active","ping":62},{"user_id":530,"name":"my pronouns are trans/mission","steam_id":76561198807020633,"connected_time":1200000000000,"state":"active","ping":72},{"user_id":414,"name":"Honesty","steam_id":76561198066094995,"connected_time":5343000000000,"state":"active","ping":78},{"user_id":323,"name":"\u003c3","steam_id":76561198065872641,"connected_time":7540000000000,"state":"active","ping":102},{"user_id":528,"name":"femboy on hrt","steam_id":76561198204075083,"connected_time":1294000000000,"state":"active","ping":81},{"user_id":325,"name":"realCptJack","steam_id":76561198021082168,"connected_time":7535000000000,"state":"active","ping":60},{"user_id":540,"name":"bob","steam_id":76561198196374619,"connected_time":151000000000,"state":"active","ping":104},{"user_id":535,"name":"Infinite_Twelve","steam_id":76561198980401269,"connected_time":552000000000,"state":"active","ping":120},{"user_id":473,"name":"--_Cook_--","steam_id":76561198080855748,"connected_time":3259000000000,"state":"active","ping":48},{"user_id":532,"name":"unusualnuma","steam_id":76561198856016840,"connected_time":906000000000,"state":"active","ping":67},{"user_id":536,"name":"SilentFootba11","steam_id":76561199006570947,"connected_time":533000000000,"state":"active","ping":74},{"user_id":338,"name":"poobis","steam_id":76561198043034787,"connected_time":7336000000000,"state":"active","ping":90},{"user_id":537,"name":"Golurk with some bitches","steam_id":76561198085888959,"connected_time":463000000000,"state":"active","ping":59},{"user_id":543,"name":"Strange Festive Femboy","steam_id":76561198050385093,"connected_time":34000000000,"state":"spawning","ping":234}]},{"server_id":39,"name":"Uncletopia | Chicago | 8 | Community","name_short":"chi-8","host":"chi-2.us.uncletopia.com","port":27045,"enabled":true,"region":"us-central","cc":"us","latitude":41.881832,"longitude":-87.62318,"reserved":0,"last_update":"0001-01-01T00:00:00Z","name_a2s":"Uncletopia | Chicago | 8 | Community","protocol":17,"map":"workshop/koth_trenchfoot_b1a.ugc731436616","folder":"tf","game":"Team Fortress","app_id":440,"player_count":0,"max_players":24,"Bots":0,"server_type":"Dedicated","server_os":"Linux","password":true,"vac":true,"version":"7961495","steam_id":85568392924866365,"keywords":["cp","nocrits","nodmgspread","uncletopia"],"game_id":440,"stv_port":27046,"stv_name":"Uncletopia | Chicago | 8 | Community | STV","players":null},{"server_id":8,"name":"Uncletopia | Dallas | 1 | All Maps","name_short":"dal-1","host":"dal-1.us.uncletopia.com","port":27015,"enabled":true,"region":"us-central","cc":"us","latitude":32.779167,"longitude":-96.80889,"reserved":0,"last_update":"0001-01-01T00:00:00Z","name_a2s":"Uncletopia | Dallas | 1 | All Maps","protocol":17,"map":"pl_snowycoast","folder":"tf","game":"Team Fortress","app_id":440,"player_count":24,"max_players":24,"Bots":0,"server_type":"Dedicated","server_os":"Linux","password":true,"vac":true,"version":"7961495","steam_id":85568392924469986,"keywords":["nocrits","nodmgspread","payload","uncletopia"],"game_id":440,"stv_port":27016,"stv_name":"Uncletopia | Dallas | 1 | All Maps | STV","players":[{"user_id":430,"name":"Mythical Lag","steam_id":76561198347031281,"connected_time":956000000000,"state":"active","ping":50},{"user_id":386,"name":"Speejoink","steam_id":76561198076863045,"connected_time":3464000000000,"state":"active","ping":57},{"user_id":419,"name":"Обама","steam_id":76561198134415874,"connected_time":1677000000000,"state":"active","ping":62},{"user_id":439,"name":"sih3","steam_id":76561198081462396,"connected_time":586000000000,"state":"active","ping":59},{"user_id":399,"name":"Player Zero","steam_id":76561198070751040,"connected_time":2585000000000,"state":"active","ping":65},{"user_id":408,"name":"wckid","steam_id":76561198044856349,"connected_time":2161000000000,"state":"active","ping":74},{"user_id":432,"name":"TrueChaos","steam_id":76561198280651661,"connected_time":936000000000,"state":"active","ping":98},{"user_id":367,"name":"CHIEF","steam_id":76561198011209422,"connected_time":5980000000000,"state":"active","ping":46},{"user_id":414,"name":"Sage","steam_id":76561198143101697,"connected_time":1762000000000,"state":"active","ping":120},{"user_id":316,"name":"Proud Swift City Resident","steam_id":76561198036283992,"connected_time":9072000000000,"state":"active","ping":86},{"user_id":433,"name":"squid game","steam_id":76561199248960166,"connected_time":920000000000,"state":"active","ping":94},{"user_id":426,"name":"sophia!!! (killer)","steam_id":76561198049802690,"connected_time":1102000000000,"state":"active","ping":101},{"user_id":412,"name":"schmuck","steam_id":76561198143789773,"connected_time":1941000000000,"state":"active","ping":58},{"user_id":415,"name":"flippercurve","steam_id":76561199238295034,"connected_time":1761000000000,"state":"active","ping":75},{"user_id":404,"name":"MOVEMENTPLAYER bladeefan12","steam_id":76561198274959371,"connected_time":2326000000000,"state":"active","ping":92},{"user_id":338,"name":"Spazz","steam_id":76561198036167494,"connected_time":7965000000000,"state":"active","ping":56},{"user_id":427,"name":"Team Fartpiss Poo","steam_id":76561199163591880,"connected_time":1090000000000,"state":"active","ping":97},{"user_id":366,"name":"LooneyMonkey","steam_id":76561198414675183,"connected_time":6043000000000,"state":"active","ping":66},{"user_id":440,"name":"oh god i'm gonna CHUM","steam_id":76561198019210187,"connected_time":578000000000,"state":"active","ping":49},{"user_id":397,"name":"Agent Bowtie","steam_id":76561198175839279,"connected_time":2925000000000,"state":"active","ping":65},{"user_id":423,"name":"Trolley","steam_id":76561198106695948,"connected_time":1313000000000,"state":"active","ping":80},{"user_id":411,"name":"Fightin Cow","steam_id":76561198080941486,"connected_time":2048000000000,"state":"active","ping":60},{"user_id":429,"name":"GB_Ry3","steam_id":76561198353746090,"connected_time":1028000000000,"state":"active","ping":85},{"user_id":436,"name":"Icecandyade","steam_id":76561198870772338,"connected_time":823000000000,"state":"active","ping":105}]},{"server_id":108,"name":"Uncletopia | Dallas | 2 | All Maps","name_short":"dal-2","host":"dal-1.us.uncletopia.com","port":27025,"enabled":true,"region":"us-central","cc":"us","latitude":32.779167,"longitude":-96.80889,"reserved":0,"last_update":"0001-01-01T00:00:00Z","name_a2s":"Uncletopia | Dallas | 2 | All Maps","protocol":17,"map":"koth_nucleus","folder":"tf","game":"Team Fortress","app_id":440,"player_count":24,"max_players":24,"Bots":0,"server_type":"Dedicated","server_os":"Linux","password":true,"vac":true,"version":"7961495","steam_id":85568392924469988,"keywords":["cp","nocrits","nodmgspread","uncletopia"],"game_id":440,"stv_port":27026,"stv_name":"Uncletopia | Dallas | 2 | All Maps | STV","players":[{"user_id":698,"name":"TikoTF2","steam_id":76561199066864469,"connected_time":59000000000,"state":"active","ping":57},{"user_id":676,"name":"raya","steam_id":76561198051504581,"connected_time":1403000000000,"state":"active","ping":47},{"user_id":632,"name":"Mr. Hankey","steam_id":76561198872852200,"connected_time":5387000000000,"state":"spawning","ping":247},{"user_id":646,"name":"King of Lames","steam_id":76561198006366763,"connected_time":4905000000000,"state":"active","ping":45},{"user_id":681,"name":"Dknight2","steam_id":76561199187382295,"connected_time":995000000000,"state":"active","ping":68},{"user_id":691,"name":"proud_asian","steam_id":76561198977973083,"connected_time":525000000000,"state":"active","ping":69},{"user_id":672,"name":"Quick-Fix","steam_id":76561198295501978,"connected_time":1614000000000,"state":"active","ping":48},{"user_id":692,"name":"gagobears","steam_id":76561198086008437,"connected_time":520000000000,"state":"active","ping":56},{"user_id":695,"name":"Randy \"the Man\" Johnson","steam_id":76561198039124445,"connected_time":294000000000,"state":"active","ping":107},{"user_id":679,"name":"BlancaLamb","steam_id":76561198025646073,"connected_time":1102000000000,"state":"active","ping":77},{"user_id":696,"name":"Lemon","steam_id":76561198119362095,"connected_time":242000000000,"state":"active","ping":67},{"user_id":668,"name":"vifi269","steam_id":76561198283749166,"connected_time":2281000000000,"state":"active","ping":45},{"user_id":648,"name":"radicalPolio","steam_id":76561197961561855,"connected_time":4385000000000,"state":"active","ping":45},{"user_id":688,"name":"Stick","steam_id":76561198987222560,"connected_time":691000000000,"state":"active","ping":63},{"user_id":678,"name":"H2OBourne","steam_id":76561198396293109,"connected_time":1219000000000,"state":"active","ping":57},{"user_id":631,"name":"mario DIES in the movie bro","steam_id":76561198800386026,"connected_time":5538000000000,"state":"active","ping":98},{"user_id":662,"name":"Unarmed Gun Man","steam_id":76561199489296949,"connected_time":2846000000000,"state":"active","ping":140},{"user_id":697,"name":"G2 DamDam","steam_id":76561198173095997,"connected_time":151000000000,"state":"active","ping":92},{"user_id":664,"name":"Howell at the Moon","steam_id":76561198060827426,"connected_time":2775000000000,"state":"active","ping":78},{"user_id":699,"name":"U ω U","steam_id":76561198118802562,"connected_time":47000000000,"state":"active","ping":137},{"user_id":693,"name":"xLeoparrd","steam_id":76561198940657194,"connected_time":511000000000,"state":"active","ping":59},{"user_id":642,"name":"Didwhy","steam_id":76561198040956974,"connected_time":5160000000000,"state":"active","ping":55},{"user_id":700,"name":"turnip","steam_id":76561197999375941,"connected_time":20000000000,"state":"active","ping":54},{"user_id":584,"name":"Anon","steam_id":76561198109740776,"connected_time":9579000000000,"state":"active","ping":93}]},{"server_id":404,"name":"Uncletopia | Dallas | 3 | All Maps","name_short":"dal-3","host":"dal-1.us.uncletopia.com","port":27035,"enabled":true,"region":"us-central","cc":"us","latitude":32.779167,"longitude":-96.80889,"reserved":0,"last_update":"0001-01-01T00:00:00Z","name_a2s":"Uncletopia | Dallas | 3 | All Maps","protocol":17,"map":"cp_dustbowl","folder":"tf","game":"Team Fortress","app_id":440,"player_count":22,"max_players":24,"Bots":0,"server_type":"Dedicated","server_os":"Linux","password":true,"vac":true,"version":"7961495","steam_id":85568392924515219,"keywords":["cp","nocrits","nodmgspread","uncletopia"],"game_id":440,"stv_port":27036,"stv_name":"Uncletopia | Dallas | 3 | All Maps | STV","players":[{"user_id":243,"name":"WarMace","steam_id":76561198395937853,"connected_time":47000000000,"state":"active","ping":87},{"user_id":213,"name":"ScYoda","steam_id":76561198386510362,"connected_time":1469000000000,"state":"active","ping":64},{"user_id":230,"name":"Nightmare","steam_id":76561198409907417,"connected_time":729000000000,"state":"active","ping":91},{"user_id":238,"name":"canakblasteran","steam_id":76561199472518822,"connected_time":334000000000,"state":"active","ping":93},{"user_id":235,"name":"Dr. Webkinz","steam_id":76561198101207200,"connected_time":492000000000,"state":"active","ping":121},{"user_id":237,"name":"XxOld WolfxX","steam_id":76561198046895863,"connected_time":369000000000,"state":"active","ping":109},{"user_id":225,"name":"Minlit","steam_id":76561198205832799,"connected_time":821000000000,"state":"active","ping":50},{"user_id":236,"name":"ThePriceIsRice","steam_id":76561198079069543,"connected_time":460000000000,"state":"active","ping":114},{"user_id":215,"name":"Ket","steam_id":76561198241951244,"connected_time":1295000000000,"state":"active","ping":67},{"user_id":239,"name":"TPScout","steam_id":76561198353808504,"connected_time":272000000000,"state":"active","ping":83},{"user_id":240,"name":"Big Inch","steam_id":76561198052513500,"connected_time":249000000000,"state":"active","ping":63},{"user_id":227,"name":"Pukei-Pukei","steam_id":76561197992722546,"connected_time":792000000000,"state":"active","ping":91},{"user_id":228,"name":"American Dad Funny Moments #32","steam_id":76561198254874328,"connected_time":781000000000,"state":"active","ping":115},{"user_id":229,"name":"TTV/ZenmanTTV","steam_id":76561198110651094,"connected_time":776000000000,"state":"active","ping":98},{"user_id":195,"name":"SoundKitKiller","steam_id":76561198053535873,"connected_time":2703000000000,"state":"active","ping":103},{"user_id":241,"name":"Zidjit","steam_id":76561199072950598,"connected_time":245000000000,"state":"active","ping":81},{"user_id":242,"name":"dweamy","steam_id":76561198119181880,"connected_time":240000000000,"state":"active","ping":65},{"user_id":231,"name":"Dutc","steam_id":76561199077027954,"connected_time":721000000000,"state":"active","ping":61},{"user_id":244,"name":"Im Groot","steam_id":76561198294943420,"connected_time":23000000000,"state":"active","ping":123},{"user_id":206,"name":"TheRandomGuy","steam_id":76561198076101385,"connected_time":2059000000000,"state":"active","ping":59},{"user_id":209,"name":"WalnutWanker","steam_id":76561198287476517,"connected_time":1595000000000,"state":"active","ping":76},{"user_id":220,"name":"The_Pacific_gamer","steam_id":76561198089491446,"connected_time":1260000000000,"state":"active","ping":102}]},{"server_id":405,"name":"Uncletopia | Dallas | 4 | Community","name_short":"dal-4","host":"dal-1.us.uncletopia.com","port":27045,"enabled":true,"region":"us-central","cc":"us","latitude":32.779167,"longitude":-96.80889,"reserved":0,"last_update":"0001-01-01T00:00:00Z","name_a2s":"Uncletopia | Dallas | 4 | Community","protocol":17,"map":"workshop/cp_mannbase_rc2a.ugc1900737467","folder":"tf","game":"Team Fortress","app_id":440,"player_count":23,"max_players":24,"Bots":0,"server_type":"Dedicated","server_os":"Linux","password":true,"vac":true,"version":"7961495","steam_id":85568392924515220,"keywords":["cp","nocrits","nodmgspread","uncletopia"],"game_id":440,"stv_port":27046,"stv_name":"Uncletopia | Dallas | 4 | Community | STV","players":[{"user_id":38,"name":"Carver Ze Derp","steam_id":76561198459813941,"connected_time":2994000000000,"state":"active","ping":35},{"user_id":69,"name":"Mr. Everett","steam_id":76561198401204033,"connected_time":674000000000,"state":"active","ping":78},{"user_id":56,"name":"SilverLife25","steam_id":76561198392015722,"connected_time":1606000000000,"state":"active","ping":56},{"user_id":64,"name":"zogs","steam_id":76561198323491654,"connected_time":1101000000000,"state":"active","ping":43},{"user_id":73,"name":"aceYT","steam_id":76561199068211863,"connected_time":427000000000,"state":"active","ping":84},{"user_id":77,"name":"Transformouse","steam_id":76561198004669368,"connected_time":17000000000,"state":"spawning","ping":176},{"user_id":36,"name":"Space","steam_id":76561198090743707,"connected_time":3376000000000,"state":"active","ping":89},{"user_id":66,"name":"LambSauced","steam_id":76561199102628793,"connected_time":919000000000,"state":"active","ping":91},{"user_id":67,"name":"A pack of feral hogs","steam_id":76561198374279594,"connected_time":900000000000,"state":"active","ping":61},{"user_id":57,"name":"Prez","steam_id":76561198090680211,"connected_time":1580000000000,"state":"active","ping":85},{"user_id":22,"name":"KOL, Kind Of Lazy","steam_id":76561199078949165,"connected_time":3824000000000,"state":"active","ping":122},{"user_id":23,"name":"BreakfastTacos","steam_id":76561198847620442,"connected_time":3793000000000,"state":"active","ping":73},{"user_id":24,"name":"No.21 - Feral Scent","steam_id":76561198045844070,"connected_time":3789000000000,"state":"active","ping":57},{"user_id":25,"name":"Xnopyt","steam_id":76561198052516404,"connected_time":3637000000000,"state":"active","ping":90},{"user_id":76,"name":"bald man on a plane to turkey","steam_id":76561198060296782,"connected_time":82000000000,"state":"active","ping":90},{"user_id":43,"name":"Vexel","steam_id":76561198194730938,"connected_time":2529000000000,"state":"active","ping":103},{"user_id":28,"name":"Matisguy","steam_id":76561199020903681,"connected_time":3515000000000,"state":"active","ping":66},{"user_id":74,"name":"Mcfighter2","steam_id":76561198168073956,"connected_time":399000000000,"state":"active","ping":84},{"user_id":59,"name":"CrossRoads23","steam_id":76561198152341160,"connected_time":1488000000000,"state":"active","ping":85},{"user_id":60,"name":"Burny Sanders","steam_id":76561197961879048,"connected_time":1475000000000,"state":"active","ping":44},{"user_id":75,"name":"lp","steam_id":76561198058469527,"connected_time":269000000000,"state":"active","ping":105},{"user_id":71,"name":"Vaultboy","steam_id":76561198817840118,"connected_time":567000000000,"state":"active","ping":107},{"user_id":50,"name":"Barbershop Quartet At Denny's","steam_id":76561198036591882,"connected_time":2275000000000,"state":"active","ping":73}]},{"server_id":5,"name":"Uncletopia | Frankfurt | 1 | All Maps","name_short":"frk-1","host":"frk-1.de.uncletopia.com","port":27015,"enabled":true,"region":"eu","cc":"de","latitude":50.110924,"longitude":8.682127,"reserved":0,"last_update":"0001-01-01T00:00:00Z","name_a2s":"Uncletopia | Frankfurt | 1 | All Maps","protocol":17,"map":"koth_highpass","folder":"tf","game":"Team Fortress","app_id":440,"player_count":0,"max_players":24,"Bots":0,"server_type":"Dedicated","server_os":"Linux","password":true,"vac":true,"version":"7961495","steam_id":85568392924469989,"keywords":["cp","nocrits","nodmgspread","uncletopia"],"game_id":440,"stv_port":27016,"stv_name":"Uncletopia | Frankfurt | 1 | All Maps | STV","players":null},{"server_id":110,"name":"Uncletopia | Frankfurt | 2 | All Maps","name_short":"frk-2","host":"frk-1.de.uncletopia.com","port":27025,"enabled":true,"region":"eu","cc":"de","latitude":50.110924,"longitude":8.682127,"reserved":0,"last_update":"0001-01-01T00:00:00Z","name_a2s":"Uncletopia | Frankfurt | 2 | All Maps","protocol":17,"map":"koth_highpass","folder":"tf","game":"Team Fortress","app_id":440,"player_count":0,"max_players":24,"Bots":0,"server_type":"Dedicated","server_os":"Linux","password":true,"vac":true,"version":"7961495","steam_id":85568392924469990,"keywords":["cp","nocrits","nodmgspread","uncletopia"],"game_id":440,"stv_port":27026,"stv_name":"Uncletopia | Frankfurt | 2 | All Maps | STV","players":null},{"server_id":308,"name":"Uncletopia | Frankfurt | 3 | All Maps","name_short":"frk-3","host":"frk-1.de.uncletopia.com","port":27035,"enabled":true,"region":"eu","cc":"de","latitude":50.110924,"longitude":8.682127,"reserved":0,"last_update":"0001-01-01T00:00:00Z","name_a2s":"Uncletopia | Frankfurt | 3 | All Maps","protocol":17,"map":"pl_frontier_final","folder":"tf","game":"Team Fortress","app_id":440,"player_count":0,"max_players":24,"Bots":0,"server_type":"Dedicated","server_os":"Linux","password":true,"vac":true,"version":"7961495","steam_id":85568392924504274,"keywords":["nocrits","nodmgspread","payload","uncletopia"],"game_id":440,"stv_port":27036,"stv_name":"Uncletopia | Frankfurt | 3 | All Maps | STV","players":null},{"server_id":309,"name":"Uncletopia | Frankfurt | 4 | All Maps","name_short":"frk-4","host":"frk-1.de.uncletopia.com","port":27045,"enabled":true,"region":"eu","cc":"de","latitude":50.110924,"longitude":8.682127,"reserved":0,"last_update":"0001-01-01T00:00:00Z","name_a2s":"Uncletopia | Frankfurt | 4 | All Maps","protocol":17,"map":"koth_highpass","folder":"tf","game":"Team Fortress","app_id":440,"player_count":0,"max_players":24,"Bots":0,"server_type":"Dedicated","server_os":"Linux","password":true,"vac":true,"version":"7961495","steam_id":85568392924504275,"keywords":["cp","nocrits","nodmgspread","uncletopia"],"game_id":440,"stv_port":27046,"stv_name":"Uncletopia | Frankfurt | 4 | All Maps | STV","players":null},{"server_id":310,"name":"Uncletopia | Frankfurt | 5 | All Maps","name_short":"frk-5","host":"frk-1.de.uncletopia.com","port":27055,"enabled":true,"region":"eu","cc":"de","latitude":50.110924,"longitude":8.682127,"reserved":0,"last_update":"0001-01-01T00:00:00Z","name_a2s":"Uncletopia | Frankfurt | 5 | All Maps","protocol":17,"map":"cp_altitude","folder":"tf","game":"Team Fortress","app_id":440,"player_count":0,"max_players":24,"Bots":0,"server_type":"Dedicated","server_os":"Linux","password":true,"vac":true,"version":"7961495","steam_id":85568392924504277,"keywords":["cp","nocrits","nodmgspread","uncletopia"],"game_id":440,"stv_port":27056,"stv_name":"Uncletopia | Frankfurt | 5 | All Maps | STV","players":null},{"server_id":311,"name":"Uncletopia | Frankfurt | 6 | All Maps","name_short":"frk-6","host":"frk-1.de.uncletopia.com","port":27065,"enabled":true,"region":"eu","cc":"de","latitude":50.110924,"longitude":8.682127,"reserved":0,"last_update":"0001-01-01T00:00:00Z","name_a2s":"Uncletopia | Frankfurt | 6 | All Maps","protocol":17,"map":"pl_badwater","folder":"tf","game":"Team Fortress","app_id":440,"player_count":0,"max_players":24,"Bots":0,"server_type":"Dedicated","server_os":"Linux","password":true,"vac":true,"version":"7961495","steam_id":85568392924504278,"keywords":["nocrits","nodmgspread","payload","uncletopia"],"game_id":440,"stv_port":27066,"stv_name":"Uncletopia | Frankfurt | 6 | All Maps | STV","players":null},{"server_id":23,"name":"Uncletopia | Frankfurt | 7 | Stopwatch","name_short":"frk-7","host":"frk-1.de.uncletopia.com","port":27075,"enabled":true,"region":"eu","cc":"de","latitude":50.110924,"longitude":8.682127,"reserved":0,"last_update":"0001-01-01T00:00:00Z","name_a2s":"Uncletopia | Frankfurt | 7 | Stopwatch","protocol":17,"map":"workshop/koth_ashville_final.ugc2130459942","folder":"tf","game":"Team Fortress","app_id":440,"player_count":0,"max_players":24,"Bots":0,"server_type":"Dedicated","server_os":"Linux","password":true,"vac":true,"version":"7961495","steam_id":85568392924742827,"keywords":["cp","nocrits","nodmgspread","uncletopia"],"game_id":440,"stv_port":27076,"stv_name":"Uncletopia | Frankfurt | 7 | Stopwatch | STV","players":null},{"server_id":24,"name":"Uncletopia | Frankfurt | 8 | Community","name_short":"frk-8","host":"frk-1.de.uncletopia.com","port":27085,"enabled":true,"region":"eu","cc":"de","latitude":50.110924,"longitude":8.682127,"reserved":0,"last_update":"0001-01-01T00:00:00Z","name_a2s":"Uncletopia | Frankfurt | 8 | Community","protocol":17,"map":"workshop/koth_trenchfoot_b1a.ugc731436616","folder":"tf","game":"Team Fortress","app_id":440,"player_count":0,"max_players":24,"Bots":0,"server_type":"Dedicated","server_os":"Linux","password":true,"vac":true,"version":"7961495","steam_id":85568392924742828,"keywords":["cp","nocrits","nodmgspread","uncletopia"],"game_id":440,"stv_port":27086,"stv_name":"Uncletopia | Frankfurt | 8 | Community | STV","players":null},{"server_id":202,"name":"Uncletopia | Hong Kong | 1 | All Maps","name_short":"hgk-1","host":"hgk-1.hk.uncletopia.com","port":27015,"enabled":true,"region":"asia","cc":"hk","latitude":22.302711,"longitude":114.177216,"reserved":0,"last_update":"0001-01-01T00:00:00Z","name_a2s":"Uncletopia | Hong Kong | 1 | All Maps","protocol":17,"map":"pl_badwater","folder":"tf","game":"Team Fortress","app_id":440,"player_count":0,"max_players":24,"Bots":0,"server_type":"Dedicated","server_os":"Linux","password":true,"vac":true,"version":"7961495","steam_id":85568392924494504,"keywords":["nocrits","nodmgspread","payload","uncletopia"],"game_id":440,"stv_port":27016,"stv_name":"Uncletopia | Hong Kong | 1 | All Maps | STV","players":null},{"server_id":1,"name":"Uncletopia | Los Angeles | 1 | All Maps","name_short":"lax-1","host":"lax-1.us.uncletopia.com","port":27015,"enabled":true,"region":"us-west","cc":"us","latitude":33.94279,"longitude":-118.41004,"reserved":0,"last_update":"0001-01-01T00:00:00Z","name_a2s":"Uncletopia | Los Angeles | 1 | All Maps","protocol":17,"map":"pl_goldrush","folder":"tf","game":"Team Fortress","app_id":440,"player_count":23,"max_players":24,"Bots":0,"server_type":"Dedicated","server_os":"Linux","password":true,"vac":true,"version":"7961495","steam_id":85568392924469991,"keywords":["nocrits","nodmgspread","payload","uncletopia"],"game_id":440,"stv_port":27016,"stv_name":"Uncletopia | Los Angeles | 1 | All Maps | STV","players":[{"user_id":305,"name":"Stapler","steam_id":76561198099295077,"connected_time":11000000000,"state":"active","ping":99},{"user_id":301,"name":"Chinaski","steam_id":76561198092218594,"connected_time":333000000000,"state":"active","ping":58},{"user_id":297,"name":"toxic mental instability","steam_id":76561198161760556,"connected_time":744000000000,"state":"active","ping":86},{"user_id":289,"name":"FI LO","steam_id":76561198976530881,"connected_time":990000000000,"state":"active","ping":30},{"user_id":295,"name":"squart guy","steam_id":76561199411560141,"connected_time":820000000000,"state":"active","ping":75},{"user_id":306,"name":"Pybro's Day Off","steam_id":76561197996353534,"connected_time":3000000000,"state":"spawning","ping":50},{"user_id":296,"name":"Obersteuermann","steam_id":76561198044468707,"connected_time":811000000000,"state":"active","ping":74},{"user_id":275,"name":"Tim","steam_id":76561198126844549,"connected_time":1733000000000,"state":"active","ping":45},{"user_id":284,"name":"n99k","steam_id":76561198203732449,"connected_time":1374000000000,"state":"active","ping":104},{"user_id":298,"name":"Espresso Enjoyer","steam_id":76561198254238409,"connected_time":714000000000,"state":"active","ping":101},{"user_id":256,"name":"Donnie Blasto","steam_id":76561198043432005,"connected_time":3204000000000,"state":"active","ping":105},{"user_id":299,"name":"✪ Jam","steam_id":76561198101672564,"connected_time":541000000000,"state":"active","ping":43},{"user_id":241,"name":"OneMisguidedSlyGuy","steam_id":76561198372243261,"connected_time":4319000000000,"state":"active","ping":46},{"user_id":258,"name":"rad killl raccoon","steam_id":76561198980975595,"connected_time":3138000000000,"state":"active","ping":87},{"user_id":220,"name":"Ockulus","steam_id":76561199069638460,"connected_time":5951000000000,"state":"active","ping":57},{"user_id":277,"name":"Pah-Wraith Gul Dukat","steam_id":76561198033918106,"connected_time":1603000000000,"state":"active","ping":35},{"user_id":302,"name":"Blazorazor","steam_id":76561198032392742,"connected_time":111000000000,"state":"active","ping":52},{"user_id":272,"name":"walrooos","steam_id":76561198024521839,"connected_time":1882000000000,"state":"active","ping":49},{"user_id":283,"name":"LeftNut","steam_id":76561198035500934,"connected_time":1405000000000,"state":"active","ping":58},{"user_id":303,"name":"Hefty Scout","steam_id":76561198255257967,"connected_time":110000000000,"state":"active","ping":84},{"user_id":250,"name":"type \"bad med\" to kick","steam_id":76561198076402476,"connected_time":3861000000000,"state":"active","ping":64},{"user_id":304,"name":"Juice","steam_id":76561198085001331,"connected_time":94000000000,"state":"active","ping":78},{"user_id":300,"name":"BrockSpread","steam_id":76561198145924402,"connected_time":452000000000,"state":"active","ping":109}]},{"server_id":112,"name":"Uncletopia | Los Angeles | 2 | All Maps","name_short":"lax-2","host":"lax-1.us.uncletopia.com","port":27025,"enabled":true,"region":"us-west","cc":"us","latitude":33.94279,"longitude":-118.41004,"reserved":0,"last_update":"0001-01-01T00:00:00Z","name_a2s":"Uncletopia | Los Angeles | 2 | All Maps","protocol":17,"map":"pl_borneo","folder":"tf","game":"Team Fortress","app_id":440,"player_count":24,"max_players":24,"Bots":0,"server_type":"Dedicated","server_os":"Linux","password":true,"vac":true,"version":"7961495","steam_id":85568392924469992,"keywords":["nocrits","nodmgspread","payload","uncletopia"],"game_id":440,"stv_port":27026,"stv_name":"Uncletopia | Los Angeles | 2 | All Maps | STV","players":[{"user_id":418,"name":"donutdagger","steam_id":76561199203048300,"connected_time":5938000000000,"state":"active","ping":69},{"user_id":407,"name":"Ralph Kramden (Slim Charles)","steam_id":76561197981687895,"connected_time":6391000000000,"state":"active","ping":57},{"user_id":501,"name":"Thequirka","steam_id":76561198968058652,"connected_time":281000000000,"state":"active","ping":74},{"user_id":499,"name":"Mr. Enforce","steam_id":76561198362168020,"connected_time":315000000000,"state":"active","ping":80},{"user_id":486,"name":"Monki","steam_id":76561198964210411,"connected_time":1302000000000,"state":"active","ping":56},{"user_id":463,"name":"Idiotden","steam_id":76561199340950135,"connected_time":3095000000000,"state":"active","ping":55},{"user_id":500,"name":"The Witchfinder General","steam_id":76561199113662942,"connected_time":301000000000,"state":"active","ping":51},{"user_id":473,"name":"tobrehto","steam_id":76561198097544038,"connected_time":2542000000000,"state":"active","ping":54},{"user_id":439,"name":"Schnitz","steam_id":76561198265484253,"connected_time":4133000000000,"state":"active","ping":57},{"user_id":491,"name":"Smug´s","steam_id":76561198071493707,"connected_time":870000000000,"state":"active","ping":171},{"user_id":498,"name":"cielael","steam_id":76561198043971956,"connected_time":333000000000,"state":"active","ping":49},{"user_id":502,"name":"Lord","steam_id":76561198303081758,"connected_time":221000000000,"state":"active","ping":38},{"user_id":503,"name":"Viren","steam_id":76561198012636897,"connected_time":218000000000,"state":"active","ping":75},{"user_id":425,"name":"Pez","steam_id":76561199197778137,"connected_time":5246000000000,"state":"active","ping":67},{"user_id":493,"name":"ketsu","steam_id":76561197966171554,"connected_time":744000000000,"state":"active","ping":182},{"user_id":492,"name":"AAAAAAAAAAAAAAAAAAAAAAAAAAAAAAA","steam_id":76561198125467937,"connected_time":839000000000,"state":"active","ping":76},{"user_id":494,"name":"Jazpy","steam_id":76561198036872545,"connected_time":702000000000,"state":"active","ping":77},{"user_id":495,"name":"cbt youtube tutorial","steam_id":76561199122915452,"connected_time":657000000000,"state":"active","ping":78},{"user_id":504,"name":"fresh prince of citadel","steam_id":76561198420237035,"connected_time":216000000000,"state":"active","ping":76},{"user_id":496,"name":"mrthugpug1732","steam_id":76561198881200768,"connected_time":634000000000,"state":"active","ping":72},{"user_id":505,"name":"alex","steam_id":76561198334059206,"connected_time":188000000000,"state":"active","ping":61},{"user_id":472,"name":"Drapph","steam_id":76561199384213314,"connected_time":2571000000000,"state":"active","ping":115},{"user_id":490,"name":"Scorpianswag","steam_id":76561198260651036,"connected_time":1082000000000,"state":"active","ping":42},{"user_id":506,"name":"the meat man","steam_id":76561198037921140,"connected_time":134000000000,"state":"active","ping":44}]},{"server_id":324,"name":"Uncletopia | Los Angeles | 3 | All Maps","name_short":"lax-3","host":"lax-1.us.uncletopia.com","port":27035,"enabled":true,"region":"us-west","cc":"us","latitude":33.94279,"longitude":-118.41004,"reserved":0,"last_update":"0001-01-01T00:00:00Z","name_a2s":"Uncletopia | Los Angeles | 3 | All Maps","protocol":17,"map":"koth_viaduct","folder":"tf","game":"Team Fortress","app_id":440,"player_count":0,"max_players":24,"Bots":0,"server_type":"Dedicated","server_os":"Linux","password":true,"vac":true,"version":"7961495","steam_id":85568392924510198,"keywords":["cp","nocrits","nodmgspread","uncletopia"],"game_id":440,"stv_port":27036,"stv_name":"Uncletopia | Los Angeles | 3 | All Maps | STV","players":null},{"server_id":25,"name":"Uncletopia | Los Angeles | 4 | Stopwatch","name_short":"lax-4","host":"lax-1.us.uncletopia.com","port":27045,"enabled":true,"region":"us-west","cc":"us","latitude":33.94279,"longitude":-118.41004,"reserved":0,"last_update":"0001-01-01T00:00:00Z","name_a2s":"Uncletopia | Los Angeles | 4 | Stopwatch","protocol":17,"map":"workshop/pl_badwater_pro_v12.ugc2142942074","folder":"tf","game":"Team Fortress","app_id":440,"player_count":0,"max_players":24,"Bots":0,"server_type":"Dedicated","server_os":"Linux","password":true,"vac":true,"version":"7961495","steam_id":85568392924510199,"keywords":["nocrits","nodmgspread","payload","uncletopia"],"game_id":440,"stv_port":27046,"stv_name":"Uncletopia | Los Angeles | 4 | Stopwatch | STV","players":null},{"server_id":11,"name":"Uncletopia | London | 1 | All Maps","name_short":"lon-1","host":"lon-1.uk.uncletopia.com","port":27015,"enabled":true,"region":"eu","cc":"gb","latitude":51.509865,"longitude":-0.118092,"reserved":0,"last_update":"0001-01-01T00:00:00Z","name_a2s":"Uncletopia | London | 1 | All Maps","protocol":17,"map":"koth_lakeside_final","folder":"tf","game":"Team Fortress","app_id":440,"player_count":0,"max_players":24,"Bots":0,"server_type":"Dedicated","server_os":"Linux","password":true,"vac":true,"version":"7961495","steam_id":85568392924367362,"keywords":["cp","nocrits","nodmgspread","uncletopia"],"game_id":440,"stv_port":27016,"stv_name":"Uncletopia | London | 1 | All Maps | STV","players":null},{"server_id":114,"name":"Uncletopia | London | 2 | All Maps","name_short":"lon-2","host":"lon-1.uk.uncletopia.com","port":27025,"enabled":true,"region":"eu","cc":"gb","latitude":51.509865,"longitude":-0.118092,"reserved":0,"last_update":"0001-01-01T00:00:00Z","name_a2s":"Uncletopia | London | 2 | All Maps","protocol":17,"map":"koth_viaduct","folder":"tf","game":"Team Fortress","app_id":440,"player_count":13,"max_players":24,"Bots":0,"server_type":"Dedicated","server_os":"Linux","password":true,"vac":true,"version":"7961495","steam_id":85568392924470941,"keywords":["cp","nocrits","nodmgspread","uncletopia"],"game_id":440,"stv_port":27026,"stv_name":"Uncletopia | London | 2 | All Maps | STV","players":[{"user_id":488,"name":"Baku","steam_id":76561199007950722,"connected_time":1766000000000,"state":"connecting","ping":55},{"user_id":499,"name":"rng","steam_id":76561198436059214,"connected_time":802000000000,"state":"connecting","ping":60},{"user_id":497,"name":"Isaac Clarke S-laughter","steam_id":76561198133546537,"connected_time":1045000000000,"state":"connecting","ping":81},{"user_id":474,"name":"tU croud","steam_id":76561198196853835,"connected_time":2532000000000,"state":"connecting","ping":57},{"user_id":505,"name":"☆bladee☆dior☆f/w2016☆","steam_id":76561198082352159,"connected_time":537000000000,"state":"connecting","ping":113},{"user_id":501,"name":"austinsmith","steam_id":76561198167838540,"connected_time":674000000000,"state":"connecting","ping":154},{"user_id":496,"name":"UglyTwinYgor","steam_id":76561198132718039,"connected_time":1173000000000,"state":"connecting","ping":113},{"user_id":495,"name":"FilipeLuk","steam_id":76561198150675438,"connected_time":1244000000000,"state":"spawning","ping":91},{"user_id":503,"name":"Benji","steam_id":76561198119372509,"connected_time":646000000000,"state":"connecting","ping":87},{"user_id":487,"name":"Shynii","steam_id":76561198194682105,"connected_time":1834000000000,"state":"connecting","ping":80},{"user_id":504,"name":"Kallen","steam_id":76561198079693305,"connected_time":598000000000,"state":"spawning","ping":64},{"user_id":500,"name":"FuneralDJ (semen demon)","steam_id":76561198105320071,"connected_time":790000000000,"state":"connecting","ping":60},{"user_id":423,"name":"Colonel Dissapointment","steam_id":76561198181891649,"connected_time":6835000000000,"state":"connecting","ping":165}]},{"server_id":320,"name":"Uncletopia | London | 3 | All Maps","name_short":"lon-3","host":"lon-1.uk.uncletopia.com","port":27035,"enabled":true,"region":"eu","cc":"gb","latitude":51.509865,"longitude":-0.118092,"reserved":0,"last_update":"0001-01-01T00:00:00Z","name_a2s":"Uncletopia | London | 3 | All Maps","protocol":17,"map":"pl_barnblitz","folder":"tf","game":"Team Fortress","app_id":440,"player_count":0,"max_players":24,"Bots":0,"server_type":"Dedicated","server_os":"Linux","password":true,"vac":true,"version":"7961495","steam_id":85568392924510192,"keywords":["nocrits","nodmgspread","payload","uncletopia"],"game_id":440,"stv_port":27036,"stv_name":"Uncletopia | London | 3 | All Maps | STV","players":null},{"server_id":321,"name":"Uncletopia | London | 4 | All Maps","name_short":"lon-4","host":"lon-1.uk.uncletopia.com","port":27045,"enabled":true,"region":"eu","cc":"gb","latitude":51.509865,"longitude":-0.118092,"reserved":0,"last_update":"0001-01-01T00:00:00Z","name_a2s":"Uncletopia | London | 4 | All Maps","protocol":17,"map":"koth_cascade","folder":"tf","game":"Team Fortress","app_id":440,"player_count":0,"max_players":24,"Bots":0,"server_type":"Dedicated","server_os":"Linux","password":true,"vac":true,"version":"7961495","steam_id":85568392924510193,"keywords":["cp","nocrits","nodmgspread","uncletopia"],"game_id":440,"stv_port":27046,"stv_name":"Uncletopia | London | 4 | All Maps | STV","players":null},{"server_id":21,"name":"Uncletopia | London | 5 | All Maps","name_short":"lon-5","host":"lon-1.uk.uncletopia.com","port":27055,"enabled":true,"region":"eu","cc":"gb","latitude":51.509865,"longitude":-0.118092,"reserved":0,"last_update":"0001-01-01T00:00:00Z","name_a2s":"Uncletopia | London | 5 | All Maps","protocol":17,"map":"pl_swiftwater_final1","folder":"tf","game":"Team Fortress","app_id":440,"player_count":0,"max_players":24,"Bots":0,"server_type":"Dedicated","server_os":"Linux","password":true,"vac":true,"version":"7961495","steam_id":85568392924742829,"keywords":["nocrits","nodmgspread","payload","uncletopia"],"game_id":440,"stv_port":27056,"stv_name":"Uncletopia | London | 5 | All Maps | STV","players":null},{"server_id":22,"name":"Uncletopia | London | 6 | All Maps","name_short":"lon-6","host":"lon-1.uk.uncletopia.com","port":27065,"enabled":true,"region":"eu","cc":"gb","latitude":51.509865,"longitude":-0.118092,"reserved":0,"last_update":"0001-01-01T00:00:00Z","name_a2s":"Uncletopia | London | 6 | All Maps","protocol":17,"map":"pl_borneo","folder":"tf","game":"Team Fortress","app_id":440,"player_count":0,"max_players":24,"Bots":0,"server_type":"Dedicated","server_os":"Linux","password":true,"vac":true,"version":"7961495","steam_id":85568392924742830,"keywords":["nocrits","nodmgspread","payload","uncletopia"],"game_id":440,"stv_port":27066,"stv_name":"Uncletopia | London | 6 | All Maps | STV","players":null},{"server_id":40,"name":"Uncletopia | London | 7 | Stopwatch","name_short":"lon-7","host":"lon-1.uk.uncletopia.com","port":27075,"enabled":true,"region":"eu","cc":"gb","latitude":51.509865,"longitude":-0.118092,"reserved":0,"last_update":"0001-01-01T00:00:00Z","name_a2s":"Uncletopia | London | 7 | Stopwatch","protocol":17,"map":"workshop/koth_ramjam_rc1.ugc459778887","folder":"tf","game":"Team Fortress","app_id":440,"player_count":0,"max_players":24,"Bots":0,"server_type":"Dedicated","server_os":"Linux","password":true,"vac":true,"version":"7961495","steam_id":85568392924964314,"keywords":["cp","nocrits","nodmgspread","uncletopia"],"game_id":440,"stv_port":27076,"stv_name":"Uncletopia | London | 7 | Stopwatch | STV","players":null},{"server_id":41,"name":"Uncletopia | London | 8 | Community","name_short":"lon-8","host":"lon-1.uk.uncletopia.com","port":27085,"enabled":true,"region":"eu","cc":"gb","latitude":51.509865,"longitude":-0.118092,"reserved":0,"last_update":"0001-01-01T00:00:00Z","name_a2s":"Uncletopia | London | 8 | Community","protocol":17,"map":"workshop/cp_caldera_rc2.ugc2834196889","folder":"tf","game":"Team Fortress","app_id":440,"player_count":0,"max_players":24,"Bots":0,"server_type":"Dedicated","server_os":"Linux","password":true,"vac":true,"version":"7961495","steam_id":85568392924964315,"keywords":["cp","nocrits","nodmgspread","uncletopia"],"game_id":440,"stv_port":27086,"stv_name":"Uncletopia | London | 8 | Community | STV","players":null},{"server_id":300,"name":"Uncletopia | Montréal | 1 | All Maps","name_short":"mtl-1","host":"mtl-1.ca.uncletopia.com","port":27015,"enabled":true,"region":"us-east","cc":"ca","latitude":45.50889,"longitude":-73.56167,"reserved":0,"last_update":"0001-01-01T00:00:00Z","name_a2s":"","protocol":0,"map":"","folder":"","game":"","app_id":0,"player_count":8,"max_players":0,"Bots":0,"server_type":"","server_os":"","password":false,"vac":false,"version":"","steam_id":0,"keywords":null,"game_id":0,"stv_port":0,"stv_name":"","players":[{"user_id":122,"name":"OG Pemguin","steam_id":76561199240575933,"connected_time":6671000000000,"state":"active","ping":127},{"user_id":194,"name":"TheQuietKid","steam_id":76561198964124943,"connected_time":762000000000,"state":"active","ping":104},{"user_id":176,"name":"GoofyGoober","steam_id":76561199209004430,"connected_time":2476000000000,"state":"active","ping":128},{"user_id":195,"name":"Jean Deere","steam_id":76561198105101309,"connected_time":651000000000,"state":"active","ping":75},{"user_id":141,"name":"Trubuckifan","steam_id":76561197990991360,"connected_time":5629000000000,"state":"active","ping":70},{"user_id":189,"name":"Toto","steam_id":76561198132069378,"connected_time":1334000000000,"state":"active","ping":69},{"user_id":112,"name":"mrappledumb","steam_id":76561199133590774,"connected_time":7272000000000,"state":"active","ping":58},{"user_id":169,"name":"Violetcherry","steam_id":76561198057445944,"connected_time":3502000000000,"state":"active","ping":56}]},{"server_id":301,"name":"Uncletopia | Montréal | 2 | All Maps","name_short":"mtl-2","host":"mtl-1.ca.uncletopia.com","port":27025,"enabled":true,"region":"us-east","cc":"ca","latitude":45.50889,"longitude":-73.56167,"reserved":0,"last_update":"0001-01-01T00:00:00Z","name_a2s":"","protocol":0,"map":"","folder":"","game":"","app_id":0,"player_count":2,"max_players":0,"Bots":0,"server_type":"","server_os":"","password":false,"vac":false,"version":"","steam_id":0,"keywords":null,"game_id":0,"stv_port":0,"stv_name":"","players":[{"user_id":8,"name":"DigitLuck","steam_id":76561199222376379,"connected_time":302000000000,"state":"active","ping":64},{"user_id":9,"name":"EEssential","steam_id":76561199317594248,"connected_time":241000000000,"state":"active","ping":72}]},{"server_id":302,"name":"Uncletopia | Montréal | 3 | All Maps","name_short":"mtl-3","host":"mtl-1.ca.uncletopia.com","port":27035,"enabled":true,"region":"us-east","cc":"ca","latitude":45.50889,"longitude":-73.56167,"reserved":0,"last_update":"0001-01-01T00:00:00Z","name_a2s":"","protocol":0,"map":"","folder":"","game":"","app_id":0,"player_count":0,"max_players":0,"Bots":0,"server_type":"","server_os":"","password":false,"vac":false,"version":"","steam_id":0,"keywords":null,"game_id":0,"stv_port":0,"stv_name":"","players":null},{"server_id":303,"name":"Uncletopia | Montréal | 4 | No Payload","name_short":"mtl-4","host":"mtl-1.ca.uncletopia.com","port":27045,"enabled":true,"region":"us-east","cc":"ca","latitude":45.50889,"longitude":-73.56167,"reserved":0,"last_update":"0001-01-01T00:00:00Z","name_a2s":"","protocol":0,"map":"","folder":"","game":"","app_id":0,"player_count":0,"max_players":0,"Bots":0,"server_type":"","server_os":"","password":false,"vac":false,"version":"","steam_id":0,"keywords":null,"game_id":0,"stv_port":0,"stv_name":"","players":null},{"server_id":13,"name":"Uncletopia | New York City | 1 | All Maps","name_short":"nyc-1","host":"nyc-1.us.uncletopia.com","port":27015,"enabled":true,"region":"us-east","cc":"us","latitude":40.73061,"longitude":-73.93524,"reserved":0,"last_update":"0001-01-01T00:00:00Z","name_a2s":"Uncletopia | New York City | 1 | All Maps","protocol":17,"map":"cp_snakewater_final1","folder":"tf","game":"Team Fortress","app_id":440,"player_count":8,"max_players":24,"Bots":0,"server_type":"Dedicated","server_os":"Linux","password":true,"vac":true,"version":"7961495","steam_id":85568392924469993,"keywords":["cp","nocrits","nodmgspread","uncletopia"],"game_id":440,"stv_port":27016,"stv_name":"Uncletopia | New York City | 1 | All Maps | STV","players":[{"user_id":401,"name":"googa","steam_id":76561198133130452,"connected_time":8165000000000,"state":"active","ping":44},{"user_id":497,"name":"toaster","steam_id":76561198835782397,"connected_time":19000000000,"state":"spawning","ping":125},{"user_id":317,"name":"De","steam_id":76561198206728044,"connected_time":15433000000000,"state":"active","ping":71},{"user_id":464,"name":"Two-Teste Tommy","steam_id":76561198064308936,"connected_time":3607000000000,"state":"active","ping":59},{"user_id":442,"name":"Bert.","steam_id":76561198140666346,"connected_time":4791000000000,"state":"active","ping":48},{"user_id":488,"name":"Dr. Mosquito, M.D.","steam_id":76561198292258115,"connected_time":2260000000000,"state":"active","ping":80},{"user_id":492,"name":"Nicko","steam_id":76561198328490503,"connected_time":1707000000000,"state":"active","ping":146},{"user_id":477,"name":"SnickerNoodle","steam_id":76561198064359644,"connected_time":2768000000000,"state":"active","ping":53}]},{"server_id":14,"name":"Uncletopia | New York City | 2 | All Maps","name_short":"nyc-2","host":"nyc-1.us.uncletopia.com","port":27025,"enabled":true,"region":"us-east","cc":"us","latitude":40.73061,"longitude":-73.93524,"reserved":0,"last_update":"0001-01-01T00:00:00Z","name_a2s":"Uncletopia | New York City | 2 | All Maps","protocol":17,"map":"koth_lakeside_final","folder":"tf","game":"Team Fortress","app_id":440,"player_count":23,"max_players":24,"Bots":0,"server_type":"Dedicated","server_os":"Linux","password":true,"vac":true,"version":"7961495","steam_id":85568392924469994,"keywords":["cp","nocrits","nodmgspread","uncletopia"],"game_id":440,"stv_port":27026,"stv_name":"Uncletopia | New York City | 2 | All Maps | STV","players":[{"user_id":636,"name":"Aristotle Voulton","steam_id":76561198100174923,"connected_time":998000000000,"state":"active","ping":73},{"user_id":645,"name":"orgasmo","steam_id":76561198047355245,"connected_time":687000000000,"state":"active","ping":43},{"user_id":613,"name":"bagel cream cheese","steam_id":76561198017954785,"connected_time":2549000000000,"state":"active","ping":78},{"user_id":638,"name":"Fatpoob","steam_id":76561198056730096,"connected_time":947000000000,"state":"active","ping":61},{"user_id":634,"name":"Comfy!","steam_id":76561198008818346,"connected_time":1018000000000,"state":"active","ping":45},{"user_id":622,"name":"DuplicateMan","steam_id":76561198170181466,"connected_time":1719000000000,"state":"active","ping":77},{"user_id":652,"name":"Demonica","steam_id":76561198841858340,"connected_time":159000000000,"state":"active","ping":98},{"user_id":653,"name":"baklava","steam_id":76561198124591302,"connected_time":121000000000,"state":"active","ping":48},{"user_id":648,"name":"Deshift00","steam_id":76561198058015192,"connected_time":482000000000,"state":"active","ping":86},{"user_id":633,"name":"Nerrrd_","steam_id":76561198870129960,"connected_time":1206000000000,"state":"active","ping":44},{"user_id":654,"name":"♡⌠Wiffle⌡♡","steam_id":76561198251951402,"connected_time":63000000000,"state":"active","ping":84},{"user_id":635,"name":"swagman (oc)","steam_id":76561198858471424,"connected_time":1015000000000,"state":"active","ping":57},{"user_id":647,"name":"Spiral Mountain","steam_id":76561198058683715,"connected_time":501000000000,"state":"active","ping":63},{"user_id":642,"name":"cactail","steam_id":76561198238898732,"connected_time":911000000000,"state":"active","ping":63},{"user_id":655,"name":"eryn 🗺","steam_id":76561198004433070,"connected_time":60000000000,"state":"active","ping":91},{"user_id":632,"name":"Lore","steam_id":76561198098407538,"connected_time":1286000000000,"state":"active","ping":61},{"user_id":649,"name":"YINGBING43","steam_id":76561198166141576,"connected_time":389000000000,"state":"active","ping":78},{"user_id":641,"name":"not a good idea","steam_id":76561198032259680,"connected_time":925000000000,"state":"active","ping":63},{"user_id":656,"name":"dansal","steam_id":76561197997042510,"connected_time":20000000000,"state":"active","ping":93},{"user_id":657,"name":"La()VaJ()86","steam_id":76561198247547042,"connected_time":16000000000,"state":"active","ping":113},{"user_id":658,"name":"shnowshner","steam_id":76561198066450438,"connected_time":6000000000,"state":"active","ping":292},{"user_id":629,"name":"Runny Eggs","steam_id":76561198006785882,"connected_time":1534000000000,"state":"active","ping":91},{"user_id":621,"name":"Sumireko Gaming","steam_id":76561199013422135,"connected_time":1874000000000,"state":"active","ping":82}]},{"server_id":15,"name":"Uncletopia | New York City | 3 | Stopwatch","name_short":"nyc-3","host":"nyc-1.us.uncletopia.com","port":27035,"enabled":true,"region":"us-east","cc":"us","latitude":40.73061,"longitude":-73.93524,"reserved":0,"last_update":"0001-01-01T00:00:00Z","name_a2s":"Uncletopia | New York City | 3 | Stopwatch","protocol":17,"map":"workshop/pl_summercoast_rc8e.ugc1761528829","folder":"tf","game":"Team Fortress","app_id":440,"player_count":17,"max_players":24,"Bots":0,"server_type":"Dedicated","server_os":"Linux","password":true,"vac":true,"version":"7961495","steam_id":85568392924742820,"keywords":["nocrits","nodmgspread","payload","uncletopia"],"game_id":440,"stv_port":27036,"stv_name":"Uncletopia | New York City | 3 | Stopwatch | STV","players":[{"user_id":263,"name":"GoldtoothFour","steam_id":76561198055529332,"connected_time":107000000000,"state":"active","ping":67},{"user_id":265,"name":"DukeDrydenn","steam_id":76561198465294588,"connected_time":28000000000,"state":"active","ping":63},{"user_id":246,"name":"MakutaArty1987","steam_id":76561199048865492,"connected_time":1338000000000,"state":"active","ping":46},{"user_id":264,"name":"Alex Jones","steam_id":76561198272738226,"connected_time":98000000000,"state":"active","ping":74},{"user_id":254,"name":"Sonic The Scientologist","steam_id":76561198089945709,"connected_time":992000000000,"state":"active","ping":53},{"user_id":259,"name":"DarkEmpireOne","steam_id":76561198106849547,"connected_time":503000000000,"state":"active","ping":57},{"user_id":247,"name":"lunamoon250","steam_id":76561199122331888,"connected_time":1326000000000,"state":"active","ping":79},{"user_id":260,"name":"Sporp","steam_id":76561197987957133,"connected_time":496000000000,"state":"active","ping":53},{"user_id":250,"name":"Doctor Barber","steam_id":76561199072517908,"connected_time":1113000000000,"state":"active","ping":76},{"user_id":256,"name":"Chhaam","steam_id":76561198058508132,"connected_time":636000000000,"state":"active","ping":35},{"user_id":252,"name":"Bheem","steam_id":76561198170453459,"connected_time":1026000000000,"state":"active","ping":105},{"user_id":228,"name":"7thelden","steam_id":76561198297428761,"connected_time":2117000000000,"state":"active","ping":76},{"user_id":257,"name":"IronStriker","steam_id":76561199059487122,"connected_time":614000000000,"state":"active","ping":111},{"user_id":214,"name":"Fuzzy","steam_id":76561198113445043,"connected_time":3235000000000,"state":"active","ping":70},{"user_id":180,"name":"lazily","steam_id":76561198051127715,"connected_time":5541000000000,"state":"active","ping":60},{"user_id":255,"name":"Smuggs","steam_id":76561197999456003,"connected_time":969000000000,"state":"active","ping":104},{"user_id":238,"name":"Aldinach","steam_id":76561198079912615,"connected_time":1890000000000,"state":"active","ping":60}]},{"server_id":16,"name":"Uncletopia | New York City | 4 | Community","name_short":"nyc-4","host":"nyc-1.us.uncletopia.com","port":27045,"enabled":true,"region":"us-east","cc":"us","latitude":40.73061,"longitude":-73.93524,"reserved":0,"last_update":"0001-01-01T00:00:00Z","name_a2s":"Uncletopia | New York City | 4 | Community","protocol":17,"map":"workshop/cp_kalinka_rc6a.ugc1272700588","folder":"tf","game":"Team Fortress","app_id":440,"player_count":22,"max_players":24,"Bots":0,"server_type":"Dedicated","server_os":"Linux","password":true,"vac":true,"version":"7961495","steam_id":85568392924742821,"keywords":["cp","nocrits","nodmgspread","uncletopia"],"game_id":440,"stv_port":27046,"stv_name":"Uncletopia | New York City | 4 | Community | STV","players":[{"user_id":192,"name":"menk3","steam_id":76561198120888597,"connected_time":1765000000000,"state":"active","ping":59},{"user_id":211,"name":"snart","steam_id":76561198096730752,"connected_time":282000000000,"state":"active","ping":98},{"user_id":137,"name":"Rodrick Knee","steam_id":76561198283021062,"connected_time":6440000000000,"state":"active","ping":71},{"user_id":39,"name":"Shagbark","steam_id":76561198173447342,"connected_time":12298000000000,"state":"active","ping":62},{"user_id":193,"name":"Bee that flipped the Skyrim car","steam_id":76561198246170448,"connected_time":1749000000000,"state":"active","ping":59},{"user_id":161,"name":"yamme","steam_id":76561198117849124,"connected_time":4049000000000,"state":"active","ping":111},{"user_id":133,"name":"Knuckles","steam_id":76561198000704259,"connected_time":6642000000000,"state":"active","ping":35},{"user_id":146,"name":"erf","steam_id":76561198078203677,"connected_time":6156000000000,"state":"active","ping":56},{"user_id":166,"name":"Skiddy","steam_id":76561198125942665,"connected_time":3333000000000,"state":"active","ping":61},{"user_id":167,"name":"G.bo","steam_id":76561198085176270,"connected_time":3116000000000,"state":"active","ping":125},{"user_id":195,"name":"The Smell of Jazz","steam_id":76561198005860388,"connected_time":1690000000000,"state":"active","ping":120},{"user_id":190,"name":"hooters","steam_id":76561198068022595,"connected_time":1819000000000,"state":"active","ping":49},{"user_id":194,"name":"Nordie","steam_id":76561198102297774,"connected_time":1742000000000,"state":"active","ping":76},{"user_id":199,"name":"Randumb","steam_id":76561199083286636,"connected_time":1443000000000,"state":"active","ping":74},{"user_id":175,"name":"primordialheath","steam_id":76561199386942638,"connected_time":2654000000000,"state":"active","ping":69},{"user_id":197,"name":"Remmy","steam_id":76561198268857418,"connected_time":1526000000000,"state":"active","ping":61},{"user_id":209,"name":"Mally","steam_id":76561198025013765,"connected_time":850000000000,"state":"active","ping":76},{"user_id":183,"name":"Big Boy B-Franks","steam_id":76561198050292373,"connected_time":2219000000000,"state":"active","ping":176},{"user_id":206,"name":"Zerwee","steam_id":76561198181368101,"connected_time":1113000000000,"state":"active","ping":145},{"user_id":203,"name":"FluorescentDome","steam_id":76561198046897504,"connected_time":1276000000000,"state":"active","ping":75},{"user_id":204,"name":"Carthage","steam_id":76561198078559015,"connected_time":1265000000000,"state":"active","ping":42},{"user_id":210,"name":"Deck Gaming","steam_id":76561198159579919,"connected_time":797000000000,"state":"active","ping":52}]},{"server_id":142,"name":"Uncletopia | São Paulo | 1 | All Maps","name_short":"sao-1","host":"sao-1.br.uncletopia.com","port":27015,"enabled":true,"region":"sa","cc":"br","latitude":-23.533773,"longitude":-46.62529,"reserved":0,"last_update":"0001-01-01T00:00:00Z","name_a2s":"Uncletopia | São Paulo | 1 | All Maps","protocol":17,"map":"koth_cascade","folder":"tf","game":"Team Fortress","app_id":440,"player_count":0,"max_players":24,"Bots":0,"server_type":"Dedicated","server_os":"Linux","password":true,"vac":true,"version":"7961495","steam_id":85568392924469996,"keywords":["cp","nocrits","nodmgspread","uncletopia"],"game_id":440,"stv_port":27016,"stv_name":"Uncletopia | São Paulo | 1 | All Maps | STV","players":null},{"server_id":143,"name":"Uncletopia | São Paulo | 2 | Community","name_short":"sao-2","host":"sao-2.br.uncletopia.com","port":27015,"enabled":true,"region":"sa","cc":"br","latitude":-23.533773,"longitude":-46.62529,"reserved":0,"last_update":"0001-01-01T00:00:00Z","name_a2s":"Uncletopia | São Paulo | 2 | Community","protocol":17,"map":"workshop/koth_ramjam_rc1.ugc459778887","folder":"tf","game":"Team Fortress","app_id":440,"player_count":0,"max_players":24,"Bots":0,"server_type":"Dedicated","server_os":"Linux","password":true,"vac":true,"version":"7961495","steam_id":85568392924485349,"keywords":["cp","nocrits","nodmgspread","uncletopia"],"game_id":440,"stv_port":27016,"stv_name":"Uncletopia | São Paulo | 2 | Community | STV","players":null},{"server_id":7,"name":"Uncletopia | Seattle | 1 | All Maps","name_short":"sea-1","host":"sea-1.us.uncletopia.com","port":27015,"enabled":true,"region":"us-west","cc":"us","latitude":47.608013,"longitude":-122.33517,"reserved":0,"last_update":"0001-01-01T00:00:00Z","name_a2s":"Uncletopia | Seattle | 1 | All Maps","protocol":17,"map":"pl_pier","folder":"tf","game":"Team Fortress","app_id":440,"player_count":22,"max_players":24,"Bots":0,"server_type":"Dedicated","server_os":"Linux","password":true,"vac":true,"version":"7961495","steam_id":85568392924469997,"keywords":["nocrits","nodmgspread","payload","uncletopia"],"game_id":440,"stv_port":27016,"stv_name":"Uncletopia | Seattle | 1 | All Maps | STV","players":[{"user_id":513,"name":"lasky","steam_id":76561198017030029,"connected_time":5060000000000,"state":"spawning","ping":77},{"user_id":679,"name":"Father","steam_id":76561198055542054,"connected_time":3142000000000,"state":"spawning","ping":49},{"user_id":706,"name":"Google","steam_id":76561198857237473,"connected_time":415000000000,"state":"spawning","ping":132},{"user_id":695,"name":"Gamekiller839","steam_id":76561199475400469,"connected_time":1830000000000,"state":"spawning","ping":26},{"user_id":681,"name":"Skabbety","steam_id":76561198168044257,"connected_time":3067000000000,"state":"spawning","ping":65},{"user_id":712,"name":"a REAL wizard!!!!","steam_id":76561198097178599,"connected_time":56000000000,"state":"spawning","ping":45},{"user_id":628,"name":"Eraser cat","steam_id":76561199045570463,"connected_time":4112000000000,"state":"spawning","ping":41},{"user_id":709,"name":"spurious george","steam_id":76561198043558709,"connected_time":338000000000,"state":"active","ping":229},{"user_id":696,"name":"Ayayayayayahuasca","steam_id":76561199002906056,"connected_time":1819000000000,"state":"spawning","ping":45},{"user_id":700,"name":"Domopon","steam_id":76561199080347686,"connected_time":1319000000000,"state":"spawning","ping":136},{"user_id":708,"name":"toes","steam_id":76561198221151676,"connected_time":392000000000,"state":"spawning","ping":51},{"user_id":702,"name":"Sly Marbo","steam_id":76561198135271741,"connected_time":834000000000,"state":"spawning","ping":48},{"user_id":710,"name":"But it was me, Dio!","steam_id":76561198028653659,"connected_time":298000000000,"state":"spawning","ping":105},{"user_id":697,"name":"CORGI.EXE","steam_id":76561198077093432,"connected_time":1798000000000,"state":"spawning","ping":106},{"user_id":500,"name":"NEЯO","steam_id":76561197965450216,"connected_time":5321000000000,"state":"active","ping":195},{"user_id":683,"name":"pepe warlord","steam_id":76561198080819197,"connected_time":3056000000000,"state":"spawning","ping":64},{"user_id":694,"name":"Vincent Van Bro","steam_id":76561197966919802,"connected_time":2058000000000,"state":"spawning","ping":27},{"user_id":640,"name":"Level 99 Mudcrab","steam_id":76561198077452771,"connected_time":3920000000000,"state":"spawning","ping":83},{"user_id":491,"name":"NEBULA","steam_id":76561198086878595,"connected_time":5813000000000,"state":"spawning","ping":75},{"user_id":701,"name":"jorts","steam_id":76561199041179985,"connected_time":994000000000,"state":"spawning","ping":55},{"user_id":705,"name":"Day Man","steam_id":76561198067154807,"connected_time":819000000000,"state":"spawning","ping":48},{"user_id":625,"name":"Kc","steam_id":76561198210734407,"connected_time":4118000000000,"state":"spawning","ping":126}]},{"server_id":119,"name":"Uncletopia | Seattle | 2 | All Maps","name_short":"sea-2","host":"sea-1.us.uncletopia.com","port":27025,"enabled":true,"region":"us-west","cc":"us","latitude":47.608013,"longitude":-122.33517,"reserved":0,"last_update":"0001-01-01T00:00:00Z","name_a2s":"Uncletopia | Seattle | 2 | All Maps","protocol":17,"map":"koth_lakeside_final","folder":"tf","game":"Team Fortress","app_id":440,"player_count":24,"max_players":24,"Bots":0,"server_type":"Dedicated","server_os":"Linux","password":true,"vac":true,"version":"7961495","steam_id":85568392924469998,"keywords":["cp","nocrits","nodmgspread","uncletopia"],"game_id":440,"stv_port":27026,"stv_name":"Uncletopia | Seattle | 2 | All Maps | STV","players":[{"user_id":241,"name":"Lili W.","steam_id":76561199391478575,"connected_time":7245000000000,"state":"active","ping":55},{"user_id":267,"name":"mizurush","steam_id":76561198039595304,"connected_time":5115000000000,"state":"active","ping":135},{"user_id":298,"name":"Suspect Fish","steam_id":76561198043987501,"connected_time":227000000000,"state":"active","ping":140},{"user_id":262,"name":"mooney","steam_id":76561199110622484,"connected_time":5668000000000,"state":"active","ping":66},{"user_id":244,"name":"slushy :))","steam_id":76561198135281802,"connected_time":6974000000000,"state":"active","ping":32},{"user_id":276,"name":"Dextersbrain","steam_id":76561198011831579,"connected_time":3667000000000,"state":"active","ping":67},{"user_id":247,"name":"c a l l i e ↟ ↟","steam_id":76561198058199952,"connected_time":6408000000000,"state":"active","ping":55},{"user_id":291,"name":"Space360","steam_id":76561198106743284,"connected_time":1935000000000,"state":"active","ping":55},{"user_id":300,"name":"PsyKe","steam_id":76561198055486345,"connected_time":120000000000,"state":"active","ping":87},{"user_id":301,"name":"Pink","steam_id":76561198043928752,"connected_time":92000000000,"state":"active","ping":57},{"user_id":289,"name":"Integral","steam_id":76561198158225481,"connected_time":2197000000000,"state":"active","ping":103},{"user_id":282,"name":"Mii Guest C, From Wii Sports","steam_id":76561198197964803,"connected_time":3149000000000,"state":"active","ping":67},{"user_id":273,"name":"The King of Piss World","steam_id":76561198082806956,"connected_time":4069000000000,"state":"active","ping":161},{"user_id":283,"name":"Soda","steam_id":76561198219209367,"connected_time":3093000000000,"state":"active","ping":48},{"user_id":299,"name":"AceDeuce","steam_id":76561198049904924,"connected_time":200000000000,"state":"active","ping":112},{"user_id":287,"name":"A UsedNom","steam_id":76561198402832756,"connected_time":2890000000000,"state":"active","ping":58},{"user_id":246,"name":"mub","steam_id":76561197961943948,"connected_time":6425000000000,"state":"active","ping":46},{"user_id":235,"name":"Sweet Iced Tea From McDonald's","steam_id":76561198081110786,"connected_time":7876000000000,"state":"active","ping":52},{"user_id":277,"name":"dougrocks421","steam_id":76561198165063918,"connected_time":3520000000000,"state":"active","ping":40},{"user_id":288,"name":"Deathkillsme","steam_id":76561198059468746,"connected_time":2222000000000,"state":"active","ping":49},{"user_id":248,"name":"CashGordon","steam_id":76561197975594096,"connected_time":6388000000000,"state":"active","ping":39},{"user_id":297,"name":"ms. anthrope","steam_id":76561198063533082,"connected_time":347000000000,"state":"active","ping":41},{"user_id":256,"name":"sadlaxx","steam_id":76561198061354919,"connected_time":5849000000000,"state":"active","ping":94},{"user_id":266,"name":"♦Benji♦","steam_id":76561198313529973,"connected_time":5142000000000,"state":"active","ping":38}]},{"server_id":406,"name":"Uncletopia | Seattle | 3 | Stopwatch","name_short":"sea-3","host":"sea-1.us.uncletopia.com","port":27035,"enabled":true,"region":"us-west","cc":"us","latitude":47.608013,"longitude":-122.33517,"reserved":0,"last_update":"0001-01-01T00:00:00Z","name_a2s":"Uncletopia | Seattle | 3 | Stopwatch","protocol":17,"map":"workshop/koth_ashville_final.ugc2130459942","folder":"tf","game":"Team Fortress","app_id":440,"player_count":0,"max_players":24,"Bots":0,"server_type":"Dedicated","server_os":"Linux","password":true,"vac":true,"version":"7961495","steam_id":85568392924515217,"keywords":["cp","nocrits","nodmgspread","uncletopia"],"game_id":440,"stv_port":27036,"stv_name":"Uncletopia | Seattle | 3 | Stopwatch | STV","players":null},{"server_id":17,"name":"Uncletopia | San Francisco | 1 | All Maps","name_short":"sfo-1","host":"sfo-1.us.uncletopia.com","port":27015,"enabled":true,"region":"us-west","cc":"us","latitude":37.77397,"longitude":-122.4313,"reserved":0,"last_update":"0001-01-01T00:00:00Z","name_a2s":"Uncletopia | San Francisco | 1 | All Maps","protocol":17,"map":"pl_swiftwater_final1","folder":"tf","game":"Team Fortress","app_id":440,"player_count":24,"max_players":24,"Bots":0,"server_type":"Dedicated","server_os":"Linux","password":true,"vac":true,"version":"7961495","steam_id":85568392924469999,"keywords":["nocrits","nodmgspread","payload","uncletopia"],"game_id":440,"stv_port":27016,"stv_name":"Uncletopia | San Francisco | 1 | All Maps | STV","players":[{"user_id":316,"name":"Laxoloni","steam_id":76561199197045700,"connected_time":679000000000,"state":"active","ping":67},{"user_id":321,"name":"i have sex and you dont","steam_id":76561199107134575,"connected_time":277000000000,"state":"active","ping":121},{"user_id":302,"name":"Giorno Giovanna","steam_id":76561198044106874,"connected_time":1625000000000,"state":"active","ping":66},{"user_id":305,"name":"małię","steam_id":76561198337705174,"connected_time":1339000000000,"state":"active","ping":64},{"user_id":319,"name":"Urist McDwarf","steam_id":76561198164004939,"connected_time":392000000000,"state":"active","ping":74},{"user_id":268,"name":"PJROCK101","steam_id":76561198070616561,"connected_time":4318000000000,"state":"active","ping":80},{"user_id":308,"name":"Magnaton with huge titties","steam_id":76561198392249458,"connected_time":864000000000,"state":"active","ping":69},{"user_id":309,"name":"Higuma","steam_id":76561198375229012,"connected_time":856000000000,"state":"active","ping":63},{"user_id":284,"name":"RUF","steam_id":76561198062315805,"connected_time":2579000000000,"state":"active","ping":61},{"user_id":299,"name":"DOMO_MR_ROBOTO","steam_id":76561198077108345,"connected_time":1877000000000,"state":"active","ping":100},{"user_id":258,"name":"paypur -rng","steam_id":76561198214370515,"connected_time":4436000000000,"state":"active","ping":108},{"user_id":313,"name":"The Muffin Man","steam_id":76561198988065564,"connected_time":819000000000,"state":"active","ping":116},{"user_id":322,"name":"Subject Delta","steam_id":76561199109118980,"connected_time":193000000000,"state":"active","ping":60},{"user_id":320,"name":"Clorox Chugger 69","steam_id":76561198049508548,"connected_time":390000000000,"state":"active","ping":69},{"user_id":283,"name":"benji","steam_id":76561198084417967,"connected_time":2582000000000,"state":"active","ping":88},{"user_id":318,"name":"jay","steam_id":76561198022374405,"connected_time":404000000000,"state":"active","ping":74},{"user_id":312,"name":"Elite Soba","steam_id":76561198015998264,"connected_time":832000000000,"state":"active","ping":51},{"user_id":323,"name":"beheeyem","steam_id":76561198042867745,"connected_time":188000000000,"state":"active","ping":61},{"user_id":265,"name":"dodecadron","steam_id":76561198027397222,"connected_time":4405000000000,"state":"active","ping":89},{"user_id":303,"name":"Dreamzapp","steam_id":76561199084936632,"connected_time":1547000000000,"state":"active","ping":73},{"user_id":317,"name":"Backwardsdog","steam_id":76561198002374945,"connected_time":435000000000,"state":"active","ping":53},{"user_id":307,"name":"WhatAmIDoing","steam_id":76561199060028126,"connected_time":874000000000,"state":"active","ping":68},{"user_id":315,"name":"papi Chulo","steam_id":76561198126274984,"connected_time":755000000000,"state":"active","ping":99},{"user_id":288,"name":"coffee","steam_id":76561198141061142,"connected_time":2576000000000,"state":"active","ping":86}]},{"server_id":18,"name":"Uncletopia | San Francisco | 2 | All Maps","name_short":"sfo-2","host":"sfo-1.us.uncletopia.com","port":27025,"enabled":true,"region":"us-west","cc":"us","latitude":37.77397,"longitude":-122.4313,"reserved":0,"last_update":"0001-01-01T00:00:00Z","name_a2s":"Uncletopia | San Francisco | 2 | All Maps","protocol":17,"map":"pl_pier","folder":"tf","game":"Team Fortress","app_id":440,"player_count":24,"max_players":24,"Bots":0,"server_type":"Dedicated","server_os":"Linux","password":true,"vac":true,"version":"7961495","steam_id":85568392924470000,"keywords":["nocrits","nodmgspread","payload","uncletopia"],"game_id":440,"stv_port":27026,"stv_name":"Uncletopia | San Francisco | 2 | All Maps | STV","players":[{"user_id":579,"name":"PTSleepyHead","steam_id":76561198037748705,"connected_time":795000000000,"state":"active","ping":45},{"user_id":532,"name":"ratthew","steam_id":76561198418172095,"connected_time":3683000000000,"state":"active","ping":103},{"user_id":574,"name":"Culprit Shy","steam_id":76561198206506481,"connected_time":1406000000000,"state":"active","ping":38},{"user_id":583,"name":"Grzegorz Brzęczyszczykiewicz","steam_id":76561198229010452,"connected_time":530000000000,"state":"active","ping":73},{"user_id":560,"name":"Fgtfv567","steam_id":76561198071022525,"connected_time":2630000000000,"state":"active","ping":55},{"user_id":523,"name":"green bean","steam_id":76561198113099204,"connected_time":5114000000000,"state":"active","ping":35},{"user_id":580,"name":"Tesman James","steam_id":76561199093793428,"connected_time":705000000000,"state":"active","ping":105},{"user_id":584,"name":"Swag6","steam_id":76561198064110837,"connected_time":523000000000,"state":"active","ping":46},{"user_id":582,"name":"Grandpa 1MinecraftEmpire","steam_id":76561198069046338,"connected_time":592000000000,"state":"active","ping":62},{"user_id":588,"name":"Igrium","steam_id":76561198119549811,"connected_time":400000000000,"state":"active","ping":53},{"user_id":553,"name":"Swag3","steam_id":76561198056166863,"connected_time":2862000000000,"state":"active","ping":67},{"user_id":565,"name":"Zorlovo","steam_id":76561198006443283,"connected_time":2325000000000,"state":"active","ping":87},{"user_id":484,"name":"Swag5","steam_id":76561198065311356,"connected_time":7722000000000,"state":"active","ping":48},{"user_id":571,"name":"summer ant","steam_id":76561198340389876,"connected_time":2061000000000,"state":"active","ping":68},{"user_id":586,"name":"Drive-By-Fish-Guy","steam_id":76561198105513652,"connected_time":471000000000,"state":"active","ping":69},{"user_id":504,"name":"freyja","steam_id":76561198012480197,"connected_time":6013000000000,"state":"active","ping":41},{"user_id":587,"name":"medium Mike","steam_id":76561198111645213,"connected_time":444000000000,"state":"active","ping":55},{"user_id":540,"name":"Blanke","steam_id":76561198064100364,"connected_time":3495000000000,"state":"active","ping":95},{"user_id":529,"name":"Buswolley","steam_id":76561197995205571,"connected_time":3810000000000,"state":"active","ping":55},{"user_id":589,"name":"Landlord","steam_id":76561198987913057,"connected_time":357000000000,"state":"active","ping":143},{"user_id":590,"name":"momus","steam_id":76561198966979196,"connected_time":337000000000,"state":"active","ping":59},{"user_id":558,"name":"I am the pinnacle of funny","steam_id":76561198306393090,"connected_time":2767000000000,"state":"active","ping":90},{"user_id":559,"name":"Booxy","steam_id":76561197999872470,"connected_time":2759000000000,"state":"active","ping":73},{"user_id":592,"name":"iLordy","steam_id":76561198084357623,"connected_time":198000000000,"state":"active","ping":145}]},{"server_id":19,"name":"Uncletopia | San Francisco | 3 | Stopwatch","name_short":"sfo-3","host":"sfo-1.us.uncletopia.com","port":27035,"enabled":true,"region":"us-west","cc":"us","latitude":37.77397,"longitude":-122.4313,"reserved":0,"last_update":"0001-01-01T00:00:00Z","name_a2s":"Uncletopia | San Francisco | 3 | Stopwatch","protocol":17,"map":"workshop/cp_reckoner_rc6.ugc674719999","folder":"tf","game":"Team Fortress","app_id":440,"player_count":0,"max_players":24,"Bots":0,"server_type":"Dedicated","server_os":"Linux","password":true,"vac":true,"version":"7961495","steam_id":85568392924742824,"keywords":["cp","nocrits","nodmgspread","uncletopia"],"game_id":440,"stv_port":27036,"stv_name":"Uncletopia | San Francisco | 3 | Stopwatch | STV","players":null},{"server_id":20,"name":"Uncletopia | San Francisco | 4 | Community","name_short":"sfo-4","host":"sfo-1.us.uncletopia.com","port":27045,"enabled":true,"region":"us-west","cc":"us","latitude":37.77397,"longitude":-122.4313,"reserved":0,"last_update":"0001-01-01T00:00:00Z","name_a2s":"Uncletopia | San Francisco | 4 | Community","protocol":17,"map":"workshop/cp_logjam_rc12.ugc454812035","folder":"tf","game":"Team Fortress","app_id":440,"player_count":0,"max_players":24,"Bots":0,"server_type":"Dedicated","server_os":"Linux","password":true,"vac":true,"version":"7961495","steam_id":85568392924742826,"keywords":["cp","nocrits","nodmgspread","uncletopia"],"game_id":440,"stv_port":27046,"stv_name":"Uncletopia | San Francisco | 4 | Community | STV","players":null},{"server_id":141,"name":"Uncletopia | Sydney | 1 | All Maps","name_short":"syd-1","host":"syd-1.au.uncletopia.com","port":27015,"enabled":true,"region":"au","cc":"au","latitude":-33.865143,"longitude":151.2099,"reserved":0,"last_update":"0001-01-01T00:00:00Z","name_a2s":"Uncletopia | Sydney | 1 | All Maps","protocol":17,"map":"pl_swiftwater_final1","folder":"tf","game":"Team Fortress","app_id":440,"player_count":23,"max_players":24,"Bots":0,"server_type":"Dedicated","server_os":"Linux","password":true,"vac":true,"version":"7961495","steam_id":85568392924470001,"keywords":["nocrits","nodmgspread","payload","uncletopia"],"game_id":440,"stv_port":27016,"stv_name":"Uncletopia | Sydney | 1 | All Maps | STV","players":[{"user_id":24,"name":"JP","steam_id":76561198026221737,"connected_time":5188000000000,"state":"active","ping":45},{"user_id":76,"name":"Pickled Cow","steam_id":76561198292517991,"connected_time":693000000000,"state":"active","ping":42},{"user_id":77,"name":"Sapphie4K","steam_id":76561198442369367,"connected_time":684000000000,"state":"active","ping":73},{"user_id":78,"name":"Nutri-Grain Scream Team","steam_id":76561198000568803,"connected_time":537000000000,"state":"active","ping":45},{"user_id":54,"name":"Uncle_Bowlcut","steam_id":76561198225191728,"connected_time":2248000000000,"state":"active","ping":57},{"user_id":83,"name":"lavanderpumpernickle(Del Davis)","steam_id":76561199093611800,"connected_time":396000000000,"state":"active","ping":48},{"user_id":75,"name":"Dende","steam_id":76561198997966214,"connected_time":786000000000,"state":"active","ping":61},{"user_id":79,"name":"Lukewarm Lettuce","steam_id":76561198340884469,"connected_time":536000000000,"state":"active","ping":93},{"user_id":41,"name":"make like a tree and Keith","steam_id":76561198301282416,"connected_time":3240000000000,"state":"active","ping":45},{"user_id":85,"name":"KiwiJiwi","steam_id":76561198262081410,"connected_time":361000000000,"state":"active","ping":70},{"user_id":80,"name":"daugh","steam_id":76561198060894632,"connected_time":498000000000,"state":"active","ping":115},{"user_id":82,"name":"Killing","steam_id":76561198107392931,"connected_time":450000000000,"state":"active","ping":59},{"user_id":46,"name":"Foxivan","steam_id":76561198428775175,"connected_time":2987000000000,"state":"active","ping":58},{"user_id":84,"name":"SilverPenguin","steam_id":76561199025744213,"connected_time":393000000000,"state":"active","ping":100},{"user_id":57,"name":"Zeppy","steam_id":76561198074766231,"connected_time":2139000000000,"state":"active","ping":72},{"user_id":61,"name":"alqwnq","steam_id":76561198133867907,"connected_time":1637000000000,"state":"active","ping":62},{"user_id":64,"name":"Sunfish_TV","steam_id":76561198253763443,"connected_time":1424000000000,"state":"active","ping":50},{"user_id":73,"name":"Phibs","steam_id":76561199323730865,"connected_time":890000000000,"state":"active","ping":40},{"user_id":68,"name":"buggybones jones","steam_id":76561198025099660,"connected_time":1101000000000,"state":"active","ping":32},{"user_id":71,"name":"dinxie","steam_id":76561199448765541,"connected_time":993000000000,"state":"active","ping":68},{"user_id":74,"name":"Zeron","steam_id":76561198125778202,"connected_time":860000000000,"state":"active","ping":46},{"user_id":86,"name":"yeetingbaby","steam_id":76561199011454860,"connected_time":105000000000,"state":"active","ping":48},{"user_id":87,"name":"Rizeo","steam_id":76561198147901488,"connected_time":65000000000,"state":"active","ping":70}]},{"server_id":123,"name":"Uncletopia | Sydney | 2 | All Maps","name_short":"syd-2","host":"syd-1.au.uncletopia.com","port":27025,"enabled":true,"region":"au","cc":"au","latitude":-33.865143,"longitude":151.2099,"reserved":0,"last_update":"0001-01-01T00:00:00Z","name_a2s":"Uncletopia | Sydney | 2 | All Maps","protocol":17,"map":"koth_lakeside_final","folder":"tf","game":"Team Fortress","app_id":440,"player_count":0,"max_players":24,"Bots":0,"server_type":"Dedicated","server_os":"Linux","password":true,"vac":true,"version":"7961495","steam_id":85568392924470002,"keywords":["cp","nocrits","nodmgspread","uncletopia"],"game_id":440,"stv_port":27026,"stv_name":"Uncletopia | Sydney | 2 | All Maps | STV","players":null},{"server_id":395,"name":"Uncletopia | Sydney | 3 | All Maps","name_short":"syd-3","host":"syd-1.au.uncletopia.com","port":27035,"enabled":true,"region":"au","cc":"au","latitude":-33.865143,"longitude":151.2099,"reserved":0,"last_update":"0001-01-01T00:00:00Z","name_a2s":"Uncletopia | Sydney | 3 | All Maps","protocol":17,"map":"pl_frontier_final","folder":"tf","game":"Team Fortress","app_id":440,"player_count":0,"max_players":24,"Bots":0,"server_type":"Dedicated","server_os":"Linux","password":true,"vac":true,"version":"7961495","steam_id":85568392925194467,"keywords":["nocrits","nodmgspread","payload","uncletopia"],"game_id":440,"stv_port":27036,"stv_name":"Uncletopia | Sydney | 3 | All Maps | STV","players":null},{"server_id":396,"name":"Uncletopia | Sydney | 4 | All Maps","name_short":"syd-4","host":"syd-1.au.uncletopia.com","port":27045,"enabled":true,"region":"au","cc":"au","latitude":-33.865143,"longitude":151.2099,"reserved":0,"last_update":"0001-01-01T00:00:00Z","name_a2s":"Uncletopia | Sydney | 4 | All Maps","protocol":17,"map":"pl_upward","folder":"tf","game":"Team Fortress","app_id":440,"player_count":0,"max_players":24,"Bots":0,"server_type":"Dedicated","server_os":"Linux","password":true,"vac":true,"version":"7961495","steam_id":85568392925397958,"keywords":["nocrits","nodmgspread","payload","uncletopia"],"game_id":440,"stv_port":27046,"stv_name":"Uncletopia | Sydney | 4 | All Maps | STV","players":null},{"server_id":58,"name":"Uncletopia | Sydney | 5 | Stopwatch","name_short":"syd-5","host":"syd-1.au.uncletopia.com","port":27055,"enabled":true,"region":"au","cc":"au","latitude":-33.865143,"longitude":151.2099,"reserved":0,"last_update":"0001-01-01T00:00:00Z","name_a2s":"Uncletopia | Sydney | 5 | Stopwatch","protocol":17,"map":"workshop/koth_ramjam_rc1.ugc459778887","folder":"tf","game":"Team Fortress","app_id":440,"player_count":0,"max_players":24,"Bots":0,"server_type":"Dedicated","server_os":"Linux","password":true,"vac":true,"version":"7961495","steam_id":85568392925397959,"keywords":["cp","nocrits","nodmgspread","uncletopia"],"game_id":440,"stv_port":27056,"stv_name":"Uncletopia | Sydney | 5 | Stopwatch | STV","players":null},{"server_id":59,"name":"Uncletopia | Sydney | 6 | Community","name_short":"syd-6","host":"syd-1.au.uncletopia.com","port":27065,"enabled":true,"region":"au","cc":"au","latitude":-33.865143,"longitude":151.2099,"reserved":0,"last_update":"0001-01-01T00:00:00Z","name_a2s":"Uncletopia | Sydney | 6 | Community","protocol":17,"map":"workshop/rd_asteroid_redux_b1.ugc2154902912","folder":"tf","game":"Team Fortress","app_id":440,"player_count":0,"max_players":24,"Bots":0,"server_type":"Dedicated","server_os":"Linux","password":true,"vac":true,"version":"7961495","steam_id":85568392925397960,"keywords":["beta","nocrits","nodmgspread","rd","uncletopia"],"game_id":440,"stv_port":27066,"stv_name":"Uncletopia | Sydney | 6 | Community | STV","players":null},{"server_id":49,"name":"Uncletopia | Warsaw | 1 | All Maps","name_short":"waw-1","host":"waw-1.pl.uncletopia.com","port":27015,"enabled":true,"region":"eu","cc":"pl","latitude":52.2297,"longitude":21.017532,"reserved":0,"last_update":"0001-01-01T00:00:00Z","name_a2s":"Uncletopia | Warsaw | 1 | All Maps","protocol":17,"map":"koth_highpass","folder":"tf","game":"Team Fortress","app_id":440,"player_count":0,"max_players":24,"Bots":0,"server_type":"Dedicated","server_os":"Linux","password":true,"vac":true,"version":"7961495","steam_id":85568392925397850,"keywords":["cp","nocrits","nodmgspread","uncletopia"],"game_id":440,"stv_port":27016,"stv_name":"Uncletopia | Warsaw | 1 | All Maps | STV","players":null},{"server_id":50,"name":"Uncletopia | Warsaw | 2 | All Maps","name_short":"waw-2","host":"waw-1.pl.uncletopia.com","port":27025,"enabled":true,"region":"eu","cc":"pl","latitude":52.2297,"longitude":21.017532,"reserved":0,"last_update":"0001-01-01T00:00:00Z","name_a2s":"Uncletopia | Warsaw | 2 | All Maps","protocol":17,"map":"koth_highpass","folder":"tf","game":"Team Fortress","app_id":440,"player_count":0,"max_players":24,"Bots":0,"server_type":"Dedicated","server_os":"Linux","password":true,"vac":true,"version":"7961495","steam_id":85568392925397851,"keywords":["cp","nocrits","nodmgspread","uncletopia"],"game_id":440,"stv_port":27026,"stv_name":"Uncletopia | Warsaw | 2 | All Maps | STV","players":null},{"server_id":51,"name":"Uncletopia | Warsaw | 3 | All Maps","name_short":"waw-3","host":"waw-1.pl.uncletopia.com","port":27035,"enabled":true,"region":"eu","cc":"pl","latitude":52.2297,"longitude":21.017532,"reserved":0,"last_update":"0001-01-01T00:00:00Z","name_a2s":"Uncletopia | Warsaw | 3 | All Maps","protocol":17,"map":"koth_viaduct","folder":"tf","game":"Team Fortress","app_id":440,"player_count":0,"max_players":24,"Bots":0,"server_type":"Dedicated","server_os":"Linux","password":true,"vac":true,"version":"7961495","steam_id":85568392925397852,"keywords":["cp","nocrits","nodmgspread","uncletopia"],"game_id":440,"stv_port":27036,"stv_name":"Uncletopia | Warsaw | 3 | All Maps | STV","players":null},{"server_id":52,"name":"Uncletopia | Warsaw | 4 | All Maps","name_short":"waw-4","host":"waw-1.pl.uncletopia.com","port":27045,"enabled":true,"region":"eu","cc":"pl","latitude":52.2297,"longitude":21.017532,"reserved":0,"last_update":"0001-01-01T00:00:00Z","name_a2s":"Uncletopia | Warsaw | 4 | All Maps","protocol":17,"map":"cp_altitude","folder":"tf","game":"Team Fortress","app_id":440,"player_count":0,"max_players":24,"Bots":0,"server_type":"Dedicated","server_os":"Linux","password":true,"vac":true,"version":"7961495","steam_id":85568392925397853,"keywords":["cp","nocrits","nodmgspread","uncletopia"],"game_id":440,"stv_port":27046,"stv_name":"Uncletopia | Warsaw | 4 | All Maps | STV","players":null},{"server_id":53,"name":"Uncletopia | Warsaw | 5 | Stopwatch","name_short":"waw-5","host":"waw-1.pl.uncletopia.com","port":27055,"enabled":true,"region":"eu","cc":"pl","latitude":52.2297,"longitude":21.017532,"reserved":0,"last_update":"0001-01-01T00:00:00Z","name_a2s":"Uncletopia | Warsaw | 5 | Stopwatch","protocol":17,"map":"cp_granary","folder":"tf","game":"Team Fortress","app_id":440,"player_count":0,"max_players":24,"Bots":0,"server_type":"Dedicated","server_os":"Linux","password":true,"vac":true,"version":"7961495","steam_id":85568392925397854,"keywords":["cp","nocrits","nodmgspread","uncletopia"],"game_id":440,"stv_port":27056,"stv_name":"Uncletopia | Warsaw | 5 | Stopwatch | STV","players":null},{"server_id":54,"name":"Uncletopia | Warsaw | 6 | Community","name_short":"waw-6","host":"waw-1.pl.uncletopia.com","port":27065,"enabled":true,"region":"eu","cc":"pl","latitude":52.2297,"longitude":21.017532,"reserved":0,"last_update":"0001-01-01T00:00:00Z","name_a2s":"Uncletopia | Warsaw | 6 | Community","protocol":17,"map":"workshop/cp_hazyfort_rc6.ugc1365963729","folder":"tf","game":"Team Fortress","app_id":440,"player_count":0,"max_players":24,"Bots":0,"server_type":"Dedicated","server_os":"Linux","password":true,"vac":true,"version":"7961495","steam_id":85568392925397856,"keywords":["cp","nocrits","nodmgspread","uncletopia"],"game_id":440,"stv_port":27066,"stv_name":"Uncletopia | Warsaw | 6 | Community | STV","players":null}]}