{"status":true,"message":"","result":[{"server_id":9,"name":"Uncletopia | Atlanta | 1 | All Maps","name_short":"atl-1","host":"atl-1.us.uncletopia.com","port":27015,"enabled":true,"region":"us-east","cc":"us","latitude":33.753746,"longitude":-84.38633,"reserved":0,"last_update":"0001-01-01T00:00:00Z","name_a2s":"Uncletopia | Atlanta | 1 | All Maps","protocol":17,"map":"koth_viaduct","folder":"tf","game":"Team Fortress","app_id":440,"player_count":0,"max_players":24,"Bots":0,"server_type":"Dedicated","server_os":"Linux","password":true,"vac":true,"version":"7882260","steam_id":85568392924469982,"keywords":["cp","nocrits","nodmgspread","uncletopia"],"game_id":440,"stv_port":27016,"stv_name":"Uncletopia | Atlanta | 1 | All Maps | STV","players":null},{"server_id":104,"name":"Uncletopia | Atlanta | 2 | All Maps","name_short":"atl-2","host":"atl-1.us.uncletopia.com","port":27025,"enabled":true,"region":"us-east","cc":"us","latitude":33.753746,"longitude":-84.38633,"reserved":0,"last_update":"0001-01-01T00:00:00Z","name_a2s":"Uncletopia | Atlanta | 2 | All Maps","protocol":17,"map":"pl_frontier_final","folder":"tf","game":"Team Fortress","app_id":440,"player_count":0,"max_players":24,"Bots":0,"server_type":"Dedicated","server_os":"Linux","password":true,"vac":true,"version":"7882260","steam_id":85568392924469983,"keywords":["nocrits","nodmgspread","payload","uncletopia"],"game_id":440,"stv_port":27026,"stv_name":"Uncletopia | Atlanta | 2 | All Maps | STV","players":null},{"server_id":400,"name":"Uncletopia | Atlanta | 3 | Community","name_short":"atl-3","host":"atl-1.us.uncletopia.com","port":27035,"enabled":true,"region":"us-east","cc":"us","latitude":33.753746,"longitude":-84.38633,"reserved":0,"last_update":"0001-01-01T00:00:00Z","name_a2s":"Uncletopia | Atlanta | 3 | Community","protocol":17,"map":"workshop/koth_trenchfoot_b1a.ugc731436616","folder":"tf","game":"Team Fortress","app_id":440,"player_count":0,"max_players":24,"Bots":0,"server_type":"Dedicated","server_os":"Linux","password":true,"vac":true,"version":"7882260","steam_id":85568392924515187,"keywords":["cp","nocrits","nodmgspread","uncletopia"],"game_id":440,"stv_port":27036,"stv_name":"Uncletopia | Atlanta | 3 | Community | STV","players":null},{"server_id":401,"name":"Uncletopia | Atlanta | 4 | No Payload","name_short":"atl-4","host":"atl-1.us.uncletopia.com","port":27045,"enabled":true,"region":"us-east","cc":"us","latitude":33.753746,"longitude":-84.38633,"reserved":0,"last_update":"0001-01-01T00:00:00Z","name_a2s":"","protocol":0,"map":"","folder":"","game":"","app_id":0,"player_count":0,"max_players":0,"Bots":0,"server_type":"","server_os":"","password":false,"vac":false,"version":"","steam_id":0,"keywords":null,"game_id":0,"stv_port":0,"stv_name":"","players":null},{"server_id":2,"name":"Uncletopia | Chicago | 1 | All Maps","name_short":"chi-1","host":"chi-1.us.uncletopia.com","port":27015,"enabled":true,"region":"us-central","cc":"us","latitude":41.881832,"longitude":-87.62318,"reserved":0,"last_update":"0001-01-01T00:00:00Z","name_a2s":"Uncletopia | Chicago | 1 | All Maps","protocol":17,"map":"cp_5gorge","folder":"tf","game":"Team Fortress","app_id":440,"player_count":1,"max_players":24,"Bots":0,"server_type":"Dedicated","server_os":"Linux","password":true,"vac":true,"version":"7882260","steam_id":85568392924469984,"keywords":["cp","nocrits","nodmgspread","uncletopia"],"game_id":440,"stv_port":27016,"stv_name":"Uncletopia | Chicago | 1 | All Maps | STV","players":[{"user_id":717,"name":"elyktsorb","steam_id":76561198158964488,"connected_time":1358000000000,"state":"active","ping":55}]},{"server_id":106,"name":"Uncletopia | Chicago | 2 | All Maps","name_short":"chi-2","host":"chi-1.us.uncletopia.com","port":27025,"enabled":true,"region":"us-central","cc":"us","latitude":41.881832,"longitude":-87.62318,"reserved":0,"last_update":"0001-01-01T00:00:00Z","name_a2s":"Uncletopia | Chicago | 2 | All Maps","protocol":17,"map":"koth_nucleus","folder":"tf","game":"Team Fortress","app_id":440,"player_count":0,"max_players":24,"Bots":0,"server_type":"Dedicated","server_os":"Linux","password":true,"vac":true,"version":"7882260","steam_id":85568392924469985,"keywords":["cp","nocrits","nodmgspread","uncletopia"],"game_id":440,"stv_port":27026,"stv_name":"Uncletopia | Chicago | 2 | All Maps | STV","players":null},{"server_id":402,"name":"Uncletopia | Chicago | 3 | All Maps","name_short":"chi-3","host":"chi-1.us.uncletopia.com","port":27035,"enabled":true,"region":"us-central","cc":"us","latitude":41.881832,"longitude":-87.62318,"reserved":0,"last_update":"0001-01-01T00:00:00Z","name_a2s":"Uncletopia | Chicago | 3 | All Maps","protocol":17,"map":"koth_cascade","folder":"tf","game":"Team Fortress","app_id":440,"player_count":5,"max_players":24,"Bots":0,"server_type":"Dedicated","server_os":"Linux","password":true,"vac":true,"version":"7882260","steam_id":85568392924515191,"keywords":["cp","nocrits","nodmgspread","uncletopia"],"game_id":440,"stv_port":27036,"stv_name":"Uncletopia | Chicago | 3 | All Maps | STV","players":[{"user_id":605,"name":"BugsAreMyWorstEnemy","steam_id":76561199440395505,"connected_time":523000000000,"state":"active","ping":68},{"user_id":603,"name":"Larkaldi","steam_id":76561198029668456,"connected_time":862000000000,"state":"active","ping":47},{"user_id":604,"name":"Trepan Stan","steam_id":76561198103243847,"connected_time":731000000000,"state":"active","ping":86},{"user_id":601,"name":"Reverie","steam_id":76561198987005784,"connected_time":976000000000,"state":"active","ping":60},{"user_id":578,"name":"heavy main (real)","steam_id":76561199275142109,"connected_time":4044000000000,"state":"active","ping":174}]},{"server_id":403,"name":"Uncletopia | Chicago | 4 | All Maps","name_short":"chi-4","host":"chi-1.us.uncletopia.com","port":27045,"enabled":true,"region":"us-central","cc":"us","latitude":41.881832,"longitude":-87.62318,"reserved":0,"last_update":"0001-01-01T00:00:00Z","name_a2s":"Uncletopia | Chicago | 4 | All Maps","protocol":17,"map":"pl_frontier_final","folder":"tf","game":"Team Fortress","app_id":440,"player_count":24,"max_players":24,"Bots":0,"server_type":"Dedicated","server_os":"Linux","password":true,"vac":true,"version":"7882260","steam_id":85568392924515193,"keywords":["nocrits","nodmgspread","payload","uncletopia"],"game_id":440,"stv_port":27046,"stv_name":"Uncletopia | Chicago | 4 | All Maps | STV","players":[{"user_id":577,"name":"Allegro","steam_id":76561198084599587,"connected_time":5522000000000,"state":"active","ping":73},{"user_id":622,"name":"Galactamarx","steam_id":76561198028065755,"connected_time":1908000000000,"state":"active","ping":92},{"user_id":637,"name":"milo","steam_id":76561199061380038,"connected_time":559000000000,"state":"active","ping":64},{"user_id":591,"name":"brain_damage","steam_id":76561199381954163,"connected_time":4177000000000,"state":"active","ping":130},{"user_id":632,"name":"pel","steam_id":76561198021224745,"connected_time":827000000000,"state":"active","ping":52},{"user_id":627,"name":"Pretty executor trap qeen","steam_id":76561198085044565,"connected_time":1554000000000,"state":"active","ping":89},{"user_id":625,"name":"frozenslade","steam_id":76561198979145974,"connected_time":1697000000000,"state":"active","ping":74},{"user_id":595,"name":"lambmyth","steam_id":76561199215261209,"connected_time":3720000000000,"state":"active","ping":83},{"user_id":628,"name":"puppy :3","steam_id":76561198011196264,"connected_time":1538000000000,"state":"active","ping":53},{"user_id":631,"name":"JelloMotion","steam_id":76561198045892038,"connected_time":1284000000000,"state":"active","ping":58},{"user_id":626,"name":"whats fizzin","steam_id":76561198230670996,"connected_time":1658000000000,"state":"active","ping":72},{"user_id":598,"name":"{FITH}™ Tnega Libram","steam_id":76561197997973526,"connected_time":3618000000000,"state":"active","ping":68},{"user_id":638,"name":"definitely a scout","steam_id":76561198264728955,"connected_time":556000000000,"state":"active","ping":59},{"user_id":612,"name":"ya","steam_id":76561198070934685,"connected_time":2243000000000,"state":"active","ping":74},{"user_id":629,"name":"Infinite8","steam_id":76561198055452764,"connected_time":1505000000000,"state":"active","ping":70},{"user_id":633,"name":"Pongallow","steam_id":76561198146876078,"connected_time":825000000000,"state":"active","ping":45},{"user_id":639,"name":"Monster","steam_id":76561198189429665,"connected_time":502000000000,"state":"active","ping":74},{"user_id":617,"name":"nofu","steam_id":76561198035984343,"connected_time":2091000000000,"state":"active","ping":67},{"user_id":616,"name":"ultralisk52","steam_id":76561198051666604,"connected_time":2099000000000,"state":"active","ping":62},{"user_id":618,"name":"twitch/auratf2","steam_id":76561197988085026,"connected_time":2089000000000,"state":"active","ping":162},{"user_id":619,"name":"RegrexitHexit","steam_id":76561198069603316,"connected_time":2078000000000,"state":"active","ping":85},{"user_id":620,"name":"Lost","steam_id":76561198093713427,"connected_time":1976000000000,"state":"active","ping":59},{"user_id":621,"name":"REDDASHFOX","steam_id":76561199047838700,"connected_time":1972000000000,"state":"active","ping":87},{"user_id":641,"name":"Horseless Headless Scotsman","steam_id":76561198128494897,"connected_time":280000000000,"state":"active","ping":85}]},{"server_id":36,"name":"Uncletopia | Chicago | 5 | All Maps","name_short":"chi-5","host":"chi-2.us.uncletopia.com","port":27015,"enabled":true,"region":"us-central","cc":"us","latitude":41.881832,"longitude":-87.62318,"reserved":0,"last_update":"0001-01-01T00:00:00Z","name_a2s":"Uncletopia | Chicago | 5 | All Maps","protocol":17,"map":"koth_lakeside_final","folder":"tf","game":"Team Fortress","app_id":440,"player_count":0,"max_players":24,"Bots":0,"server_type":"Dedicated","server_os":"Linux","password":true,"vac":true,"version":"7882260","steam_id":85568392924866362,"keywords":["cp","nocrits","nodmgspread","uncletopia"],"game_id":440,"stv_port":27016,"stv_name":"Uncletopia | Chicago | 5 | All Maps | STV","players":null},{"server_id":37,"name":"Uncletopia | Chicago | 6 | All Maps","name_short":"chi-6","host":"chi-2.us.uncletopia.com","port":27025,"enabled":true,"region":"us-central","cc":"us","latitude":41.881832,"longitude":-87.62318,"reserved":0,"last_update":"0001-01-01T00:00:00Z","name_a2s":"Uncletopia | Chicago | 6 | All Maps","protocol":17,"map":"cp_mountainlab","folder":"tf","game":"Team Fortress","app_id":440,"player_count":0,"max_players":24,"Bots":0,"server_type":"Dedicated","server_os":"Linux","password":true,"vac":true,"version":"7882260","steam_id":85568392924866363,"keywords":["cp","nocrits","nodmgspread","uncletopia"],"game_id":440,"stv_port":27026,"stv_name":"Uncletopia | Chicago | 6 | All Maps | STV","players":null},{"server_id":38,"name":"Uncletopia | Chicago | 7 | Stopwatch Beta","name_short":"chi-7","host":"chi-2.us.uncletopia.com","port":27035,"enabled":true,"region":"us-central","cc":"us","latitude":41.881832,"longitude":-87.62318,"reserved":0,"last_update":"0001-01-01T00:00:00Z","name_a2s":"Uncletopia | Chicago | 7 | Stopwatch Beta","protocol":17,"map":"cp_granary","folder":"tf","game":"Team Fortress","app_id":440,"player_count":0,"max_players":24,"Bots":0,"server_type":"Dedicated","server_os":"Linux","password":true,"vac":true,"version":"7882260","steam_id":85568392924866364,"keywords":["cp","nocrits","nodmgspread","uncletopia"],"game_id":440,"stv_port":27036,"stv_name":"Uncletopia | Chicago | 7 | Stopwatch Beta | STV","players":null},{"server_id":39,"name":"Uncletopia | Chicago | 8 | Community","name_short":"chi-8","host":"chi-2.us.uncletopia.com","port":27045,"enabled":true,"region":"us-central","cc":"us","latitude":41.881832,"longitude":-87.62318,"reserved":0,"last_update":"0001-01-01T00:00:00Z","name_a2s":"Uncletopia | Chicago | 8 | Community","protocol":17,"map":"workshop/koth_trenchfoot_b1a.ugc731436616","folder":"tf","game":"Team Fortress","app_id":440,"player_count":0,"max_players":24,"Bots":0,"server_type":"Dedicated","server_os":"Linux","password":true,"vac":true,"version":"7882260","steam_id":85568392924866365,"keywords":["cp","nocrits","nodmgspread","uncletopia"],"game_id":440,"stv_port":27046,"stv_name":"Uncletopia | Chicago | 8 | Community | STV","players":null},{"server_id":8,"name":"Uncletopia | Dallas | 1 | All Maps","name_short":"dal-1","host":"dal-1.us.uncletopia.com","port":27015,"enabled":true,"region":"us-central","cc":"us","latitude":32.779167,"longitude":-96.80889,"reserved":0,"last_update":"0001-01-01T00:00:00Z","name_a2s":"Uncletopia | Dallas | 1 | All Maps","protocol":17,"map":"koth_highpass","folder":"tf","game":"Team Fortress","app_id":440,"player_count":0,"max_players":24,"Bots":0,"server_type":"Dedicated","server_os":"Linux","password":true,"vac":true,"version":"7882260","steam_id":85568392924469986,"keywords":["cp","nocrits","nodmgspread","uncletopia"],"game_id":440,"stv_port":27016,"stv_name":"Uncletopia | Dallas | 1 | All Maps | STV","players":null},{"server_id":108,"name":"Uncletopia | Dallas | 2 | All Maps","name_short":"dal-2","host":"dal-1.us.uncletopia.com","port":27025,"enabled":true,"region":"us-central","cc":"us","latitude":32.779167,"longitude":-96.80889,"reserved":0,"last_update":"0001-01-01T00:00:00Z","name_a2s":"Uncletopia | Dallas | 2 | All Maps","protocol":17,"map":"pl_frontier_final","folder":"tf","game":"Team Fortress","app_id":440,"player_count":24,"max_players":24,"Bots":0,"server_type":"Dedicated","server_os":"Linux","password":true,"vac":true,"version":"7882260","steam_id":85568392924469988,"keywords":["nocrits","nodmgspread","payload","uncletopia"],"game_id":440,"stv_port":27026,"stv_name":"Uncletopia | Dallas | 2 | All Maps | STV","players":[{"user_id":774,"name":"The Foolish Samurai","steam_id":76561198094494945,"connected_time":607000000000,"state":"active","ping":87},{"user_id":749,"name":"Rumi_killer","steam_id":76561198077439866,"connected_time":4224000000000,"state":"active","ping":94},{"user_id":750,"name":"puke","steam_id":76561197999279693,"connected_time":4210000000000,"state":"active","ping":65},{"user_id":763,"name":"chamber","steam_id":76561198165283913,"connected_time":1924000000000,"state":"active","ping":72},{"user_id":759,"name":"MG.Z-Blitz","steam_id":76561198028577473,"connected_time":2822000000000,"state":"active","ping":77},{"user_id":769,"name":"A Minority","steam_id":76561198056583581,"connected_time":1115000000000,"state":"active","ping":100},{"user_id":721,"name":"Pyro is a girl with large balls","steam_id":76561198975667801,"connected_time":5740000000000,"state":"active","ping":152},{"user_id":751,"name":"GUAVA","steam_id":76561198051421643,"connected_time":4195000000000,"state":"active","ping":32},{"user_id":722,"name":"dinky little beanie baby","steam_id":76561197999318398,"connected_time":5731000000000,"state":"active","ping":103},{"user_id":685,"name":"Gelliterate","steam_id":76561198107233070,"connected_time":8893000000000,"state":"active","ping":55},{"user_id":765,"name":"CheeseCake488","steam_id":76561199407617942,"connected_time":1717000000000,"state":"active","ping":108},{"user_id":775,"name":"Rusted Cake","steam_id":76561198209755931,"connected_time":480000000000,"state":"active","ping":87},{"user_id":711,"name":"OrangeGlazer","steam_id":76561198127358240,"connected_time":6416000000000,"state":"active","ping":76},{"user_id":771,"name":"Rerr","steam_id":76561198311725459,"connected_time":656000000000,"state":"active","ping":88},{"user_id":777,"name":"sweaterfan","steam_id":76561199389567214,"connected_time":233000000000,"state":"active","ping":66},{"user_id":776,"name":"SpecialForce19","steam_id":76561198120974644,"connected_time":342000000000,"state":"active","ping":92},{"user_id":762,"name":"luma","steam_id":76561198076875817,"connected_time":2169000000000,"state":"active","ping":45},{"user_id":767,"name":"Ginger_Buzz","steam_id":76561198863401434,"connected_time":1486000000000,"state":"active","ping":92},{"user_id":770,"name":"Flaurosa | twitch.tv","steam_id":76561198193606823,"connected_time":678000000000,"state":"active","ping":71},{"user_id":768,"name":"Keirb","steam_id":76561198027031567,"connected_time":1215000000000,"state":"active","ping":114},{"user_id":725,"name":"Where The F**K I Am?","steam_id":76561197986530028,"connected_time":5636000000000,"state":"active","ping":97},{"user_id":778,"name":"cherry.blossom","steam_id":76561198014557455,"connected_time":144000000000,"state":"active","ping":91},{"user_id":754,"name":"Kazmirl | Youtuber","steam_id":76561198116008410,"connected_time":4055000000000,"state":"active","ping":110},{"user_id":766,"name":"highschool drop-out","steam_id":76561198366299848,"connected_time":1544000000000,"state":"active","ping":68}]},{"server_id":5,"name":"Uncletopia | Frankfurt | 1 | All Maps","name_short":"frk-1","host":"frk-1.de.uncletopia.com","port":27015,"enabled":true,"region":"eu","cc":"de","latitude":50.110924,"longitude":8.682127,"reserved":0,"last_update":"0001-01-01T00:00:00Z","name_a2s":"Uncletopia | Frankfurt | 1 | All Maps","protocol":17,"map":"pl_barnblitz","folder":"tf","game":"Team Fortress","app_id":440,"player_count":24,"max_players":24,"Bots":0,"server_type":"Dedicated","server_os":"Linux","password":true,"vac":true,"version":"7882260","steam_id":85568392924469989,"keywords":["nocrits","nodmgspread","payload","uncletopia"],"game_id":440,"stv_port":27016,"stv_name":"Uncletopia | Frankfurt | 1 | All Maps | STV","players":[{"user_id":52,"name":"birb","steam_id":76561198084891833,"connected_time":1602000000000,"state":"active","ping":55},{"user_id":82,"name":"Karvinen","steam_id":76561198031490602,"connected_time":500000000000,"state":"active","ping":100},{"user_id":78,"name":"Mussolini","steam_id":76561198218384865,"connected_time":623000000000,"state":"active","ping":91},{"user_id":83,"name":"calum92","steam_id":76561197992188760,"connected_time":397000000000,"state":"active","ping":72},{"user_id":53,"name":"doopsuiker","steam_id":76561198025916703,"connected_time":1541000000000,"state":"active","ping":72},{"user_id":74,"name":"heavy like a brinks truck","steam_id":76561198257158275,"connected_time":760000000000,"state":"active","ping":142},{"user_id":79,"name":"Mar69n","steam_id":76561198953197220,"connected_time":615000000000,"state":"active","ping":81},{"user_id":80,"name":"Artificial.Ignorance","steam_id":76561198453090180,"connected_time":534000000000,"state":"active","ping":169},{"user_id":90,"name":"Cookies and Bakies","steam_id":76561198017442928,"connected_time":1000000000,"state":"spawning","ping":48},{"user_id":28,"name":"Kes","steam_id":76561198095288832,"connected_time":2931000000000,"state":"active","ping":121},{"user_id":86,"name":"saul goodmen","steam_id":76561199395002401,"connected_time":183000000000,"state":"active","ping":172},{"user_id":85,"name":"froglids","steam_id":76561198045466919,"connected_time":303000000000,"state":"active","ping":66},{"user_id":75,"name":"britiliximab","steam_id":76561198141173061,"connected_time":749000000000,"state":"active","ping":101},{"user_id":70,"name":"$t@lker_Tim","steam_id":76561198963658042,"connected_time":921000000000,"state":"active","ping":107},{"user_id":68,"name":"wieto","steam_id":76561198050626427,"connected_time":960000000000,"state":"active","ping":57},{"user_id":81,"name":"Getrkod","steam_id":76561198986560793,"connected_time":533000000000,"state":"active","ping":69},{"user_id":57,"name":"Makaron","steam_id":76561199087204537,"connected_time":1491000000000,"state":"active","ping":78},{"user_id":76,"name":"UnknownHero","steam_id":76561198864766392,"connected_time":730000000000,"state":"active","ping":77},{"user_id":50,"name":"SosaSosaSosa","steam_id":76561198144122393,"connected_time":2206000000000,"state":"active","ping":118},{"user_id":87,"name":"Mr Hrum","steam_id":76561198048832733,"connected_time":183000000000,"state":"active","ping":59},{"user_id":88,"name":"Paul Allen's Business Card","steam_id":76561198013959716,"connected_time":172000000000,"state":"active","ping":58},{"user_id":64,"name":"Holy f stewie, I am shitting.","steam_id":76561198147173457,"connected_time":1121000000000,"state":"active","ping":63},{"user_id":73,"name":"no1","steam_id":76561198067524060,"connected_time":819000000000,"state":"active","ping":90},{"user_id":89,"name":"DucK™","steam_id":76561198017506990,"connected_time":170000000000,"state":"active","ping":59}]},{"server_id":110,"name":"Uncletopia | Frankfurt | 2 | All Maps","name_short":"frk-2","host":"frk-1.de.uncletopia.com","port":27025,"enabled":true,"region":"eu","cc":"de","latitude":50.110924,"longitude":8.682127,"reserved":0,"last_update":"0001-01-01T00:00:00Z","name_a2s":"Uncletopia | Frankfurt | 2 | All Maps","protocol":17,"map":"koth_highpass","folder":"tf","game":"Team Fortress","app_id":440,"player_count":0,"max_players":24,"Bots":0,"server_type":"Dedicated","server_os":"Linux","password":true,"vac":true,"version":"7882260","steam_id":85568392924469990,"keywords":["cp","nocrits","nodmgspread","uncletopia"],"game_id":440,"stv_port":27026,"stv_name":"Uncletopia | Frankfurt | 2 | All Maps | STV","players":null},{"server_id":308,"name":"Uncletopia | Frankfurt | 3 | All Maps","name_short":"frk-3","host":"frk-1.de.uncletopia.com","port":27035,"enabled":true,"region":"eu","cc":"de","latitude":50.110924,"longitude":8.682127,"reserved":0,"last_update":"0001-01-01T00:00:00Z","name_a2s":"Uncletopia | Frankfurt | 3 | All Maps","protocol":17,"map":"pl_snowycoast","folder":"tf","game":"Team Fortress","app_id":440,"player_count":0,"max_players":24,"Bots":0,"server_type":"Dedicated","server_os":"Linux","password":true,"vac":true,"version":"7882260","steam_id":85568392924504274,"keywords":["nocrits","nodmgspread","payload","uncletopia"],"game_id":440,"stv_port":27036,"stv_name":"Uncletopia | Frankfurt | 3 | All Maps | STV","players":null},{"server_id":309,"name":"Uncletopia | Frankfurt | 4 | All Maps","name_short":"frk-4","host":"frk-1.de.uncletopia.com","port":27045,"enabled":true,"region":"eu","cc":"de","latitude":50.110924,"longitude":8.682127,"reserved":0,"last_update":"0001-01-01T00:00:00Z","name_a2s":"Uncletopia | Frankfurt | 4 | All Maps","protocol":17,"map":"pl_upward","folder":"tf","game":"Team Fortress","app_id":440,"player_count":23,"max_players":24,"Bots":0,"server_type":"Dedicated","server_os":"Linux","password":true,"vac":true,"version":"7882260","steam_id":85568392924504275,"keywords":["nocrits","nodmgspread","payload","uncletopia"],"game_id":440,"stv_port":27046,"stv_name":"Uncletopia | Frankfurt | 4 | All Maps | STV","players":[{"user_id":130,"name":"monke","steam_id":76561198826314938,"connected_time":7549000000000,"state":"active","ping":147},{"user_id":205,"name":"Cornelius Shacklebart","steam_id":76561198000735878,"connected_time":2585000000000,"state":"active","ping":59},{"user_id":211,"name":"Art","steam_id":76561198823514629,"connected_time":1639000000000,"state":"active","ping":114},{"user_id":202,"name":"congo","steam_id":76561198236836866,"connected_time":2651000000000,"state":"active","ping":75},{"user_id":217,"name":"csnipery","steam_id":76561199435280050,"connected_time":522000000000,"state":"active","ping":65},{"user_id":206,"name":"XPullaHiiri","steam_id":76561198031652375,"connected_time":2139000000000,"state":"active","ping":83},{"user_id":203,"name":"leminsc8","steam_id":76561198825084995,"connected_time":2633000000000,"state":"active","ping":39},{"user_id":184,"name":"BoraY","steam_id":76561198443464667,"connected_time":4116000000000,"state":"active","ping":112},{"user_id":209,"name":"atomic press","steam_id":76561198120668070,"connected_time":1794000000000,"state":"active","ping":58},{"user_id":216,"name":"Real photograph of me","steam_id":76561198236015392,"connected_time":699000000000,"state":"active","ping":129},{"user_id":195,"name":"eva.","steam_id":76561198054474684,"connected_time":3495000000000,"state":"active","ping":74},{"user_id":215,"name":"Kumquat","steam_id":76561198200490386,"connected_time":748000000000,"state":"active","ping":77},{"user_id":210,"name":"Neimon","steam_id":76561198343485710,"connected_time":1767000000000,"state":"active","ping":123},{"user_id":212,"name":"Tank","steam_id":76561199059174576,"connected_time":999000000000,"state":"active","ping":162},{"user_id":220,"name":"Dio","steam_id":76561198117685434,"connected_time":240000000000,"state":"active","ping":84},{"user_id":127,"name":"Rage spell","steam_id":76561198279952779,"connected_time":7642000000000,"state":"active","ping":164},{"user_id":219,"name":"Envystall","steam_id":76561198134901747,"connected_time":356000000000,"state":"active","ping":55},{"user_id":218,"name":"Tekky","steam_id":76561197990987315,"connected_time":497000000000,"state":"active","ping":55},{"user_id":221,"name":"iokoieon","steam_id":76561198065009070,"connected_time":25000000000,"state":"active","ping":107},{"user_id":198,"name":"Wake","steam_id":76561198873753505,"connected_time":3134000000000,"state":"active","ping":69},{"user_id":115,"name":"Chillrend | #SaveTF2","steam_id":76561198452963141,"connected_time":8905000000000,"state":"active","ping":75},{"user_id":168,"name":"\u003c3","steam_id":76561199429407130,"connected_time":5075000000000,"state":"active","ping":80},{"user_id":199,"name":"Zygocact","steam_id":76561197990776598,"connected_time":3048000000000,"state":"active","ping":133}]},{"server_id":310,"name":"Uncletopia | Frankfurt | 5 | All Maps","name_short":"frk-5","host":"frk-1.de.uncletopia.com","port":27055,"enabled":true,"region":"eu","cc":"de","latitude":50.110924,"longitude":8.682127,"reserved":0,"last_update":"0001-01-01T00:00:00Z","name_a2s":"Uncletopia | Frankfurt | 5 | All Maps","protocol":17,"map":"cp_mercenarypark","folder":"tf","game":"Team Fortress","app_id":440,"player_count":22,"max_players":24,"Bots":0,"server_type":"Dedicated","server_os":"Linux","password":true,"vac":true,"version":"7882260","steam_id":85568392924504277,"keywords":["cp","nocrits","nodmgspread","uncletopia"],"game_id":440,"stv_port":27056,"stv_name":"Uncletopia | Frankfurt | 5 | All Maps | STV","players":[{"user_id":132,"name":"Perci","steam_id":76561198097789669,"connected_time":78000000000,"state":"active","ping":58},{"user_id":130,"name":"Jan.","steam_id":76561197974066329,"connected_time":141000000000,"state":"active","ping":61},{"user_id":101,"name":"peruna","steam_id":76561198000721196,"connected_time":3190000000000,"state":"active","ping":90},{"user_id":39,"name":"Kahvi","steam_id":76561198723244199,"connected_time":7486000000000,"state":"active","ping":89},{"user_id":58,"name":"Mr.Fix","steam_id":76561199017362445,"connected_time":6429000000000,"state":"active","ping":81},{"user_id":133,"name":"Augiz","steam_id":76561198332529555,"connected_time":56000000000,"state":"active","ping":75},{"user_id":134,"name":"Lady Havoc","steam_id":76561198403933649,"connected_time":55000000000,"state":"active","ping":62},{"user_id":127,"name":"cult","steam_id":76561198188647690,"connected_time":1080000000000,"state":"active","ping":71},{"user_id":17,"name":"Ran33","steam_id":76561197991474499,"connected_time":8624000000000,"state":"active","ping":91},{"user_id":37,"name":"Pico","steam_id":76561198063552545,"connected_time":7516000000000,"state":"active","ping":86},{"user_id":129,"name":"no","steam_id":76561199232582956,"connected_time":981000000000,"state":"active","ping":100},{"user_id":104,"name":"sokige","steam_id":76561198167112371,"connected_time":2901000000000,"state":"active","ping":99},{"user_id":124,"name":"BlueBlueFox","steam_id":76561198053817230,"connected_time":1393000000000,"state":"active","ping":63},{"user_id":68,"name":"Yuzu","steam_id":76561198121694613,"connected_time":5702000000000,"state":"active","ping":49},{"user_id":125,"name":"TheWerelizard","steam_id":76561198060638325,"connected_time":1303000000000,"state":"active","ping":43},{"user_id":135,"name":"Mag","steam_id":76561199016365093,"connected_time":30000000000,"state":"active","ping":65},{"user_id":126,"name":"weedminion","steam_id":76561198061248329,"connected_time":1262000000000,"state":"active","ping":60},{"user_id":136,"name":"I love playing medic.","steam_id":76561199101935057,"connected_time":20000000000,"state":"active","ping":99},{"user_id":131,"name":"how do i bomb school (legally)","steam_id":76561198388750592,"connected_time":82000000000,"state":"connecting","ping":63},{"user_id":111,"name":"Goga11","steam_id":76561198451145010,"connected_time":2306000000000,"state":"active","ping":114},{"user_id":81,"name":"TheKindle","steam_id":76561199092802413,"connected_time":4922000000000,"state":"active","ping":90},{"user_id":137,"name":"i drink a lot of coffee","steam_id":76561199233979726,"connected_time":7000000000,"state":"spawning","ping":79}]},{"server_id":311,"name":"Uncletopia | Frankfurt | 6 | All Maps","name_short":"frk-6","host":"frk-1.de.uncletopia.com","port":27065,"enabled":true,"region":"eu","cc":"de","latitude":50.110924,"longitude":8.682127,"reserved":0,"last_update":"0001-01-01T00:00:00Z","name_a2s":"Uncletopia | Frankfurt | 6 | All Maps","protocol":17,"map":"pl_badwater","folder":"tf","game":"Team Fortress","app_id":440,"player_count":0,"max_players":24,"Bots":0,"server_type":"Dedicated","server_os":"Linux","password":true,"vac":true,"version":"7882260","steam_id":85568392924504278,"keywords":["nocrits","nodmgspread","payload","uncletopia"],"game_id":440,"stv_port":27066,"stv_name":"Uncletopia | Frankfurt | 6 | All Maps | STV","players":null},{"server_id":23,"name":"Uncletopia | Frankfurt | 7 | Stopwatch Beta","name_short":"frk-7","host":"frk-1.de.uncletopia.com","port":27075,"enabled":true,"region":"eu","cc":"de","latitude":50.110924,"longitude":8.682127,"reserved":0,"last_update":"0001-01-01T00:00:00Z","name_a2s":"Uncletopia | Frankfurt | 7 | Stopwatch Beta","protocol":17,"map":"cp_dustbowl","folder":"tf","game":"Team Fortress","app_id":440,"player_count":0,"max_players":24,"Bots":0,"server_type":"Dedicated","server_os":"Linux","password":true,"vac":true,"version":"7882260","steam_id":85568392924742827,"keywords":["cp","nocrits","nodmgspread","uncletopia"],"game_id":440,"stv_port":27076,"stv_name":"Uncletopia | Frankfurt | 7 | Stopwatch Beta | STV","players":null},{"server_id":24,"name":"Uncletopia | Frankfurt | 8 | Community","name_short":"frk-8","host":"frk-1.de.uncletopia.com","port":27085,"enabled":true,"region":"eu","cc":"de","latitude":50.110924,"longitude":8.682127,"reserved":0,"last_update":"0001-01-01T00:00:00Z","name_a2s":"Uncletopia | Frankfurt | 8 | Community","protocol":17,"map":"koth_cascade","folder":"tf","game":"Team Fortress","app_id":440,"player_count":0,"max_players":24,"Bots":0,"server_type":"Dedicated","server_os":"Linux","password":true,"vac":true,"version":"7882260","steam_id":85568392924742828,"keywords":["cp","nocrits","nodmgspread","uncletopia"],"game_id":440,"stv_port":27086,"stv_name":"Uncletopia | Frankfurt | 8 | Community | STV","players":null},{"server_id":202,"name":"Uncletopia | Hong Kong | 1 | All Maps","name_short":"hgk-1","host":"hgk-1.hk.uncletopia.com","port":27015,"enabled":true,"region":"asia","cc":"hk","latitude":22.302711,"longitude":114.177216,"reserved":0,"last_update":"0001-01-01T00:00:00Z","name_a2s":"Uncletopia | Hong Kong | 1 | All Maps","protocol":17,"map":"pl_badwater","folder":"tf","game":"Team Fortress","app_id":440,"player_count":24,"max_players":24,"Bots":0,"server_type":"Dedicated","server_os":"Linux","password":true,"vac":true,"version":"7882260","steam_id":85568392924494504,"keywords":["nocrits","nodmgspread","payload","uncletopia"],"game_id":440,"stv_port":27016,"stv_name":"Uncletopia | Hong Kong | 1 | All Maps | STV","players":[{"user_id":233,"name":"Gogh","steam_id":76561198318126190,"connected_time":221000000000,"state":"active","ping":103},{"user_id":155,"name":"urotsuki with da doobie","steam_id":76561198074339034,"connected_time":6642000000000,"state":"active","ping":75},{"user_id":232,"name":"ObscuroLucem","steam_id":76561198875037943,"connected_time":244000000000,"state":"active","ping":87},{"user_id":196,"name":"Drutzhfer","steam_id":76561198299948446,"connected_time":3656000000000,"state":"active","ping":100},{"user_id":234,"name":"Билл Косби Гейми\ufffd","steam_id":76561198997678151,"connected_time":182000000000,"state":"active","ping":109},{"user_id":210,"name":"JDSFE","steam_id":76561198975490851,"connected_time":2199000000000,"state":"active","ping":109},{"user_id":205,"name":"water tastes good","steam_id":76561199375947670,"connected_time":2700000000000,"state":"active","ping":64},{"user_id":202,"name":"Wx","steam_id":76561199217780897,"connected_time":2858000000000,"state":"active","ping":122},{"user_id":215,"name":"CoatedInFire","steam_id":76561199070760845,"connected_time":1774000000000,"state":"active","ping":124},{"user_id":225,"name":"Dirt","steam_id":76561199445694770,"connected_time":1119000000000,"state":"active","ping":145},{"user_id":236,"name":"happyman","steam_id":76561198045585030,"connected_time":174000000000,"state":"active","ping":75},{"user_id":190,"name":"bocchi the oppai!","steam_id":76561198008307645,"connected_time":4029000000000,"state":"active","ping":132},{"user_id":235,"name":"Attack Mode","steam_id":76561198966418452,"connected_time":176000000000,"state":"active","ping":100},{"user_id":59,"name":"TheChainsaw","steam_id":76561198312001455,"connected_time":15545000000000,"state":"active","ping":111},{"user_id":219,"name":"Spark037","steam_id":76561198804499872,"connected_time":1722000000000,"state":"active","ping":43},{"user_id":224,"name":"peanutbutter jelly sandwhich","steam_id":76561199367967787,"connected_time":1219000000000,"state":"active","ping":164},{"user_id":221,"name":"Darknight","steam_id":76561199090139287,"connected_time":1489000000000,"state":"active","ping":77},{"user_id":230,"name":"corpse_cadaver","steam_id":76561199225360457,"connected_time":281000000000,"state":"active","ping":63},{"user_id":223,"name":"Do you know you have rights?","steam_id":76561198796036009,"connected_time":1311000000000,"state":"active","ping":106},{"user_id":194,"name":"CR34M000","steam_id":76561199210878710,"connected_time":3747000000000,"state":"active","ping":66},{"user_id":173,"name":"tiden2000","steam_id":76561198092969425,"connected_time":5357000000000,"state":"active","ping":105},{"user_id":185,"name":"ふわふわ毛布","steam_id":76561198088403016,"connected_time":4159000000000,"state":"active","ping":101},{"user_id":228,"name":"Momoxhien","steam_id":76561198414997429,"connected_time":834000000000,"state":"active","ping":66},{"user_id":141,"name":"3wfFbdrjEze5d2G","steam_id":76561198435900451,"connected_time":8534000000000,"state":"active","ping":98}]},{"server_id":1,"name":"Uncletopia | Los Angeles | 1 | All Maps","name_short":"lax-1","host":"lax-1.us.uncletopia.com","port":27015,"enabled":true,"region":"us-west","cc":"us","latitude":33.94279,"longitude":-118.41004,"reserved":0,"last_update":"0001-01-01T00:00:00Z","name_a2s":"Uncletopia | Los Angeles | 1 | All Maps","protocol":17,"map":"cp_process_final","folder":"tf","game":"Team Fortress","app_id":440,"player_count":20,"max_players":24,"Bots":0,"server_type":"Dedicated","server_os":"Linux","password":true,"vac":true,"version":"7882260","steam_id":85568392924469991,"keywords":["cp","nocrits","nodmgspread","uncletopia"],"game_id":440,"stv_port":27016,"stv_name":"Uncletopia | Los Angeles | 1 | All Maps | STV","players":[{"user_id":516,"name":"Moomin","steam_id":76561198072726213,"connected_time":3116000000000,"state":"active","ping":46},{"user_id":518,"name":"FI LO","steam_id":76561198976530881,"connected_time":3110000000000,"state":"active","ping":29},{"user_id":548,"name":"DRFEELGOOD","steam_id":76561198114603745,"connected_time":791000000000,"state":"active","ping":45},{"user_id":553,"name":"Zizen","steam_id":76561199011832069,"connected_time":200000000000,"state":"active","ping":47},{"user_id":550,"name":"The Horselords and Animal Gods","steam_id":76561197975094050,"connected_time":523000000000,"state":"active","ping":53},{"user_id":523,"name":"Lancerland","steam_id":76561198130497320,"connected_time":2320000000000,"state":"active","ping":53},{"user_id":535,"name":"BurningKev","steam_id":76561198057688837,"connected_time":1431000000000,"state":"active","ping":75},{"user_id":544,"name":"The Soldier in Your Walls","steam_id":76561198271117456,"connected_time":964000000000,"state":"active","ping":113},{"user_id":554,"name":"justin!","steam_id":76561198065832254,"connected_time":158000000000,"state":"active","ping":53},{"user_id":515,"name":"lucki fat af lowk","steam_id":76561198357132470,"connected_time":3125000000000,"state":"active","ping":59},{"user_id":533,"name":"Quaso","steam_id":76561198163164053,"connected_time":1715000000000,"state":"active","ping":159},{"user_id":557,"name":"Fluffacorn, also Free Melee","steam_id":76561198301839998,"connected_time":86000000000,"state":"spawning","ping":53},{"user_id":545,"name":"Grassman (Cc)","steam_id":76561198026488532,"connected_time":937000000000,"state":"active","ping":48},{"user_id":559,"name":"The Headhunter","steam_id":76561198389722871,"connected_time":56000000000,"state":"active","ping":51},{"user_id":539,"name":"young rich","steam_id":76561198858076215,"connected_time":1217000000000,"state":"active","ping":60},{"user_id":551,"name":"yahweh","steam_id":76561198347225801,"connected_time":473000000000,"state":"active","ping":76},{"user_id":540,"name":"Guy","steam_id":76561198145451856,"connected_time":1211000000000,"state":"active","ping":61},{"user_id":538,"name":"Chrisjongun","steam_id":76561198331685904,"connected_time":1335000000000,"state":"active","ping":85},{"user_id":541,"name":"Saucy Boy","steam_id":76561198178332031,"connected_time":1126000000000,"state":"active","ping":114},{"user_id":547,"name":"nescoceo","steam_id":76561198040801160,"connected_time":844000000000,"state":"active","ping":45}]},{"server_id":112,"name":"Uncletopia | Los Angeles | 2 | All Maps","name_short":"lax-2","host":"lax-1.us.uncletopia.com","port":27025,"enabled":true,"region":"us-west","cc":"us","latitude":33.94279,"longitude":-118.41004,"reserved":0,"last_update":"0001-01-01T00:00:00Z","name_a2s":"Uncletopia | Los Angeles | 2 | All Maps","protocol":17,"map":"cp_sunshine","folder":"tf","game":"Team Fortress","app_id":440,"player_count":0,"max_players":24,"Bots":0,"server_type":"Dedicated","server_os":"Linux","password":true,"vac":true,"version":"7882260","steam_id":85568392924469992,"keywords":["cp","nocrits","nodmgspread","uncletopia"],"game_id":440,"stv_port":27026,"stv_name":"Uncletopia | Los Angeles | 2 | All Maps | STV","players":null},{"server_id":324,"name":"Uncletopia | Los Angeles | 3 | All Maps","name_short":"lax-3","host":"lax-1.us.uncletopia.com","port":27035,"enabled":true,"region":"us-west","cc":"us","latitude":33.94279,"longitude":-118.41004,"reserved":0,"last_update":"0001-01-01T00:00:00Z","name_a2s":"Uncletopia | Los Angeles | 3 | All Maps","protocol":17,"map":"koth_highpass","folder":"tf","game":"Team Fortress","app_id":440,"player_count":0,"max_players":24,"Bots":0,"server_type":"Dedicated","server_os":"Linux","password":true,"vac":true,"version":"7882260","steam_id":85568392924510198,"keywords":["cp","nocrits","nodmgspread","uncletopia"],"game_id":440,"stv_port":27036,"stv_name":"Uncletopia | Los Angeles | 3 | All Maps | STV","players":null},{"server_id":25,"name":"Uncletopia | Los Angeles | 4 | Stopwatch Beta","name_short":"lax-4","host":"lax-1.us.uncletopia.com","port":27045,"enabled":true,"region":"us-west","cc":"us","latitude":33.94279,"longitude":-118.41004,"reserved":0,"last_update":"0001-01-01T00:00:00Z","name_a2s":"Uncletopia | Los Angeles | 4 | Stopwatch Beta","protocol":17,"map":"workshop/koth_ramjam_rc1.ugc459778887","folder":"tf","game":"Team Fortress","app_id":440,"player_count":0,"max_players":24,"Bots":0,"server_type":"Dedicated","server_os":"Linux","password":true,"vac":true,"version":"7882260","steam_id":85568392924510199,"keywords":["cp","nocrits","nodmgspread","uncletopia"],"game_id":440,"stv_port":27046,"stv_name":"Uncletopia | Los Angeles | 4 | Stopwatch Beta | STV","players":null},{"server_id":11,"name":"Uncletopia | London | 1 | All Maps","name_short":"lon-1","host":"lon-1.uk.uncletopia.com","port":27015,"enabled":true,"region":"eu","cc":"gb","latitude":51.509865,"longitude":-0.118092,"reserved":0,"last_update":"0001-01-01T00:00:00Z","name_a2s":"Uncletopia | London | 1 | All Maps","protocol":17,"map":"cp_sunshine","folder":"tf","game":"Team Fortress","app_id":440,"player_count":0,"max_players":24,"Bots":0,"server_type":"Dedicated","server_os":"Linux","password":true,"vac":true,"version":"7882260","steam_id":85568392924367362,"keywords":["cp","nocrits","nodmgspread","uncletopia"],"game_id":440,"stv_port":27016,"stv_name":"Uncletopia | London | 1 | All Maps | STV","players":null},{"server_id":114,"name":"Uncletopia | London | 2 | All Maps","name_short":"lon-2","host":"lon-1.uk.uncletopia.com","port":27025,"enabled":true,"region":"eu","cc":"gb","latitude":51.509865,"longitude":-0.118092,"reserved":0,"last_update":"0001-01-01T00:00:00Z","name_a2s":"Uncletopia | London | 2 | All Maps","protocol":17,"map":"pl_swiftwater_final1","folder":"tf","game":"Team Fortress","app_id":440,"player_count":0,"max_players":24,"Bots":0,"server_type":"Dedicated","server_os":"Linux","password":true,"vac":true,"version":"7882260","steam_id":85568392924470941,"keywords":["nocrits","nodmgspread","payload","uncletopia"],"game_id":440,"stv_port":27026,"stv_name":"Uncletopia | London | 2 | All Maps | STV","players":null},{"server_id":320,"name":"Uncletopia | London | 3 | All Maps","name_short":"lon-3","host":"lon-1.uk.uncletopia.com","port":27035,"enabled":true,"region":"eu","cc":"gb","latitude":51.509865,"longitude":-0.118092,"reserved":0,"last_update":"0001-01-01T00:00:00Z","name_a2s":"Uncletopia | London | 3 | All Maps","protocol":17,"map":"koth_highpass","folder":"tf","game":"Team Fortress","app_id":440,"player_count":0,"max_players":24,"Bots":0,"server_type":"Dedicated","server_os":"Linux","password":true,"vac":true,"version":"7882260","steam_id":85568392924510192,"keywords":["cp","nocrits","nodmgspread","uncletopia"],"game_id":440,"stv_port":27036,"stv_name":"Uncletopia | London | 3 | All Maps | STV","players":null},{"server_id":321,"name":"Uncletopia | London | 4 | All Maps","name_short":"lon-4","host":"lon-1.uk.uncletopia.com","port":27045,"enabled":true,"region":"eu","cc":"gb","latitude":51.509865,"longitude":-0.118092,"reserved":0,"last_update":"0001-01-01T00:00:00Z","name_a2s":"Uncletopia | London | 4 | All Maps","protocol":17,"map":"cp_sunshine","folder":"tf","game":"Team Fortress","app_id":440,"player_count":0,"max_players":24,"Bots":0,"server_type":"Dedicated","server_os":"Linux","password":true,"vac":true,"version":"7882260","steam_id":85568392924510193,"keywords":["cp","nocrits","nodmgspread","uncletopia"],"game_id":440,"stv_port":27046,"stv_name":"Uncletopia | London | 4 | All Maps | STV","players":null},{"server_id":21,"name":"Uncletopia | London | 5 | All Maps","name_short":"lon-5","host":"lon-1.uk.uncletopia.com","port":27055,"enabled":true,"region":"eu","cc":"gb","latitude":51.509865,"longitude":-0.118092,"reserved":0,"last_update":"0001-01-01T00:00:00Z","name_a2s":"Uncletopia | London | 5 | All Maps","protocol":17,"map":"pl_frontier_final","folder":"tf","game":"Team Fortress","app_id":440,"player_count":0,"max_players":24,"Bots":0,"server_type":"Dedicated","server_os":"Linux","password":true,"vac":true,"version":"7882260","steam_id":85568392924742829,"keywords":["nocrits","nodmgspread","payload","uncletopia"],"game_id":440,"stv_port":27056,"stv_name":"Uncletopia | London | 5 | All Maps | STV","players":null},{"server_id":22,"name":"Uncletopia | London | 6 | All Maps","name_short":"lon-6","host":"lon-1.uk.uncletopia.com","port":27065,"enabled":true,"region":"eu","cc":"gb","latitude":51.509865,"longitude":-0.118092,"reserved":0,"last_update":"0001-01-01T00:00:00Z","name_a2s":"Uncletopia | London | 6 | All Maps","protocol":17,"map":"cp_altitude","folder":"tf","game":"Team Fortress","app_id":440,"player_count":0,"max_players":24,"Bots":0,"server_type":"Dedicated","server_os":"Linux","password":true,"vac":true,"version":"7882260","steam_id":85568392924742830,"keywords":["cp","nocrits","nodmgspread","uncletopia"],"game_id":440,"stv_port":27066,"stv_name":"Uncletopia | London | 6 | All Maps | STV","players":null},{"server_id":40,"name":"Uncletopia | London | 7 | No Payload","name_short":"lon-7","host":"lon-1.uk.uncletopia.com","port":27075,"enabled":true,"region":"eu","cc":"gb","latitude":51.509865,"longitude":-0.118092,"reserved":0,"last_update":"0001-01-01T00:00:00Z","name_a2s":"Uncletopia | London | 7 | No Payload","protocol":17,"map":"ctf_2fort","folder":"tf","game":"Team Fortress","app_id":440,"player_count":0,"max_players":24,"Bots":0,"server_type":"Dedicated","server_os":"Linux","password":true,"vac":true,"version":"7882260","steam_id":85568392924964314,"keywords":["ctf","nocrits","nodmgspread","uncletopia"],"game_id":440,"stv_port":27076,"stv_name":"Uncletopia | London | 7 | No Payload | STV","players":null},{"server_id":41,"name":"Uncletopia | London | 8 | Community","name_short":"lon-8","host":"lon-1.uk.uncletopia.com","port":27085,"enabled":true,"region":"eu","cc":"gb","latitude":51.509865,"longitude":-0.118092,"reserved":0,"last_update":"0001-01-01T00:00:00Z","name_a2s":"Uncletopia | London | 8 | Community","protocol":17,"map":"pl_swiftwater_final1","folder":"tf","game":"Team Fortress","app_id":440,"player_count":0,"max_players":24,"Bots":0,"server_type":"Dedicated","server_os":"Linux","password":true,"vac":true,"version":"7882260","steam_id":85568392924964315,"keywords":["nocrits","nodmgspread","payload","uncletopia"],"game_id":440,"stv_port":27086,"stv_name":"Uncletopia | London | 8 | Community | STV","players":null},{"server_id":300,"name":"Uncletopia | Montréal | 1 | All Maps","name_short":"mtl-1","host":"mtl-1.ca.uncletopia.com","port":27015,"enabled":true,"region":"us-east","cc":"ca","latitude":45.50889,"longitude":-73.56167,"reserved":0,"last_update":"0001-01-01T00:00:00Z","name_a2s":"Uncletopia | Montréal | 1 | All Maps","protocol":17,"map":"cp_snakewater_final1","folder":"tf","game":"Team Fortress","app_id":440,"player_count":0,"max_players":24,"Bots":0,"server_type":"Dedicated","server_os":"Linux","password":true,"vac":true,"version":"7882260","steam_id":85568392924500087,"keywords":["cp","nocrits","nodmgspread","uncletopia"],"game_id":440,"stv_port":27016,"stv_name":"Uncletopia | Montréal | 1 | All Maps | STV","players":null},{"server_id":301,"name":"Uncletopia | Montréal | 2 | All Maps","name_short":"mtl-2","host":"mtl-1.ca.uncletopia.com","port":27025,"enabled":true,"region":"us-east","cc":"ca","latitude":45.50889,"longitude":-73.56167,"reserved":0,"last_update":"0001-01-01T00:00:00Z","name_a2s":"Uncletopia | Montréal | 2 | All Maps","protocol":17,"map":"koth_highpass","folder":"tf","game":"Team Fortress","app_id":440,"player_count":0,"max_players":24,"Bots":0,"server_type":"Dedicated","server_os":"Linux","password":true,"vac":true,"version":"7882260","steam_id":85568392924500088,"keywords":["cp","nocrits","nodmgspread","uncletopia"],"game_id":440,"stv_port":27026,"stv_name":"Uncletopia | Montréal | 2 | All Maps | STV","players":null},{"server_id":302,"name":"Uncletopia | Montréal | 3 | All Maps","name_short":"mtl-3","host":"mtl-1.ca.uncletopia.com","port":27035,"enabled":true,"region":"us-east","cc":"ca","latitude":45.50889,"longitude":-73.56167,"reserved":0,"last_update":"0001-01-01T00:00:00Z","name_a2s":"Uncletopia | Montréal | 3 | All Maps","protocol":17,"map":"cp_snakewater_final1","folder":"tf","game":"Team Fortress","app_id":440,"player_count":0,"max_players":24,"Bots":0,"server_type":"Dedicated","server_os":"Linux","password":true,"vac":true,"version":"7882260","steam_id":85568392924500089,"keywords":["cp","nocrits","nodmgspread","uncletopia"],"game_id":440,"stv_port":27036,"stv_name":"Uncletopia | Montréal | 3 | All Maps | STV","players":null},{"server_id":303,"name":"Uncletopia | Montréal | 4 | No Payload","name_short":"mtl-4","host":"mtl-1.ca.uncletopia.com","port":27045,"enabled":true,"region":"us-east","cc":"ca","latitude":45.50889,"longitude":-73.56167,"reserved":0,"last_update":"0001-01-01T00:00:00Z","name_a2s":"Uncletopia | Montréal | 4 | No Payload","protocol":17,"map":"plr_pipeline","folder":"tf","game":"Team Fortress","app_id":440,"player_count":0,"max_players":24,"Bots":0,"server_type":"Dedicated","server_os":"Linux","password":true,"vac":true,"version":"7882260","steam_id":85568392924500090,"keywords":["nocrits","nodmgspread","payload","uncletopia"],"game_id":440,"stv_port":27046,"stv_name":"Uncletopia | Montréal | 4 | No Payload | STV","players":null},{"server_id":13,"name":"Uncletopia | New York City | 1 | All Maps","name_short":"nyc-1","host":"nyc-1.us.uncletopia.com","port":27015,"enabled":true,"region":"us-east","cc":"us","latitude":40.73061,"longitude":-73.93524,"reserved":0,"last_update":"0001-01-01T00:00:00Z","name_a2s":"Uncletopia | New York City | 1 | All Maps","protocol":17,"map":"cp_snakewater_final1","folder":"tf","game":"Team Fortress","app_id":440,"player_count":0,"max_players":24,"Bots":0,"server_type":"Dedicated","server_os":"Linux","password":true,"vac":true,"version":"7882260","steam_id":85568392924469993,"keywords":["cp","nocrits","nodmgspread","uncletopia"],"game_id":440,"stv_port":27016,"stv_name":"Uncletopia | New York City | 1 | All Maps | STV","players":null},{"server_id":14,"name":"Uncletopia | New York City | 2 | All Maps","name_short":"nyc-2","host":"nyc-1.us.uncletopia.com","port":27025,"enabled":true,"region":"us-east","cc":"us","latitude":40.73061,"longitude":-73.93524,"reserved":0,"last_update":"0001-01-01T00:00:00Z","name_a2s":"Uncletopia | New York City | 2 | All Maps","protocol":17,"map":"pl_upward","folder":"tf","game":"Team Fortress","app_id":440,"player_count":0,"max_players":24,"Bots":0,"server_type":"Dedicated","server_os":"Linux","password":true,"vac":true,"version":"7882260","steam_id":85568392924469994,"keywords":["nocrits","nodmgspread","payload","uncletopia"],"game_id":440,"stv_port":27026,"stv_name":"Uncletopia | New York City | 2 | All Maps | STV","players":null},{"server_id":15,"name":"Uncletopia | New York City | 3 | Stopwatch Beta","name_short":"nyc-3","host":"nyc-1.us.uncletopia.com","port":27035,"enabled":true,"region":"us-east","cc":"us","latitude":40.73061,"longitude":-73.93524,"reserved":0,"last_update":"0001-01-01T00:00:00Z","name_a2s":"Uncletopia | New York City | 3 | Stopwatch Beta","protocol":17,"map":"workshop/koth_product_final.ugc454272353","folder":"tf","game":"Team Fortress","app_id":440,"player_count":0,"max_players":24,"Bots":0,"server_type":"Dedicated","server_os":"Linux","password":true,"vac":true,"version":"7882260","steam_id":85568392924742820,"keywords":["cp","nocrits","nodmgspread","uncletopia"],"game_id":440,"stv_port":27036,"stv_name":"Uncletopia | New York City | 3 | Stopwatch Beta | STV","players":null},{"server_id":16,"name":"Uncletopia | New York City | 4 | Community","name_short":"nyc-4","host":"nyc-1.us.uncletopia.com","port":27045,"enabled":true,"region":"us-east","cc":"us","latitude":40.73061,"longitude":-73.93524,"reserved":0,"last_update":"0001-01-01T00:00:00Z","name_a2s":"Uncletopia | New York City | 4 | Community","protocol":17,"map":"workshop/cp_snowbase_b18.ugc2081770490","folder":"tf","game":"Team Fortress","app_id":440,"player_count":0,"max_players":24,"Bots":0,"server_type":"Dedicated","server_os":"Linux","password":true,"vac":true,"version":"7882260","steam_id":85568392924742821,"keywords":["cp","nocrits","nodmgspread","uncletopia"],"game_id":440,"stv_port":27046,"stv_name":"Uncletopia | New York City | 4 | Community | STV","players":null},{"server_id":142,"name":"Uncletopia | São Paulo | 1 | All Maps","name_short":"sao-1","host":"sao-1.br.uncletopia.com","port":27015,"enabled":true,"region":"sa","cc":"br","latitude":-23.533773,"longitude":-46.62529,"reserved":0,"last_update":"0001-01-01T00:00:00Z","name_a2s":"Uncletopia | São Paulo | 1 | All Maps","protocol":17,"map":"cp_process_final","folder":"tf","game":"Team Fortress","app_id":440,"player_count":0,"max_players":24,"Bots":0,"server_type":"Dedicated","server_os":"Linux","password":true,"vac":true,"version":"7882260","steam_id":85568392924469996,"keywords":["cp","nocrits","nodmgspread","uncletopia"],"game_id":440,"stv_port":27016,"stv_name":"Uncletopia | São Paulo | 1 | All Maps | STV","players":null},{"server_id":143,"name":"Uncletopia | São Paulo | 2 | All Maps","name_short":"sao-2","host":"sao-2.br.uncletopia.com","port":27015,"enabled":true,"region":"sa","cc":"br","latitude":-23.533773,"longitude":-46.62529,"reserved":0,"last_update":"0001-01-01T00:00:00Z","name_a2s":"Uncletopia | São Paulo | 2 | All Maps","protocol":17,"map":"pl_pier","folder":"tf","game":"Team Fortress","app_id":440,"player_count":0,"max_players":24,"Bots":0,"server_type":"Dedicated","server_os":"Linux","password":true,"vac":true,"version":"7882260","steam_id":85568392924485349,"keywords":["nocrits","nodmgspread","payload","uncletopia"],"game_id":440,"stv_port":27016,"stv_name":"Uncletopia | São Paulo | 2 | All Maps | STV","players":null},{"server_id":7,"name":"Uncletopia | Seattle | 1 | All Maps","name_short":"sea-1","host":"sea-1.us.uncletopia.com","port":27015,"enabled":true,"region":"us-west","cc":"us","latitude":47.608013,"longitude":-122.33517,"reserved":0,"last_update":"0001-01-01T00:00:00Z","name_a2s":"Uncletopia | Seattle | 1 | All Maps","protocol":17,"map":"koth_nucleus","folder":"tf","game":"Team Fortress","app_id":440,"player_count":24,"max_players":24,"Bots":0,"server_type":"Dedicated","server_os":"Linux","password":true,"vac":true,"version":"7882260","steam_id":85568392924469997,"keywords":["cp","nocrits","nodmgspread","uncletopia"],"game_id":440,"stv_port":27016,"stv_name":"Uncletopia | Seattle | 1 | All Maps | STV","players":[{"user_id":940,"name":"shitass (Shrimp Arc)","steam_id":76561198210572481,"connected_time":2587000000000,"state":"active","ping":75},{"user_id":972,"name":"roo the observer","steam_id":76561198120684348,"connected_time":646000000000,"state":"active","ping":102},{"user_id":913,"name":"Stev the Prurient Oxymoron","steam_id":76561197999442625,"connected_time":4405000000000,"state":"active","ping":64},{"user_id":867,"name":"[TrC] Nosy","steam_id":76561197978859310,"connected_time":7560000000000,"state":"active","ping":55},{"user_id":952,"name":"mann","steam_id":76561199406261605,"connected_time":1403000000000,"state":"active","ping":97},{"user_id":957,"name":"LovingKindne2z","steam_id":76561199064932372,"connected_time":978000000000,"state":"active","ping":71},{"user_id":865,"name":"[TrC] Dackstrus","steam_id":76561197973518509,"connected_time":7566000000000,"state":"active","ping":53},{"user_id":900,"name":"KonJac","steam_id":76561198027812652,"connected_time":5439000000000,"state":"active","ping":71},{"user_id":948,"name":"BorstchBag","steam_id":76561198155294045,"connected_time":1879000000000,"state":"active","ping":62},{"user_id":949,"name":"EforEstrogen","steam_id":76561198086787295,"connected_time":1852000000000,"state":"active","ping":52},{"user_id":978,"name":"crunchy obama","steam_id":76561198044485217,"connected_time":68000000000,"state":"active","ping":74},{"user_id":979,"name":"Bearz","steam_id":76561198090026009,"connected_time":4000000000,"state":"spawning","ping":48},{"user_id":961,"name":"nnobi","steam_id":76561198878729277,"connected_time":886000000000,"state":"active","ping":132},{"user_id":977,"name":"Rad","steam_id":76561198413125750,"connected_time":552000000000,"state":"active","ping":120},{"user_id":976,"name":"Kujo","steam_id":76561198342579745,"connected_time":561000000000,"state":"active","ping":75},{"user_id":973,"name":"INFINITE","steam_id":76561197971285557,"connected_time":634000000000,"state":"active","ping":112},{"user_id":966,"name":"Screwwie","steam_id":76561198006892781,"connected_time":761000000000,"state":"active","ping":55},{"user_id":967,"name":"Tommy da bird","steam_id":76561198136340711,"connected_time":752000000000,"state":"active","ping":99},{"user_id":968,"name":"Azby_","steam_id":76561198230307016,"connected_time":745000000000,"state":"active","ping":64},{"user_id":969,"name":"vgMaster749","steam_id":76561198205048900,"connected_time":722000000000,"state":"active","ping":83},{"user_id":970,"name":"Yeet Swan","steam_id":76561198334181186,"connected_time":708000000000,"state":"active","ping":86},{"user_id":927,"name":"1986","steam_id":76561198203330566,"connected_time":3253000000000,"state":"active","ping":55},{"user_id":971,"name":"Isaacord","steam_id":76561198070259559,"connected_time":694000000000,"state":"active","ping":90},{"user_id":975,"name":"gunnarrevel","steam_id":76561198842854582,"connected_time":575000000000,"state":"active","ping":62}]},{"server_id":119,"name":"Uncletopia | Seattle | 2 | All Maps","name_short":"sea-2","host":"sea-1.us.uncletopia.com","port":27025,"enabled":true,"region":"us-west","cc":"us","latitude":47.608013,"longitude":-122.33517,"reserved":0,"last_update":"0001-01-01T00:00:00Z","name_a2s":"Uncletopia | Seattle | 2 | All Maps","protocol":17,"map":"pl_barnblitz","folder":"tf","game":"Team Fortress","app_id":440,"player_count":24,"max_players":24,"Bots":0,"server_type":"Dedicated","server_os":"Linux","password":true,"vac":true,"version":"7882260","steam_id":85568392924469998,"keywords":["nocrits","nodmgspread","payload","uncletopia"],"game_id":440,"stv_port":27026,"stv_name":"Uncletopia | Seattle | 2 | All Maps | STV","players":[{"user_id":1088,"name":"rat gets the cheese","steam_id":76561198031234032,"connected_time":5170000000000,"state":"active","ping":94},{"user_id":1147,"name":"JustTryMeNow","steam_id":76561198262681545,"connected_time":181000000000,"state":"active","ping":113},{"user_id":1110,"name":"exephur","steam_id":76561198135763234,"connected_time":3517000000000,"state":"active","ping":62},{"user_id":1095,"name":"oil","steam_id":76561198099980149,"connected_time":5035000000000,"state":"active","ping":71},{"user_id":1128,"name":"yomommasabitch","steam_id":76561198323217150,"connected_time":1847000000000,"state":"active","ping":90},{"user_id":1122,"name":"RURU","steam_id":76561198039758987,"connected_time":2779000000000,"state":"active","ping":59},{"user_id":1123,"name":"ʀ.ʚɞ.","steam_id":76561198029580420,"connected_time":2488000000000,"state":"active","ping":167},{"user_id":1148,"name":"twin","steam_id":76561198055626638,"connected_time":70000000000,"state":"active","ping":147},{"user_id":1101,"name":"fart shitson","steam_id":76561198986534519,"connected_time":4494000000000,"state":"active","ping":43},{"user_id":1127,"name":"♡♡ Roblox ♡♡","steam_id":76561198280120859,"connected_time":1878000000000,"state":"active","ping":70},{"user_id":1113,"name":"Mothership","steam_id":76561198044029501,"connected_time":3388000000000,"state":"active","ping":123},{"user_id":1140,"name":"Blue Eyes Ace Dragon.","steam_id":76561198048214237,"connected_time":867000000000,"state":"active","ping":102},{"user_id":1090,"name":"why must i whimper","steam_id":76561198046073848,"connected_time":5162000000000,"state":"active","ping":48},{"user_id":1109,"name":"cheeto dorito","steam_id":76561198107941274,"connected_time":3632000000000,"state":"active","ping":75},{"user_id":1149,"name":"hatsune miku♡","steam_id":76561199445009981,"connected_time":51000000000,"state":"active","ping":51},{"user_id":1116,"name":"HeavenHearst","steam_id":76561198066083947,"connected_time":3261000000000,"state":"active","ping":110},{"user_id":1136,"name":"Chimi","steam_id":76561198067800540,"connected_time":1398000000000,"state":"active","ping":104},{"user_id":1102,"name":"Pretzel","steam_id":76561198092856398,"connected_time":4430000000000,"state":"active","ping":71},{"user_id":1130,"name":"Stoofy","steam_id":76561198280750328,"connected_time":1720000000000,"state":"active","ping":57},{"user_id":1144,"name":"Taffy","steam_id":76561198276612538,"connected_time":373000000000,"state":"active","ping":62},{"user_id":1141,"name":"Walrus","steam_id":76561198001799905,"connected_time":766000000000,"state":"active","ping":78},{"user_id":1121,"name":"Beautiful bastard","steam_id":76561198858700490,"connected_time":2922000000000,"state":"active","ping":107},{"user_id":1137,"name":"rorywashere /ᐠ - ˕ -マ Ⳋ","steam_id":76561198065825165,"connected_time":1392000000000,"state":"active","ping":96},{"user_id":677,"name":"birthday jorts","steam_id":76561199041179985,"connected_time":17259000000000,"state":"active","ping":69}]},{"server_id":406,"name":"Uncletopia | Seattle | 3 | Stopwatch Beta","name_short":"sea-3","host":"sea-1.us.uncletopia.com","port":27035,"enabled":true,"region":"us-west","cc":"us","latitude":47.608013,"longitude":-122.33517,"reserved":0,"last_update":"0001-01-01T00:00:00Z","name_a2s":"Uncletopia | Seattle | 3 | Stopwatch Beta","protocol":17,"map":"pl_upward","folder":"tf","game":"Team Fortress","app_id":440,"player_count":0,"max_players":24,"Bots":0,"server_type":"Dedicated","server_os":"Linux","password":true,"vac":true,"version":"7882260","steam_id":85568392924515217,"keywords":["nocrits","nodmgspread","payload","uncletopia"],"game_id":440,"stv_port":27036,"stv_name":"Uncletopia | Seattle | 3 | Stopwatch Beta | STV","players":null},{"server_id":17,"name":"Uncletopia | San Francisco | 1 | All Maps","name_short":"sfo-1","host":"sfo-1.us.uncletopia.com","port":27015,"enabled":true,"region":"us-west","cc":"us","latitude":37.77397,"longitude":-122.4313,"reserved":0,"last_update":"0001-01-01T00:00:00Z","name_a2s":"Uncletopia | San Francisco | 1 | All Maps","protocol":17,"map":"cp_process_final","folder":"tf","game":"Team Fortress","app_id":440,"player_count":0,"max_players":24,"Bots":0,"server_type":"Dedicated","server_os":"Linux","password":true,"vac":true,"version":"7757534","steam_id":85568392924469999,"keywords":["cp","nocrits","nodmgspread","uncletopia"],"game_id":440,"stv_port":27016,"stv_name":"Uncletopia | San Francisco | 1 | All Maps | STV","players":null},{"server_id":18,"name":"Uncletopia | San Francisco | 2 | All Maps","name_short":"sfo-2","host":"sfo-1.us.uncletopia.com","port":27025,"enabled":true,"region":"us-west","cc":"us","latitude":37.77397,"longitude":-122.4313,"reserved":0,"last_update":"0001-01-01T00:00:00Z","name_a2s":"Uncletopia | San Francisco | 2 | All Maps","protocol":17,"map":"koth_highpass","folder":"tf","game":"Team Fortress","app_id":440,"player_count":0,"max_players":24,"Bots":0,"server_type":"Dedicated","server_os":"Linux","password":true,"vac":true,"version":"7757534","steam_id":85568392924470000,"keywords":["cp","nocrits","nodmgspread","uncletopia"],"game_id":440,"stv_port":27026,"stv_name":"Uncletopia | San Francisco | 2 | All Maps | STV","players":null},{"server_id":19,"name":"Uncletopia | San Francisco | 3 | Stopwatch Beta","name_short":"sfo-3","host":"sfo-1.us.uncletopia.com","port":27035,"enabled":true,"region":"us-west","cc":"us","latitude":37.77397,"longitude":-122.4313,"reserved":0,"last_update":"0001-01-01T00:00:00Z","name_a2s":"Uncletopia | San Francisco | 3 | Stopwatch Beta","protocol":17,"map":"koth_lakeside_final","folder":"tf","game":"Team Fortress","app_id":440,"player_count":0,"max_players":24,"Bots":0,"server_type":"Dedicated","server_os":"Linux","password":true,"vac":true,"version":"7757534","steam_id":85568392924742824,"keywords":["cp","nocrits","nodmgspread","uncletopia"],"game_id":440,"stv_port":27036,"stv_name":"Uncletopia | San Francisco | 3 | Stopwatch Beta | STV","players":null},{"server_id":20,"name":"Uncletopia | San Francisco | 4 | Community","name_short":"sfo-4","host":"sfo-1.us.uncletopia.com","port":27045,"enabled":true,"region":"us-west","cc":"us","latitude":37.77397,"longitude":-122.4313,"reserved":0,"last_update":"0001-01-01T00:00:00Z","name_a2s":"Uncletopia | San Francisco | 4 | Community","protocol":17,"map":"cp_altitude","folder":"tf","game":"Team Fortress","app_id":440,"player_count":0,"max_players":24,"Bots":0,"server_type":"Dedicated","server_os":"Linux","password":true,"vac":true,"version":"7757534","steam_id":85568392924742826,"keywords":["cp","nocrits","nodmgspread","uncletopia"],"game_id":440,"stv_port":27046,"stv_name":"Uncletopia | San Francisco | 4 | Community | STV","players":null},{"server_id":141,"name":"Uncletopia | Sydney | 1 | All Maps","name_short":"syd-1","host":"syd-1.au.uncletopia.com","port":27015,"enabled":true,"region":"au","cc":"au","latitude":-33.865143,"longitude":151.2099,"reserved":0,"last_update":"0001-01-01T00:00:00Z","name_a2s":"Uncletopia | Sydney | 1 | All Maps","protocol":17,"map":"pl_thundermountain","folder":"tf","game":"Team Fortress","app_id":440,"player_count":24,"max_players":24,"Bots":0,"server_type":"Dedicated","server_os":"Linux","password":true,"vac":true,"version":"7882260","steam_id":85568392924470001,"keywords":["nocrits","nodmgspread","payload","uncletopia"],"game_id":440,"stv_port":27016,"stv_name":"Uncletopia | Sydney | 1 | All Maps | STV","players":[{"user_id":270,"name":"ToadFungus","steam_id":76561199219667039,"connected_time":746000000000,"state":"active","ping":104},{"user_id":282,"name":"Zort","steam_id":76561198056414289,"connected_time":491000000000,"state":"active","ping":64},{"user_id":279,"name":"whiteshaq","steam_id":76561198131988811,"connected_time":681000000000,"state":"active","ping":47},{"user_id":275,"name":"Frog Friend","steam_id":76561198054505772,"connected_time":733000000000,"state":"active","ping":58},{"user_id":262,"name":"DropBearWarrior","steam_id":76561198352774039,"connected_time":1953000000000,"state":"active","ping":72},{"user_id":255,"name":"Hungry for thumbtacks","steam_id":76561198059129270,"connected_time":2432000000000,"state":"active","ping":68},{"user_id":260,"name":"Pile of Sneed","steam_id":76561198143537391,"connected_time":2058000000000,"state":"active","ping":57},{"user_id":245,"name":"Boiling","steam_id":76561199125271770,"connected_time":3216000000000,"state":"active","ping":66},{"user_id":265,"name":"vent","steam_id":76561197984081096,"connected_time":1595000000000,"state":"active","ping":67},{"user_id":271,"name":"Jodelkönig Franzl Lang","steam_id":76561198007667830,"connected_time":745000000000,"state":"active","ping":57},{"user_id":263,"name":"Tentacle","steam_id":76561197994320010,"connected_time":1949000000000,"state":"active","ping":52},{"user_id":246,"name":"stroob","steam_id":76561198045320644,"connected_time":3188000000000,"state":"active","ping":49},{"user_id":181,"name":"Yeat","steam_id":76561198202555552,"connected_time":8221000000000,"state":"active","ping":45},{"user_id":272,"name":"Snowy","steam_id":76561198255720598,"connected_time":743000000000,"state":"active","ping":52},{"user_id":254,"name":"Citizen Dan","steam_id":76561197970496955,"connected_time":2501000000000,"state":"active","ping":69},{"user_id":283,"name":"i only said","steam_id":76561199436707447,"connected_time":456000000000,"state":"active","ping":49},{"user_id":276,"name":"Fyre Rose","steam_id":76561198000527551,"connected_time":732000000000,"state":"active","ping":77},{"user_id":281,"name":"Vanessa","steam_id":76561198077728992,"connected_time":641000000000,"state":"active","ping":67},{"user_id":284,"name":"Alphandiscobean","steam_id":76561198025845937,"connected_time":449000000000,"state":"active","ping":55},{"user_id":287,"name":"jaylo♥","steam_id":76561198051468704,"connected_time":80000000000,"state":"active","ping":91},{"user_id":268,"name":"Naturesshadow","steam_id":76561198011837590,"connected_time":833000000000,"state":"active","ping":68},{"user_id":286,"name":"1bean234","steam_id":76561198054698346,"connected_time":342000000000,"state":"active","ping":62},{"user_id":285,"name":"Snake101","steam_id":76561198418910767,"connected_time":434000000000,"state":"active","ping":57},{"user_id":280,"name":"BeefBoss","steam_id":76561198272702233,"connected_time":665000000000,"state":"active","ping":39}]},{"server_id":123,"name":"Uncletopia | Sydney | 2 | All Maps","name_short":"syd-2","host":"syd-1.au.uncletopia.com","port":27025,"enabled":true,"region":"au","cc":"au","latitude":-33.865143,"longitude":151.2099,"reserved":0,"last_update":"0001-01-01T00:00:00Z","name_a2s":"Uncletopia | Sydney | 2 | All Maps","protocol":17,"map":"pl_snowycoast","folder":"tf","game":"Team Fortress","app_id":440,"player_count":1,"max_players":24,"Bots":0,"server_type":"Dedicated","server_os":"Linux","password":true,"vac":true,"version":"7882260","steam_id":85568392924470002,"keywords":["nocrits","nodmgspread","payload","uncletopia"],"game_id":440,"stv_port":27026,"stv_name":"Uncletopia | Sydney | 2 | All Maps | STV","players":[{"user_id":168,"name":"Finger.","steam_id":76561198118828334,"connected_time":272000000000,"state":"active","ping":210}]},{"server_id":395,"name":"Uncletopia | Sydney | 3 | All Maps","name_short":"syd-3","host":"syd-1.au.uncletopia.com","port":27035,"enabled":true,"region":"au","cc":"au","latitude":-33.865143,"longitude":151.2099,"reserved":0,"last_update":"0001-01-01T00:00:00Z","name_a2s":"Uncletopia | Sydney | 3 | All Maps","protocol":17,"map":"koth_cascade","folder":"tf","game":"Team Fortress","app_id":440,"player_count":0,"max_players":24,"Bots":0,"server_type":"Dedicated","server_os":"Linux","password":true,"vac":true,"version":"7882260","steam_id":85568392925194467,"keywords":["cp","nocrits","nodmgspread","uncletopia"],"game_id":440,"stv_port":27036,"stv_name":"Uncletopia | Sydney | 3 | All Maps | STV","players":null},{"server_id":396,"name":"Uncletopia | Sydney | 4 | All Maps","name_short":"syd-4","host":"syd-1.au.uncletopia.com","port":27045,"enabled":true,"region":"au","cc":"au","latitude":-33.865143,"longitude":151.2099,"reserved":0,"last_update":"0001-01-01T00:00:00Z","name_a2s":"Uncletopia | Sydney | 4 | All Maps","protocol":17,"map":"koth_cascade","folder":"tf","game":"Team Fortress","app_id":440,"player_count":0,"max_players":24,"Bots":0,"server_type":"Dedicated","server_os":"Linux","password":true,"vac":true,"version":"7882260","steam_id":85568392925397958,"keywords":["cp","nocrits","nodmgspread","uncletopia"],"game_id":440,"stv_port":27046,"stv_name":"Uncletopia | Sydney | 4 | All Maps | STV","players":null},{"server_id":58,"name":"Uncletopia | Sydney | 5 | Stopwatch Beta","name_short":"syd-5","host":"syd-1.au.uncletopia.com","port":27055,"enabled":true,"region":"au","cc":"au","latitude":-33.865143,"longitude":151.2099,"reserved":0,"last_update":"0001-01-01T00:00:00Z","name_a2s":"Uncletopia | Sydney | 5 | Stopwatch Beta","protocol":17,"map":"pl_swiftwater_final1","folder":"tf","game":"Team Fortress","app_id":440,"player_count":0,"max_players":24,"Bots":0,"server_type":"Dedicated","server_os":"Linux","password":true,"vac":true,"version":"7882260","steam_id":85568392925397959,"keywords":["nocrits","nodmgspread","payload","uncletopia"],"game_id":440,"stv_port":27056,"stv_name":"Uncletopia | Sydney | 5 | Stopwatch Beta | STV","players":null},{"server_id":59,"name":"Uncletopia | Sydney | 6 | Community","name_short":"syd-6","host":"syd-1.au.uncletopia.com","port":27065,"enabled":true,"region":"au","cc":"au","latitude":-33.865143,"longitude":151.2099,"reserved":0,"last_update":"0001-01-01T00:00:00Z","name_a2s":"Uncletopia | Sydney | 6 | Community","protocol":17,"map":"pl_snowycoast","folder":"tf","game":"Team Fortress","app_id":440,"player_count":0,"max_players":24,"Bots":0,"server_type":"Dedicated","server_os":"Linux","password":true,"vac":true,"version":"7882260","steam_id":85568392925397960,"keywords":["nocrits","nodmgspread","payload","uncletopia"],"game_id":440,"stv_port":27066,"stv_name":"Uncletopia | Sydney | 6 | Community | STV","players":null},{"server_id":49,"name":"Uncletopia | Warsaw | 1 | All Maps","name_short":"waw-1","host":"waw-1.pl.uncletopia.com","port":27015,"enabled":true,"region":"eu","cc":"pl","latitude":52.2297,"longitude":21.017532,"reserved":0,"last_update":"0001-01-01T00:00:00Z","name_a2s":"","protocol":0,"map":"","folder":"","game":"","app_id":0,"player_count":0,"max_players":0,"Bots":0,"server_type":"","server_os":"","password":false,"vac":false,"version":"","steam_id":0,"keywords":null,"game_id":0,"stv_port":0,"stv_name":"","players":null},{"server_id":50,"name":"Uncletopia | Warsaw | 2 | All Maps","name_short":"waw-2","host":"waw-1.pl.uncletopia.com","port":27025,"enabled":true,"region":"eu","cc":"pl","latitude":52.2297,"longitude":21.017532,"reserved":0,"last_update":"0001-01-01T00:00:00Z","name_a2s":"Uncletopia | Warsaw | 2 | All Maps","protocol":17,"map":"pl_swiftwater_final1","folder":"tf","game":"Team Fortress","app_id":440,"player_count":0,"max_players":24,"Bots":0,"server_type":"Dedicated","server_os":"Linux","password":true,"vac":true,"version":"7882260","steam_id":85568392925397851,"keywords":["nocrits","nodmgspread","payload","uncletopia"],"game_id":440,"stv_port":27026,"stv_name":"Uncletopia | Warsaw | 2 | All Maps | STV","players":null},{"server_id":51,"name":"Uncletopia | Warsaw | 3 | All Maps","name_short":"waw-3","host":"waw-1.pl.uncletopia.com","port":27035,"enabled":true,"region":"eu","cc":"pl","latitude":52.2297,"longitude":21.017532,"reserved":0,"last_update":"0001-01-01T00:00:00Z","name_a2s":"Uncletopia | Warsaw | 3 | All Maps","protocol":17,"map":"koth_viaduct","folder":"tf","game":"Team Fortress","app_id":440,"player_count":0,"max_players":24,"Bots":0,"server_type":"Dedicated","server_os":"Linux","password":true,"vac":true,"version":"7882260","steam_id":85568392925397852,"keywords":["cp","nocrits","nodmgspread","uncletopia"],"game_id":440,"stv_port":27036,"stv_name":"Uncletopia | Warsaw | 3 | All Maps | STV","players":null},{"server_id":52,"name":"Uncletopia | Warsaw | 4 | All Maps","name_short":"waw-4","host":"waw-1.pl.uncletopia.com","port":27045,"enabled":true,"region":"eu","cc":"pl","latitude":52.2297,"longitude":21.017532,"reserved":0,"last_update":"0001-01-01T00:00:00Z","name_a2s":"Uncletopia | Warsaw | 4 | All Maps","protocol":17,"map":"koth_highpass","folder":"tf","game":"Team Fortress","app_id":440,"player_count":0,"max_players":24,"Bots":0,"server_type":"Dedicated","server_os":"Linux","password":true,"vac":true,"version":"7882260","steam_id":85568392925397853,"keywords":["cp","nocrits","nodmgspread","uncletopia"],"game_id":440,"stv_port":27046,"stv_name":"Uncletopia | Warsaw | 4 | All Maps | STV","players":null},{"server_id":53,"name":"Uncletopia | Warsaw | 5 | Stopwatch Beta","name_short":"waw-5","host":"waw-1.pl.uncletopia.com","port":27055,"enabled":true,"region":"eu","cc":"pl","latitude":52.2297,"longitude":21.017532,"reserved":0,"last_update":"0001-01-01T00:00:00Z","name_a2s":"Uncletopia | Warsaw | 5 | Stopwatch Beta","protocol":17,"map":"cp_mountainlab","folder":"tf","game":"Team Fortress","app_id":440,"player_count":0,"max_players":24,"Bots":0,"server_type":"Dedicated","server_os":"Linux","password":true,"vac":true,"version":"7882260","steam_id":85568392925397854,"keywords":["cp","nocrits","nodmgspread","uncletopia"],"game_id":440,"stv_port":27056,"stv_name":"Uncletopia | Warsaw | 5 | Stopwatch Beta | STV","players":null},{"server_id":54,"name":"Uncletopia | Warsaw | 6 | Community","name_short":"waw-6","host":"waw-1.pl.uncletopia.com","port":27065,"enabled":true,"region":"eu","cc":"pl","latitude":52.2297,"longitude":21.017532,"reserved":0,"last_update":"0001-01-01T00:00:00Z","name_a2s":"Uncletopia | Warsaw | 6 | Community","protocol":17,"map":"koth_viaduct","folder":"tf","game":"Team Fortress","app_id":440,"player_count":0,"max_players":24,"Bots":0,"server_type":"Dedicated","server_os":"Linux","password":true,"vac":true,"version":"7882260","steam_id":85568392925397856,"keywords":["cp","nocrits","nodmgspread","uncletopia"],"game_id":440,"stv_port":27066,"stv_name":"Uncletopia | Warsaw | 6 | Community | STV","players":null}]}