{"status":true,"message":"","result":[{"server_id":9,"name":"Uncletopia | Atlanta | 1 | All Maps","name_short":"atl-1","host":"atl-1.us.uncletopia.com","port":27015,"enabled":true,"region":"us-east","cc":"us","latitude":33.753746,"longitude":-84.38633,"reserved":0,"last_update":"0001-01-01T00:00:00Z","name_a2s":"Uncletopia | Atlanta | 1 | All Maps","protocol":17,"map":"cp_mountainlab","folder":"tf","game":"Team Fortress","app_id":440,"player_count":24,"max_players":24,"Bots":0,"server_type":"Dedicated","server_os":"Linux","password":true,"vac":true,"version":"7961495","steam_id":85568392924469982,"keywords":["cp","nocrits","nodmgspread","uncletopia"],"game_id":440,"stv_port":27016,"stv_name":"Uncletopia | Atlanta | 1 | All Maps | STV","players":[{"user_id":707,"name":"Woods","steam_id":76561198440012069,"connected_time":6267000000000,"state":"active","ping":78},{"user_id":746,"name":"VidzCMC","steam_id":76561198848142973,"connected_time":2752000000000,"state":"active","ping":89},{"user_id":710,"name":"Lylith!!!","steam_id":76561198386687546,"connected_time":6005000000000,"state":"active","ping":50},{"user_id":769,"name":"zonc","steam_id":76561198322104962,"connected_time":491000000000,"state":"active","ping":81},{"user_id":768,"name":"Skyline","steam_id":76561198018382060,"connected_time":693000000000,"state":"active","ping":54},{"user_id":764,"name":"√2","steam_id":76561198111283909,"connected_time":1119000000000,"state":"active","ping":71},{"user_id":691,"name":"Luigi4tl","steam_id":76561198051862389,"connected_time":6902000000000,"state":"active","ping":66},{"user_id":766,"name":"plutonium","steam_id":76561198319442494,"connected_time":1022000000000,"state":"active","ping":103},{"user_id":747,"name":"A Blender","steam_id":76561198085439451,"connected_time":2725000000000,"state":"active","ping":110},{"user_id":753,"name":"Viewie","steam_id":76561198280108853,"connected_time":2435000000000,"state":"active","ping":73},{"user_id":582,"name":"Obelisk","steam_id":76561198049416866,"connected_time":9693000000000,"state":"active","ping":56},{"user_id":713,"name":"Bucket Hat Trick","steam_id":76561198381785132,"connected_time":5711000000000,"state":"active","ping":77},{"user_id":754,"name":"Dragon","steam_id":76561198112056273,"connected_time":2368000000000,"state":"active","ping":65},{"user_id":740,"name":"Terror-Billy #SaveTF2","steam_id":76561198328141870,"connected_time":3302000000000,"state":"active","ping":74},{"user_id":742,"name":"Platypuspenguin","steam_id":76561198212228081,"connected_time":2788000000000,"state":"active","ping":70},{"user_id":771,"name":"Intro Bonito","steam_id":76561198119478838,"connected_time":302000000000,"state":"active","ping":46},{"user_id":748,"name":"ATL1 | LOFILE","steam_id":76561198083798918,"connected_time":2705000000000,"state":"active","ping":71},{"user_id":749,"name":".psychotic","steam_id":76561198105677266,"connected_time":2662000000000,"state":"active","ping":119},{"user_id":770,"name":"󠀡󠀡","steam_id":76561198348035053,"connected_time":474000000000,"state":"active","ping":107},{"user_id":763,"name":"Toxic Medic Main (he/they)","steam_id":76561198009314845,"connected_time":1326000000000,"state":"active","ping":119},{"user_id":521,"name":"Thotimus Begonimus","steam_id":76561197970275938,"connected_time":11081000000000,"state":"active","ping":50},{"user_id":743,"name":"lu","steam_id":76561198080731872,"connected_time":2788000000000,"state":"active","ping":80},{"user_id":759,"name":"shnowshner","steam_id":76561198066450438,"connected_time":2023000000000,"state":"active","ping":76},{"user_id":709,"name":"Le4n!!!","steam_id":76561198045522596,"connected_time":6194000000000,"state":"active","ping":73}]},{"server_id":104,"name":"Uncletopia | Atlanta | 2 | All Maps","name_short":"atl-2","host":"atl-1.us.uncletopia.com","port":27025,"enabled":true,"region":"us-east","cc":"us","latitude":33.753746,"longitude":-84.38633,"reserved":0,"last_update":"0001-01-01T00:00:00Z","name_a2s":"Uncletopia | Atlanta | 2 | All Maps","protocol":17,"map":"koth_nucleus","folder":"tf","game":"Team Fortress","app_id":440,"player_count":9,"max_players":24,"Bots":0,"server_type":"Dedicated","server_os":"Linux","password":true,"vac":true,"version":"7961495","steam_id":85568392924469983,"keywords":["cp","nocrits","nodmgspread","uncletopia"],"game_id":440,"stv_port":27026,"stv_name":"Uncletopia | Atlanta | 2 | All Maps | STV","players":[{"user_id":949,"name":"let him cook","steam_id":76561198364121077,"connected_time":338000000000,"state":"active","ping":173},{"user_id":952,"name":"odinnn","steam_id":76561198308564076,"connected_time":73000000000,"state":"active","ping":63},{"user_id":937,"name":"Booster Raccoon","steam_id":76561198060426836,"connected_time":1395000000000,"state":"active","ping":67},{"user_id":950,"name":"plickles","steam_id":76561199032117349,"connected_time":255000000000,"state":"active","ping":104},{"user_id":946,"name":"ndvr (femboy (REAL))","steam_id":76561199379200102,"connected_time":915000000000,"state":"active","ping":65},{"user_id":919,"name":"Flaxks♡","steam_id":76561198410260447,"connected_time":3638000000000,"state":"active","ping":88},{"user_id":917,"name":"Fuegisimo","steam_id":76561198033678698,"connected_time":3762000000000,"state":"active","ping":70},{"user_id":877,"name":"Homo Ejectus","steam_id":76561197968701952,"connected_time":5720000000000,"state":"active","ping":81},{"user_id":939,"name":"Bird ideas","steam_id":76561198980504345,"connected_time":1289000000000,"state":"active","ping":62}]},{"server_id":400,"name":"Uncletopia | Atlanta | 3 | Stopwatch","name_short":"atl-3","host":"atl-1.us.uncletopia.com","port":27035,"enabled":true,"region":"us-east","cc":"us","latitude":33.753746,"longitude":-84.38633,"reserved":0,"last_update":"0001-01-01T00:00:00Z","name_a2s":"Uncletopia | Atlanta | 3 | Stopwatch","protocol":17,"map":"workshop/koth_clearcut_b15.ugc2107050255","folder":"tf","game":"Team Fortress","app_id":440,"player_count":7,"max_players":24,"Bots":0,"server_type":"Dedicated","server_os":"Linux","password":true,"vac":true,"version":"7961495","steam_id":85568392924515187,"keywords":["cp","nocrits","nodmgspread","uncletopia"],"game_id":440,"stv_port":27036,"stv_name":"Uncletopia | Atlanta | 3 | Stopwatch | STV","players":[{"user_id":451,"name":"paddy","steam_id":76561198097588802,"connected_time":1116000000000,"state":"active","ping":56},{"user_id":412,"name":"muddy","steam_id":76561198035015260,"connected_time":3376000000000,"state":"active","ping":84},{"user_id":455,"name":"bongo #savetf2","steam_id":76561198319628978,"connected_time":203000000000,"state":"active","ping":91},{"user_id":437,"name":"Box Brains","steam_id":76561198189912338,"connected_time":2042000000000,"state":"active","ping":115},{"user_id":456,"name":"fully vacced, fully autistic","steam_id":76561198968058652,"connected_time":85000000000,"state":"active","ping":105},{"user_id":443,"name":"mini-sentry","steam_id":76561198884712155,"connected_time":1842000000000,"state":"active","ping":76},{"user_id":433,"name":"cringy","steam_id":76561198323000455,"connected_time":2387000000000,"state":"active","ping":106}]},{"server_id":401,"name":"Uncletopia | Atlanta | 4 | Community","name_short":"atl-4","host":"atl-1.us.uncletopia.com","port":27045,"enabled":true,"region":"us-east","cc":"us","latitude":33.753746,"longitude":-84.38633,"reserved":0,"last_update":"0001-01-01T00:00:00Z","name_a2s":"Uncletopia | Atlanta | 4 | Community","protocol":17,"map":"workshop/koth_jamram_rc1a.ugc2964065613","folder":"tf","game":"Team Fortress","app_id":440,"player_count":0,"max_players":24,"Bots":0,"server_type":"Dedicated","server_os":"Linux","password":true,"vac":true,"version":"7961495","steam_id":85568392924515188,"keywords":["cp","nocrits","nodmgspread","uncletopia"],"game_id":440,"stv_port":27046,"stv_name":"Uncletopia | Atlanta | 4 | Community | STV","players":null},{"server_id":2,"name":"Uncletopia | Chicago | 1 | All Maps","name_short":"chi-1","host":"chi-1.us.uncletopia.com","port":27015,"enabled":true,"region":"us-central","cc":"us","latitude":41.881832,"longitude":-87.62318,"reserved":0,"last_update":"0001-01-01T00:00:00Z","name_a2s":"Uncletopia | Chicago | 1 | All Maps","protocol":17,"map":"cp_dustbowl","folder":"tf","game":"Team Fortress","app_id":440,"player_count":22,"max_players":24,"Bots":0,"server_type":"Dedicated","server_os":"Linux","password":true,"vac":true,"version":"7961495","steam_id":85568392924469984,"keywords":["cp","nocrits","nodmgspread","uncletopia"],"game_id":440,"stv_port":27016,"stv_name":"Uncletopia | Chicago | 1 | All Maps | STV","players":[{"user_id":728,"name":"DolphinTime","steam_id":76561197999079405,"connected_time":2442000000000,"state":"active","ping":94},{"user_id":738,"name":"GUH","steam_id":76561199013202758,"connected_time":2223000000000,"state":"active","ping":100},{"user_id":670,"name":"Gaming","steam_id":76561198107080532,"connected_time":7382000000000,"state":"active","ping":66},{"user_id":767,"name":"SOUR CREAM! (Lord Falco)","steam_id":76561198077108355,"connected_time":215000000000,"state":"active","ping":65},{"user_id":758,"name":"Bandit","steam_id":76561198089481470,"connected_time":683000000000,"state":"active","ping":95},{"user_id":749,"name":"Strange Festive Femboy","steam_id":76561198050385093,"connected_time":1014000000000,"state":"active","ping":65},{"user_id":768,"name":"Herman Bavinck","steam_id":76561197993190216,"connected_time":210000000000,"state":"active","ping":74},{"user_id":773,"name":"fish (2:3)","steam_id":76561198134331073,"connected_time":57000000000,"state":"active","ping":106},{"user_id":729,"name":"Asrael","steam_id":76561197986044901,"connected_time":2442000000000,"state":"active","ping":87},{"user_id":770,"name":"Herr Guth","steam_id":76561198082874094,"connected_time":176000000000,"state":"active","ping":69},{"user_id":730,"name":"JakeOwlsky","steam_id":76561198139194230,"connected_time":2441000000000,"state":"active","ping":88},{"user_id":763,"name":"VibingVicinity","steam_id":76561198208211285,"connected_time":525000000000,"state":"active","ping":94},{"user_id":771,"name":"CRUSHED","steam_id":76561199065573642,"connected_time":162000000000,"state":"active","ping":51},{"user_id":722,"name":"Weird Round","steam_id":76561197969205852,"connected_time":2859000000000,"state":"active","ping":85},{"user_id":752,"name":"fish","steam_id":76561198054070811,"connected_time":1006000000000,"state":"active","ping":105},{"user_id":772,"name":"Five Finger Discount","steam_id":76561197994556857,"connected_time":115000000000,"state":"active","ping":164},{"user_id":746,"name":"XtraCrums","steam_id":76561199230212648,"connected_time":1181000000000,"state":"active","ping":75},{"user_id":774,"name":"d1nero","steam_id":76561198295578318,"connected_time":6000000000,"state":"spawning","ping":73},{"user_id":721,"name":"Thatoneguybunchanumbers","steam_id":76561198028039160,"connected_time":2868000000000,"state":"active","ping":82},{"user_id":754,"name":"C Papi","steam_id":76561198027779564,"connected_time":999000000000,"state":"active","ping":54},{"user_id":756,"name":"slammin","steam_id":76561197965022076,"connected_time":993000000000,"state":"active","ping":60},{"user_id":710,"name":"DARLIIIIIIIIIIIIIING","steam_id":76561198055082693,"connected_time":4732000000000,"state":"active","ping":84}]},{"server_id":106,"name":"Uncletopia | Chicago | 2 | All Maps","name_short":"chi-2","host":"chi-1.us.uncletopia.com","port":27025,"enabled":true,"region":"us-central","cc":"us","latitude":41.881832,"longitude":-87.62318,"reserved":0,"last_update":"0001-01-01T00:00:00Z","name_a2s":"Uncletopia | Chicago | 2 | All Maps","protocol":17,"map":"pl_borneo","folder":"tf","game":"Team Fortress","app_id":440,"player_count":24,"max_players":24,"Bots":0,"server_type":"Dedicated","server_os":"Linux","password":true,"vac":true,"version":"7961495","steam_id":85568392924469985,"keywords":["nocrits","nodmgspread","payload","uncletopia"],"game_id":440,"stv_port":27026,"stv_name":"Uncletopia | Chicago | 2 | All Maps | STV","players":[{"user_id":570,"name":"Baked_tomato","steam_id":76561199104132783,"connected_time":1126000000000,"state":"active","ping":115},{"user_id":537,"name":"Tony","steam_id":76561198169799653,"connected_time":2667000000000,"state":"active","ping":61},{"user_id":505,"name":"displace","steam_id":76561198068492903,"connected_time":5394000000000,"state":"active","ping":61},{"user_id":572,"name":"steven","steam_id":76561198173047169,"connected_time":595000000000,"state":"active","ping":59},{"user_id":528,"name":"Gibus Man","steam_id":76561198257241062,"connected_time":3630000000000,"state":"active","ping":100},{"user_id":560,"name":"xXTERRANCEXx","steam_id":76561198927517471,"connected_time":1905000000000,"state":"active","ping":75},{"user_id":558,"name":"Mr.Dies a lot","steam_id":76561199061602946,"connected_time":1986000000000,"state":"active","ping":179},{"user_id":526,"name":"Rambly Dambly","steam_id":76561198844496567,"connected_time":3740000000000,"state":"active","ping":56},{"user_id":549,"name":"Albino Jellyfish","steam_id":76561198208561097,"connected_time":2376000000000,"state":"active","ping":53},{"user_id":562,"name":"Nestor","steam_id":76561198070782619,"connected_time":1851000000000,"state":"active","ping":62},{"user_id":565,"name":"recycle","steam_id":76561198819562111,"connected_time":1727000000000,"state":"active","ping":74},{"user_id":518,"name":"only a spoonful","steam_id":76561198113180616,"connected_time":4205000000000,"state":"active","ping":68},{"user_id":575,"name":"Nekusar, the Mindrazer","steam_id":76561198139069075,"connected_time":162000000000,"state":"active","ping":57},{"user_id":542,"name":"Gram Tokers Count Doinkula","steam_id":76561198112811565,"connected_time":2539000000000,"state":"active","ping":73},{"user_id":574,"name":"Vore is Love","steam_id":76561198980062131,"connected_time":372000000000,"state":"active","ping":76},{"user_id":566,"name":"superstar","steam_id":76561198171507451,"connected_time":1698000000000,"state":"active","ping":94},{"user_id":534,"name":"portal robewrtson big fan","steam_id":76561198150428763,"connected_time":3201000000000,"state":"active","ping":126},{"user_id":511,"name":"oh hi im a huge splooging guy","steam_id":76561198074678273,"connected_time":4596000000000,"state":"active","ping":59},{"user_id":550,"name":"I'm a Capricorn I was born goat","steam_id":76561198092135570,"connected_time":2349000000000,"state":"active","ping":60},{"user_id":567,"name":"Saul Goodman","steam_id":76561199132214008,"connected_time":1661000000000,"state":"active","ping":97},{"user_id":532,"name":"SN0W","steam_id":76561198153665468,"connected_time":3454000000000,"state":"active","ping":56},{"user_id":557,"name":"alternative","steam_id":76561199089684702,"connected_time":2001000000000,"state":"active","ping":156},{"user_id":533,"name":"gas station tweaker","steam_id":76561198264288798,"connected_time":3436000000000,"state":"active","ping":116},{"user_id":535,"name":"People play sniper?","steam_id":76561198260451626,"connected_time":2871000000000,"state":"active","ping":75}]},{"server_id":402,"name":"Uncletopia | Chicago | 3 | All Maps","name_short":"chi-3","host":"chi-1.us.uncletopia.com","port":27035,"enabled":true,"region":"us-central","cc":"us","latitude":41.881832,"longitude":-87.62318,"reserved":0,"last_update":"0001-01-01T00:00:00Z","name_a2s":"Uncletopia | Chicago | 3 | All Maps","protocol":17,"map":"cp_dustbowl","folder":"tf","game":"Team Fortress","app_id":440,"player_count":23,"max_players":24,"Bots":0,"server_type":"Dedicated","server_os":"Linux","password":true,"vac":true,"version":"7961495","steam_id":85568392924515191,"keywords":["cp","nocrits","nodmgspread","uncletopia"],"game_id":440,"stv_port":27036,"stv_name":"Uncletopia | Chicago | 3 | All Maps | STV","players":[{"user_id":844,"name":"The strongest ⑨ ball","steam_id":76561198126760743,"connected_time":1057000000000,"state":"active","ping":75},{"user_id":801,"name":"Uwu Micster","steam_id":76561198843890616,"connected_time":3539000000000,"state":"active","ping":75},{"user_id":840,"name":"rocket1714","steam_id":76561198255152396,"connected_time":1197000000000,"state":"active","ping":78},{"user_id":862,"name":"RectalExam","steam_id":76561197970502312,"connected_time":239000000000,"state":"active","ping":99},{"user_id":850,"name":"♥Blue Tao♥","steam_id":76561198363425236,"connected_time":535000000000,"state":"active","ping":62},{"user_id":843,"name":"ᵐᵉᵒʷ","steam_id":76561199200969139,"connected_time":1141000000000,"state":"active","ping":120},{"user_id":846,"name":"Cat","steam_id":76561198890478360,"connected_time":984000000000,"state":"active","ping":149},{"user_id":847,"name":"Scruga","steam_id":76561197993476998,"connected_time":889000000000,"state":"active","ping":147},{"user_id":868,"name":"BrokeFolk","steam_id":76561198010301519,"connected_time":45000000000,"state":"active","ping":66},{"user_id":852,"name":"Bacchus","steam_id":76561198113244990,"connected_time":515000000000,"state":"active","ping":70},{"user_id":853,"name":"Dabbledornk","steam_id":76561198065241300,"connected_time":510000000000,"state":"active","ping":60},{"user_id":826,"name":"_hooded_","steam_id":76561198023595873,"connected_time":2146000000000,"state":"active","ping":89},{"user_id":854,"name":"Poopisviel Von Einzbern","steam_id":76561198259260433,"connected_time":488000000000,"state":"active","ping":81},{"user_id":857,"name":"Milk carton","steam_id":76561198967876347,"connected_time":462000000000,"state":"active","ping":101},{"user_id":858,"name":"Jurls","steam_id":76561198138077990,"connected_time":443000000000,"state":"active","ping":80},{"user_id":861,"name":"RubWub","steam_id":76561198089623364,"connected_time":305000000000,"state":"active","ping":87},{"user_id":863,"name":"wuzz","steam_id":76561198407301160,"connected_time":231000000000,"state":"active","ping":71},{"user_id":864,"name":"Exalted Finalist","steam_id":76561198192021295,"connected_time":207000000000,"state":"active","ping":154},{"user_id":865,"name":"Xquo","steam_id":76561198129005384,"connected_time":207000000000,"state":"active","ping":59},{"user_id":866,"name":"yair_1302","steam_id":76561199193064727,"connected_time":179000000000,"state":"active","ping":45},{"user_id":731,"name":"Fuyutake","steam_id":76561199123206779,"connected_time":8186000000000,"state":"active","ping":73},{"user_id":838,"name":"Raizen","steam_id":76561199092445367,"connected_time":1366000000000,"state":"active","ping":60},{"user_id":867,"name":"...Kaw","steam_id":76561199027198245,"connected_time":109000000000,"state":"active","ping":138}]},{"server_id":403,"name":"Uncletopia | Chicago | 4 | All Maps","name_short":"chi-4","host":"chi-1.us.uncletopia.com","port":27045,"enabled":true,"region":"us-central","cc":"us","latitude":41.881832,"longitude":-87.62318,"reserved":0,"last_update":"0001-01-01T00:00:00Z","name_a2s":"Uncletopia | Chicago | 4 | All Maps","protocol":17,"map":"cp_sunshine","folder":"tf","game":"Team Fortress","app_id":440,"player_count":0,"max_players":24,"Bots":0,"server_type":"Dedicated","server_os":"Linux","password":true,"vac":true,"version":"7961495","steam_id":85568392924515193,"keywords":["cp","nocrits","nodmgspread","uncletopia"],"game_id":440,"stv_port":27046,"stv_name":"Uncletopia | Chicago | 4 | All Maps | STV","players":null},{"server_id":36,"name":"Uncletopia | Chicago | 5 | All Maps","name_short":"chi-5","host":"chi-2.us.uncletopia.com","port":27015,"enabled":true,"region":"us-central","cc":"us","latitude":41.881832,"longitude":-87.62318,"reserved":0,"last_update":"0001-01-01T00:00:00Z","name_a2s":"Uncletopia | Chicago | 5 | All Maps","protocol":17,"map":"cp_mountainlab","folder":"tf","game":"Team Fortress","app_id":440,"player_count":12,"max_players":24,"Bots":0,"server_type":"Dedicated","server_os":"Linux","password":true,"vac":true,"version":"7961495","steam_id":85568392924866362,"keywords":["cp","nocrits","nodmgspread","uncletopia"],"game_id":440,"stv_port":27016,"stv_name":"Uncletopia | Chicago | 5 | All Maps | STV","players":[{"user_id":333,"name":"Truly Cryo","steam_id":76561198347497484,"connected_time":2770000000000,"state":"active","ping":84},{"user_id":367,"name":"Tomfoolery","steam_id":76561199260306425,"connected_time":270000000000,"state":"active","ping":112},{"user_id":370,"name":"Goldensliv","steam_id":76561198161673891,"connected_time":56000000000,"state":"active","ping":89},{"user_id":371,"name":"community man","steam_id":76561198074946673,"connected_time":20000000000,"state":"active","ping":49},{"user_id":363,"name":"espr","steam_id":76561198406252824,"connected_time":482000000000,"state":"active","ping":105},{"user_id":364,"name":"i am in constant agony","steam_id":76561198103496593,"connected_time":476000000000,"state":"active","ping":61},{"user_id":366,"name":"ahegao gaming","steam_id":76561198065619598,"connected_time":350000000000,"state":"active","ping":117},{"user_id":332,"name":"Lead Licker","steam_id":76561198162668339,"connected_time":3053000000000,"state":"active","ping":80},{"user_id":368,"name":"PeachyTears","steam_id":76561198156608820,"connected_time":266000000000,"state":"active","ping":47},{"user_id":369,"name":"Mall, the human","steam_id":76561198436085386,"connected_time":167000000000,"state":"active","ping":86},{"user_id":325,"name":"Sprit ♥","steam_id":76561198268780781,"connected_time":3312000000000,"state":"active","ping":45},{"user_id":329,"name":"Lae","steam_id":76561198185527278,"connected_time":3282000000000,"state":"active","ping":76}]},{"server_id":37,"name":"Uncletopia | Chicago | 6 | All Maps","name_short":"chi-6","host":"chi-2.us.uncletopia.com","port":27025,"enabled":true,"region":"us-central","cc":"us","latitude":41.881832,"longitude":-87.62318,"reserved":0,"last_update":"0001-01-01T00:00:00Z","name_a2s":"Uncletopia | Chicago | 6 | All Maps","protocol":17,"map":"koth_highpass","folder":"tf","game":"Team Fortress","app_id":440,"player_count":0,"max_players":24,"Bots":0,"server_type":"Dedicated","server_os":"Linux","password":true,"vac":true,"version":"7961495","steam_id":85568392924866363,"keywords":["cp","nocrits","nodmgspread","uncletopia"],"game_id":440,"stv_port":27026,"stv_name":"Uncletopia | Chicago | 6 | All Maps | STV","players":null},{"server_id":38,"name":"Uncletopia | Chicago | 7 | Stopwatch","name_short":"chi-7","host":"chi-2.us.uncletopia.com","port":27035,"enabled":true,"region":"us-central","cc":"us","latitude":41.881832,"longitude":-87.62318,"reserved":0,"last_update":"0001-01-01T00:00:00Z","name_a2s":"Uncletopia | Chicago | 7 | Stopwatch","protocol":17,"map":"workshop/koth_ashville_final.ugc2130459942","folder":"tf","game":"Team Fortress","app_id":440,"player_count":0,"max_players":24,"Bots":0,"server_type":"Dedicated","server_os":"Linux","password":true,"vac":true,"version":"7961495","steam_id":85568392924866364,"keywords":["cp","nocrits","nodmgspread","uncletopia"],"game_id":440,"stv_port":27036,"stv_name":"Uncletopia | Chicago | 7 | Stopwatch | STV","players":null},{"server_id":39,"name":"Uncletopia | Chicago | 8 | Community","name_short":"chi-8","host":"chi-2.us.uncletopia.com","port":27045,"enabled":true,"region":"us-central","cc":"us","latitude":41.881832,"longitude":-87.62318,"reserved":0,"last_update":"0001-01-01T00:00:00Z","name_a2s":"Uncletopia | Chicago | 8 | Community","protocol":17,"map":"workshop/koth_slaughter_rc1.ugc1712845210","folder":"tf","game":"Team Fortress","app_id":440,"player_count":18,"max_players":24,"Bots":0,"server_type":"Dedicated","server_os":"Linux","password":true,"vac":true,"version":"7961495","steam_id":85568392924866365,"keywords":["cp","nocrits","nodmgspread","uncletopia"],"game_id":440,"stv_port":27046,"stv_name":"Uncletopia | Chicago | 8 | Community | STV","players":[{"user_id":42,"name":"MetalTao","steam_id":76561198189408110,"connected_time":3114000000000,"state":"active","ping":86},{"user_id":40,"name":"Chaffy2125","steam_id":76561198232839260,"connected_time":4159000000000,"state":"active","ping":133},{"user_id":74,"name":"Shrebbie","steam_id":76561198875230824,"connected_time":1404000000000,"state":"active","ping":56},{"user_id":45,"name":"Ritzy","steam_id":76561198173407358,"connected_time":2996000000000,"state":"active","ping":75},{"user_id":68,"name":"giddy","steam_id":76561198271951969,"connected_time":1990000000000,"state":"active","ping":116},{"user_id":69,"name":"GoroMajimaIsHot","steam_id":76561198365713042,"connected_time":1922000000000,"state":"active","ping":97},{"user_id":80,"name":"Gilbert","steam_id":76561198070903248,"connected_time":851000000000,"state":"active","ping":144},{"user_id":51,"name":"Yongulo Franks","steam_id":76561198161398654,"connected_time":2703000000000,"state":"active","ping":72},{"user_id":52,"name":"chester","steam_id":76561198952172376,"connected_time":2692000000000,"state":"active","ping":64},{"user_id":73,"name":"Zilgrin","steam_id":76561199192857010,"connected_time":1516000000000,"state":"active","ping":83},{"user_id":81,"name":"CM","steam_id":76561199231318102,"connected_time":375000000000,"state":"active","ping":54},{"user_id":71,"name":"GuyGoom","steam_id":76561198254522178,"connected_time":1767000000000,"state":"active","ping":49},{"user_id":63,"name":"Boxcars","steam_id":76561198120978767,"connected_time":2232000000000,"state":"active","ping":106},{"user_id":64,"name":"Six Piece Chicken McNobody","steam_id":76561198129848222,"connected_time":2185000000000,"state":"active","ping":65},{"user_id":72,"name":"the.land.of.avalon","steam_id":76561198245431668,"connected_time":1755000000000,"state":"active","ping":52},{"user_id":76,"name":"Never Forgive a Shenanigan","steam_id":76561198165208572,"connected_time":1164000000000,"state":"active","ping":57},{"user_id":82,"name":"ron desandwich","steam_id":76561198079892116,"connected_time":339000000000,"state":"active","ping":45},{"user_id":79,"name":"Serene Salamander","steam_id":76561198001094770,"connected_time":992000000000,"state":"active","ping":107}]},{"server_id":8,"name":"Uncletopia | Dallas | 1 | All Maps","name_short":"dal-1","host":"dal-1.us.uncletopia.com","port":27015,"enabled":true,"region":"us-central","cc":"us","latitude":32.779167,"longitude":-96.80889,"reserved":0,"last_update":"0001-01-01T00:00:00Z","name_a2s":"Uncletopia | Dallas | 1 | All Maps","protocol":17,"map":"pl_upward","folder":"tf","game":"Team Fortress","app_id":440,"player_count":20,"max_players":24,"Bots":0,"server_type":"Dedicated","server_os":"Linux","password":true,"vac":true,"version":"7961495","steam_id":85568392924469986,"keywords":["nocrits","nodmgspread","payload","uncletopia"],"game_id":440,"stv_port":27016,"stv_name":"Uncletopia | Dallas | 1 | All Maps | STV","players":[{"user_id":1003,"name":"errant","steam_id":76561197961758410,"connected_time":1874000000000,"state":"active","ping":33},{"user_id":1004,"name":"oni","steam_id":76561198082038479,"connected_time":1809000000000,"state":"active","ping":117},{"user_id":1045,"name":"JBL","steam_id":76561198813586588,"connected_time":177000000000,"state":"active","ping":99},{"user_id":1021,"name":"sithreis","steam_id":76561198000564263,"connected_time":915000000000,"state":"active","ping":64},{"user_id":1046,"name":"ayaya?","steam_id":76561199000188109,"connected_time":156000000000,"state":"active","ping":82},{"user_id":959,"name":"AlecTheNefarious","steam_id":76561198035291230,"connected_time":5439000000000,"state":"active","ping":65},{"user_id":1024,"name":"O'brien","steam_id":76561198289339403,"connected_time":740000000000,"state":"active","ping":86},{"user_id":966,"name":"java","steam_id":76561198030276792,"connected_time":4913000000000,"state":"active","ping":72},{"user_id":1012,"name":"The Girl Is a Miner","steam_id":76561198316332462,"connected_time":1238000000000,"state":"spawning","ping":68},{"user_id":1005,"name":"Cassafras","steam_id":76561197961994834,"connected_time":1795000000000,"state":"active","ping":50},{"user_id":886,"name":"tack","steam_id":76561198408477421,"connected_time":12053000000000,"state":"spawning","ping":81},{"user_id":1014,"name":"conwald","steam_id":76561198034339940,"connected_time":1177000000000,"state":"active","ping":76},{"user_id":1015,"name":"DiabetesMan","steam_id":76561198075668940,"connected_time":1173000000000,"state":"active","ping":111},{"user_id":1030,"name":"Spooky_Dooky","steam_id":76561198061880997,"connected_time":603000000000,"state":"active","ping":81},{"user_id":1006,"name":"snakeeatr","steam_id":76561198147652684,"connected_time":1786000000000,"state":"active","ping":123},{"user_id":1029,"name":"Wife Enjoyer","steam_id":76561198044109761,"connected_time":623000000000,"state":"active","ping":83},{"user_id":1038,"name":"KATSURB","steam_id":76561199172118456,"connected_time":457000000000,"state":"active","ping":132},{"user_id":1037,"name":"SaaxoM","steam_id":76561198208256603,"connected_time":496000000000,"state":"active","ping":69},{"user_id":1035,"name":"Killerfish360","steam_id":76561198115029584,"connected_time":519000000000,"state":"active","ping":72},{"user_id":1042,"name":"Artichoke","steam_id":76561198113709889,"connected_time":404000000000,"state":"active","ping":104}]},{"server_id":108,"name":"Uncletopia | Dallas | 2 | All Maps","name_short":"dal-2","host":"dal-1.us.uncletopia.com","port":27025,"enabled":true,"region":"us-central","cc":"us","latitude":32.779167,"longitude":-96.80889,"reserved":0,"last_update":"0001-01-01T00:00:00Z","name_a2s":"Uncletopia | Dallas | 2 | All Maps","protocol":17,"map":"pl_badwater","folder":"tf","game":"Team Fortress","app_id":440,"player_count":24,"max_players":24,"Bots":0,"server_type":"Dedicated","server_os":"Linux","password":true,"vac":true,"version":"7961495","steam_id":85568392924469988,"keywords":["nocrits","nodmgspread","payload","uncletopia"],"game_id":440,"stv_port":27026,"stv_name":"Uncletopia | Dallas | 2 | All Maps | STV","players":[{"user_id":661,"name":"-BRH- Tangled up in Bluegrass","steam_id":76561197987181139,"connected_time":1252000000000,"state":"active","ping":79},{"user_id":600,"name":"9/11 Airlines","steam_id":76561198096306325,"connected_time":5621000000000,"state":"active","ping":82},{"user_id":654,"name":"Drakon","steam_id":76561198078210822,"connected_time":2292000000000,"state":"active","ping":89},{"user_id":657,"name":"justyoureventualruler","steam_id":76561198410993481,"connected_time":1543000000000,"state":"active","ping":58},{"user_id":638,"name":"stuffedidiot","steam_id":76561199181513019,"connected_time":3452000000000,"state":"active","ping":115},{"user_id":595,"name":"uncletopia dallas 2 player","steam_id":76561198412786186,"connected_time":5956000000000,"state":"active","ping":49},{"user_id":668,"name":"Luna","steam_id":76561198023352750,"connected_time":858000000000,"state":"active","ping":89},{"user_id":662,"name":"Bobby Ray","steam_id":76561198044131188,"connected_time":1235000000000,"state":"active","ping":68},{"user_id":663,"name":"folly","steam_id":76561198133933158,"connected_time":1234000000000,"state":"active","ping":108},{"user_id":664,"name":"pinker \u003e blue","steam_id":76561198132803810,"connected_time":1223000000000,"state":"active","ping":57},{"user_id":658,"name":"Cars 2 Enjoyer","steam_id":76561198880355236,"connected_time":1535000000000,"state":"active","ping":95},{"user_id":511,"name":"HoneyBadger","steam_id":76561198129202829,"connected_time":11621000000000,"state":"active","ping":65},{"user_id":651,"name":"Kantamoe","steam_id":76561198046661611,"connected_time":2726000000000,"state":"active","ping":76},{"user_id":626,"name":"boboguguz","steam_id":76561198334924459,"connected_time":4162000000000,"state":"active","ping":93},{"user_id":671,"name":"wetto","steam_id":76561198224811504,"connected_time":350000000000,"state":"active","ping":62},{"user_id":632,"name":"Rat Smacker","steam_id":76561198043629646,"connected_time":3977000000000,"state":"active","ping":66},{"user_id":631,"name":"Batso","steam_id":76561198106589452,"connected_time":4015000000000,"state":"active","ping":93},{"user_id":667,"name":"cc.BaconBlitz","steam_id":76561198079461770,"connected_time":1025000000000,"state":"active","ping":57},{"user_id":669,"name":"SgT_Spam","steam_id":76561198275753768,"connected_time":823000000000,"state":"active","ping":50},{"user_id":660,"name":"shitass | maybe yall real","steam_id":76561198210572481,"connected_time":1405000000000,"state":"active","ping":62},{"user_id":670,"name":"Snivy64","steam_id":76561198423445376,"connected_time":791000000000,"state":"active","ping":72},{"user_id":647,"name":"DragonHunter994","steam_id":76561199076203907,"connected_time":3047000000000,"state":"active","ping":63},{"user_id":665,"name":"Meowmix","steam_id":76561198844914997,"connected_time":1214000000000,"state":"active","ping":73},{"user_id":666,"name":"wajanta","steam_id":76561199040280852,"connected_time":1206000000000,"state":"active","ping":63}]},{"server_id":404,"name":"Uncletopia | Dallas | 3 | All Maps","name_short":"dal-3","host":"dal-1.us.uncletopia.com","port":27035,"enabled":true,"region":"us-central","cc":"us","latitude":32.779167,"longitude":-96.80889,"reserved":0,"last_update":"0001-01-01T00:00:00Z","name_a2s":"Uncletopia | Dallas | 3 | All Maps","protocol":17,"map":"pl_pier","folder":"tf","game":"Team Fortress","app_id":440,"player_count":0,"max_players":24,"Bots":0,"server_type":"Dedicated","server_os":"Linux","password":true,"vac":true,"version":"7961495","steam_id":85568392924515219,"keywords":["nocrits","nodmgspread","payload","uncletopia"],"game_id":440,"stv_port":27036,"stv_name":"Uncletopia | Dallas | 3 | All Maps | STV","players":null},{"server_id":405,"name":"Uncletopia | Dallas | 4 | Community","name_short":"dal-4","host":"dal-1.us.uncletopia.com","port":27045,"enabled":true,"region":"us-central","cc":"us","latitude":32.779167,"longitude":-96.80889,"reserved":0,"last_update":"0001-01-01T00:00:00Z","name_a2s":"Uncletopia | Dallas | 4 | Community","protocol":17,"map":"workshop/pl_extinction_rc1.ugc2961457712","folder":"tf","game":"Team Fortress","app_id":440,"player_count":2,"max_players":24,"Bots":0,"server_type":"Dedicated","server_os":"Linux","password":true,"vac":true,"version":"7961495","steam_id":85568392924515220,"keywords":["nocrits","nodmgspread","payload","uncletopia"],"game_id":440,"stv_port":27046,"stv_name":"Uncletopia | Dallas | 4 | Community | STV","players":[{"user_id":17,"name":"RealGamingX","steam_id":76561199015857243,"connected_time":2390000000000,"state":"active","ping":60},{"user_id":18,"name":"AceGalaxy217","steam_id":76561198366581946,"connected_time":2355000000000,"state":"active","ping":51}]},{"server_id":5,"name":"Uncletopia | Frankfurt | 1 | All Maps","name_short":"frk-1","host":"frk-1.de.uncletopia.com","port":27015,"enabled":true,"region":"eu","cc":"de","latitude":50.110924,"longitude":8.682127,"reserved":0,"last_update":"0001-01-01T00:00:00Z","name_a2s":"Uncletopia | Frankfurt | 1 | All Maps","protocol":17,"map":"ctf_doublecross","folder":"tf","game":"Team Fortress","app_id":440,"player_count":0,"max_players":24,"Bots":0,"server_type":"Dedicated","server_os":"Linux","password":true,"vac":true,"version":"7961495","steam_id":85568392924469989,"keywords":["ctf","nocrits","nodmgspread","uncletopia"],"game_id":440,"stv_port":27016,"stv_name":"Uncletopia | Frankfurt | 1 | All Maps | STV","players":null},{"server_id":110,"name":"Uncletopia | Frankfurt | 2 | All Maps","name_short":"frk-2","host":"frk-1.de.uncletopia.com","port":27025,"enabled":true,"region":"eu","cc":"de","latitude":50.110924,"longitude":8.682127,"reserved":0,"last_update":"0001-01-01T00:00:00Z","name_a2s":"Uncletopia | Frankfurt | 2 | All Maps","protocol":17,"map":"cp_coldfront","folder":"tf","game":"Team Fortress","app_id":440,"player_count":0,"max_players":24,"Bots":0,"server_type":"Dedicated","server_os":"Linux","password":true,"vac":true,"version":"7961495","steam_id":85568392924469990,"keywords":["cp","nocrits","nodmgspread","uncletopia"],"game_id":440,"stv_port":27026,"stv_name":"Uncletopia | Frankfurt | 2 | All Maps | STV","players":null},{"server_id":308,"name":"Uncletopia | Frankfurt | 3 | All Maps","name_short":"frk-3","host":"frk-1.de.uncletopia.com","port":27035,"enabled":true,"region":"eu","cc":"de","latitude":50.110924,"longitude":8.682127,"reserved":0,"last_update":"0001-01-01T00:00:00Z","name_a2s":"Uncletopia | Frankfurt | 3 | All Maps","protocol":17,"map":"plr_pipeline","folder":"tf","game":"Team Fortress","app_id":440,"player_count":0,"max_players":24,"Bots":0,"server_type":"Dedicated","server_os":"Linux","password":true,"vac":true,"version":"7961495","steam_id":85568392924504274,"keywords":["nocrits","nodmgspread","payload","uncletopia"],"game_id":440,"stv_port":27036,"stv_name":"Uncletopia | Frankfurt | 3 | All Maps | STV","players":null},{"server_id":309,"name":"Uncletopia | Frankfurt | 4 | All Maps","name_short":"frk-4","host":"frk-1.de.uncletopia.com","port":27045,"enabled":true,"region":"eu","cc":"de","latitude":50.110924,"longitude":8.682127,"reserved":0,"last_update":"0001-01-01T00:00:00Z","name_a2s":"Uncletopia | Frankfurt | 4 | All Maps","protocol":17,"map":"koth_lakeside_final","folder":"tf","game":"Team Fortress","app_id":440,"player_count":0,"max_players":24,"Bots":0,"server_type":"Dedicated","server_os":"Linux","password":true,"vac":true,"version":"7961495","steam_id":85568392924504275,"keywords":["cp","nocrits","nodmgspread","uncletopia"],"game_id":440,"stv_port":27046,"stv_name":"Uncletopia | Frankfurt | 4 | All Maps | STV","players":null},{"server_id":310,"name":"Uncletopia | Frankfurt | 5 | All Maps","name_short":"frk-5","host":"frk-1.de.uncletopia.com","port":27055,"enabled":true,"region":"eu","cc":"de","latitude":50.110924,"longitude":8.682127,"reserved":0,"last_update":"0001-01-01T00:00:00Z","name_a2s":"Uncletopia | Frankfurt | 5 | All Maps","protocol":17,"map":"ctf_landfall","folder":"tf","game":"Team Fortress","app_id":440,"player_count":0,"max_players":24,"Bots":0,"server_type":"Dedicated","server_os":"Linux","password":true,"vac":true,"version":"7961495","steam_id":85568392924504277,"keywords":["ctf","nocrits","nodmgspread","uncletopia"],"game_id":440,"stv_port":27056,"stv_name":"Uncletopia | Frankfurt | 5 | All Maps | STV","players":null},{"server_id":311,"name":"Uncletopia | Frankfurt | 6 | All Maps","name_short":"frk-6","host":"frk-1.de.uncletopia.com","port":27065,"enabled":true,"region":"eu","cc":"de","latitude":50.110924,"longitude":8.682127,"reserved":0,"last_update":"0001-01-01T00:00:00Z","name_a2s":"Uncletopia | Frankfurt | 6 | All Maps","protocol":17,"map":"cp_steel","folder":"tf","game":"Team Fortress","app_id":440,"player_count":0,"max_players":24,"Bots":0,"server_type":"Dedicated","server_os":"Linux","password":true,"vac":true,"version":"7961495","steam_id":85568392924504278,"keywords":["cp","nocrits","nodmgspread","uncletopia"],"game_id":440,"stv_port":27066,"stv_name":"Uncletopia | Frankfurt | 6 | All Maps | STV","players":null},{"server_id":23,"name":"Uncletopia | Frankfurt | 7 | Stopwatch","name_short":"frk-7","host":"frk-1.de.uncletopia.com","port":27075,"enabled":true,"region":"eu","cc":"de","latitude":50.110924,"longitude":8.682127,"reserved":0,"last_update":"0001-01-01T00:00:00Z","name_a2s":"Uncletopia | Frankfurt | 7 | Stopwatch","protocol":17,"map":"koth_highpass","folder":"tf","game":"Team Fortress","app_id":440,"player_count":0,"max_players":24,"Bots":0,"server_type":"Dedicated","server_os":"Linux","password":true,"vac":true,"version":"7961495","steam_id":85568392924742827,"keywords":["cp","nocrits","nodmgspread","uncletopia"],"game_id":440,"stv_port":27076,"stv_name":"Uncletopia | Frankfurt | 7 | Stopwatch | STV","players":null},{"server_id":24,"name":"Uncletopia | Frankfurt | 8 | Community","name_short":"frk-8","host":"frk-1.de.uncletopia.com","port":27085,"enabled":true,"region":"eu","cc":"de","latitude":50.110924,"longitude":8.682127,"reserved":0,"last_update":"0001-01-01T00:00:00Z","name_a2s":"Uncletopia | Frankfurt | 8 | Community","protocol":17,"map":"workshop/pl_stallberg_rc3.ugc1849111469","folder":"tf","game":"Team Fortress","app_id":440,"player_count":0,"max_players":24,"Bots":0,"server_type":"Dedicated","server_os":"Linux","password":true,"vac":true,"version":"7961495","steam_id":85568392924742828,"keywords":["nocrits","nodmgspread","payload","uncletopia"],"game_id":440,"stv_port":27086,"stv_name":"Uncletopia | Frankfurt | 8 | Community | STV","players":null},{"server_id":202,"name":"Uncletopia | Hong Kong | 1 | All Maps","name_short":"hgk-1","host":"hgk-1.hk.uncletopia.com","port":27015,"enabled":true,"region":"asia","cc":"hk","latitude":22.302711,"longitude":114.177216,"reserved":0,"last_update":"0001-01-01T00:00:00Z","name_a2s":"Uncletopia | Hong Kong | 1 | All Maps","protocol":17,"map":"pl_swiftwater_final1","folder":"tf","game":"Team Fortress","app_id":440,"player_count":7,"max_players":24,"Bots":0,"server_type":"Dedicated","server_os":"Linux","password":true,"vac":true,"version":"7961495","steam_id":85568392924494504,"keywords":["nocrits","nodmgspread","payload","uncletopia"],"game_id":440,"stv_port":27016,"stv_name":"Uncletopia | Hong Kong | 1 | All Maps | STV","players":[{"user_id":30,"name":"Joilee32","steam_id":76561199226255440,"connected_time":620000000000,"state":"active","ping":74},{"user_id":28,"name":"aLdousy","steam_id":76561198961693972,"connected_time":743000000000,"state":"active","ping":80},{"user_id":24,"name":"qingque","steam_id":76561198230213828,"connected_time":1132000000000,"state":"active","ping":53},{"user_id":35,"name":"wheatbread","steam_id":76561199158144436,"connected_time":71000000000,"state":"active","ping":63},{"user_id":32,"name":"pizza","steam_id":76561199166809031,"connected_time":466000000000,"state":"active","ping":117},{"user_id":19,"name":"longDswangin","steam_id":76561199507129264,"connected_time":1720000000000,"state":"active","ping":99},{"user_id":27,"name":"3wfFbdrjEze5d2G","steam_id":76561198435900451,"connected_time":924000000000,"state":"active","ping":111}]},{"server_id":1,"name":"Uncletopia | Los Angeles | 1 | All Maps","name_short":"lax-1","host":"lax-1.us.uncletopia.com","port":27015,"enabled":true,"region":"us-west","cc":"us","latitude":33.94279,"longitude":-118.41004,"reserved":0,"last_update":"0001-01-01T00:00:00Z","name_a2s":"Uncletopia | Los Angeles | 1 | All Maps","protocol":17,"map":"pl_badwater","folder":"tf","game":"Team Fortress","app_id":440,"player_count":24,"max_players":24,"Bots":0,"server_type":"Dedicated","server_os":"Linux","password":true,"vac":true,"version":"7961495","steam_id":85568392924469991,"keywords":["nocrits","nodmgspread","payload","uncletopia"],"game_id":440,"stv_port":27016,"stv_name":"Uncletopia | Los Angeles | 1 | All Maps | STV","players":[{"user_id":495,"name":"TheCarBeeper","steam_id":76561199365911101,"connected_time":1144000000000,"state":"active","ping":134},{"user_id":496,"name":"Genius Meme","steam_id":76561198162911254,"connected_time":1133000000000,"state":"active","ping":67},{"user_id":471,"name":"Ethanol Buttchugger","steam_id":76561199127590316,"connected_time":4126000000000,"state":"active","ping":51},{"user_id":499,"name":"Hotdoggiest","steam_id":76561198049420141,"connected_time":1095000000000,"state":"active","ping":46},{"user_id":476,"name":"himbomccree","steam_id":76561198373330850,"connected_time":3754000000000,"state":"active","ping":52},{"user_id":500,"name":"Kzjytsugn","steam_id":76561198130241974,"connected_time":1088000000000,"state":"active","ping":74},{"user_id":494,"name":"Silverman_Cam","steam_id":76561198936168937,"connected_time":1153000000000,"state":"active","ping":59},{"user_id":416,"name":"Toast","steam_id":76561198046669362,"connected_time":5793000000000,"state":"active","ping":91},{"user_id":490,"name":"unit","steam_id":76561198058033361,"connected_time":1755000000000,"state":"active","ping":50},{"user_id":485,"name":"Sasuri","steam_id":76561198404769732,"connected_time":2311000000000,"state":"active","ping":46},{"user_id":456,"name":"`o2","steam_id":76561197992030936,"connected_time":4464000000000,"state":"active","ping":104},{"user_id":497,"name":"NGsterson","steam_id":76561198162108154,"connected_time":1129000000000,"state":"active","ping":83},{"user_id":498,"name":"Attrition","steam_id":76561197969881916,"connected_time":1123000000000,"state":"active","ping":86},{"user_id":488,"name":"thatfoolralph","steam_id":76561199210333385,"connected_time":1957000000000,"state":"active","ping":60},{"user_id":473,"name":"Bitmap","steam_id":76561198285964424,"connected_time":4054000000000,"state":"active","ping":71},{"user_id":428,"name":"Jacasola","steam_id":76561198055460402,"connected_time":5508000000000,"state":"active","ping":60},{"user_id":491,"name":"Crustacean Daddy","steam_id":76561198993807061,"connected_time":1573000000000,"state":"active","ping":35},{"user_id":489,"name":"kaede","steam_id":76561198345528370,"connected_time":1771000000000,"state":"active","ping":45},{"user_id":435,"name":"rf","steam_id":76561198195359229,"connected_time":5449000000000,"state":"active","ping":75},{"user_id":484,"name":"Camohno","steam_id":76561198283519918,"connected_time":2770000000000,"state":"active","ping":74},{"user_id":486,"name":"glurp","steam_id":76561198065347016,"connected_time":2124000000000,"state":"active","ping":45},{"user_id":493,"name":"rilby","steam_id":76561198132755619,"connected_time":1345000000000,"state":"active","ping":40},{"user_id":492,"name":"moe","steam_id":76561198929586245,"connected_time":1572000000000,"state":"active","ping":51},{"user_id":487,"name":"Pixelated Pussy","steam_id":76561198002511088,"connected_time":1970000000000,"state":"active","ping":49}]},{"server_id":112,"name":"Uncletopia | Los Angeles | 2 | All Maps","name_short":"lax-2","host":"lax-1.us.uncletopia.com","port":27025,"enabled":true,"region":"us-west","cc":"us","latitude":33.94279,"longitude":-118.41004,"reserved":0,"last_update":"0001-01-01T00:00:00Z","name_a2s":"Uncletopia | Los Angeles | 2 | All Maps","protocol":17,"map":"pl_swiftwater_final1","folder":"tf","game":"Team Fortress","app_id":440,"player_count":25,"max_players":24,"Bots":0,"server_type":"Dedicated","server_os":"Linux","password":true,"vac":true,"version":"7961495","steam_id":85568392924469992,"keywords":["nocrits","nodmgspread","payload","uncletopia"],"game_id":440,"stv_port":27026,"stv_name":"Uncletopia | Los Angeles | 2 | All Maps | STV","players":[{"user_id":102,"name":"Neon1two","steam_id":76561199438197994,"connected_time":3268000000000,"state":"active","ping":62},{"user_id":200,"name":"James","steam_id":76561198098325427,"connected_time":380000000000,"state":"active","ping":46},{"user_id":199,"name":"maim","steam_id":76561198285819311,"connected_time":405000000000,"state":"active","ping":53},{"user_id":153,"name":"Grimm_Reaper164","steam_id":76561198848333297,"connected_time":1458000000000,"state":"active","ping":60},{"user_id":171,"name":"Artic_Ryuu","steam_id":76561198182194918,"connected_time":1042000000000,"state":"active","ping":41},{"user_id":98,"name":"skips","steam_id":76561198105075752,"connected_time":3317000000000,"state":"active","ping":66},{"user_id":209,"name":"HeroOfTime","steam_id":76561199096218001,"connected_time":12000000000,"state":"spawning","ping":56},{"user_id":155,"name":"Cinna Mon","steam_id":76561198005840633,"connected_time":1346000000000,"state":"active","ping":75},{"user_id":152,"name":"plastiquemonk","steam_id":76561198126035719,"connected_time":1588000000000,"state":"active","ping":59},{"user_id":210,"name":"marceline","steam_id":76561198170642407,"connected_time":5000000000,"state":"spawning","ping":118},{"user_id":22,"name":"legalize nuclear bombs","steam_id":76561198072789439,"connected_time":8287000000000,"state":"active","ping":75},{"user_id":160,"name":"Dr. Pepper","steam_id":76561198311249963,"connected_time":1265000000000,"state":"active","ping":59},{"user_id":157,"name":"Flavortown Thanos","steam_id":76561198004853966,"connected_time":1291000000000,"state":"active","ping":65},{"user_id":158,"name":"HumbDoe","steam_id":76561198065556553,"connected_time":1289000000000,"state":"active","ping":58},{"user_id":56,"name":"balls","steam_id":76561198058890821,"connected_time":7342000000000,"state":"active","ping":98},{"user_id":27,"name":"Omega\"Hell's Wall\"EXE","steam_id":76561198395291970,"connected_time":8042000000000,"state":"active","ping":53},{"user_id":159,"name":"Máquina de Fuego","steam_id":76561198119445407,"connected_time":1273000000000,"state":"active","ping":106},{"user_id":162,"name":"SolarusD","steam_id":76561198029279861,"connected_time":1223000000000,"state":"active","ping":54},{"user_id":163,"name":"Fands","steam_id":76561198122243735,"connected_time":1198000000000,"state":"active","ping":53},{"user_id":174,"name":"Jade","steam_id":76561198092408457,"connected_time":891000000000,"state":"active","ping":85},{"user_id":108,"name":"daveyf03","steam_id":76561198002970473,"connected_time":3237000000000,"state":"active","ping":47},{"user_id":164,"name":"TeeVeeGee","steam_id":76561198009869685,"connected_time":1185000000000,"state":"active","ping":52},{"user_id":169,"name":"Rascallyyy","steam_id":76561198184552369,"connected_time":1112000000000,"state":"active","ping":47},{"user_id":197,"name":"Ian","steam_id":76561198159334435,"connected_time":444000000000,"state":"active","ping":175},{"user_id":167,"name":"Antzen","steam_id":76561198041343470,"connected_time":1160000000000,"state":"active","ping":67}]},{"server_id":324,"name":"Uncletopia | Los Angeles | 3 | All Maps","name_short":"lax-3","host":"lax-1.us.uncletopia.com","port":27035,"enabled":true,"region":"us-west","cc":"us","latitude":33.94279,"longitude":-118.41004,"reserved":0,"last_update":"0001-01-01T00:00:00Z","name_a2s":"Uncletopia | Los Angeles | 3 | All Maps","protocol":17,"map":"koth_cascade","folder":"tf","game":"Team Fortress","app_id":440,"player_count":0,"max_players":24,"Bots":0,"server_type":"Dedicated","server_os":"Linux","password":true,"vac":true,"version":"7961495","steam_id":85568392924510198,"keywords":["cp","nocrits","nodmgspread","uncletopia"],"game_id":440,"stv_port":27036,"stv_name":"Uncletopia | Los Angeles | 3 | All Maps | STV","players":null},{"server_id":25,"name":"Uncletopia | Los Angeles | 4 | Stopwatch","name_short":"lax-4","host":"lax-1.us.uncletopia.com","port":27045,"enabled":true,"region":"us-west","cc":"us","latitude":33.94279,"longitude":-118.41004,"reserved":0,"last_update":"0001-01-01T00:00:00Z","name_a2s":"Uncletopia | Los Angeles | 4 | Stopwatch","protocol":17,"map":"pl_swiftwater_final1","folder":"tf","game":"Team Fortress","app_id":440,"player_count":0,"max_players":24,"Bots":0,"server_type":"Dedicated","server_os":"Linux","password":true,"vac":true,"version":"7961495","steam_id":85568392924510199,"keywords":["nocrits","nodmgspread","payload","uncletopia"],"game_id":440,"stv_port":27046,"stv_name":"Uncletopia | Los Angeles | 4 | Stopwatch | STV","players":null},{"server_id":11,"name":"Uncletopia | London | 1 | All Maps","name_short":"lon-1","host":"lon-1.uk.uncletopia.com","port":27015,"enabled":true,"region":"eu","cc":"gb","latitude":51.509865,"longitude":-0.118092,"reserved":0,"last_update":"0001-01-01T00:00:00Z","name_a2s":"Uncletopia | London | 1 | All Maps","protocol":17,"map":"koth_sawmill","folder":"tf","game":"Team Fortress","app_id":440,"player_count":0,"max_players":24,"Bots":0,"server_type":"Dedicated","server_os":"Linux","password":true,"vac":true,"version":"7961495","steam_id":85568392924367362,"keywords":["cp","nocrits","nodmgspread","uncletopia"],"game_id":440,"stv_port":27016,"stv_name":"Uncletopia | London | 1 | All Maps | STV","players":null},{"server_id":114,"name":"Uncletopia | London | 2 | All Maps","name_short":"lon-2","host":"lon-1.uk.uncletopia.com","port":27025,"enabled":true,"region":"eu","cc":"gb","latitude":51.509865,"longitude":-0.118092,"reserved":0,"last_update":"0001-01-01T00:00:00Z","name_a2s":"Uncletopia | London | 2 | All Maps","protocol":17,"map":"cp_mountainlab","folder":"tf","game":"Team Fortress","app_id":440,"player_count":0,"max_players":24,"Bots":0,"server_type":"Dedicated","server_os":"Linux","password":true,"vac":true,"version":"7961495","steam_id":85568392924470941,"keywords":["cp","nocrits","nodmgspread","uncletopia"],"game_id":440,"stv_port":27026,"stv_name":"Uncletopia | London | 2 | All Maps | STV","players":null},{"server_id":320,"name":"Uncletopia | London | 3 | All Maps","name_short":"lon-3","host":"lon-1.uk.uncletopia.com","port":27035,"enabled":true,"region":"eu","cc":"gb","latitude":51.509865,"longitude":-0.118092,"reserved":0,"last_update":"0001-01-01T00:00:00Z","name_a2s":"Uncletopia | London | 3 | All Maps","protocol":17,"map":"cp_mountainlab","folder":"tf","game":"Team Fortress","app_id":440,"player_count":0,"max_players":24,"Bots":0,"server_type":"Dedicated","server_os":"Linux","password":true,"vac":true,"version":"7961495","steam_id":85568392924510192,"keywords":["cp","nocrits","nodmgspread","uncletopia"],"game_id":440,"stv_port":27036,"stv_name":"Uncletopia | London | 3 | All Maps | STV","players":null},{"server_id":321,"name":"Uncletopia | London | 4 | All Maps","name_short":"lon-4","host":"lon-1.uk.uncletopia.com","port":27045,"enabled":true,"region":"eu","cc":"gb","latitude":51.509865,"longitude":-0.118092,"reserved":0,"last_update":"0001-01-01T00:00:00Z","name_a2s":"Uncletopia | London | 4 | All Maps","protocol":17,"map":"pl_badwater","folder":"tf","game":"Team Fortress","app_id":440,"player_count":0,"max_players":24,"Bots":0,"server_type":"Dedicated","server_os":"Linux","password":true,"vac":true,"version":"7961495","steam_id":85568392924510193,"keywords":["nocrits","nodmgspread","payload","uncletopia"],"game_id":440,"stv_port":27046,"stv_name":"Uncletopia | London | 4 | All Maps | STV","players":null},{"server_id":21,"name":"Uncletopia | London | 5 | All Maps","name_short":"lon-5","host":"lon-1.uk.uncletopia.com","port":27055,"enabled":true,"region":"eu","cc":"gb","latitude":51.509865,"longitude":-0.118092,"reserved":0,"last_update":"0001-01-01T00:00:00Z","name_a2s":"Uncletopia | London | 5 | All Maps","protocol":17,"map":"koth_suijin","folder":"tf","game":"Team Fortress","app_id":440,"player_count":0,"max_players":24,"Bots":0,"server_type":"Dedicated","server_os":"Linux","password":true,"vac":true,"version":"7961495","steam_id":85568392924742829,"keywords":["cp","nocrits","nodmgspread","uncletopia"],"game_id":440,"stv_port":27056,"stv_name":"Uncletopia | London | 5 | All Maps | STV","players":null},{"server_id":22,"name":"Uncletopia | London | 6 | All Maps","name_short":"lon-6","host":"lon-1.uk.uncletopia.com","port":27065,"enabled":true,"region":"eu","cc":"gb","latitude":51.509865,"longitude":-0.118092,"reserved":0,"last_update":"0001-01-01T00:00:00Z","name_a2s":"Uncletopia | London | 6 | All Maps","protocol":17,"map":"pl_frontier_final","folder":"tf","game":"Team Fortress","app_id":440,"player_count":0,"max_players":24,"Bots":0,"server_type":"Dedicated","server_os":"Linux","password":true,"vac":true,"version":"7961495","steam_id":85568392924742830,"keywords":["nocrits","nodmgspread","payload","uncletopia"],"game_id":440,"stv_port":27066,"stv_name":"Uncletopia | London | 6 | All Maps | STV","players":null},{"server_id":40,"name":"Uncletopia | London | 7 | Stopwatch","name_short":"lon-7","host":"lon-1.uk.uncletopia.com","port":27075,"enabled":true,"region":"eu","cc":"gb","latitude":51.509865,"longitude":-0.118092,"reserved":0,"last_update":"0001-01-01T00:00:00Z","name_a2s":"Uncletopia | London | 7 | Stopwatch","protocol":17,"map":"pl_swiftwater_final1","folder":"tf","game":"Team Fortress","app_id":440,"player_count":0,"max_players":24,"Bots":0,"server_type":"Dedicated","server_os":"Linux","password":true,"vac":true,"version":"7961495","steam_id":85568392924964314,"keywords":["nocrits","nodmgspread","payload","uncletopia"],"game_id":440,"stv_port":27076,"stv_name":"Uncletopia | London | 7 | Stopwatch | STV","players":null},{"server_id":41,"name":"Uncletopia | London | 8 | Community","name_short":"lon-8","host":"lon-1.uk.uncletopia.com","port":27085,"enabled":true,"region":"eu","cc":"gb","latitude":51.509865,"longitude":-0.118092,"reserved":0,"last_update":"0001-01-01T00:00:00Z","name_a2s":"Uncletopia | London | 8 | Community","protocol":17,"map":"workshop/cp_propaganda_b18.ugc1603743849","folder":"tf","game":"Team Fortress","app_id":440,"player_count":0,"max_players":24,"Bots":0,"server_type":"Dedicated","server_os":"Linux","password":true,"vac":true,"version":"7961495","steam_id":85568392924964315,"keywords":["cp","nocrits","nodmgspread","uncletopia"],"game_id":440,"stv_port":27086,"stv_name":"Uncletopia | London | 8 | Community | STV","players":null},{"server_id":300,"name":"Uncletopia | Montréal | 1 | One Thousand Uncles","name_short":"mtl-1","host":"mtl-1.ca.uncletopia.com","port":27015,"enabled":true,"region":"us-east","cc":"ca","latitude":45.50889,"longitude":-73.56167,"reserved":0,"last_update":"0001-01-01T00:00:00Z","name_a2s":"Uncletopia | Montréal | 1 | One Thousand Uncles","protocol":17,"map":"cp_dustbowl","folder":"tf","game":"Team Fortress","app_id":440,"player_count":0,"max_players":32,"Bots":0,"server_type":"Dedicated","server_os":"Linux","password":true,"vac":true,"version":"7961495","steam_id":85568392924500087,"keywords":["alltalk","cp","danepve","increased_maxplayers","norespawntime","uncletopia"],"game_id":440,"stv_port":0,"stv_name":"","players":null},{"server_id":301,"name":"Uncletopia | Montréal | 2 | One Thousand Uncles","name_short":"mtl-2","host":"mtl-1.ca.uncletopia.com","port":27025,"enabled":true,"region":"us-east","cc":"ca","latitude":45.50889,"longitude":-73.56167,"reserved":0,"last_update":"0001-01-01T00:00:00Z","name_a2s":"Uncletopia | Montréal | 2 | One Thousand Uncles","protocol":17,"map":"pl_snowycoast","folder":"tf","game":"Team Fortress","app_id":440,"player_count":21,"max_players":32,"Bots":20,"server_type":"Dedicated","server_os":"Linux","password":true,"vac":true,"version":"7961495","steam_id":85568392924500088,"keywords":["alltalk","bots","danepve","increased_maxplayers","norespawntime","payload","uncletopia"],"game_id":440,"stv_port":0,"stv_name":"","players":[{"user_id":248,"name":"Sogger3K","steam_id":76561198011822992,"connected_time":836000000000,"state":"active","ping":155}]},{"server_id":302,"name":"Uncletopia | Montréal | 3 | One Thousand Uncles","name_short":"mtl-3","host":"mtl-1.ca.uncletopia.com","port":27035,"enabled":true,"region":"us-east","cc":"ca","latitude":45.50889,"longitude":-73.56167,"reserved":0,"last_update":"0001-01-01T00:00:00Z","name_a2s":"Uncletopia | Montréal | 3 | One Thousand Uncles","protocol":17,"map":"pl_upward","folder":"tf","game":"Team Fortress","app_id":440,"player_count":0,"max_players":32,"Bots":0,"server_type":"Dedicated","server_os":"Linux","password":true,"vac":true,"version":"7961495","steam_id":85568392924500089,"keywords":["alltalk","danepve","increased_maxplayers","norespawntime","payload","uncletopia"],"game_id":440,"stv_port":0,"stv_name":"","players":null},{"server_id":13,"name":"Uncletopia | New York City | 1 | All Maps","name_short":"nyc-1","host":"nyc-1.us.uncletopia.com","port":27015,"enabled":true,"region":"us-east","cc":"us","latitude":40.73061,"longitude":-73.93524,"reserved":0,"last_update":"0001-01-01T00:00:00Z","name_a2s":"Uncletopia | New York City | 1 | All Maps","protocol":17,"map":"pl_snowycoast","folder":"tf","game":"Team Fortress","app_id":440,"player_count":0,"max_players":24,"Bots":0,"server_type":"Dedicated","server_os":"Linux","password":true,"vac":true,"version":"7961495","steam_id":85568392924469993,"keywords":["nocrits","nodmgspread","payload","uncletopia"],"game_id":440,"stv_port":27016,"stv_name":"Uncletopia | New York City | 1 | All Maps | STV","players":null},{"server_id":14,"name":"Uncletopia | New York City | 2 | All Maps","name_short":"nyc-2","host":"nyc-1.us.uncletopia.com","port":27025,"enabled":true,"region":"us-east","cc":"us","latitude":40.73061,"longitude":-73.93524,"reserved":0,"last_update":"0001-01-01T00:00:00Z","name_a2s":"Uncletopia | New York City | 2 | All Maps","protocol":17,"map":"pl_borneo","folder":"tf","game":"Team Fortress","app_id":440,"player_count":9,"max_players":24,"Bots":0,"server_type":"Dedicated","server_os":"Linux","password":true,"vac":true,"version":"7961495","steam_id":85568392924469994,"keywords":["nocrits","nodmgspread","payload","uncletopia"],"game_id":440,"stv_port":27026,"stv_name":"Uncletopia | New York City | 2 | All Maps | STV","players":[{"user_id":321,"name":"Asuka Gaming","steam_id":76561199196282806,"connected_time":1218000000000,"state":"active","ping":69},{"user_id":297,"name":"Tommy","steam_id":76561198441903172,"connected_time":3189000000000,"state":"active","ping":74},{"user_id":298,"name":"BPU","steam_id":76561198163365343,"connected_time":3106000000000,"state":"active","ping":113},{"user_id":296,"name":"Arto","steam_id":76561198153359093,"connected_time":3254000000000,"state":"active","ping":77},{"user_id":325,"name":"cavae","steam_id":76561199092677510,"connected_time":587000000000,"state":"active","ping":35},{"user_id":326,"name":"Asanez3","steam_id":76561198037381436,"connected_time":98000000000,"state":"active","ping":56},{"user_id":324,"name":"Trackster","steam_id":76561199068180016,"connected_time":1008000000000,"state":"active","ping":130},{"user_id":303,"name":"HiddenEgg","steam_id":76561199045105518,"connected_time":2988000000000,"state":"active","ping":105},{"user_id":320,"name":"Australian Mafia","steam_id":76561198157322314,"connected_time":1406000000000,"state":"active","ping":70}]},{"server_id":15,"name":"Uncletopia | New York City | 3 | Stopwatch","name_short":"nyc-3","host":"nyc-1.us.uncletopia.com","port":27035,"enabled":true,"region":"us-east","cc":"us","latitude":40.73061,"longitude":-73.93524,"reserved":0,"last_update":"0001-01-01T00:00:00Z","name_a2s":"Uncletopia | New York City | 3 | Stopwatch","protocol":17,"map":"workshop/koth_clearcut_b15.ugc2107050255","folder":"tf","game":"Team Fortress","app_id":440,"player_count":0,"max_players":24,"Bots":0,"server_type":"Dedicated","server_os":"Linux","password":true,"vac":true,"version":"7961495","steam_id":85568392924742820,"keywords":["cp","nocrits","nodmgspread","uncletopia"],"game_id":440,"stv_port":27036,"stv_name":"Uncletopia | New York City | 3 | Stopwatch | STV","players":null},{"server_id":16,"name":"Uncletopia | New York City | 4 | Community","name_short":"nyc-4","host":"nyc-1.us.uncletopia.com","port":27045,"enabled":true,"region":"us-east","cc":"us","latitude":40.73061,"longitude":-73.93524,"reserved":0,"last_update":"0001-01-01T00:00:00Z","name_a2s":"Uncletopia | New York City | 4 | Community","protocol":17,"map":"workshop/cp_overgrown_rc8.ugc503939302","folder":"tf","game":"Team Fortress","app_id":440,"player_count":0,"max_players":24,"Bots":0,"server_type":"Dedicated","server_os":"Linux","password":true,"vac":true,"version":"7961495","steam_id":85568392924742821,"keywords":["cp","nocrits","nodmgspread","uncletopia"],"game_id":440,"stv_port":27046,"stv_name":"Uncletopia | New York City | 4 | Community | STV","players":null},{"server_id":142,"name":"Uncletopia | São Paulo | 1 | All Maps","name_short":"sao-1","host":"sao-1.br.uncletopia.com","port":27015,"enabled":true,"region":"sa","cc":"br","latitude":-23.533773,"longitude":-46.62529,"reserved":0,"last_update":"0001-01-01T00:00:00Z","name_a2s":"Uncletopia | São Paulo | 1 | All Maps","protocol":17,"map":"cp_snakewater_final1","folder":"tf","game":"Team Fortress","app_id":440,"player_count":0,"max_players":24,"Bots":0,"server_type":"Dedicated","server_os":"Linux","password":true,"vac":true,"version":"7961495","steam_id":85568392924469996,"keywords":["cp","nocrits","nodmgspread","uncletopia"],"game_id":440,"stv_port":27016,"stv_name":"Uncletopia | São Paulo | 1 | All Maps | STV","players":null},{"server_id":143,"name":"Uncletopia | São Paulo | 2 | Community","name_short":"sao-2","host":"sao-2.br.uncletopia.com","port":27015,"enabled":true,"region":"sa","cc":"br","latitude":-23.533773,"longitude":-46.62529,"reserved":0,"last_update":"0001-01-01T00:00:00Z","name_a2s":"Uncletopia | São Paulo | 2 | Community","protocol":17,"map":"workshop/koth_slaughter_rc1.ugc1712845210","folder":"tf","game":"Team Fortress","app_id":440,"player_count":0,"max_players":24,"Bots":0,"server_type":"Dedicated","server_os":"Linux","password":true,"vac":true,"version":"7961495","steam_id":85568392924485349,"keywords":["cp","nocrits","nodmgspread","uncletopia"],"game_id":440,"stv_port":27016,"stv_name":"Uncletopia | São Paulo | 2 | Community | STV","players":null},{"server_id":7,"name":"Uncletopia | Seattle | 1 | All Maps","name_short":"sea-1","host":"sea-1.us.uncletopia.com","port":27015,"enabled":true,"region":"us-west","cc":"us","latitude":47.608013,"longitude":-122.33517,"reserved":0,"last_update":"0001-01-01T00:00:00Z","name_a2s":"Uncletopia | Seattle | 1 | All Maps","protocol":17,"map":"cp_junction_final","folder":"tf","game":"Team Fortress","app_id":440,"player_count":24,"max_players":24,"Bots":0,"server_type":"Dedicated","server_os":"Linux","password":true,"vac":true,"version":"7961495","steam_id":85568392924469997,"keywords":["cp","nocrits","nodmgspread","uncletopia"],"game_id":440,"stv_port":27016,"stv_name":"Uncletopia | Seattle | 1 | All Maps | STV","players":[{"user_id":593,"name":"opa","steam_id":76561199025343494,"connected_time":841000000000,"state":"active","ping":93},{"user_id":599,"name":"slip'n jimbo","steam_id":76561198094524656,"connected_time":712000000000,"state":"active","ping":64},{"user_id":576,"name":"Wavelengths","steam_id":76561197997621320,"connected_time":2092000000000,"state":"active","ping":75},{"user_id":522,"name":"Nom Skirrett","steam_id":76561198014600788,"connected_time":7192000000000,"state":"active","ping":61},{"user_id":592,"name":"KrageSpawn","steam_id":76561199214730628,"connected_time":858000000000,"state":"active","ping":78},{"user_id":493,"name":"ᴿᴺᴳ tofu","steam_id":76561198179138047,"connected_time":9245000000000,"state":"active","ping":74},{"user_id":606,"name":"Scrumfel Nutz","steam_id":76561198123286409,"connected_time":406000000000,"state":"active","ping":52},{"user_id":601,"name":"Sanguimancer","steam_id":76561198095634738,"connected_time":624000000000,"state":"active","ping":51},{"user_id":613,"name":"edgebug b-roll","steam_id":76561198043558709,"connected_time":87000000000,"state":"active","ping":46},{"user_id":528,"name":"The King of Piss World","steam_id":76561198082806956,"connected_time":7027000000000,"state":"active","ping":116},{"user_id":607,"name":"Peppy","steam_id":76561198866629645,"connected_time":330000000000,"state":"active","ping":56},{"user_id":575,"name":"Harvey J. Figglemeister","steam_id":76561198441916331,"connected_time":2092000000000,"state":"active","ping":50},{"user_id":608,"name":"Ok then","steam_id":76561198891914787,"connected_time":303000000000,"state":"active","ping":88},{"user_id":600,"name":"Fuzzybricks","steam_id":76561198995746338,"connected_time":691000000000,"state":"active","ping":60},{"user_id":602,"name":"canadian birds","steam_id":76561198059466588,"connected_time":574000000000,"state":"active","ping":121},{"user_id":525,"name":"TROY","steam_id":76561197983852176,"connected_time":7137000000000,"state":"active","ping":77},{"user_id":612,"name":"Rareven_Kind","steam_id":76561198274517904,"connected_time":175000000000,"state":"active","ping":135},{"user_id":610,"name":"Zappa","steam_id":76561198120658063,"connected_time":252000000000,"state":"active","ping":52},{"user_id":604,"name":"crunchy obama","steam_id":76561198044485217,"connected_time":538000000000,"state":"active","ping":172},{"user_id":597,"name":"Brah","steam_id":76561198265114467,"connected_time":764000000000,"state":"active","ping":91},{"user_id":598,"name":"KindlyRaze","steam_id":76561198159660970,"connected_time":762000000000,"state":"active","ping":107},{"user_id":580,"name":"Escher","steam_id":76561198045058061,"connected_time":2058000000000,"state":"active","ping":33},{"user_id":549,"name":"cerious","steam_id":76561197994365894,"connected_time":4600000000000,"state":"active","ping":37},{"user_id":503,"name":"DaddyGalaxy","steam_id":76561198139697796,"connected_time":8477000000000,"state":"active","ping":57}]},{"server_id":119,"name":"Uncletopia | Seattle | 2 | All Maps","name_short":"sea-2","host":"sea-1.us.uncletopia.com","port":27025,"enabled":true,"region":"us-west","cc":"us","latitude":47.608013,"longitude":-122.33517,"reserved":0,"last_update":"0001-01-01T00:00:00Z","name_a2s":"Uncletopia | Seattle | 2 | All Maps","protocol":17,"map":"pl_badwater","folder":"tf","game":"Team Fortress","app_id":440,"player_count":24,"max_players":24,"Bots":0,"server_type":"Dedicated","server_os":"Linux","password":true,"vac":true,"version":"7961495","steam_id":85568392924469998,"keywords":["nocrits","nodmgspread","payload","uncletopia"],"game_id":440,"stv_port":27026,"stv_name":"Uncletopia | Seattle | 2 | All Maps | STV","players":[{"user_id":394,"name":"josie","steam_id":76561198170848553,"connected_time":234000000000,"state":"active","ping":45},{"user_id":375,"name":"DethSQRL","steam_id":76561199149628610,"connected_time":1216000000000,"state":"active","ping":120},{"user_id":378,"name":"Furikuri","steam_id":76561197998277739,"connected_time":948000000000,"state":"active","ping":46},{"user_id":258,"name":"ghor","steam_id":76561197994547132,"connected_time":8547000000000,"state":"active","ping":31},{"user_id":388,"name":"Rizzo The Rat","steam_id":76561199013385536,"connected_time":385000000000,"state":"active","ping":93},{"user_id":383,"name":"thunderous prophet","steam_id":76561198131166135,"connected_time":505000000000,"state":"active","ping":36},{"user_id":333,"name":"tf2 to trans pipeline exists","steam_id":76561198017840333,"connected_time":4450000000000,"state":"active","ping":100},{"user_id":393,"name":"sheep","steam_id":76561198994761483,"connected_time":280000000000,"state":"active","ping":91},{"user_id":384,"name":"Meatball Obsessed Demoman","steam_id":76561198253325844,"connected_time":503000000000,"state":"active","ping":52},{"user_id":380,"name":"BLITZ","steam_id":76561198980779200,"connected_time":885000000000,"state":"active","ping":113},{"user_id":395,"name":"dumbeeon","steam_id":76561198059351874,"connected_time":217000000000,"state":"active","ping":76},{"user_id":353,"name":"[Industrial] A_HUMBLEBUMBLED","steam_id":76561198064771878,"connected_time":2887000000000,"state":"active","ping":39},{"user_id":381,"name":"trackpad gaming | f2p","steam_id":76561198840414371,"connected_time":871000000000,"state":"active","ping":57},{"user_id":358,"name":"me when","steam_id":76561198256701755,"connected_time":2489000000000,"state":"active","ping":62},{"user_id":396,"name":"mr.edderkopper","steam_id":76561198152614478,"connected_time":208000000000,"state":"active","ping":105},{"user_id":344,"name":"Day Man","steam_id":76561198067154807,"connected_time":3637000000000,"state":"active","ping":45},{"user_id":390,"name":"mohamy_19","steam_id":76561198075833698,"connected_time":373000000000,"state":"active","ping":72},{"user_id":397,"name":"Beef Wellington","steam_id":76561197995635241,"connected_time":192000000000,"state":"active","ping":175},{"user_id":398,"name":"MyMonkeyBaby","steam_id":76561198046896670,"connected_time":156000000000,"state":"active","ping":61},{"user_id":374,"name":"Keamy","steam_id":76561199471434875,"connected_time":1388000000000,"state":"active","ping":45},{"user_id":399,"name":"Maximum","steam_id":76561198868983813,"connected_time":133000000000,"state":"active","ping":66},{"user_id":357,"name":"Kipper","steam_id":76561198008515450,"connected_time":2503000000000,"state":"active","ping":78},{"user_id":391,"name":"bbbbb","steam_id":76561198095480838,"connected_time":367000000000,"state":"active","ping":57},{"user_id":392,"name":"rorywashere /ᐠ - ˕ -マ Ⳋ","steam_id":76561198065825165,"connected_time":334000000000,"state":"active","ping":121}]},{"server_id":406,"name":"Uncletopia | Seattle | 3 | Stopwatch","name_short":"sea-3","host":"sea-1.us.uncletopia.com","port":27035,"enabled":true,"region":"us-west","cc":"us","latitude":47.608013,"longitude":-122.33517,"reserved":0,"last_update":"0001-01-01T00:00:00Z","name_a2s":"Uncletopia | Seattle | 3 | Stopwatch","protocol":17,"map":"cp_gullywash_final1","folder":"tf","game":"Team Fortress","app_id":440,"player_count":0,"max_players":24,"Bots":0,"server_type":"Dedicated","server_os":"Linux","password":true,"vac":true,"version":"7961495","steam_id":85568392924515217,"keywords":["cp","nocrits","nodmgspread","uncletopia"],"game_id":440,"stv_port":27036,"stv_name":"Uncletopia | Seattle | 3 | Stopwatch | STV","players":null},{"server_id":17,"name":"Uncletopia | San Francisco | 1 | All Maps","name_short":"sfo-1","host":"sfo-1.us.uncletopia.com","port":27015,"enabled":true,"region":"us-west","cc":"us","latitude":37.77397,"longitude":-122.4313,"reserved":0,"last_update":"0001-01-01T00:00:00Z","name_a2s":"Uncletopia | San Francisco | 1 | All Maps","protocol":17,"map":"pl_borneo","folder":"tf","game":"Team Fortress","app_id":440,"player_count":18,"max_players":24,"Bots":0,"server_type":"Dedicated","server_os":"Linux","password":true,"vac":true,"version":"7961495","steam_id":85568392924469999,"keywords":["nocrits","nodmgspread","payload","uncletopia"],"game_id":440,"stv_port":27016,"stv_name":"Uncletopia | San Francisco | 1 | All Maps | STV","players":[{"user_id":237,"name":"bad spy player","steam_id":76561198873699671,"connected_time":2246000000000,"state":"active","ping":62},{"user_id":263,"name":"the meat man","steam_id":76561198037921140,"connected_time":531000000000,"state":"active","ping":45},{"user_id":274,"name":"Zozbieta","steam_id":76561198010336265,"connected_time":12000000000,"state":"active","ping":79},{"user_id":199,"name":"Ignited","steam_id":76561199187126295,"connected_time":4102000000000,"state":"active","ping":70},{"user_id":226,"name":"Lambchop","steam_id":76561198043900363,"connected_time":2694000000000,"state":"active","ping":57},{"user_id":234,"name":"lker","steam_id":76561197976975075,"connected_time":2367000000000,"state":"active","ping":82},{"user_id":268,"name":"monsterkill4567","steam_id":76561198272986367,"connected_time":466000000000,"state":"active","ping":53},{"user_id":272,"name":"ahota","steam_id":76561198176720465,"connected_time":417000000000,"state":"active","ping":51},{"user_id":256,"name":"rebogabe1012","steam_id":76561198951543508,"connected_time":733000000000,"state":"active","ping":62},{"user_id":225,"name":"Yaoi Boy Princess","steam_id":76561197997343746,"connected_time":2770000000000,"state":"active","ping":40},{"user_id":255,"name":"FaceLaces","steam_id":76561198194417725,"connected_time":800000000000,"state":"active","ping":53},{"user_id":257,"name":"jerrit0513","steam_id":76561199174617755,"connected_time":707000000000,"state":"active","ping":72},{"user_id":258,"name":"U fool","steam_id":76561199180190596,"connected_time":698000000000,"state":"active","ping":61},{"user_id":273,"name":"SkadooshPlayz","steam_id":76561198310986662,"connected_time":24000000000,"state":"active","ping":66},{"user_id":260,"name":"shakoiwa","steam_id":76561199059441773,"connected_time":563000000000,"state":"active","ping":112},{"user_id":266,"name":"Mapachito Lindo","steam_id":76561198031359995,"connected_time":495000000000,"state":"active","ping":65},{"user_id":270,"name":"OrangeShoes","steam_id":76561197971249940,"connected_time":462000000000,"state":"active","ping":109},{"user_id":239,"name":"|ərsatz|","steam_id":76561198011583236,"connected_time":2189000000000,"state":"active","ping":63}]},{"server_id":18,"name":"Uncletopia | San Francisco | 2 | All Maps","name_short":"sfo-2","host":"sfo-1.us.uncletopia.com","port":27025,"enabled":true,"region":"us-west","cc":"us","latitude":37.77397,"longitude":-122.4313,"reserved":0,"last_update":"0001-01-01T00:00:00Z","name_a2s":"Uncletopia | San Francisco | 2 | All Maps","protocol":17,"map":"cp_snakewater_final1","folder":"tf","game":"Team Fortress","app_id":440,"player_count":0,"max_players":24,"Bots":0,"server_type":"Dedicated","server_os":"Linux","password":true,"vac":true,"version":"7961495","steam_id":85568392924470000,"keywords":["cp","nocrits","nodmgspread","uncletopia"],"game_id":440,"stv_port":27026,"stv_name":"Uncletopia | San Francisco | 2 | All Maps | STV","players":null},{"server_id":19,"name":"Uncletopia | San Francisco | 3 | Stopwatch","name_short":"sfo-3","host":"sfo-1.us.uncletopia.com","port":27035,"enabled":true,"region":"us-west","cc":"us","latitude":37.77397,"longitude":-122.4313,"reserved":0,"last_update":"0001-01-01T00:00:00Z","name_a2s":"Uncletopia | San Francisco | 3 | Stopwatch","protocol":17,"map":"workshop/koth_bagel_rc6.ugc2514036946","folder":"tf","game":"Team Fortress","app_id":440,"player_count":0,"max_players":24,"Bots":0,"server_type":"Dedicated","server_os":"Linux","password":true,"vac":true,"version":"7961495","steam_id":85568392924742824,"keywords":["cp","nocrits","nodmgspread","uncletopia"],"game_id":440,"stv_port":27036,"stv_name":"Uncletopia | San Francisco | 3 | Stopwatch | STV","players":null},{"server_id":20,"name":"Uncletopia | San Francisco | 4 | Community","name_short":"sfo-4","host":"sfo-1.us.uncletopia.com","port":27045,"enabled":true,"region":"us-west","cc":"us","latitude":37.77397,"longitude":-122.4313,"reserved":0,"last_update":"0001-01-01T00:00:00Z","name_a2s":"Uncletopia | San Francisco | 4 | Community","protocol":17,"map":"workshop/cp_hazyfort_rc6.ugc1365963729","folder":"tf","game":"Team Fortress","app_id":440,"player_count":0,"max_players":24,"Bots":0,"server_type":"Dedicated","server_os":"Linux","password":true,"vac":true,"version":"7961495","steam_id":85568392924742826,"keywords":["cp","nocrits","nodmgspread","uncletopia"],"game_id":440,"stv_port":27046,"stv_name":"Uncletopia | San Francisco | 4 | Community | STV","players":null},{"server_id":141,"name":"Uncletopia | Sydney | 1 | All Maps","name_short":"syd-1","host":"syd-1.au.uncletopia.com","port":27015,"enabled":true,"region":"au","cc":"au","latitude":-33.865143,"longitude":151.2099,"reserved":0,"last_update":"0001-01-01T00:00:00Z","name_a2s":"Uncletopia | Sydney | 1 | All Maps","protocol":17,"map":"pl_upward","folder":"tf","game":"Team Fortress","app_id":440,"player_count":0,"max_players":24,"Bots":0,"server_type":"Dedicated","server_os":"Linux","password":true,"vac":true,"version":"7961495","steam_id":85568392924470001,"keywords":["nocrits","nodmgspread","payload","uncletopia"],"game_id":440,"stv_port":27016,"stv_name":"Uncletopia | Sydney | 1 | All Maps | STV","players":null},{"server_id":123,"name":"Uncletopia | Sydney | 2 | All Maps","name_short":"syd-2","host":"syd-1.au.uncletopia.com","port":27025,"enabled":true,"region":"au","cc":"au","latitude":-33.865143,"longitude":151.2099,"reserved":0,"last_update":"0001-01-01T00:00:00Z","name_a2s":"Uncletopia | Sydney | 2 | All Maps","protocol":17,"map":"koth_highpass","folder":"tf","game":"Team Fortress","app_id":440,"player_count":0,"max_players":24,"Bots":0,"server_type":"Dedicated","server_os":"Linux","password":true,"vac":true,"version":"7961495","steam_id":85568392924470002,"keywords":["cp","nocrits","nodmgspread","uncletopia"],"game_id":440,"stv_port":27026,"stv_name":"Uncletopia | Sydney | 2 | All Maps | STV","players":null},{"server_id":395,"name":"Uncletopia | Sydney | 3 | All Maps","name_short":"syd-3","host":"syd-1.au.uncletopia.com","port":27035,"enabled":true,"region":"au","cc":"au","latitude":-33.865143,"longitude":151.2099,"reserved":0,"last_update":"0001-01-01T00:00:00Z","name_a2s":"Uncletopia | Sydney | 3 | All Maps","protocol":17,"map":"pl_upward","folder":"tf","game":"Team Fortress","app_id":440,"player_count":8,"max_players":24,"Bots":0,"server_type":"Dedicated","server_os":"Linux","password":true,"vac":true,"version":"7961495","steam_id":85568392925194467,"keywords":["nocrits","nodmgspread","payload","uncletopia"],"game_id":440,"stv_port":27036,"stv_name":"Uncletopia | Sydney | 3 | All Maps | STV","players":[{"user_id":13,"name":"CETERA .zap","steam_id":76561197986022470,"connected_time":6519000000000,"state":"active","ping":61},{"user_id":29,"name":"impish","steam_id":76561198103237216,"connected_time":2248000000000,"state":"active","ping":75},{"user_id":42,"name":"Wonk","steam_id":76561198153116520,"connected_time":326000000000,"state":"active","ping":60},{"user_id":31,"name":"TrackBall Mouse Gaming","steam_id":76561198336090528,"connected_time":1802000000000,"state":"active","ping":47},{"user_id":39,"name":"paganini in your era","steam_id":76561199394678233,"connected_time":647000000000,"state":"active","ping":297},{"user_id":43,"name":"Dawaj Polewaj!","steam_id":76561199090168813,"connected_time":116000000000,"state":"active","ping":52},{"user_id":40,"name":"grieveous","steam_id":76561198038427562,"connected_time":604000000000,"state":"active","ping":46},{"user_id":44,"name":"that korean guy","steam_id":76561198110767163,"connected_time":84000000000,"state":"active","ping":44}]},{"server_id":396,"name":"Uncletopia | Sydney | 4 | All Maps","name_short":"syd-4","host":"syd-1.au.uncletopia.com","port":27045,"enabled":true,"region":"au","cc":"au","latitude":-33.865143,"longitude":151.2099,"reserved":0,"last_update":"0001-01-01T00:00:00Z","name_a2s":"Uncletopia | Sydney | 4 | All Maps","protocol":17,"map":"koth_lakeside_final","folder":"tf","game":"Team Fortress","app_id":440,"player_count":0,"max_players":24,"Bots":0,"server_type":"Dedicated","server_os":"Linux","password":true,"vac":true,"version":"7961495","steam_id":85568392925397958,"keywords":["cp","nocrits","nodmgspread","uncletopia"],"game_id":440,"stv_port":27046,"stv_name":"Uncletopia | Sydney | 4 | All Maps | STV","players":null},{"server_id":58,"name":"Uncletopia | Sydney | 5 | Stopwatch","name_short":"syd-5","host":"syd-1.au.uncletopia.com","port":27055,"enabled":true,"region":"au","cc":"au","latitude":-33.865143,"longitude":151.2099,"reserved":0,"last_update":"0001-01-01T00:00:00Z","name_a2s":"Uncletopia | Sydney | 5 | Stopwatch","protocol":17,"map":"koth_highpass","folder":"tf","game":"Team Fortress","app_id":440,"player_count":0,"max_players":24,"Bots":0,"server_type":"Dedicated","server_os":"Linux","password":true,"vac":true,"version":"7961495","steam_id":85568392925397959,"keywords":["cp","nocrits","nodmgspread","uncletopia"],"game_id":440,"stv_port":27056,"stv_name":"Uncletopia | Sydney | 5 | Stopwatch | STV","players":null},{"server_id":59,"name":"Uncletopia | Sydney | 6 | Community","name_short":"syd-6","host":"syd-1.au.uncletopia.com","port":27065,"enabled":true,"region":"au","cc":"au","latitude":-33.865143,"longitude":151.2099,"reserved":0,"last_update":"0001-01-01T00:00:00Z","name_a2s":"Uncletopia | Sydney | 6 | Community","protocol":17,"map":"workshop/koth_soot_final1.ugc2969540689","folder":"tf","game":"Team Fortress","app_id":440,"player_count":0,"max_players":24,"Bots":0,"server_type":"Dedicated","server_os":"Linux","password":true,"vac":true,"version":"7961495","steam_id":85568392925397960,"keywords":["cp","nocrits","nodmgspread","uncletopia"],"game_id":440,"stv_port":27066,"stv_name":"Uncletopia | Sydney | 6 | Community | STV","players":null},{"server_id":49,"name":"Uncletopia | Warsaw | 1 | One Thousand Uncles","name_short":"waw-1","host":"waw-1.pl.uncletopia.com","port":27015,"enabled":true,"region":"eu","cc":"pl","latitude":52.2297,"longitude":21.017532,"reserved":0,"last_update":"0001-01-01T00:00:00Z","name_a2s":"Uncletopia | Warsaw | 1 | One Thousand Uncles","protocol":17,"map":"cp_egypt_final","folder":"tf","game":"Team Fortress","app_id":440,"player_count":0,"max_players":32,"Bots":0,"server_type":"Dedicated","server_os":"Linux","password":true,"vac":true,"version":"7961495","steam_id":85568392925397850,"keywords":["alltalk","cp","danepve","increased_maxplayers","norespawntime","uncletopia"],"game_id":440,"stv_port":0,"stv_name":"","players":null},{"server_id":50,"name":"Uncletopia | Warsaw | 2 | One Thousand Uncles","name_short":"waw-2","host":"waw-1.pl.uncletopia.com","port":27025,"enabled":true,"region":"eu","cc":"pl","latitude":52.2297,"longitude":21.017532,"reserved":0,"last_update":"0001-01-01T00:00:00Z","name_a2s":"Uncletopia | Warsaw | 2 | One Thousand Uncles","protocol":17,"map":"pl_pier","folder":"tf","game":"Team Fortress","app_id":440,"player_count":0,"max_players":32,"Bots":0,"server_type":"Dedicated","server_os":"Linux","password":true,"vac":true,"version":"7961495","steam_id":85568392925397851,"keywords":["alltalk","danepve","increased_maxplayers","norespawntime","payload","uncletopia"],"game_id":440,"stv_port":0,"stv_name":"","players":null},{"server_id":51,"name":"Uncletopia | Warsaw | 3 | All Maps","name_short":"waw-3","host":"waw-1.pl.uncletopia.com","port":27035,"enabled":true,"region":"eu","cc":"pl","latitude":52.2297,"longitude":21.017532,"reserved":0,"last_update":"0001-01-01T00:00:00Z","name_a2s":"Uncletopia | Warsaw | 3 | All Maps","protocol":17,"map":"pl_frontier_final","folder":"tf","game":"Team Fortress","app_id":440,"player_count":0,"max_players":24,"Bots":0,"server_type":"Dedicated","server_os":"Linux","password":true,"vac":true,"version":"7961495","steam_id":85568392925397852,"keywords":["nocrits","nodmgspread","payload","uncletopia"],"game_id":440,"stv_port":27036,"stv_name":"Uncletopia | Warsaw | 3 | All Maps | STV","players":null},{"server_id":52,"name":"Uncletopia | Warsaw | 4 | All Maps","name_short":"waw-4","host":"waw-1.pl.uncletopia.com","port":27045,"enabled":true,"region":"eu","cc":"pl","latitude":52.2297,"longitude":21.017532,"reserved":0,"last_update":"0001-01-01T00:00:00Z","name_a2s":"Uncletopia | Warsaw | 4 | All Maps","protocol":17,"map":"ctf_turbine","folder":"tf","game":"Team Fortress","app_id":440,"player_count":0,"max_players":24,"Bots":0,"server_type":"Dedicated","server_os":"Linux","password":true,"vac":true,"version":"7961495","steam_id":85568392925397853,"keywords":["ctf","nocrits","nodmgspread","uncletopia"],"game_id":440,"stv_port":27046,"stv_name":"Uncletopia | Warsaw | 4 | All Maps | STV","players":null},{"server_id":53,"name":"Uncletopia | Warsaw | 5 | Stopwatch","name_short":"waw-5","host":"waw-1.pl.uncletopia.com","port":27055,"enabled":true,"region":"eu","cc":"pl","latitude":52.2297,"longitude":21.017532,"reserved":0,"last_update":"0001-01-01T00:00:00Z","name_a2s":"Uncletopia | Warsaw | 5 | Stopwatch","protocol":17,"map":"workshop/koth_clearcut_b15.ugc2107050255","folder":"tf","game":"Team Fortress","app_id":440,"player_count":0,"max_players":24,"Bots":0,"server_type":"Dedicated","server_os":"Linux","password":true,"vac":true,"version":"7961495","steam_id":85568392925397854,"keywords":["cp","nocrits","nodmgspread","uncletopia"],"game_id":440,"stv_port":27056,"stv_name":"Uncletopia | Warsaw | 5 | Stopwatch | STV","players":null},{"server_id":54,"name":"Uncletopia | Warsaw | 6 | Community","name_short":"waw-6","host":"waw-1.pl.uncletopia.com","port":27065,"enabled":true,"region":"eu","cc":"pl","latitude":52.2297,"longitude":21.017532,"reserved":0,"last_update":"0001-01-01T00:00:00Z","name_a2s":"Uncletopia | Warsaw | 6 | Community","protocol":17,"map":"workshop/pl_highwood_b19.ugc1769496557","folder":"tf","game":"Team Fortress","app_id":440,"player_count":0,"max_players":24,"Bots":0,"server_type":"Dedicated","server_os":"Linux","password":true,"vac":true,"version":"7961495","steam_id":85568392925397856,"keywords":["nocrits","nodmgspread","payload","uncletopia"],"game_id":440,"stv_port":27066,"stv_name":"Uncletopia | Warsaw | 6 | Community | STV","players":null}]}