{"status":true,"message":"","result":[{"server_id":9,"name":"Uncletopia | Atlanta | 1 | All Maps","name_short":"atl-1","host":"atl-1.us.uncletopia.com","port":27015,"enabled":true,"region":"us-east","cc":"us","latitude":33.753746,"longitude":-84.38633,"reserved":0,"last_update":"0001-01-01T00:00:00Z","name_a2s":"Uncletopia | Atlanta | 1 | All Maps","protocol":17,"map":"pl_barnblitz","folder":"tf","game":"Team Fortress","app_id":440,"player_count":24,"max_players":24,"Bots":0,"server_type":"Dedicated","server_os":"Linux","password":true,"vac":true,"version":"7961495","steam_id":85568392924469982,"keywords":["nocrits","nodmgspread","payload","uncletopia"],"game_id":440,"stv_port":27016,"stv_name":"Uncletopia | Atlanta | 1 | All Maps | STV","players":null},{"server_id":104,"name":"Uncletopia | Atlanta | 2 | All Maps","name_short":"atl-2","host":"atl-1.us.uncletopia.com","port":27025,"enabled":true,"region":"us-east","cc":"us","latitude":33.753746,"longitude":-84.38633,"reserved":0,"last_update":"0001-01-01T00:00:00Z","name_a2s":"Uncletopia | Atlanta | 2 | All Maps","protocol":17,"map":"pl_borneo","folder":"tf","game":"Team Fortress","app_id":440,"player_count":23,"max_players":24,"Bots":0,"server_type":"Dedicated","server_os":"Linux","password":true,"vac":true,"version":"7961495","steam_id":85568392924469983,"keywords":["nocrits","nodmgspread","payload","uncletopia"],"game_id":440,"stv_port":27026,"stv_name":"Uncletopia | Atlanta | 2 | All Maps | STV","players":null},{"server_id":400,"name":"Uncletopia | Atlanta | 3 | Stopwatch","name_short":"atl-3","host":"atl-1.us.uncletopia.com","port":27035,"enabled":true,"region":"us-east","cc":"us","latitude":33.753746,"longitude":-84.38633,"reserved":0,"last_update":"0001-01-01T00:00:00Z","name_a2s":"Uncletopia | Atlanta | 3 | Stopwatch","protocol":17,"map":"koth_ashville_final","folder":"tf","game":"Team Fortress","app_id":440,"player_count":24,"max_players":24,"Bots":0,"server_type":"Dedicated","server_os":"Linux","password":true,"vac":true,"version":"7961495","steam_id":85568392924515187,"keywords":["cp","nocrits","nodmgspread","uncletopia"],"game_id":440,"stv_port":27036,"stv_name":"Uncletopia | Atlanta | 3 | Stopwatch | STV","players":null},{"server_id":401,"name":"Uncletopia | Atlanta | 4 | Community","name_short":"atl-4","host":"atl-1.us.uncletopia.com","port":27045,"enabled":true,"region":"us-east","cc":"us","latitude":33.753746,"longitude":-84.38633,"reserved":0,"last_update":"0001-01-01T00:00:00Z","name_a2s":"Uncletopia | Atlanta | 4 | Community","protocol":17,"map":"pl_cactuscanyon_redux_final2","folder":"tf","game":"Team Fortress","app_id":440,"player_count":16,"max_players":24,"Bots":0,"server_type":"Dedicated","server_os":"Linux","password":true,"vac":true,"version":"7961495","steam_id":85568392924515188,"keywords":["nocrits","nodmgspread","payload","uncletopia"],"game_id":440,"stv_port":27046,"stv_name":"Uncletopia | Atlanta | 4 | Community | STV","players":null},{"server_id":2,"name":"Uncletopia | Chicago | 1 | All Maps","name_short":"chi-1","host":"chi-1.us.uncletopia.com","port":27015,"enabled":true,"region":"us-central","cc":"us","latitude":41.881832,"longitude":-87.62318,"reserved":0,"last_update":"0001-01-01T00:00:00Z","name_a2s":"Uncletopia | Chicago | 1 | All Maps","protocol":17,"map":"pl_swiftwater_final1","folder":"tf","game":"Team Fortress","app_id":440,"player_count":24,"max_players":24,"Bots":0,"server_type":"Dedicated","server_os":"Linux","password":true,"vac":true,"version":"7961495","steam_id":85568392924469984,"keywords":["nocrits","nodmgspread","payload","uncletopia"],"game_id":440,"stv_port":27016,"stv_name":"Uncletopia | Chicago | 1 | All Maps | STV","players":[{"user_id":582,"name":"zpalmtree","steam_id":76561198134307620,"connected_time":11022000000000,"state":"active","ping":68},{"user_id":721,"name":"Vox Vulpera","steam_id":76561198796227041,"connected_time":1087000000000,"state":"active","ping":62},{"user_id":713,"name":"Oberon","steam_id":76561199360964272,"connected_time":1680000000000,"state":"active","ping":62},{"user_id":711,"name":"Omega Move","steam_id":76561198031577205,"connected_time":1704000000000,"state":"active","ping":75},{"user_id":725,"name":"buttery ducky","steam_id":76561199025842073,"connected_time":1008000000000,"state":"active","ping":58},{"user_id":738,"name":"Trolley","steam_id":76561198106695948,"connected_time":213000000000,"state":"active","ping":97},{"user_id":707,"name":"Cosmic sR","steam_id":76561198081738675,"connected_time":2275000000000,"state":"active","ping":82},{"user_id":722,"name":"High Tier Mortal","steam_id":76561198138347045,"connected_time":1057000000000,"state":"active","ping":84},{"user_id":683,"name":"chiswola","steam_id":76561198046920142,"connected_time":4711000000000,"state":"active","ping":73},{"user_id":730,"name":"spaghetti","steam_id":76561198069600113,"connected_time":622000000000,"state":"active","ping":57},{"user_id":672,"name":"sylerrr","steam_id":76561198191198866,"connected_time":5071000000000,"state":"active","ping":62},{"user_id":724,"name":"My 600 lbs gaming","steam_id":76561198027968822,"connected_time":1031000000000,"state":"active","ping":77},{"user_id":720,"name":"AOTFB | WhiteWolf6421","steam_id":76561199184921234,"connected_time":1216000000000,"state":"active","ping":83},{"user_id":719,"name":"loscemo","steam_id":76561197994884609,"connected_time":1357000000000,"state":"active","ping":71},{"user_id":676,"name":"Kushy","steam_id":76561198045290635,"connected_time":5021000000000,"state":"active","ping":85},{"user_id":728,"name":"Rated_C","steam_id":76561199226478414,"connected_time":735000000000,"state":"active","ping":111},{"user_id":732,"name":"Nuclear Levels of Sour","steam_id":76561198994113384,"connected_time":558000000000,"state":"active","ping":75},{"user_id":726,"name":"Lemonparty","steam_id":76561197974422168,"connected_time":989000000000,"state":"active","ping":68},{"user_id":734,"name":"gyozaking","steam_id":76561197972312696,"connected_time":510000000000,"state":"active","ping":53},{"user_id":731,"name":"rock raiders enjoyer","steam_id":76561198139718219,"connected_time":580000000000,"state":"active","ping":94},{"user_id":739,"name":"B00gal00ga123","steam_id":76561199273507453,"connected_time":138000000000,"state":"active","ping":115},{"user_id":718,"name":"Thug shaker","steam_id":76561198840484105,"connected_time":1563000000000,"state":"active","ping":83},{"user_id":735,"name":"November","steam_id":76561198131631865,"connected_time":504000000000,"state":"active","ping":80},{"user_id":740,"name":"`o2","steam_id":76561197992030936,"connected_time":129000000000,"state":"active","ping":69}]},{"server_id":106,"name":"Uncletopia | Chicago | 2 | All Maps","name_short":"chi-2","host":"chi-1.us.uncletopia.com","port":27025,"enabled":true,"region":"us-central","cc":"us","latitude":41.881832,"longitude":-87.62318,"reserved":0,"last_update":"0001-01-01T00:00:00Z","name_a2s":"Uncletopia | Chicago | 2 | All Maps","protocol":17,"map":"pl_snowycoast","folder":"tf","game":"Team Fortress","app_id":440,"player_count":22,"max_players":24,"Bots":0,"server_type":"Dedicated","server_os":"Linux","password":true,"vac":true,"version":"7961495","steam_id":85568392924469985,"keywords":["nocrits","nodmgspread","payload","uncletopia"],"game_id":440,"stv_port":27026,"stv_name":"Uncletopia | Chicago | 2 | All Maps | STV","players":[{"user_id":710,"name":"CoconutRice","steam_id":76561198114909164,"connected_time":240000000000,"state":"active","ping":45},{"user_id":651,"name":"Mirelas","steam_id":76561198839360212,"connected_time":7055000000000,"state":"active","ping":92},{"user_id":689,"name":"GrapeFieldGamer","steam_id":76561199382834868,"connected_time":2150000000000,"state":"active","ping":64},{"user_id":684,"name":"Agent Smith","steam_id":76561198004778914,"connected_time":3273000000000,"state":"active","ping":96},{"user_id":711,"name":"Gibus Man","steam_id":76561198257241062,"connected_time":214000000000,"state":"active","ping":110},{"user_id":704,"name":"an ordinary scout","steam_id":76561198264728955,"connected_time":1332000000000,"state":"active","ping":64},{"user_id":657,"name":"RandomInternetUser","steam_id":76561199230027049,"connected_time":6835000000000,"state":"active","ping":60},{"user_id":630,"name":"Notorious Criminal Prawo Jazdy","steam_id":76561198339011254,"connected_time":8000000000000,"state":"active","ping":78},{"user_id":694,"name":"themeanseenleangreenbeanmachine","steam_id":76561199232327942,"connected_time":1823000000000,"state":"active","ping":76},{"user_id":708,"name":"Runny Eggs","steam_id":76561198006785882,"connected_time":325000000000,"state":"active","ping":69},{"user_id":687,"name":"Type-Lectu","steam_id":76561199062620920,"connected_time":2278000000000,"state":"active","ping":58},{"user_id":712,"name":"Mr. Cakes","steam_id":76561198007400043,"connected_time":195000000000,"state":"active","ping":45},{"user_id":673,"name":"Pipnirsian","steam_id":76561198380976416,"connected_time":5229000000000,"state":"active","ping":74},{"user_id":706,"name":"cactail","steam_id":76561198238898732,"connected_time":850000000000,"state":"active","ping":75},{"user_id":713,"name":"I think about worms every day","steam_id":76561199070515232,"connected_time":189000000000,"state":"active","ping":58},{"user_id":700,"name":"Hired Thug","steam_id":76561198142770666,"connected_time":1569000000000,"state":"active","ping":89},{"user_id":666,"name":"The Wave","steam_id":76561198268225109,"connected_time":5727000000000,"state":"active","ping":95},{"user_id":714,"name":"Sylvaris","steam_id":76561198156678773,"connected_time":108000000000,"state":"active","ping":71},{"user_id":667,"name":"Ms Twig","steam_id":76561198144111736,"connected_time":5704000000000,"state":"active","ping":55},{"user_id":715,"name":"Hauntedtoaster","steam_id":76561198034655610,"connected_time":78000000000,"state":"active","ping":98},{"user_id":693,"name":"TangenT","steam_id":76561198211278067,"connected_time":1959000000000,"state":"active","ping":89},{"user_id":682,"name":"THORNFIELDGAMER","steam_id":76561199087167473,"connected_time":4106000000000,"state":"active","ping":87}]},{"server_id":402,"name":"Uncletopia | Chicago | 3 | All Maps","name_short":"chi-3","host":"chi-1.us.uncletopia.com","port":27035,"enabled":true,"region":"us-central","cc":"us","latitude":41.881832,"longitude":-87.62318,"reserved":0,"last_update":"0001-01-01T00:00:00Z","name_a2s":"Uncletopia | Chicago | 3 | All Maps","protocol":17,"map":"pl_upward","folder":"tf","game":"Team Fortress","app_id":440,"player_count":24,"max_players":24,"Bots":0,"server_type":"Dedicated","server_os":"Linux","password":true,"vac":true,"version":"7961495","steam_id":85568392924515191,"keywords":["nocrits","nodmgspread","payload","uncletopia"],"game_id":440,"stv_port":27036,"stv_name":"Uncletopia | Chicago | 3 | All Maps | STV","players":[{"user_id":624,"name":"Space Lizard","steam_id":76561198056798193,"connected_time":1186000000000,"state":"active","ping":70},{"user_id":623,"name":"Der Krieger105","steam_id":76561197978384609,"connected_time":1203000000000,"state":"active","ping":78},{"user_id":648,"name":"Kim Wexler","steam_id":76561198964107245,"connected_time":44000000000,"state":"active","ping":118},{"user_id":646,"name":"Kaze","steam_id":76561199062949963,"connected_time":93000000000,"state":"active","ping":72},{"user_id":530,"name":"Hooked","steam_id":76561198007302139,"connected_time":9529000000000,"state":"active","ping":75},{"user_id":631,"name":"Athrium","steam_id":76561199201940614,"connected_time":950000000000,"state":"active","ping":99},{"user_id":636,"name":"Fiendish Frog","steam_id":76561198029478821,"connected_time":784000000000,"state":"active","ping":67},{"user_id":638,"name":"Tacobell_nugget","steam_id":76561199248567851,"connected_time":684000000000,"state":"active","ping":122},{"user_id":599,"name":"Mer","steam_id":76561198192171041,"connected_time":4146000000000,"state":"active","ping":131},{"user_id":645,"name":"Maj","steam_id":76561198154203415,"connected_time":210000000000,"state":"active","ping":72},{"user_id":603,"name":"Dick Grimes","steam_id":76561198157414556,"connected_time":3494000000000,"state":"active","ping":73},{"user_id":639,"name":"CaptainPikachu","steam_id":76561198075667401,"connected_time":662000000000,"state":"active","ping":79},{"user_id":640,"name":"Anthid","steam_id":76561198074493797,"connected_time":636000000000,"state":"active","ping":60},{"user_id":620,"name":"Poet_","steam_id":76561198170186586,"connected_time":1409000000000,"state":"active","ping":79},{"user_id":629,"name":"(TTV) The_Astrum_Guardian","steam_id":76561198130134103,"connected_time":1075000000000,"state":"active","ping":61},{"user_id":647,"name":"Joculatrix","steam_id":76561198012795457,"connected_time":75000000000,"state":"active","ping":71},{"user_id":593,"name":"Ockulus","steam_id":76561199069638460,"connected_time":4376000000000,"state":"active","ping":113},{"user_id":630,"name":"Maxini_","steam_id":76561198041077011,"connected_time":1068000000000,"state":"active","ping":58},{"user_id":586,"name":"Styx","steam_id":76561198158334494,"connected_time":4643000000000,"state":"active","ping":55},{"user_id":634,"name":"Epha","steam_id":76561198079379951,"connected_time":891000000000,"state":"active","ping":60},{"user_id":604,"name":"Saul Goodman","steam_id":76561198157305426,"connected_time":3493000000000,"state":"active","ping":61},{"user_id":632,"name":"Flowers","steam_id":76561198031669899,"connected_time":929000000000,"state":"active","ping":84},{"user_id":622,"name":"Tuvok Shakur","steam_id":76561198018875334,"connected_time":1353000000000,"state":"active","ping":88},{"user_id":529,"name":"Lia_Rein","steam_id":76561198151569597,"connected_time":9792000000000,"state":"active","ping":130}]},{"server_id":403,"name":"Uncletopia | Chicago | 4 | All Maps","name_short":"chi-4","host":"chi-1.us.uncletopia.com","port":27045,"enabled":true,"region":"us-central","cc":"us","latitude":41.881832,"longitude":-87.62318,"reserved":0,"last_update":"0001-01-01T00:00:00Z","name_a2s":"Uncletopia | Chicago | 4 | All Maps","protocol":17,"map":"pl_upward","folder":"tf","game":"Team Fortress","app_id":440,"player_count":24,"max_players":24,"Bots":0,"server_type":"Dedicated","server_os":"Linux","password":true,"vac":true,"version":"7961495","steam_id":85568392924515193,"keywords":["nocrits","nodmgspread","payload","uncletopia"],"game_id":440,"stv_port":27046,"stv_name":"Uncletopia | Chicago | 4 | All Maps | STV","players":[{"user_id":441,"name":"Grop Noise","steam_id":76561198145445403,"connected_time":2169000000000,"state":"active","ping":55},{"user_id":427,"name":"DaMultiversalist","steam_id":76561198239552412,"connected_time":2723000000000,"state":"active","ping":61},{"user_id":421,"name":"Rafl","steam_id":76561198055222756,"connected_time":3027000000000,"state":"active","ping":75},{"user_id":447,"name":"NGsterson","steam_id":76561198162108154,"connected_time":1798000000000,"state":"active","ping":92},{"user_id":436,"name":"big steve","steam_id":76561199037050183,"connected_time":2518000000000,"state":"active","ping":76},{"user_id":457,"name":"Genius Meme","steam_id":76561198162911254,"connected_time":1493000000000,"state":"active","ping":109},{"user_id":442,"name":"NikoOS (NO SOUND)","steam_id":76561198180020521,"connected_time":2163000000000,"state":"active","ping":131},{"user_id":458,"name":"cofi","steam_id":76561198077504898,"connected_time":818000000000,"state":"active","ping":71},{"user_id":435,"name":"bikerkid207","steam_id":76561198390782783,"connected_time":2522000000000,"state":"active","ping":66},{"user_id":438,"name":"kicks","steam_id":76561199228854923,"connected_time":2441000000000,"state":"active","ping":57},{"user_id":423,"name":"SandHanitizer","steam_id":76561198234676500,"connected_time":2972000000000,"state":"active","ping":71},{"user_id":460,"name":"Menace to Sobriety","steam_id":76561198245103000,"connected_time":530000000000,"state":"active","ping":71},{"user_id":449,"name":"Strigby","steam_id":76561198004116353,"connected_time":1750000000000,"state":"active","ping":46},{"user_id":450,"name":"howtobepker","steam_id":76561198115053865,"connected_time":1738000000000,"state":"active","ping":82},{"user_id":430,"name":"–î–∞–Ω–æ–†—Ç–∏","steam_id":76561198084780060,"connected_time":2662000000000,"state":"active","ping":68},{"user_id":445,"name":"Lord Typhoid","steam_id":76561199164337878,"connected_time":1900000000000,"state":"active","ping":77},{"user_id":451,"name":"I need to go make a smoothie","steam_id":76561198172033305,"connected_time":1722000000000,"state":"active","ping":74},{"user_id":407,"name":"LordOfTheNoobs","steam_id":76561197962697523,"connected_time":5631000000000,"state":"active","ping":61},{"user_id":453,"name":"Colepie","steam_id":76561198037853211,"connected_time":1706000000000,"state":"active","ping":73},{"user_id":331,"name":"Protato","steam_id":76561198061182563,"connected_time":10263000000000,"state":"active","ping":70},{"user_id":444,"name":"Gibs Degrossi","steam_id":76561198066152609,"connected_time":1914000000000,"state":"active","ping":52},{"user_id":454,"name":"songcreator","steam_id":76561198076822464,"connected_time":1704000000000,"state":"active","ping":47},{"user_id":440,"name":"Librinox / Irrith","steam_id":76561198008996805,"connected_time":2172000000000,"state":"active","ping":91},{"user_id":456,"name":"Wolfdad Duke","steam_id":76561197986442930,"connected_time":1589000000000,"state":"active","ping":135}]},{"server_id":36,"name":"Uncletopia | Chicago | 5 | All Maps","name_short":"chi-5","host":"chi-2.us.uncletopia.com","port":27015,"enabled":true,"region":"us-central","cc":"us","latitude":41.881832,"longitude":-87.62318,"reserved":0,"last_update":"0001-01-01T00:00:00Z","name_a2s":"Uncletopia | Chicago | 5 | All Maps","protocol":17,"map":"koth_harvest_final","folder":"tf","game":"Team Fortress","app_id":440,"player_count":12,"max_players":24,"Bots":0,"server_type":"Dedicated","server_os":"Linux","password":true,"vac":true,"version":"7961495","steam_id":85568392924866362,"keywords":["cp","nocrits","nodmgspread","uncletopia"],"game_id":440,"stv_port":27016,"stv_name":"Uncletopia | Chicago | 5 | All Maps | STV","players":[{"user_id":396,"name":"MilkyFrenchToast","steam_id":76561198099281433,"connected_time":534000000000,"state":"active","ping":40},{"user_id":385,"name":"Ninjoth","steam_id":76561198038611753,"connected_time":2394000000000,"state":"active","ping":79},{"user_id":390,"name":"Dr. Moose","steam_id":76561199027129554,"connected_time":2005000000000,"state":"active","ping":72},{"user_id":393,"name":"HollyBlocky","steam_id":76561198030156100,"connected_time":954000000000,"state":"active","ping":69},{"user_id":397,"name":"silverspark","steam_id":76561198277421732,"connected_time":454000000000,"state":"active","ping":109},{"user_id":398,"name":"DodoBird","steam_id":76561198136880364,"connected_time":431000000000,"state":"active","ping":80},{"user_id":399,"name":"DarthDaddy","steam_id":76561198268220287,"connected_time":324000000000,"state":"active","ping":108},{"user_id":400,"name":"CupFruit","steam_id":76561198983993193,"connected_time":312000000000,"state":"active","ping":62},{"user_id":401,"name":"Techo","steam_id":76561199169405285,"connected_time":138000000000,"state":"spawning","ping":92},{"user_id":323,"name":"Cyber Cylon","steam_id":76561198048972781,"connected_time":7981000000000,"state":"active","ping":63},{"user_id":402,"name":"Goober","steam_id":76561198988863807,"connected_time":101000000000,"state":"active","ping":72},{"user_id":287,"name":"DoggyDogWhirl","steam_id":76561198042841344,"connected_time":9744000000000,"state":"active","ping":77}]},{"server_id":37,"name":"Uncletopia | Chicago | 6 | All Maps","name_short":"chi-6","host":"chi-2.us.uncletopia.com","port":27025,"enabled":true,"region":"us-central","cc":"us","latitude":41.881832,"longitude":-87.62318,"reserved":0,"last_update":"0001-01-01T00:00:00Z","name_a2s":"Uncletopia | Chicago | 6 | All Maps","protocol":17,"map":"pl_upward","folder":"tf","game":"Team Fortress","app_id":440,"player_count":24,"max_players":24,"Bots":0,"server_type":"Dedicated","server_os":"Linux","password":true,"vac":true,"version":"7961495","steam_id":85568392924866363,"keywords":["nocrits","nodmgspread","payload","uncletopia"],"game_id":440,"stv_port":27026,"stv_name":"Uncletopia | Chicago | 6 | All Maps | STV","players":[{"user_id":281,"name":"Ze_√úber_Nerd","steam_id":76561198091148675,"connected_time":1843000000000,"state":"active","ping":70},{"user_id":276,"name":"PringlesMan","steam_id":76561198079371059,"connected_time":2024000000000,"state":"active","ping":59},{"user_id":292,"name":"Rabid Ham","steam_id":76561198154931014,"connected_time":997000000000,"state":"active","ping":95},{"user_id":180,"name":"ambrotos","steam_id":76561198042600523,"connected_time":9730000000000,"state":"active","ping":77},{"user_id":307,"name":"Pretentious Grocery Store","steam_id":76561198069735882,"connected_time":29000000000,"state":"active","ping":76},{"user_id":302,"name":"leumas","steam_id":76561198240408540,"connected_time":189000000000,"state":"active","ping":60},{"user_id":264,"name":"hellstar","steam_id":76561198065877269,"connected_time":2882000000000,"state":"active","ping":61},{"user_id":291,"name":"Oswald","steam_id":76561198136642793,"connected_time":1005000000000,"state":"active","ping":76},{"user_id":301,"name":"Syrus","steam_id":76561198079606024,"connected_time":224000000000,"state":"active","ping":78},{"user_id":137,"name":"RexCreeper456","steam_id":76561199319578396,"connected_time":11875000000000,"state":"active","ping":68},{"user_id":300,"name":"Five","steam_id":76561198026640473,"connected_time":475000000000,"state":"active","ping":60},{"user_id":303,"name":"JJames","steam_id":76561198055687973,"connected_time":139000000000,"state":"active","ping":71},{"user_id":296,"name":"Kazel","steam_id":76561197989757682,"connected_time":975000000000,"state":"active","ping":67},{"user_id":265,"name":"remina","steam_id":76561198046091954,"connected_time":2859000000000,"state":"active","ping":67},{"user_id":308,"name":"spaceboots","steam_id":76561197977322319,"connected_time":16000000000,"state":"spawning","ping":67},{"user_id":279,"name":"SIN K4RMA","steam_id":76561198869287223,"connected_time":1986000000000,"state":"active","ping":78},{"user_id":250,"name":"ecks","steam_id":76561197978114705,"connected_time":4532000000000,"state":"active","ping":60},{"user_id":244,"name":"Argo","steam_id":76561198353725622,"connected_time":5102000000000,"state":"active","ping":76},{"user_id":298,"name":"Gun Spy Training Arc","steam_id":76561199122043829,"connected_time":734000000000,"state":"active","ping":91},{"user_id":305,"name":"phallic tractor","steam_id":76561198361326855,"connected_time":61000000000,"state":"active","ping":60},{"user_id":283,"name":"Chagalicious","steam_id":76561198044128240,"connected_time":1797000000000,"state":"active","ping":86},{"user_id":284,"name":"DeMarcusCousinsTheThird","steam_id":76561199001228326,"connected_time":1792000000000,"state":"active","ping":74},{"user_id":184,"name":"Chauncey von Snuffles III","steam_id":76561198021784746,"connected_time":9690000000000,"state":"active","ping":70},{"user_id":306,"name":"SirDigbyChickenCaesar","steam_id":76561197998612788,"connected_time":60000000000,"state":"active","ping":47}]},{"server_id":38,"name":"Uncletopia | Chicago | 7 | Stopwatch","name_short":"chi-7","host":"chi-2.us.uncletopia.com","port":27035,"enabled":true,"region":"us-central","cc":"us","latitude":41.881832,"longitude":-87.62318,"reserved":0,"last_update":"0001-01-01T00:00:00Z","name_a2s":"Uncletopia | Chicago | 7 | Stopwatch","protocol":17,"map":"workshop/cp_reckoner_rc6.ugc674719999","folder":"tf","game":"Team Fortress","app_id":440,"player_count":0,"max_players":24,"Bots":0,"server_type":"Dedicated","server_os":"Linux","password":true,"vac":true,"version":"7961495","steam_id":85568392924866364,"keywords":["cp","nocrits","nodmgspread","uncletopia"],"game_id":440,"stv_port":27036,"stv_name":"Uncletopia | Chicago | 7 | Stopwatch | STV","players":null},{"server_id":39,"name":"Uncletopia | Chicago | 8 | Community","name_short":"chi-8","host":"chi-2.us.uncletopia.com","port":27045,"enabled":true,"region":"us-central","cc":"us","latitude":41.881832,"longitude":-87.62318,"reserved":0,"last_update":"0001-01-01T00:00:00Z","name_a2s":"Uncletopia | Chicago | 8 | Community","protocol":17,"map":"workshop/koth_kemptown_rc1.ugc767410655","folder":"tf","game":"Team Fortress","app_id":440,"player_count":0,"max_players":24,"Bots":0,"server_type":"Dedicated","server_os":"Linux","password":true,"vac":true,"version":"7961495","steam_id":85568392924866365,"keywords":["cp","nocrits","nodmgspread","uncletopia"],"game_id":440,"stv_port":27046,"stv_name":"Uncletopia | Chicago | 8 | Community | STV","players":null},{"server_id":8,"name":"Uncletopia | Dallas | 1 | All Maps","name_short":"dal-1","host":"dal-1.us.uncletopia.com","port":27015,"enabled":true,"region":"us-central","cc":"us","latitude":32.779167,"longitude":-96.80889,"reserved":0,"last_update":"0001-01-01T00:00:00Z","name_a2s":"Uncletopia | Dallas | 1 | All Maps","protocol":17,"map":"ctf_2fort","folder":"tf","game":"Team Fortress","app_id":440,"player_count":21,"max_players":24,"Bots":0,"server_type":"Dedicated","server_os":"Linux","password":true,"vac":true,"version":"7961495","steam_id":85568392924469986,"keywords":["ctf","nocrits","nodmgspread","uncletopia"],"game_id":440,"stv_port":27016,"stv_name":"Uncletopia | Dallas | 1 | All Maps | STV","players":[{"user_id":886,"name":"armpit fetishist","steam_id":76561199008452637,"connected_time":1371000000000,"state":"active","ping":137},{"user_id":758,"name":"Dew","steam_id":76561197977101474,"connected_time":9621000000000,"state":"active","ping":77},{"user_id":899,"name":"gooch_masta","steam_id":76561198151578423,"connected_time":202000000000,"state":"active","ping":89},{"user_id":807,"name":"Ballista","steam_id":76561197983182562,"connected_time":6410000000000,"state":"active","ping":60},{"user_id":870,"name":"a fuddruckers","steam_id":76561198092656099,"connected_time":2161000000000,"state":"active","ping":70},{"user_id":857,"name":"ESRI Shapefile","steam_id":76561197999829638,"connected_time":3212000000000,"state":"active","ping":45},{"user_id":781,"name":"Proud Swift City Resident","steam_id":76561198036283992,"connected_time":7882000000000,"state":"active","ping":83},{"user_id":897,"name":"Locke","steam_id":76561197988245513,"connected_time":229000000000,"state":"active","ping":49},{"user_id":898,"name":"TGS","steam_id":76561198042409369,"connected_time":213000000000,"state":"active","ping":112},{"user_id":892,"name":"Swankpank","steam_id":76561198031817350,"connected_time":717000000000,"state":"active","ping":70},{"user_id":880,"name":"FluttyPutty","steam_id":76561198218446556,"connected_time":1411000000000,"state":"active","ping":71},{"user_id":797,"name":"muri","steam_id":76561198036167494,"connected_time":7000000000000,"state":"active","ping":46},{"user_id":877,"name":"ZILICON","steam_id":76561199044705592,"connected_time":1428000000000,"state":"active","ping":112},{"user_id":824,"name":"Minlit","steam_id":76561198205832799,"connected_time":5662000000000,"state":"active","ping":53},{"user_id":858,"name":"Slepii","steam_id":76561198881786224,"connected_time":3182000000000,"state":"active","ping":61},{"user_id":902,"name":"Tim Bunn","steam_id":76561198213167735,"connected_time":78000000000,"state":"active","ping":71},{"user_id":861,"name":"luscaPUTO","steam_id":76561199037598902,"connected_time":2757000000000,"state":"active","ping":132},{"user_id":881,"name":"Plague Dr.","steam_id":76561198142468986,"connected_time":1410000000000,"state":"active","ping":74},{"user_id":901,"name":"Pussy Slambasket","steam_id":76561198093694322,"connected_time":146000000000,"state":"active","ping":70},{"user_id":872,"name":"Dr_Cecil","steam_id":76561198873862113,"connected_time":2097000000000,"state":"active","ping":74},{"user_id":885,"name":"Bean Boy","steam_id":76561198279184347,"connected_time":1385000000000,"state":"active","ping":66}]},{"server_id":108,"name":"Uncletopia | Dallas | 2 | All Maps","name_short":"dal-2","host":"dal-1.us.uncletopia.com","port":27025,"enabled":true,"region":"us-central","cc":"us","latitude":32.779167,"longitude":-96.80889,"reserved":0,"last_update":"0001-01-01T00:00:00Z","name_a2s":"Uncletopia | Dallas | 2 | All Maps","protocol":17,"map":"koth_viaduct","folder":"tf","game":"Team Fortress","app_id":440,"player_count":24,"max_players":24,"Bots":0,"server_type":"Dedicated","server_os":"Linux","password":true,"vac":true,"version":"7961495","steam_id":85568392924469988,"keywords":["cp","nocrits","nodmgspread","uncletopia"],"game_id":440,"stv_port":27026,"stv_name":"Uncletopia | Dallas | 2 | All Maps | STV","players":[{"user_id":449,"name":"penis atomizer 9000 üè≥Ô∏è?","steam_id":76561198864841966,"connected_time":6044000000000,"state":"active","ping":99},{"user_id":336,"name":"cringeass nae-nae girl","steam_id":76561198108753857,"connected_time":15329000000000,"state":"active","ping":67},{"user_id":507,"name":"No_Dictators","steam_id":76561199065777321,"connected_time":1751000000000,"state":"active","ping":59},{"user_id":502,"name":"schmuck","steam_id":76561198143789773,"connected_time":2438000000000,"state":"active","ping":50},{"user_id":503,"name":"Tuna!","steam_id":76561198354590331,"connected_time":2192000000000,"state":"active","ping":60},{"user_id":516,"name":"killa","steam_id":76561199062024437,"connected_time":1491000000000,"state":"active","ping":51},{"user_id":508,"name":"Dr. W0lv","steam_id":76561198129237487,"connected_time":1747000000000,"state":"active","ping":55},{"user_id":537,"name":"pigswill","steam_id":76561197999081865,"connected_time":54000000000,"state":"active","ping":91},{"user_id":525,"name":"E4Estrogen","steam_id":76561198085813708,"connected_time":911000000000,"state":"active","ping":71},{"user_id":531,"name":"Cervid√©","steam_id":76561198098579497,"connected_time":364000000000,"state":"active","ping":103},{"user_id":532,"name":"ShapedSilver","steam_id":76561199073305310,"connected_time":296000000000,"state":"active","ping":95},{"user_id":533,"name":"Frost","steam_id":76561198272014381,"connected_time":215000000000,"state":"active","ping":78},{"user_id":506,"name":"Cofi","steam_id":76561199026721822,"connected_time":2085000000000,"state":"active","ping":84},{"user_id":529,"name":"Csquared","steam_id":76561198169038599,"connected_time":763000000000,"state":"active","ping":90},{"user_id":523,"name":"menonamed","steam_id":76561198199564382,"connected_time":1039000000000,"state":"active","ping":87},{"user_id":521,"name":"WhatsPoppin","steam_id":76561198419875803,"connected_time":1098000000000,"state":"active","ping":72},{"user_id":534,"name":"balls","steam_id":76561198164619692,"connected_time":177000000000,"state":"active","ping":87},{"user_id":528,"name":"InMyThinkingCapThinkingCap","steam_id":76561198074678273,"connected_time":792000000000,"state":"active","ping":75},{"user_id":515,"name":"Datguy","steam_id":76561198009429780,"connected_time":1642000000000,"state":"active","ping":77},{"user_id":539,"name":"Yellow","steam_id":76561199226953022,"connected_time":27000000000,"state":"spawning","ping":122},{"user_id":471,"name":"Emiliano722","steam_id":76561198306474745,"connected_time":5613000000000,"state":"active","ping":67},{"user_id":341,"name":"Snoopy","steam_id":76561198273735974,"connected_time":15213000000000,"state":"active","ping":73},{"user_id":541,"name":"Jaded","steam_id":76561198272575611,"connected_time":1000000000,"state":"spawning","ping":47}]},{"server_id":404,"name":"Uncletopia | Dallas | 3 | All Maps","name_short":"dal-3","host":"dal-1.us.uncletopia.com","port":27035,"enabled":true,"region":"us-central","cc":"us","latitude":32.779167,"longitude":-96.80889,"reserved":0,"last_update":"0001-01-01T00:00:00Z","name_a2s":"Uncletopia | Dallas | 3 | All Maps","protocol":17,"map":"koth_suijin","folder":"tf","game":"Team Fortress","app_id":440,"player_count":0,"max_players":24,"Bots":0,"server_type":"Dedicated","server_os":"Linux","password":true,"vac":true,"version":"7961495","steam_id":85568392924515219,"keywords":["cp","nocrits","nodmgspread","uncletopia"],"game_id":440,"stv_port":27036,"stv_name":"Uncletopia | Dallas | 3 | All Maps | STV","players":null},{"server_id":405,"name":"Uncletopia | Dallas | 4 | Community","name_short":"dal-4","host":"dal-1.us.uncletopia.com","port":27045,"enabled":true,"region":"us-central","cc":"us","latitude":32.779167,"longitude":-96.80889,"reserved":0,"last_update":"0001-01-01T00:00:00Z","name_a2s":"Uncletopia | Dallas | 4 | Community","protocol":17,"map":"workshop/pl_fifthcurve_rc1.ugc648227046","folder":"tf","game":"Team Fortress","app_id":440,"player_count":20,"max_players":24,"Bots":0,"server_type":"Dedicated","server_os":"Linux","password":true,"vac":true,"version":"7961495","steam_id":85568392924515220,"keywords":["nocrits","nodmgspread","payload","uncletopia"],"game_id":440,"stv_port":27046,"stv_name":"Uncletopia | Dallas | 4 | Community | STV","players":[{"user_id":37,"name":"MasterLemon16","steam_id":76561199269158849,"connected_time":1550000000000,"state":"active","ping":101},{"user_id":34,"name":"MoonRiver","steam_id":76561198110263264,"connected_time":2175000000000,"state":"active","ping":80},{"user_id":41,"name":"intek","steam_id":76561198052705291,"connected_time":751000000000,"state":"active","ping":90},{"user_id":22,"name":"CatThulhu","steam_id":76561198211620004,"connected_time":2686000000000,"state":"active","ping":137},{"user_id":26,"name":"Potato","steam_id":76561199142745221,"connected_time":2609000000000,"state":"active","ping":100},{"user_id":47,"name":"horizonghost067","steam_id":76561199309972032,"connected_time":394000000000,"state":"active","ping":104},{"user_id":46,"name":"Cliffigriff","steam_id":76561198121924499,"connected_time":468000000000,"state":"active","ping":51},{"user_id":27,"name":"NEGEV\u003c3","steam_id":76561198236755348,"connected_time":2603000000000,"state":"active","ping":88},{"user_id":28,"name":"Sussy Jack","steam_id":76561198310103399,"connected_time":2601000000000,"state":"active","ping":181},{"user_id":40,"name":"SirMunch","steam_id":76561198179671954,"connected_time":904000000000,"state":"active","ping":82},{"user_id":30,"name":"Rainy Day Roger","steam_id":76561198101783759,"connected_time":2529000000000,"state":"active","ping":93},{"user_id":42,"name":"BehindYou","steam_id":76561198987222560,"connected_time":723000000000,"state":"active","ping":71},{"user_id":44,"name":"H.","steam_id":76561198074951179,"connected_time":657000000000,"state":"active","ping":135},{"user_id":48,"name":"ShadowWasUhOh","steam_id":76561198400361935,"connected_time":315000000000,"state":"active","ping":79},{"user_id":49,"name":"thesmilingman654","steam_id":76561199196497254,"connected_time":304000000000,"state":"active","ping":97},{"user_id":50,"name":"A doe","steam_id":76561199467334502,"connected_time":249000000000,"state":"active","ping":90},{"user_id":51,"name":"nonames left","steam_id":76561199246999627,"connected_time":210000000000,"state":"active","ping":85},{"user_id":52,"name":"HolyPotatoCrusader","steam_id":76561199226395774,"connected_time":189000000000,"state":"active","ping":91},{"user_id":53,"name":"EliteSpartan","steam_id":76561198174023582,"connected_time":71000000000,"state":"active","ping":86},{"user_id":54,"name":"Mr. Everett","steam_id":76561198401204033,"connected_time":36000000000,"state":"active","ping":86}]},{"server_id":5,"name":"Uncletopia | Frankfurt | 1 | All Maps","name_short":"frk-1","host":"frk-1.de.uncletopia.com","port":27015,"enabled":true,"region":"eu","cc":"de","latitude":50.110924,"longitude":8.682127,"reserved":0,"last_update":"0001-01-01T00:00:00Z","name_a2s":"Uncletopia | Frankfurt | 1 | All Maps","protocol":17,"map":"koth_cascade","folder":"tf","game":"Team Fortress","app_id":440,"player_count":0,"max_players":24,"Bots":0,"server_type":"Dedicated","server_os":"Linux","password":true,"vac":true,"version":"7961495","steam_id":85568392924469989,"keywords":["cp","nocrits","nodmgspread","uncletopia"],"game_id":440,"stv_port":27016,"stv_name":"Uncletopia | Frankfurt | 1 | All Maps | STV","players":null},{"server_id":110,"name":"Uncletopia | Frankfurt | 2 | All Maps","name_short":"frk-2","host":"frk-1.de.uncletopia.com","port":27025,"enabled":true,"region":"eu","cc":"de","latitude":50.110924,"longitude":8.682127,"reserved":0,"last_update":"0001-01-01T00:00:00Z","name_a2s":"Uncletopia | Frankfurt | 2 | All Maps","protocol":17,"map":"pl_upward","folder":"tf","game":"Team Fortress","app_id":440,"player_count":0,"max_players":24,"Bots":0,"server_type":"Dedicated","server_os":"Linux","password":true,"vac":true,"version":"7961495","steam_id":85568392924469990,"keywords":["nocrits","nodmgspread","payload","uncletopia"],"game_id":440,"stv_port":27026,"stv_name":"Uncletopia | Frankfurt | 2 | All Maps | STV","players":null},{"server_id":308,"name":"Uncletopia | Frankfurt | 3 | All Maps","name_short":"frk-3","host":"frk-1.de.uncletopia.com","port":27035,"enabled":true,"region":"eu","cc":"de","latitude":50.110924,"longitude":8.682127,"reserved":0,"last_update":"0001-01-01T00:00:00Z","name_a2s":"Uncletopia | Frankfurt | 3 | All Maps","protocol":17,"map":"cp_snakewater_final1","folder":"tf","game":"Team Fortress","app_id":440,"player_count":0,"max_players":24,"Bots":0,"server_type":"Dedicated","server_os":"Linux","password":true,"vac":true,"version":"7961495","steam_id":85568392924504274,"keywords":["cp","nocrits","nodmgspread","uncletopia"],"game_id":440,"stv_port":27036,"stv_name":"Uncletopia | Frankfurt | 3 | All Maps | STV","players":null},{"server_id":309,"name":"Uncletopia | Frankfurt | 4 | All Maps","name_short":"frk-4","host":"frk-1.de.uncletopia.com","port":27045,"enabled":true,"region":"eu","cc":"de","latitude":50.110924,"longitude":8.682127,"reserved":0,"last_update":"0001-01-01T00:00:00Z","name_a2s":"Uncletopia | Frankfurt | 4 | All Maps","protocol":17,"map":"pl_frontier_final","folder":"tf","game":"Team Fortress","app_id":440,"player_count":0,"max_players":24,"Bots":0,"server_type":"Dedicated","server_os":"Linux","password":true,"vac":true,"version":"7961495","steam_id":85568392924504275,"keywords":["nocrits","nodmgspread","payload","uncletopia"],"game_id":440,"stv_port":27046,"stv_name":"Uncletopia | Frankfurt | 4 | All Maps | STV","players":null},{"server_id":310,"name":"Uncletopia | Frankfurt | 5 | All Maps","name_short":"frk-5","host":"frk-1.de.uncletopia.com","port":27055,"enabled":true,"region":"eu","cc":"de","latitude":50.110924,"longitude":8.682127,"reserved":0,"last_update":"0001-01-01T00:00:00Z","name_a2s":"Uncletopia | Frankfurt | 5 | All Maps","protocol":17,"map":"cp_sunshine","folder":"tf","game":"Team Fortress","app_id":440,"player_count":0,"max_players":24,"Bots":0,"server_type":"Dedicated","server_os":"Linux","password":true,"vac":true,"version":"7961495","steam_id":85568392924504277,"keywords":["cp","nocrits","nodmgspread","uncletopia"],"game_id":440,"stv_port":27056,"stv_name":"Uncletopia | Frankfurt | 5 | All Maps | STV","players":null},{"server_id":311,"name":"Uncletopia | Frankfurt | 6 | All Maps","name_short":"frk-6","host":"frk-1.de.uncletopia.com","port":27065,"enabled":true,"region":"eu","cc":"de","latitude":50.110924,"longitude":8.682127,"reserved":0,"last_update":"0001-01-01T00:00:00Z","name_a2s":"Uncletopia | Frankfurt | 6 | All Maps","protocol":17,"map":"pl_pier","folder":"tf","game":"Team Fortress","app_id":440,"player_count":0,"max_players":24,"Bots":0,"server_type":"Dedicated","server_os":"Linux","password":true,"vac":true,"version":"7961495","steam_id":85568392924504278,"keywords":["nocrits","nodmgspread","payload","uncletopia"],"game_id":440,"stv_port":27066,"stv_name":"Uncletopia | Frankfurt | 6 | All Maps | STV","players":null},{"server_id":23,"name":"Uncletopia | Frankfurt | 7 | Stopwatch","name_short":"frk-7","host":"frk-1.de.uncletopia.com","port":27075,"enabled":true,"region":"eu","cc":"de","latitude":50.110924,"longitude":8.682127,"reserved":0,"last_update":"0001-01-01T00:00:00Z","name_a2s":"Uncletopia | Frankfurt | 7 | Stopwatch","protocol":17,"map":"workshop/koth_ashville_final.ugc2130459942","folder":"tf","game":"Team Fortress","app_id":440,"player_count":0,"max_players":24,"Bots":0,"server_type":"Dedicated","server_os":"Linux","password":true,"vac":true,"version":"7961495","steam_id":85568392924742827,"keywords":["cp","nocrits","nodmgspread","uncletopia"],"game_id":440,"stv_port":27076,"stv_name":"Uncletopia | Frankfurt | 7 | Stopwatch | STV","players":null},{"server_id":24,"name":"Uncletopia | Frankfurt | 8 | Community","name_short":"frk-8","host":"frk-1.de.uncletopia.com","port":27085,"enabled":true,"region":"eu","cc":"de","latitude":50.110924,"longitude":8.682127,"reserved":0,"last_update":"0001-01-01T00:00:00Z","name_a2s":"Uncletopia | Frankfurt | 8 | Community","protocol":17,"map":"workshop/cp_glacier_rc6.ugc2905735376","folder":"tf","game":"Team Fortress","app_id":440,"player_count":0,"max_players":24,"Bots":0,"server_type":"Dedicated","server_os":"Linux","password":true,"vac":true,"version":"7961495","steam_id":85568392924742828,"keywords":["cp","nocrits","nodmgspread","uncletopia"],"game_id":440,"stv_port":27086,"stv_name":"Uncletopia | Frankfurt | 8 | Community | STV","players":null},{"server_id":202,"name":"Uncletopia | Hong Kong | 1 | All Maps","name_short":"hgk-1","host":"hgk-1.hk.uncletopia.com","port":27015,"enabled":true,"region":"asia","cc":"hk","latitude":22.302711,"longitude":114.177216,"reserved":0,"last_update":"0001-01-01T00:00:00Z","name_a2s":"Uncletopia | Hong Kong | 1 | All Maps","protocol":17,"map":"cp_dustbowl","folder":"tf","game":"Team Fortress","app_id":440,"player_count":24,"max_players":24,"Bots":0,"server_type":"Dedicated","server_os":"Linux","password":true,"vac":true,"version":"7961495","steam_id":85568392924494504,"keywords":["cp","nocrits","nodmgspread","uncletopia"],"game_id":440,"stv_port":27016,"stv_name":"Uncletopia | Hong Kong | 1 | All Maps | STV","players":[{"user_id":22,"name":"MS PowerPoint","steam_id":76561198369523192,"connected_time":3887000000000,"state":"active","ping":63},{"user_id":43,"name":"Skyrim59","steam_id":76561199022143412,"connected_time":2397000000000,"state":"active","ping":78},{"user_id":25,"name":"doze","steam_id":76561198318292720,"connected_time":3458000000000,"state":"active","ping":137},{"user_id":58,"name":"PROFILE NAME#savetf2","steam_id":76561199080833813,"connected_time":1623000000000,"state":"active","ping":73},{"user_id":18,"name":"MANCO FETT","steam_id":76561198107128889,"connected_time":4475000000000,"state":"active","ping":100},{"user_id":28,"name":"Majula","steam_id":76561198782272275,"connected_time":2829000000000,"state":"active","ping":99},{"user_id":44,"name":"toad„ÉÑ","steam_id":76561198082199290,"connected_time":2384000000000,"state":"active","ping":44},{"user_id":65,"name":"Sijikcick","steam_id":76561199097679930,"connected_time":1220000000000,"state":"active","ping":100},{"user_id":30,"name":"GroggieBoi","steam_id":76561199085200364,"connected_time":2745000000000,"state":"active","ping":64},{"user_id":40,"name":"Kent","steam_id":76561198319131219,"connected_time":2456000000000,"state":"active","ping":89},{"user_id":45,"name":"825 hp","steam_id":76561198780932931,"connected_time":2338000000000,"state":"active","ping":84},{"user_id":66,"name":"Bottom G","steam_id":76561199137927625,"connected_time":989000000000,"state":"active","ping":92},{"user_id":59,"name":"frenchhhhhhhhhhhhhhh","steam_id":76561198242827110,"connected_time":1596000000000,"state":"active","ping":60},{"user_id":72,"name":"o","steam_id":76561198811024417,"connected_time":16000000000,"state":"spawning","ping":57},{"user_id":50,"name":"V :3","steam_id":76561199034546642,"connected_time":2030000000000,"state":"active","ping":104},{"user_id":46,"name":"Feels_Bad","steam_id":76561198132207861,"connected_time":2331000000000,"state":"active","ping":146},{"user_id":47,"name":"Box","steam_id":76561199165729667,"connected_time":2177000000000,"state":"active","ping":124},{"user_id":48,"name":"ÂñÑËâØ„ÅÆÂ¢®","steam_id":76561199102754539,"connected_time":2115000000000,"state":"active","ping":89},{"user_id":51,"name":"Milly Willy","steam_id":76561198796624166,"connected_time":2028000000000,"state":"active","ping":91},{"user_id":52,"name":"wood","steam_id":76561198446479114,"connected_time":2025000000000,"state":"active","ping":75},{"user_id":60,"name":"CamnAndO MaIn","steam_id":76561198930352999,"connected_time":1555000000000,"state":"active","ping":142},{"user_id":64,"name":"\"SKS\"","steam_id":76561198187995386,"connected_time":1418000000000,"state":"active","ping":90},{"user_id":68,"name":"Sniki","steam_id":76561199154709145,"connected_time":389000000000,"state":"active","ping":60},{"user_id":71,"name":"silverhouse7 | A |","steam_id":76561198349634906,"connected_time":322000000000,"state":"active","ping":130}]},{"server_id":1,"name":"Uncletopia | Los Angeles | 1 | All Maps","name_short":"lax-1","host":"lax-1.us.uncletopia.com","port":27015,"enabled":true,"region":"us-west","cc":"us","latitude":33.94279,"longitude":-118.41004,"reserved":0,"last_update":"0001-01-01T00:00:00Z","name_a2s":"Uncletopia | Los Angeles | 1 | All Maps","protocol":17,"map":"pl_upward","folder":"tf","game":"Team Fortress","app_id":440,"player_count":23,"max_players":24,"Bots":0,"server_type":"Dedicated","server_os":"Linux","password":true,"vac":true,"version":"7961495","steam_id":85568392924469991,"keywords":["nocrits","nodmgspread","payload","uncletopia"],"game_id":440,"stv_port":27016,"stv_name":"Uncletopia | Los Angeles | 1 | All Maps | STV","players":[{"user_id":531,"name":"shakoiwa","steam_id":76561199059441773,"connected_time":6000000000,"state":"spawning","ping":44},{"user_id":457,"name":"Nooblord","steam_id":76561199105123730,"connected_time":6773000000000,"state":"active","ping":84},{"user_id":526,"name":"babywhoa","steam_id":76561198070854627,"connected_time":613000000000,"state":"active","ping":51},{"user_id":527,"name":"NuclearPotato","steam_id":76561198144492000,"connected_time":612000000000,"state":"active","ping":69},{"user_id":525,"name":"psihog","steam_id":76561197975797700,"connected_time":650000000000,"state":"active","ping":54},{"user_id":490,"name":"Mr. Baseball","steam_id":76561198112635823,"connected_time":3771000000000,"state":"active","ping":91},{"user_id":506,"name":"drewdawg6296","steam_id":76561199168732067,"connected_time":2455000000000,"state":"active","ping":102},{"user_id":523,"name":"-=Bits=-Dinkleberg","steam_id":76561198080367616,"connected_time":751000000000,"state":"active","ping":74},{"user_id":529,"name":"jovial","steam_id":76561198297130941,"connected_time":453000000000,"state":"active","ping":46},{"user_id":509,"name":"BaconUltimate","steam_id":76561198060737668,"connected_time":2268000000000,"state":"active","ping":89},{"user_id":502,"name":"üíÄKing DiamondüíÄ","steam_id":76561198012101598,"connected_time":2926000000000,"state":"active","ping":46},{"user_id":507,"name":"Giantbob","steam_id":76561199043760220,"connected_time":2436000000000,"state":"active","ping":62},{"user_id":511,"name":"FunHaver69","steam_id":76561199086723311,"connected_time":2130000000000,"state":"active","ping":70},{"user_id":456,"name":"that was pretty cringe bro ngl","steam_id":76561198385887698,"connected_time":6912000000000,"state":"active","ping":64},{"user_id":528,"name":"Stapler","steam_id":76561198099295077,"connected_time":531000000000,"state":"active","ping":59},{"user_id":503,"name":"afeel5004","steam_id":76561199273696662,"connected_time":2889000000000,"state":"active","ping":62},{"user_id":505,"name":"Doctor Chang","steam_id":76561198075619480,"connected_time":2517000000000,"state":"active","ping":59},{"user_id":516,"name":"sixauto0706","steam_id":76561198126443610,"connected_time":1195000000000,"state":"active","ping":73},{"user_id":530,"name":"ACK","steam_id":76561198130390689,"connected_time":380000000000,"state":"active","ping":68},{"user_id":524,"name":"shullers","steam_id":76561198889997809,"connected_time":742000000000,"state":"active","ping":47},{"user_id":513,"name":"Whisper!","steam_id":76561198119609795,"connected_time":1351000000000,"state":"active","ping":55},{"user_id":497,"name":"JtsRes","steam_id":76561197994809241,"connected_time":3613000000000,"state":"active","ping":90},{"user_id":500,"name":"walrooos","steam_id":76561198024521839,"connected_time":3108000000000,"state":"active","ping":47}]},{"server_id":112,"name":"Uncletopia | Los Angeles | 2 | All Maps","name_short":"lax-2","host":"lax-1.us.uncletopia.com","port":27025,"enabled":true,"region":"us-west","cc":"us","latitude":33.94279,"longitude":-118.41004,"reserved":0,"last_update":"0001-01-01T00:00:00Z","name_a2s":"Uncletopia | Los Angeles | 2 | All Maps","protocol":17,"map":"pl_barnblitz","folder":"tf","game":"Team Fortress","app_id":440,"player_count":0,"max_players":24,"Bots":0,"server_type":"Dedicated","server_os":"Linux","password":true,"vac":true,"version":"7961495","steam_id":85568392924469992,"keywords":["nocrits","nodmgspread","payload","uncletopia"],"game_id":440,"stv_port":27026,"stv_name":"Uncletopia | Los Angeles | 2 | All Maps | STV","players":null},{"server_id":324,"name":"Uncletopia | Los Angeles | 3 | All Maps","name_short":"lax-3","host":"lax-1.us.uncletopia.com","port":27035,"enabled":true,"region":"us-west","cc":"us","latitude":33.94279,"longitude":-118.41004,"reserved":0,"last_update":"0001-01-01T00:00:00Z","name_a2s":"Uncletopia | Los Angeles | 3 | All Maps","protocol":17,"map":"cp_dustbowl","folder":"tf","game":"Team Fortress","app_id":440,"player_count":24,"max_players":24,"Bots":0,"server_type":"Dedicated","server_os":"Linux","password":true,"vac":true,"version":"7961495","steam_id":85568392924510198,"keywords":["cp","nocrits","nodmgspread","uncletopia"],"game_id":440,"stv_port":27036,"stv_name":"Uncletopia | Los Angeles | 3 | All Maps | STV","players":[{"user_id":151,"name":"erm what the scallop???","steam_id":76561198338610196,"connected_time":1411000000000,"state":"active","ping":71},{"user_id":156,"name":"H3CTiC_BRUiN","steam_id":76561197989221671,"connected_time":1298000000000,"state":"active","ping":59},{"user_id":155,"name":"Chirp","steam_id":76561198240780230,"connected_time":1313000000000,"state":"active","ping":45},{"user_id":178,"name":"Melon","steam_id":76561199202306398,"connected_time":638000000000,"state":"active","ping":61},{"user_id":171,"name":"Irritated Duck","steam_id":76561198247792076,"connected_time":890000000000,"state":"active","ping":106},{"user_id":133,"name":"Michael Pilkington","steam_id":76561198307839694,"connected_time":2991000000000,"state":"active","ping":56},{"user_id":146,"name":"Furious George","steam_id":76561198405111646,"connected_time":1785000000000,"state":"active","ping":65},{"user_id":121,"name":"dab","steam_id":76561197997990613,"connected_time":3850000000000,"state":"active","ping":61},{"user_id":157,"name":"FI LO","steam_id":76561198976530881,"connected_time":1218000000000,"state":"active","ping":38},{"user_id":188,"name":"DuramborosLord","steam_id":76561198330475333,"connected_time":100000000000,"state":"active","ping":61},{"user_id":186,"name":"Unlicensed Fed","steam_id":76561198166040449,"connected_time":358000000000,"state":"active","ping":59},{"user_id":150,"name":"BadaBingBadaBoom","steam_id":76561198246462382,"connected_time":1554000000000,"state":"active","ping":60},{"user_id":184,"name":"I'm busy bee worker","steam_id":76561198329680103,"connected_time":436000000000,"state":"active","ping":128},{"user_id":136,"name":"no vc no c","steam_id":76561197989503095,"connected_time":2961000000000,"state":"active","ping":149},{"user_id":161,"name":"Ralph Kramden (Slim Charles)","steam_id":76561197981687895,"connected_time":1152000000000,"state":"active","ping":57},{"user_id":189,"name":"Dr. Milker","steam_id":76561198068516964,"connected_time":32000000000,"state":"active","ping":88},{"user_id":170,"name":"kn0n2999","steam_id":76561198249172818,"connected_time":923000000000,"state":"active","ping":62},{"user_id":172,"name":"Drive-By-Fish-Guy","steam_id":76561198105513652,"connected_time":854000000000,"state":"active","ping":64},{"user_id":143,"name":"exx","steam_id":76561198090552145,"connected_time":2119000000000,"state":"active","ping":46},{"user_id":187,"name":"rose","steam_id":76561197995200743,"connected_time":304000000000,"state":"active","ping":37},{"user_id":174,"name":"tanookit","steam_id":76561197987507731,"connected_time":819000000000,"state":"active","ping":71},{"user_id":175,"name":"Lots0","steam_id":76561198043143145,"connected_time":788000000000,"state":"active","ping":100},{"user_id":176,"name":"-L","steam_id":76561198046074220,"connected_time":787000000000,"state":"active","ping":45},{"user_id":177,"name":"Dragoninventor (He/Him)","steam_id":76561198956224948,"connected_time":774000000000,"state":"active","ping":88}]},{"server_id":25,"name":"Uncletopia | Los Angeles | 4 | Stopwatch","name_short":"lax-4","host":"lax-1.us.uncletopia.com","port":27045,"enabled":true,"region":"us-west","cc":"us","latitude":33.94279,"longitude":-118.41004,"reserved":0,"last_update":"0001-01-01T00:00:00Z","name_a2s":"Uncletopia | Los Angeles | 4 | Stopwatch","protocol":17,"map":"workshop/koth_ashville_final.ugc2130459942","folder":"tf","game":"Team Fortress","app_id":440,"player_count":0,"max_players":24,"Bots":0,"server_type":"Dedicated","server_os":"Linux","password":true,"vac":true,"version":"7961495","steam_id":85568392924510199,"keywords":["cp","nocrits","nodmgspread","uncletopia"],"game_id":440,"stv_port":27046,"stv_name":"Uncletopia | Los Angeles | 4 | Stopwatch | STV","players":null},{"server_id":11,"name":"Uncletopia | London | 1 | All Maps","name_short":"lon-1","host":"lon-1.uk.uncletopia.com","port":27015,"enabled":true,"region":"eu","cc":"gb","latitude":51.509865,"longitude":-0.118092,"reserved":0,"last_update":"0001-01-01T00:00:00Z","name_a2s":"Uncletopia | London | 1 | All Maps","protocol":17,"map":"pl_badwater","folder":"tf","game":"Team Fortress","app_id":440,"player_count":19,"max_players":24,"Bots":0,"server_type":"Dedicated","server_os":"Linux","password":true,"vac":true,"version":"7961495","steam_id":85568392924367362,"keywords":["nocrits","nodmgspread","payload","uncletopia"],"game_id":440,"stv_port":27016,"stv_name":"Uncletopia | London | 1 | All Maps | STV","players":[{"user_id":849,"name":"panakid","steam_id":76561198364121077,"connected_time":3173000000000,"state":"active","ping":94},{"user_id":840,"name":"ion luca caragiale","steam_id":76561198132025408,"connected_time":3844000000000,"state":"active","ping":57},{"user_id":881,"name":"Lyncurion","steam_id":76561199260022725,"connected_time":183000000000,"state":"active","ping":78},{"user_id":882,"name":"God Emperor of Mankind","steam_id":76561198300869935,"connected_time":90000000000,"state":"active","ping":47},{"user_id":866,"name":"üúèSnowstoneüúè","steam_id":76561198373692962,"connected_time":1294000000000,"state":"active","ping":144},{"user_id":883,"name":"[SSRB] Kiri","steam_id":76561198193983787,"connected_time":81000000000,"state":"active","ping":143},{"user_id":854,"name":"Perpetual Pub Push","steam_id":76561198256714846,"connected_time":2740000000000,"state":"active","ping":36},{"user_id":827,"name":"noseb","steam_id":76561199480942903,"connected_time":5287000000000,"state":"active","ping":74},{"user_id":847,"name":"Aspartus","steam_id":76561198101385763,"connected_time":3549000000000,"state":"active","ping":40},{"user_id":862,"name":"Hood anthropologist","steam_id":76561197974720148,"connected_time":1714000000000,"state":"active","ping":49},{"user_id":868,"name":"Neimon","steam_id":76561198343485710,"connected_time":1263000000000,"state":"active","ping":125},{"user_id":853,"name":"Opigufyt","steam_id":76561198016838575,"connected_time":2749000000000,"state":"active","ping":45},{"user_id":870,"name":"HazelForest","steam_id":76561198171827033,"connected_time":1234000000000,"state":"active","ping":53},{"user_id":874,"name":"Prreor","steam_id":76561198833569390,"connected_time":933000000000,"state":"active","ping":62},{"user_id":875,"name":"K","steam_id":76561198144604444,"connected_time":882000000000,"state":"active","ping":59},{"user_id":876,"name":"psyko lunatic","steam_id":76561198213759580,"connected_time":851000000000,"state":"active","ping":43},{"user_id":877,"name":"Qdarks","steam_id":76561198013391340,"connected_time":720000000000,"state":"active","ping":142},{"user_id":782,"name":"king k rool sweep","steam_id":76561199179040672,"connected_time":9345000000000,"state":"active","ping":47},{"user_id":879,"name":"Vivian From Paper Mario","steam_id":76561198077624205,"connected_time":552000000000,"state":"active","ping":72}]},{"server_id":114,"name":"Uncletopia | London | 2 | All Maps","name_short":"lon-2","host":"lon-1.uk.uncletopia.com","port":27025,"enabled":true,"region":"eu","cc":"gb","latitude":51.509865,"longitude":-0.118092,"reserved":0,"last_update":"0001-01-01T00:00:00Z","name_a2s":"Uncletopia | London | 2 | All Maps","protocol":17,"map":"cp_sunshine","folder":"tf","game":"Team Fortress","app_id":440,"player_count":0,"max_players":24,"Bots":0,"server_type":"Dedicated","server_os":"Linux","password":true,"vac":true,"version":"7961495","steam_id":85568392924470941,"keywords":["cp","nocrits","nodmgspread","uncletopia"],"game_id":440,"stv_port":27026,"stv_name":"Uncletopia | London | 2 | All Maps | STV","players":null},{"server_id":320,"name":"Uncletopia | London | 3 | All Maps","name_short":"lon-3","host":"lon-1.uk.uncletopia.com","port":27035,"enabled":true,"region":"eu","cc":"gb","latitude":51.509865,"longitude":-0.118092,"reserved":0,"last_update":"0001-01-01T00:00:00Z","name_a2s":"Uncletopia | London | 3 | All Maps","protocol":17,"map":"cp_dustbowl","folder":"tf","game":"Team Fortress","app_id":440,"player_count":7,"max_players":24,"Bots":0,"server_type":"Dedicated","server_os":"Linux","password":true,"vac":true,"version":"7961495","steam_id":85568392924510192,"keywords":["cp","nocrits","nodmgspread","uncletopia"],"game_id":440,"stv_port":27036,"stv_name":"Uncletopia | London | 3 | All Maps | STV","players":[{"user_id":394,"name":"jeramy67","steam_id":76561199094824989,"connected_time":470000000000,"state":"active","ping":132},{"user_id":395,"name":"Ethan Winter's","steam_id":76561199218979828,"connected_time":384000000000,"state":"active","ping":128},{"user_id":396,"name":"daniel balls","steam_id":76561199023050804,"connected_time":207000000000,"state":"active","ping":83},{"user_id":378,"name":"Vibing Wave","steam_id":76561198866358613,"connected_time":3487000000000,"state":"active","ping":156},{"user_id":367,"name":"jjkun786","steam_id":76561199438517484,"connected_time":4256000000000,"state":"active","ping":83},{"user_id":381,"name":"Riko","steam_id":76561199057643011,"connected_time":3370000000000,"state":"active","ping":48},{"user_id":383,"name":"Deemask√©","steam_id":76561199225833593,"connected_time":3270000000000,"state":"active","ping":49}]},{"server_id":321,"name":"Uncletopia | London | 4 | All Maps","name_short":"lon-4","host":"lon-1.uk.uncletopia.com","port":27045,"enabled":true,"region":"eu","cc":"gb","latitude":51.509865,"longitude":-0.118092,"reserved":0,"last_update":"0001-01-01T00:00:00Z","name_a2s":"Uncletopia | London | 4 | All Maps","protocol":17,"map":"pl_pier","folder":"tf","game":"Team Fortress","app_id":440,"player_count":0,"max_players":24,"Bots":0,"server_type":"Dedicated","server_os":"Linux","password":true,"vac":true,"version":"7961495","steam_id":85568392924510193,"keywords":["nocrits","nodmgspread","payload","uncletopia"],"game_id":440,"stv_port":27046,"stv_name":"Uncletopia | London | 4 | All Maps | STV","players":null},{"server_id":21,"name":"Uncletopia | London | 5 | All Maps","name_short":"lon-5","host":"lon-1.uk.uncletopia.com","port":27055,"enabled":true,"region":"eu","cc":"gb","latitude":51.509865,"longitude":-0.118092,"reserved":0,"last_update":"0001-01-01T00:00:00Z","name_a2s":"Uncletopia | London | 5 | All Maps","protocol":17,"map":"cp_sunshine","folder":"tf","game":"Team Fortress","app_id":440,"player_count":0,"max_players":24,"Bots":0,"server_type":"Dedicated","server_os":"Linux","password":true,"vac":true,"version":"7961495","steam_id":85568392924742829,"keywords":["cp","nocrits","nodmgspread","uncletopia"],"game_id":440,"stv_port":27056,"stv_name":"Uncletopia | London | 5 | All Maps | STV","players":null},{"server_id":22,"name":"Uncletopia | London | 6 | All Maps","name_short":"lon-6","host":"lon-1.uk.uncletopia.com","port":27065,"enabled":true,"region":"eu","cc":"gb","latitude":51.509865,"longitude":-0.118092,"reserved":0,"last_update":"0001-01-01T00:00:00Z","name_a2s":"Uncletopia | London | 6 | All Maps","protocol":17,"map":"pl_borneo","folder":"tf","game":"Team Fortress","app_id":440,"player_count":0,"max_players":24,"Bots":0,"server_type":"Dedicated","server_os":"Linux","password":true,"vac":true,"version":"7961495","steam_id":85568392924742830,"keywords":["nocrits","nodmgspread","payload","uncletopia"],"game_id":440,"stv_port":27066,"stv_name":"Uncletopia | London | 6 | All Maps | STV","players":null},{"server_id":40,"name":"Uncletopia | London | 7 | Stopwatch","name_short":"lon-7","host":"lon-1.uk.uncletopia.com","port":27075,"enabled":true,"region":"eu","cc":"gb","latitude":51.509865,"longitude":-0.118092,"reserved":0,"last_update":"0001-01-01T00:00:00Z","name_a2s":"Uncletopia | London | 7 | Stopwatch","protocol":17,"map":"cp_sunshine","folder":"tf","game":"Team Fortress","app_id":440,"player_count":0,"max_players":24,"Bots":0,"server_type":"Dedicated","server_os":"Linux","password":true,"vac":true,"version":"7961495","steam_id":85568392924964314,"keywords":["cp","nocrits","nodmgspread","uncletopia"],"game_id":440,"stv_port":27076,"stv_name":"Uncletopia | London | 7 | Stopwatch | STV","players":null},{"server_id":41,"name":"Uncletopia | London | 8 | Community","name_short":"lon-8","host":"lon-1.uk.uncletopia.com","port":27085,"enabled":true,"region":"eu","cc":"gb","latitude":51.509865,"longitude":-0.118092,"reserved":0,"last_update":"0001-01-01T00:00:00Z","name_a2s":"Uncletopia | London | 8 | Community","protocol":17,"map":"workshop/koth_ramjam_rc1.ugc459778887","folder":"tf","game":"Team Fortress","app_id":440,"player_count":0,"max_players":24,"Bots":0,"server_type":"Dedicated","server_os":"Linux","password":true,"vac":true,"version":"7961495","steam_id":85568392924964315,"keywords":["cp","nocrits","nodmgspread","uncletopia"],"game_id":440,"stv_port":27086,"stv_name":"Uncletopia | London | 8 | Community | STV","players":null},{"server_id":300,"name":"Uncletopia | Montr√©al | 1 | One Thousand Uncles","name_short":"mtl-1","host":"mtl-1.ca.uncletopia.com","port":27015,"enabled":true,"region":"us-east","cc":"ca","latitude":45.50889,"longitude":-73.56167,"reserved":0,"last_update":"0001-01-01T00:00:00Z","name_a2s":"","protocol":0,"map":"","folder":"","game":"","app_id":0,"player_count":10,"max_players":0,"Bots":0,"server_type":"","server_os":"","password":false,"vac":false,"version":"","steam_id":0,"keywords":null,"game_id":0,"stv_port":0,"stv_name":"","players":[{"user_id":572,"name":"Suns","steam_id":76561198390338107,"connected_time":172000000000,"state":"active","ping":183},{"user_id":589,"name":"QueenCake575","steam_id":76561198996882407,"connected_time":135000000000,"state":"active","ping":133},{"user_id":567,"name":"some tree","steam_id":76561198166093346,"connected_time":494000000000,"state":"active","ping":45},{"user_id":590,"name":"Walla","steam_id":76561198103379757,"connected_time":128000000000,"state":"active","ping":63},{"user_id":591,"name":"Edgy Haunter","steam_id":76561199029162264,"connected_time":69000000000,"state":"active","ping":50},{"user_id":367,"name":"Yep","steam_id":76561198041437251,"connected_time":11557000000000,"state":"active","ping":60},{"user_id":561,"name":"eotsu666","steam_id":76561199180399756,"connected_time":911000000000,"state":"active","ping":60},{"user_id":559,"name":"Brison","steam_id":76561198051370524,"connected_time":1273000000000,"state":"active","ping":103},{"user_id":569,"name":"Chechens Spotted","steam_id":76561199028910893,"connected_time":340000000000,"state":"active","ping":75},{"user_id":570,"name":"leland0620","steam_id":76561199081790741,"connected_time":340000000000,"state":"active","ping":50}]},{"server_id":301,"name":"Uncletopia | Montr√©al | 2 | One Thousand Uncles","name_short":"mtl-2","host":"mtl-1.ca.uncletopia.com","port":27025,"enabled":true,"region":"us-east","cc":"ca","latitude":45.50889,"longitude":-73.56167,"reserved":0,"last_update":"0001-01-01T00:00:00Z","name_a2s":"","protocol":0,"map":"","folder":"","game":"","app_id":0,"player_count":11,"max_players":0,"Bots":0,"server_type":"","server_os":"","password":false,"vac":false,"version":"","steam_id":0,"keywords":null,"game_id":0,"stv_port":0,"stv_name":"","players":[{"user_id":361,"name":"BrownMemeSter","steam_id":76561198113745020,"connected_time":774000000000,"state":"active","ping":51},{"user_id":325,"name":"cool beans","steam_id":76561198321591685,"connected_time":3384000000000,"state":"active","ping":93},{"user_id":342,"name":"bungfao","steam_id":76561198401236682,"connected_time":1841000000000,"state":"active","ping":53},{"user_id":343,"name":"MancalaMadMan","steam_id":76561198347324053,"connected_time":1213000000000,"state":"active","ping":123},{"user_id":344,"name":"DeltaForce4Life","steam_id":76561198355534614,"connected_time":1095000000000,"state":"active","ping":95},{"user_id":366,"name":"Congcrab","steam_id":76561198078687685,"connected_time":82000000000,"state":"active","ping":92},{"user_id":363,"name":"Moonadoo","steam_id":76561198133377546,"connected_time":597000000000,"state":"active","ping":89},{"user_id":284,"name":"Jake_Spencer","steam_id":76561198025176750,"connected_time":5207000000000,"state":"active","ping":91},{"user_id":364,"name":"9221669701","steam_id":76561199221669701,"connected_time":589000000000,"state":"active","ping":96},{"user_id":336,"name":"Sway Sunnay","steam_id":76561198308817394,"connected_time":2681000000000,"state":"active","ping":81},{"user_id":308,"name":"1-800-GHOST-DANCE","steam_id":76561198835430429,"connected_time":3485000000000,"state":"active","ping":83}]},{"server_id":302,"name":"Uncletopia | Montr√©al | 3 | One Thousand Uncles","name_short":"mtl-3","host":"mtl-1.ca.uncletopia.com","port":27035,"enabled":true,"region":"us-east","cc":"ca","latitude":45.50889,"longitude":-73.56167,"reserved":0,"last_update":"0001-01-01T00:00:00Z","name_a2s":"","protocol":0,"map":"","folder":"","game":"","app_id":0,"player_count":6,"max_players":0,"Bots":0,"server_type":"","server_os":"","password":false,"vac":false,"version":"","steam_id":0,"keywords":null,"game_id":0,"stv_port":0,"stv_name":"","players":[{"user_id":142,"name":"dust | it/she","steam_id":76561198045218909,"connected_time":665000000000,"state":"active","ping":95},{"user_id":159,"name":"lavender","steam_id":76561199069518286,"connected_time":641000000000,"state":"active","ping":124},{"user_id":160,"name":"William P. Ennis","steam_id":76561198073464877,"connected_time":635000000000,"state":"active","ping":91},{"user_id":179,"name":"Ayayayayayahuasca","steam_id":76561199002906056,"connected_time":73000000000,"state":"active","ping":116},{"user_id":178,"name":"rat gets the cheese","steam_id":76561198031234032,"connected_time":329000000000,"state":"active","ping":74},{"user_id":175,"name":"Cheezbeargur","steam_id":76561198164702899,"connected_time":412000000000,"state":"active","ping":111}]},{"server_id":13,"name":"Uncletopia | New York City | 1 | All Maps","name_short":"nyc-1","host":"nyc-1.us.uncletopia.com","port":27015,"enabled":true,"region":"us-east","cc":"us","latitude":40.73061,"longitude":-73.93524,"reserved":0,"last_update":"0001-01-01T00:00:00Z","name_a2s":"Uncletopia | New York City | 1 | All Maps","protocol":17,"map":"cp_dustbowl","folder":"tf","game":"Team Fortress","app_id":440,"player_count":24,"max_players":24,"Bots":0,"server_type":"Dedicated","server_os":"Linux","password":true,"vac":true,"version":"7961495","steam_id":85568392924469993,"keywords":["cp","nocrits","nodmgspread","uncletopia"],"game_id":440,"stv_port":27016,"stv_name":"Uncletopia | New York City | 1 | All Maps | STV","players":[{"user_id":584,"name":"Cuttle's Fish","steam_id":76561198280483257,"connected_time":331000000000,"state":"active","ping":67},{"user_id":491,"name":"Bee_Pirate","steam_id":76561199000599111,"connected_time":8262000000000,"state":"active","ping":59},{"user_id":541,"name":"eipi","steam_id":76561199084492097,"connected_time":4808000000000,"state":"active","ping":108},{"user_id":566,"name":"Porcupine's Revenge!","steam_id":76561199121615234,"connected_time":2009000000000,"state":"active","ping":50},{"user_id":591,"name":"Great","steam_id":76561198895516433,"connected_time":236000000000,"state":"active","ping":60},{"user_id":502,"name":"Nerrrd_","steam_id":76561198870129960,"connected_time":7613000000000,"state":"active","ping":45},{"user_id":587,"name":"Hyd","steam_id":76561198064680410,"connected_time":315000000000,"state":"active","ping":61},{"user_id":594,"name":"Gardyloo_","steam_id":76561198353424759,"connected_time":91000000000,"state":"active","ping":58},{"user_id":588,"name":"Tesman James","steam_id":76561199093793428,"connected_time":277000000000,"state":"active","ping":63},{"user_id":518,"name":"It's FoolMoon","steam_id":76561198153344375,"connected_time":6582000000000,"state":"active","ping":41},{"user_id":542,"name":"Crisp","steam_id":76561198132644084,"connected_time":4024000000000,"state":"active","ping":56},{"user_id":595,"name":"CTRLZ0Y","steam_id":76561198183346187,"connected_time":59000000000,"state":"active","ping":46},{"user_id":576,"name":"rackrisss","steam_id":76561199380864529,"connected_time":878000000000,"state":"active","ping":74},{"user_id":544,"name":"Rigby","steam_id":76561198258121396,"connected_time":3824000000000,"state":"active","ping":93},{"user_id":596,"name":"Lil Bo L33T","steam_id":76561198041843704,"connected_time":43000000000,"state":"active","ping":65},{"user_id":554,"name":"space man","steam_id":76561198066333670,"connected_time":3149000000000,"state":"active","ping":69},{"user_id":572,"name":"Triple Lizard","steam_id":76561198188459654,"connected_time":1483000000000,"state":"active","ping":62},{"user_id":590,"name":"Meskoozy","steam_id":76561198102394479,"connected_time":250000000000,"state":"active","ping":79},{"user_id":592,"name":"Cocksneed Fartin","steam_id":76561198126675787,"connected_time":197000000000,"state":"active","ping":111},{"user_id":593,"name":"Spooky.EVI","steam_id":76561198138433468,"connected_time":155000000000,"state":"active","ping":86},{"user_id":564,"name":"Scoob","steam_id":76561198078633301,"connected_time":2529000000000,"state":"active","ping":47},{"user_id":555,"name":"START PRAYIN BOY","steam_id":76561198089173996,"connected_time":3091000000000,"state":"active","ping":72},{"user_id":467,"name":"IMPACT CPU","steam_id":76561198001344879,"connected_time":9461000000000,"state":"active","ping":58},{"user_id":558,"name":"Yuzu","steam_id":76561198417913035,"connected_time":2935000000000,"state":"active","ping":69}]},{"server_id":14,"name":"Uncletopia | New York City | 2 | All Maps","name_short":"nyc-2","host":"nyc-1.us.uncletopia.com","port":27025,"enabled":true,"region":"us-east","cc":"us","latitude":40.73061,"longitude":-73.93524,"reserved":0,"last_update":"0001-01-01T00:00:00Z","name_a2s":"Uncletopia | New York City | 2 | All Maps","protocol":17,"map":"pl_borneo","folder":"tf","game":"Team Fortress","app_id":440,"player_count":24,"max_players":24,"Bots":0,"server_type":"Dedicated","server_os":"Linux","password":true,"vac":true,"version":"7961495","steam_id":85568392924469994,"keywords":["nocrits","nodmgspread","payload","uncletopia"],"game_id":440,"stv_port":27026,"stv_name":"Uncletopia | New York City | 2 | All Maps | STV","players":[{"user_id":243,"name":"sqerkbo","steam_id":76561198080012700,"connected_time":890000000000,"state":"active","ping":41},{"user_id":229,"name":"aaron","steam_id":76561198113364714,"connected_time":1848000000000,"state":"active","ping":44},{"user_id":204,"name":"Dreamy Sweat from 2hu","steam_id":76561198094602446,"connected_time":3100000000000,"state":"active","ping":89},{"user_id":197,"name":"Seayon","steam_id":76561198151688517,"connected_time":3403000000000,"state":"active","ping":49},{"user_id":176,"name":"Ben Shapiro Gaming","steam_id":76561198113651011,"connected_time":5916000000000,"state":"active","ping":50},{"user_id":187,"name":"i hate my bitchmade son","steam_id":76561198044034546,"connected_time":4352000000000,"state":"active","ping":67},{"user_id":189,"name":"Tabby","steam_id":76561199043429385,"connected_time":4338000000000,"state":"active","ping":86},{"user_id":203,"name":"Junko","steam_id":76561198146089003,"connected_time":3167000000000,"state":"active","ping":31},{"user_id":212,"name":"Bonesaw McGraw","steam_id":76561198081707659,"connected_time":2937000000000,"state":"active","ping":73},{"user_id":246,"name":"W3BB3Y","steam_id":76561198141962813,"connected_time":642000000000,"state":"active","ping":60},{"user_id":202,"name":"Reisen Udongein Inaba","steam_id":76561198051082314,"connected_time":3184000000000,"state":"active","ping":134},{"user_id":247,"name":"GibbusGod","steam_id":76561199232436690,"connected_time":606000000000,"state":"active","ping":85},{"user_id":180,"name":"Heart","steam_id":76561198128150356,"connected_time":5576000000000,"state":"active","ping":62},{"user_id":254,"name":"TTV Hunter","steam_id":76561198115812405,"connected_time":18000000000,"state":"active","ping":63},{"user_id":195,"name":"BI2k3","steam_id":76561199252474266,"connected_time":3737000000000,"state":"active","ping":58},{"user_id":222,"name":"RedWireFTW","steam_id":76561198139267825,"connected_time":2342000000000,"state":"active","ping":142},{"user_id":249,"name":"oppenheimer style","steam_id":76561198026664629,"connected_time":448000000000,"state":"active","ping":49},{"user_id":213,"name":"HundchenTanque","steam_id":76561198122692754,"connected_time":2856000000000,"state":"active","ping":47},{"user_id":218,"name":"Nobongo","steam_id":76561198137957455,"connected_time":2713000000000,"state":"active","ping":51},{"user_id":250,"name":"HoneyOTU","steam_id":76561198200366607,"connected_time":440000000000,"state":"active","ping":86},{"user_id":252,"name":"stagecoach","steam_id":76561198070303712,"connected_time":334000000000,"state":"active","ping":57},{"user_id":231,"name":"Rambly Dambly","steam_id":76561198844496567,"connected_time":1818000000000,"state":"active","ping":40},{"user_id":216,"name":"JohnsBriefcase","steam_id":76561198117657002,"connected_time":2833000000000,"state":"active","ping":57},{"user_id":238,"name":"DeepDive","steam_id":76561198140542184,"connected_time":1438000000000,"state":"active","ping":53}]},{"server_id":15,"name":"Uncletopia | New York City | 3 | Stopwatch","name_short":"nyc-3","host":"nyc-1.us.uncletopia.com","port":27035,"enabled":true,"region":"us-east","cc":"us","latitude":40.73061,"longitude":-73.93524,"reserved":0,"last_update":"0001-01-01T00:00:00Z","name_a2s":"Uncletopia | New York City | 3 | Stopwatch","protocol":17,"map":"koth_highpass","folder":"tf","game":"Team Fortress","app_id":440,"player_count":24,"max_players":24,"Bots":0,"server_type":"Dedicated","server_os":"Linux","password":true,"vac":true,"version":"7961495","steam_id":85568392924742820,"keywords":["cp","nocrits","nodmgspread","uncletopia"],"game_id":440,"stv_port":27036,"stv_name":"Uncletopia | New York City | 3 | Stopwatch | STV","players":[{"user_id":190,"name":"Kamin","steam_id":76561198255299559,"connected_time":1116000000000,"state":"active","ping":104},{"user_id":161,"name":"SirEdwardPrize","steam_id":76561198211456472,"connected_time":3931000000000,"state":"active","ping":76},{"user_id":186,"name":"brisky","steam_id":76561198869675719,"connected_time":2012000000000,"state":"active","ping":51},{"user_id":193,"name":"Kivertsy","steam_id":76561199162661290,"connected_time":982000000000,"state":"active","ping":75},{"user_id":177,"name":"Funne Monke","steam_id":76561198147868601,"connected_time":2413000000000,"state":"active","ping":56},{"user_id":205,"name":"dansal","steam_id":76561197997042510,"connected_time":292000000000,"state":"active","ping":93},{"user_id":192,"name":"Resistance","steam_id":76561197998318861,"connected_time":1027000000000,"state":"active","ping":89},{"user_id":200,"name":"kikikikoboy","steam_id":76561198073380271,"connected_time":638000000000,"state":"active","ping":67},{"user_id":185,"name":"kopatta","steam_id":76561198064773037,"connected_time":2116000000000,"state":"active","ping":87},{"user_id":194,"name":"crankshaft","steam_id":76561197992798282,"connected_time":969000000000,"state":"active","ping":105},{"user_id":138,"name":"MensRightsActivist","steam_id":76561199482149729,"connected_time":5306000000000,"state":"active","ping":43},{"user_id":202,"name":"John Fortnite","steam_id":76561198076608253,"connected_time":520000000000,"state":"active","ping":57},{"user_id":195,"name":"Beardface31","steam_id":76561198009000764,"connected_time":953000000000,"state":"active","ping":88},{"user_id":160,"name":"Dot.","steam_id":76561198149463984,"connected_time":3998000000000,"state":"active","ping":44},{"user_id":171,"name":"Calvin?","steam_id":76561198034069587,"connected_time":3302000000000,"state":"active","ping":85},{"user_id":196,"name":"AMistake","steam_id":76561199379196708,"connected_time":854000000000,"state":"active","ping":47},{"user_id":165,"name":"Clouderino","steam_id":76561198045908174,"connected_time":3644000000000,"state":"active","ping":74},{"user_id":174,"name":"DededeMain | trade.tf","steam_id":76561198310951632,"connected_time":3019000000000,"state":"active","ping":66},{"user_id":199,"name":"cyberas","steam_id":76561198257092290,"connected_time":784000000000,"state":"active","ping":59},{"user_id":167,"name":"toastman","steam_id":76561198207073088,"connected_time":3575000000000,"state":"active","ping":80},{"user_id":201,"name":"–Ω–µ –±–µ—Ä–∏ –≤ –≥–æ–ª–æ–≤—É","steam_id":76561198066716670,"connected_time":620000000000,"state":"active","ping":71},{"user_id":169,"name":"Bluedime","steam_id":76561198123181025,"connected_time":3553000000000,"state":"active","ping":46},{"user_id":184,"name":"muck","steam_id":76561198120437909,"connected_time":2172000000000,"state":"active","ping":77},{"user_id":204,"name":"gay rats","steam_id":76561198131336652,"connected_time":401000000000,"state":"active","ping":76}]},{"server_id":16,"name":"Uncletopia | New York City | 4 | Community","name_short":"nyc-4","host":"nyc-1.us.uncletopia.com","port":27045,"enabled":true,"region":"us-east","cc":"us","latitude":40.73061,"longitude":-73.93524,"reserved":0,"last_update":"0001-01-01T00:00:00Z","name_a2s":"Uncletopia | New York City | 4 | Community","protocol":17,"map":"workshop/koth_trenchfoot_b1a.ugc731436616","folder":"tf","game":"Team Fortress","app_id":440,"player_count":0,"max_players":24,"Bots":0,"server_type":"Dedicated","server_os":"Linux","password":true,"vac":true,"version":"7961495","steam_id":85568392924742821,"keywords":["cp","nocrits","nodmgspread","uncletopia"],"game_id":440,"stv_port":27046,"stv_name":"Uncletopia | New York City | 4 | Community | STV","players":null},{"server_id":142,"name":"Uncletopia | S√£o Paulo | 1 | All Maps","name_short":"sao-1","host":"sao-1.br.uncletopia.com","port":27015,"enabled":true,"region":"sa","cc":"br","latitude":-23.533773,"longitude":-46.62529,"reserved":0,"last_update":"0001-01-01T00:00:00Z","name_a2s":"Uncletopia | S√£o Paulo | 1 | All Maps","protocol":17,"map":"pl_frontier_final","folder":"tf","game":"Team Fortress","app_id":440,"player_count":1,"max_players":24,"Bots":0,"server_type":"Dedicated","server_os":"Linux","password":true,"vac":true,"version":"7961495","steam_id":85568392924469996,"keywords":["nocrits","nodmgspread","payload","uncletopia"],"game_id":440,"stv_port":27016,"stv_name":"Uncletopia | S√£o Paulo | 1 | All Maps | STV","players":[{"user_id":36,"name":"mechanical bride","steam_id":76561198161382276,"connected_time":366000000000,"state":"active","ping":49}]},{"server_id":143,"name":"Uncletopia | S√£o Paulo | 2 | Community","name_short":"sao-2","host":"sao-2.br.uncletopia.com","port":27015,"enabled":true,"region":"sa","cc":"br","latitude":-23.533773,"longitude":-46.62529,"reserved":0,"last_update":"0001-01-01T00:00:00Z","name_a2s":"Uncletopia | S√£o Paulo | 2 | Community","protocol":17,"map":"workshop/koth_slaughter_rc1.ugc1712845210","folder":"tf","game":"Team Fortress","app_id":440,"player_count":2,"max_players":24,"Bots":0,"server_type":"Dedicated","server_os":"Linux","password":true,"vac":true,"version":"7961495","steam_id":85568392924485349,"keywords":["cp","nocrits","nodmgspread","uncletopia"],"game_id":440,"stv_port":27016,"stv_name":"Uncletopia | S√£o Paulo | 2 | Community | STV","players":[{"user_id":18,"name":"guarda-chuva","steam_id":76561198078694330,"connected_time":301000000000,"state":"active","ping":48},{"user_id":19,"name":"Tert_14","steam_id":76561198185952289,"connected_time":265000000000,"state":"active","ping":71}]},{"server_id":7,"name":"Uncletopia | Seattle | 1 | All Maps","name_short":"sea-1","host":"sea-1.us.uncletopia.com","port":27015,"enabled":true,"region":"us-west","cc":"us","latitude":47.608013,"longitude":-122.33517,"reserved":0,"last_update":"0001-01-01T00:00:00Z","name_a2s":"Uncletopia | Seattle | 1 | All Maps","protocol":17,"map":"koth_highpass","folder":"tf","game":"Team Fortress","app_id":440,"player_count":24,"max_players":24,"Bots":0,"server_type":"Dedicated","server_os":"Linux","password":true,"vac":true,"version":"7961495","steam_id":85568392924469997,"keywords":["cp","nocrits","nodmgspread","uncletopia"],"game_id":440,"stv_port":27016,"stv_name":"Uncletopia | Seattle | 1 | All Maps | STV","players":[{"user_id":497,"name":"Yakashama","steam_id":76561198204869719,"connected_time":653000000000,"state":"active","ping":39},{"user_id":511,"name":"caca sniffer","steam_id":76561199099914725,"connected_time":233000000000,"state":"active","ping":46},{"user_id":502,"name":"Jae","steam_id":76561198060026844,"connected_time":617000000000,"state":"active","ping":112},{"user_id":499,"name":"level 7 firemancer","steam_id":76561198209571677,"connected_time":631000000000,"state":"active","ping":122},{"user_id":498,"name":"SadFapping","steam_id":76561198076651049,"connected_time":649000000000,"state":"active","ping":45},{"user_id":461,"name":"oda","steam_id":76561197985719327,"connected_time":3912000000000,"state":"active","ping":168},{"user_id":469,"name":"Sniff","steam_id":76561198010270922,"connected_time":3183000000000,"state":"active","ping":44},{"user_id":472,"name":"rad killl raccoon","steam_id":76561198980975595,"connected_time":3047000000000,"state":"active","ping":54},{"user_id":487,"name":"Stockover","steam_id":76561198096707415,"connected_time":1870000000000,"state":"active","ping":54},{"user_id":505,"name":"Arzee","steam_id":76561198857237473,"connected_time":505000000000,"state":"active","ping":53},{"user_id":514,"name":"Peek","steam_id":76561198134445484,"connected_time":126000000000,"state":"active","ping":67},{"user_id":426,"name":"remanedur","steam_id":76561198059459507,"connected_time":6874000000000,"state":"active","ping":121},{"user_id":503,"name":"Chilihuahua","steam_id":76561198004929152,"connected_time":584000000000,"state":"active","ping":76},{"user_id":516,"name":"taksss","steam_id":76561198995422051,"connected_time":33000000000,"state":"spawning","ping":73},{"user_id":512,"name":"‚Ä∫ Noir","steam_id":76561197977418994,"connected_time":182000000000,"state":"active","ping":65},{"user_id":480,"name":"Fray","steam_id":76561198030141282,"connected_time":2066000000000,"state":"active","ping":127},{"user_id":515,"name":"Severeburrito16","steam_id":76561198353155991,"connected_time":108000000000,"state":"active","ping":101},{"user_id":493,"name":"A Can of AriZona Green Tea","steam_id":76561198062481133,"connected_time":1581000000000,"state":"active","ping":75},{"user_id":501,"name":"Peppy","steam_id":76561198866629645,"connected_time":627000000000,"state":"active","ping":58},{"user_id":507,"name":"TROY","steam_id":76561197983852176,"connected_time":411000000000,"state":"active","ping":75},{"user_id":491,"name":"nolove","steam_id":76561198274550638,"connected_time":1664000000000,"state":"active","ping":118},{"user_id":517,"name":"SaltyFlump","steam_id":76561199379601288,"connected_time":31000000000,"state":"active","ping":48},{"user_id":508,"name":"lili winters","steam_id":76561199488457138,"connected_time":377000000000,"state":"active","ping":55},{"user_id":490,"name":"tardis_946","steam_id":76561199090388860,"connected_time":1844000000000,"state":"active","ping":79}]},{"server_id":119,"name":"Uncletopia | Seattle | 2 | All Maps","name_short":"sea-2","host":"sea-1.us.uncletopia.com","port":27025,"enabled":true,"region":"us-west","cc":"us","latitude":47.608013,"longitude":-122.33517,"reserved":0,"last_update":"0001-01-01T00:00:00Z","name_a2s":"Uncletopia | Seattle | 2 | All Maps","protocol":17,"map":"pl_pier","folder":"tf","game":"Team Fortress","app_id":440,"player_count":24,"max_players":24,"Bots":0,"server_type":"Dedicated","server_os":"Linux","password":true,"vac":true,"version":"7961495","steam_id":85568392924469998,"keywords":["nocrits","nodmgspread","payload","uncletopia"],"game_id":440,"stv_port":27026,"stv_name":"Uncletopia | Seattle | 2 | All Maps | STV","players":[{"user_id":220,"name":"ClosetBotany","steam_id":76561198088324821,"connected_time":605000000000,"state":"active","ping":58},{"user_id":190,"name":"Dr. FlimFlam","steam_id":76561198049212986,"connected_time":2664000000000,"state":"active","ping":75},{"user_id":219,"name":"Ska√∞i","steam_id":76561198063949642,"connected_time":652000000000,"state":"active","ping":36},{"user_id":217,"name":"mn","steam_id":76561198042357436,"connected_time":801000000000,"state":"active","ping":35},{"user_id":189,"name":"weapon of ass destruction","steam_id":76561199217503417,"connected_time":2709000000000,"state":"active","ping":46},{"user_id":172,"name":"wmjledger","steam_id":76561198443046861,"connected_time":4215000000000,"state":"active","ping":47},{"user_id":221,"name":"OHGODBEES!","steam_id":76561198000653374,"connected_time":576000000000,"state":"active","ping":75},{"user_id":191,"name":"R3S0LVE_","steam_id":76561198389201130,"connected_time":2570000000000,"state":"active","ping":72},{"user_id":206,"name":"CPTforever","steam_id":76561198237767198,"connected_time":2086000000000,"state":"active","ping":61},{"user_id":222,"name":"Madcows","steam_id":76561198021695614,"connected_time":491000000000,"state":"active","ping":60},{"user_id":224,"name":"MegumiTame","steam_id":76561198450280686,"connected_time":134000000000,"state":"active","ping":55},{"user_id":165,"name":"Preston","steam_id":76561198255721392,"connected_time":4758000000000,"state":"active","ping":110},{"user_id":193,"name":"The Entity Hungers...","steam_id":76561198291319035,"connected_time":2545000000000,"state":"active","ping":72},{"user_id":210,"name":"Kakavian","steam_id":76561198030549172,"connected_time":1534000000000,"state":"active","ping":91},{"user_id":214,"name":"Steve","steam_id":76561198352805460,"connected_time":1297000000000,"state":"active","ping":68},{"user_id":195,"name":"Mellow Yellow","steam_id":76561198406276981,"connected_time":2540000000000,"state":"active","ping":105},{"user_id":204,"name":"jayeskae","steam_id":76561198144220801,"connected_time":2275000000000,"state":"active","ping":48},{"user_id":211,"name":"T√ºCold","steam_id":76561198111278197,"connected_time":1506000000000,"state":"active","ping":53},{"user_id":208,"name":"Kel","steam_id":76561198046283896,"connected_time":1655000000000,"state":"active","ping":61},{"user_id":218,"name":"doghouse","steam_id":76561198000319035,"connected_time":703000000000,"state":"active","ping":85},{"user_id":207,"name":"Elbow Joint","steam_id":76561198072149974,"connected_time":1784000000000,"state":"active","ping":85},{"user_id":223,"name":"Potato Knishes","steam_id":76561198063539547,"connected_time":486000000000,"state":"active","ping":48},{"user_id":201,"name":"StudioMania (#SAVETF2)","steam_id":76561198211315795,"connected_time":2450000000000,"state":"active","ping":114},{"user_id":202,"name":"ChimpusGaming","steam_id":76561198060954715,"connected_time":2449000000000,"state":"active","ping":118}]},{"server_id":406,"name":"Uncletopia | Seattle | 3 | Stopwatch","name_short":"sea-3","host":"sea-1.us.uncletopia.com","port":27035,"enabled":true,"region":"us-west","cc":"us","latitude":47.608013,"longitude":-122.33517,"reserved":0,"last_update":"0001-01-01T00:00:00Z","name_a2s":"Uncletopia | Seattle | 3 | Stopwatch","protocol":17,"map":"pl_upward","folder":"tf","game":"Team Fortress","app_id":440,"player_count":0,"max_players":24,"Bots":0,"server_type":"Dedicated","server_os":"Linux","password":true,"vac":true,"version":"7961495","steam_id":85568392924515217,"keywords":["nocrits","nodmgspread","payload","uncletopia"],"game_id":440,"stv_port":27036,"stv_name":"Uncletopia | Seattle | 3 | Stopwatch | STV","players":null},{"server_id":17,"name":"Uncletopia | San Francisco | 1 | All Maps","name_short":"sfo-1","host":"sfo-1.us.uncletopia.com","port":27015,"enabled":true,"region":"us-west","cc":"us","latitude":37.77397,"longitude":-122.4313,"reserved":0,"last_update":"0001-01-01T00:00:00Z","name_a2s":"Uncletopia | San Francisco | 1 | All Maps","protocol":17,"map":"pl_thundermountain","folder":"tf","game":"Team Fortress","app_id":440,"player_count":24,"max_players":24,"Bots":0,"server_type":"Dedicated","server_os":"Linux","password":true,"vac":true,"version":"7961495","steam_id":85568392924469999,"keywords":["nocrits","nodmgspread","payload","uncletopia"],"game_id":440,"stv_port":27016,"stv_name":"Uncletopia | San Francisco | 1 | All Maps | STV","players":[{"user_id":255,"name":"Taco+Taco=Burrito","steam_id":76561198063128663,"connected_time":478000000000,"state":"active","ping":58},{"user_id":217,"name":"Big Blue","steam_id":76561198084930108,"connected_time":3102000000000,"state":"active","ping":51},{"user_id":223,"name":"D.A.V.I.D","steam_id":76561199443570634,"connected_time":2914000000000,"state":"active","ping":86},{"user_id":256,"name":"AMATIC","steam_id":76561198016877316,"connected_time":444000000000,"state":"active","ping":60},{"user_id":240,"name":"alleeop43","steam_id":76561199029390266,"connected_time":1856000000000,"state":"active","ping":81},{"user_id":257,"name":"Murrdogg","steam_id":76561198210491188,"connected_time":361000000000,"state":"active","ping":109},{"user_id":191,"name":"WitchesBwew","steam_id":76561198871652065,"connected_time":4394000000000,"state":"active","ping":81},{"user_id":199,"name":"Yackaboi","steam_id":76561199444911765,"connected_time":3923000000000,"state":"active","ping":95},{"user_id":258,"name":"usmnt==chokers","steam_id":76561198043456370,"connected_time":299000000000,"state":"active","ping":52},{"user_id":254,"name":"Alchemist","steam_id":76561198094238189,"connected_time":832000000000,"state":"active","ping":73},{"user_id":221,"name":"lker","steam_id":76561197976975075,"connected_time":2968000000000,"state":"active","ping":91},{"user_id":251,"name":"Main Opp","steam_id":76561198124910662,"connected_time":1057000000000,"state":"active","ping":59},{"user_id":259,"name":"CHIKN","steam_id":76561198277792665,"connected_time":297000000000,"state":"active","ping":56},{"user_id":266,"name":"MelonLikeAFelon","steam_id":76561198060170336,"connected_time":60000000000,"state":"active","ping":76},{"user_id":260,"name":"daybreak","steam_id":76561198043854390,"connected_time":286000000000,"state":"active","ping":104},{"user_id":261,"name":"bubbles","steam_id":76561198040940902,"connected_time":280000000000,"state":"active","ping":44},{"user_id":253,"name":"SoldMyKidneyForCollege","steam_id":76561198096329559,"connected_time":956000000000,"state":"active","ping":60},{"user_id":264,"name":"captain red","steam_id":76561198191587983,"connected_time":249000000000,"state":"active","ping":89},{"user_id":246,"name":"Fribbo","steam_id":76561198373295660,"connected_time":1530000000000,"state":"active","ping":82},{"user_id":265,"name":"El G√ºey","steam_id":76561197970450546,"connected_time":209000000000,"state":"active","ping":83},{"user_id":247,"name":"Marzbee115","steam_id":76561198095821025,"connected_time":1480000000000,"state":"active","ping":60},{"user_id":267,"name":"sez","steam_id":76561199465922101,"connected_time":33000000000,"state":"spawning","ping":63},{"user_id":248,"name":"dogerich404","steam_id":76561199124102546,"connected_time":1476000000000,"state":"active","ping":62},{"user_id":269,"name":"chimplicity","steam_id":76561198012097062,"connected_time":15000000000,"state":"spawning","ping":78}]},{"server_id":18,"name":"Uncletopia | San Francisco | 2 | All Maps","name_short":"sfo-2","host":"sfo-1.us.uncletopia.com","port":27025,"enabled":true,"region":"us-west","cc":"us","latitude":37.77397,"longitude":-122.4313,"reserved":0,"last_update":"0001-01-01T00:00:00Z","name_a2s":"Uncletopia | San Francisco | 2 | All Maps","protocol":17,"map":"cp_dustbowl","folder":"tf","game":"Team Fortress","app_id":440,"player_count":24,"max_players":24,"Bots":0,"server_type":"Dedicated","server_os":"Linux","password":true,"vac":true,"version":"7961495","steam_id":85568392924470000,"keywords":["cp","nocrits","nodmgspread","uncletopia"],"game_id":440,"stv_port":27026,"stv_name":"Uncletopia | San Francisco | 2 | All Maps | STV","players":[{"user_id":183,"name":"match1stick","steam_id":76561199103743083,"connected_time":1206000000000,"state":"active","ping":40},{"user_id":175,"name":"Platinum","steam_id":76561198348354629,"connected_time":1403000000000,"state":"active","ping":58},{"user_id":125,"name":"Agent Q","steam_id":76561198830829003,"connected_time":5054000000000,"state":"active","ping":78},{"user_id":147,"name":"Len","steam_id":76561199141913673,"connected_time":3263000000000,"state":"active","ping":59},{"user_id":166,"name":"John","steam_id":76561198065100839,"connected_time":2335000000000,"state":"active","ping":60},{"user_id":46,"name":"greens beans","steam_id":76561198153611491,"connected_time":11273000000000,"state":"active","ping":59},{"user_id":174,"name":"5kPrime","steam_id":76561198039471915,"connected_time":1424000000000,"state":"active","ping":70},{"user_id":195,"name":"Herdez Hot Salsa","steam_id":76561197991740906,"connected_time":615000000000,"state":"active","ping":129},{"user_id":176,"name":"Mr Happy","steam_id":76561198067689328,"connected_time":1391000000000,"state":"active","ping":99},{"user_id":198,"name":"Satori Komeiji","steam_id":76561198158211423,"connected_time":351000000000,"state":"active","ping":56},{"user_id":158,"name":"chesterwnimitz","steam_id":76561198062664377,"connected_time":2594000000000,"state":"active","ping":83},{"user_id":165,"name":"Underscorn","steam_id":76561198374209415,"connected_time":2395000000000,"state":"active","ping":89},{"user_id":167,"name":"sagekiss","steam_id":76561198038831240,"connected_time":2309000000000,"state":"active","ping":72},{"user_id":185,"name":"99Lance","steam_id":76561198114442300,"connected_time":1113000000000,"state":"active","ping":76},{"user_id":173,"name":"he buhggihnn","steam_id":76561198011675372,"connected_time":1637000000000,"state":"active","ping":76},{"user_id":178,"name":"U.n.k","steam_id":76561198329242141,"connected_time":1272000000000,"state":"active","ping":67},{"user_id":184,"name":"Nova Academy of Salmon Action","steam_id":76561198021842526,"connected_time":1148000000000,"state":"active","ping":58},{"user_id":129,"name":"Silly_Goons","steam_id":76561199086142678,"connected_time":4828000000000,"state":"active","ping":76},{"user_id":181,"name":"Boocin","steam_id":76561198083195283,"connected_time":1260000000000,"state":"active","ping":82},{"user_id":197,"name":"Drilly22","steam_id":76561198068838338,"connected_time":525000000000,"state":"active","ping":101},{"user_id":96,"name":"mine diam","steam_id":76561198119123981,"connected_time":7303000000000,"state":"active","ping":71},{"user_id":182,"name":"leonardo doujinshi","steam_id":76561198025810326,"connected_time":1225000000000,"state":"active","ping":72},{"user_id":200,"name":"cannon boy ball","steam_id":76561198817982061,"connected_time":3000000000,"state":"spawning","ping":71},{"user_id":189,"name":"crispy","steam_id":76561198971106376,"connected_time":1020000000000,"state":"active","ping":104}]},{"server_id":19,"name":"Uncletopia | San Francisco | 3 | Stopwatch","name_short":"sfo-3","host":"sfo-1.us.uncletopia.com","port":27035,"enabled":true,"region":"us-west","cc":"us","latitude":37.77397,"longitude":-122.4313,"reserved":0,"last_update":"0001-01-01T00:00:00Z","name_a2s":"Uncletopia | San Francisco | 3 | Stopwatch","protocol":17,"map":"workshop/koth_bagel_rc6.ugc2514036946","folder":"tf","game":"Team Fortress","app_id":440,"player_count":0,"max_players":24,"Bots":0,"server_type":"Dedicated","server_os":"Linux","password":true,"vac":true,"version":"7961495","steam_id":85568392924742824,"keywords":["cp","nocrits","nodmgspread","uncletopia"],"game_id":440,"stv_port":27036,"stv_name":"Uncletopia | San Francisco | 3 | Stopwatch | STV","players":null},{"server_id":20,"name":"Uncletopia | San Francisco | 4 | Community","name_short":"sfo-4","host":"sfo-1.us.uncletopia.com","port":27045,"enabled":true,"region":"us-west","cc":"us","latitude":37.77397,"longitude":-122.4313,"reserved":0,"last_update":"0001-01-01T00:00:00Z","name_a2s":"Uncletopia | San Francisco | 4 | Community","protocol":17,"map":"workshop/pl_emerge_rc2.ugc888027758","folder":"tf","game":"Team Fortress","app_id":440,"player_count":18,"max_players":24,"Bots":0,"server_type":"Dedicated","server_os":"Linux","password":true,"vac":true,"version":"7961495","steam_id":85568392924742826,"keywords":["nocrits","nodmgspread","payload","uncletopia"],"game_id":440,"stv_port":27046,"stv_name":"Uncletopia | San Francisco | 4 | Community | STV","players":[{"user_id":78,"name":"DistantJragon","steam_id":76561198117563641,"connected_time":313000000000,"state":"active","ping":103},{"user_id":80,"name":"2Alpha6","steam_id":76561197992690915,"connected_time":220000000000,"state":"active","ping":93},{"user_id":68,"name":"Shy","steam_id":76561198394890836,"connected_time":991000000000,"state":"active","ping":104},{"user_id":79,"name":"O","steam_id":76561198450073779,"connected_time":304000000000,"state":"active","ping":60},{"user_id":70,"name":"whycameback","steam_id":76561198222556872,"connected_time":584000000000,"state":"active","ping":119},{"user_id":67,"name":"BoX_hEaD101","steam_id":76561198200875467,"connected_time":1020000000000,"state":"active","ping":68},{"user_id":23,"name":"Evenaris","steam_id":76561198087544319,"connected_time":3047000000000,"state":"active","ping":51},{"user_id":24,"name":"Archie","steam_id":76561198137112917,"connected_time":3037000000000,"state":"active","ping":47},{"user_id":25,"name":"Live Young, Cum Hard","steam_id":76561198040881326,"connected_time":2941000000000,"state":"active","ping":114},{"user_id":26,"name":"Zetro","steam_id":76561198012763551,"connected_time":2913000000000,"state":"active","ping":75},{"user_id":81,"name":"Tockbird","steam_id":76561199437964594,"connected_time":183000000000,"state":"active","ping":67},{"user_id":83,"name":"Chef","steam_id":76561198037041957,"connected_time":88000000000,"state":"active","ping":49},{"user_id":74,"name":"DaFlynHyn","steam_id":76561197998492675,"connected_time":436000000000,"state":"active","ping":113},{"user_id":31,"name":"Marshmallow Breasts","steam_id":76561198038710753,"connected_time":2799000000000,"state":"active","ping":82},{"user_id":45,"name":"Trips","steam_id":76561198054581597,"connected_time":1704000000000,"state":"active","ping":44},{"user_id":76,"name":"Kadrox","steam_id":76561199228653314,"connected_time":371000000000,"state":"active","ping":129},{"user_id":50,"name":"Mima","steam_id":76561198806992589,"connected_time":1645000000000,"state":"active","ping":68},{"user_id":55,"name":"merlin","steam_id":76561198334511480,"connected_time":1542000000000,"state":"active","ping":79}]},{"server_id":141,"name":"Uncletopia | Sydney | 1 | All Maps","name_short":"syd-1","host":"syd-1.au.uncletopia.com","port":27015,"enabled":true,"region":"au","cc":"au","latitude":-33.865143,"longitude":151.2099,"reserved":0,"last_update":"0001-01-01T00:00:00Z","name_a2s":"Uncletopia | Sydney | 1 | All Maps","protocol":17,"map":"koth_highpass","folder":"tf","game":"Team Fortress","app_id":440,"player_count":0,"max_players":24,"Bots":0,"server_type":"Dedicated","server_os":"Linux","password":true,"vac":true,"version":"7961495","steam_id":85568392924470001,"keywords":["cp","nocrits","nodmgspread","uncletopia"],"game_id":440,"stv_port":27016,"stv_name":"Uncletopia | Sydney | 1 | All Maps | STV","players":null},{"server_id":123,"name":"Uncletopia | Sydney | 2 | All Maps","name_short":"syd-2","host":"syd-1.au.uncletopia.com","port":27025,"enabled":true,"region":"au","cc":"au","latitude":-33.865143,"longitude":151.2099,"reserved":0,"last_update":"0001-01-01T00:00:00Z","name_a2s":"Uncletopia | Sydney | 2 | All Maps","protocol":17,"map":"koth_highpass","folder":"tf","game":"Team Fortress","app_id":440,"player_count":0,"max_players":24,"Bots":0,"server_type":"Dedicated","server_os":"Linux","password":true,"vac":true,"version":"7961495","steam_id":85568392924470002,"keywords":["cp","nocrits","nodmgspread","uncletopia"],"game_id":440,"stv_port":27026,"stv_name":"Uncletopia | Sydney | 2 | All Maps | STV","players":null},{"server_id":395,"name":"Uncletopia | Sydney | 3 | All Maps","name_short":"syd-3","host":"syd-1.au.uncletopia.com","port":27035,"enabled":true,"region":"au","cc":"au","latitude":-33.865143,"longitude":151.2099,"reserved":0,"last_update":"0001-01-01T00:00:00Z","name_a2s":"Uncletopia | Sydney | 3 | All Maps","protocol":17,"map":"pl_barnblitz","folder":"tf","game":"Team Fortress","app_id":440,"player_count":23,"max_players":24,"Bots":0,"server_type":"Dedicated","server_os":"Linux","password":true,"vac":true,"version":"7961495","steam_id":85568392925194467,"keywords":["nocrits","nodmgspread","payload","uncletopia"],"game_id":440,"stv_port":27036,"stv_name":"Uncletopia | Sydney | 3 | All Maps | STV","players":[{"user_id":4,"name":"miyamoto is daddy","steam_id":76561199483818230,"connected_time":4956000000000,"state":"active","ping":75},{"user_id":50,"name":"Zeron","steam_id":76561198125778202,"connected_time":964000000000,"state":"active","ping":47},{"user_id":17,"name":"Not A Bean","steam_id":76561198301333750,"connected_time":3268000000000,"state":"active","ping":117},{"user_id":7,"name":"ravioli","steam_id":76561198001765827,"connected_time":4189000000000,"state":"active","ping":48},{"user_id":8,"name":"Sliced Toast","steam_id":76561199220276252,"connected_time":4007000000000,"state":"active","ping":82},{"user_id":21,"name":"burfdae boi","steam_id":76561199000827969,"connected_time":3144000000000,"state":"active","ping":34},{"user_id":32,"name":"P. Ness","steam_id":76561198037664265,"connected_time":2334000000000,"state":"active","ping":55},{"user_id":42,"name":"JustAHobby","steam_id":76561198305904806,"connected_time":1680000000000,"state":"active","ping":56},{"user_id":51,"name":"Granolarama","steam_id":76561198059129270,"connected_time":880000000000,"state":"active","ping":66},{"user_id":52,"name":"Bob Katter","steam_id":76561198181119629,"connected_time":789000000000,"state":"active","ping":76},{"user_id":38,"name":"Aden","steam_id":76561198015901102,"connected_time":1896000000000,"state":"active","ping":47},{"user_id":39,"name":"Chez","steam_id":76561198089925051,"connected_time":1871000000000,"state":"active","ping":92},{"user_id":59,"name":"Scopic","steam_id":76561199236845261,"connected_time":148000000000,"state":"active","ping":70},{"user_id":61,"name":"Honest Spy","steam_id":76561199495080809,"connected_time":64000000000,"state":"active","ping":45},{"user_id":45,"name":"El Chupacabra","steam_id":76561198070641651,"connected_time":1524000000000,"state":"active","ping":47},{"user_id":23,"name":"SlurpyAnt","steam_id":76561198868808062,"connected_time":2952000000000,"state":"active","ping":58},{"user_id":43,"name":"pomerpus","steam_id":76561199221863382,"connected_time":1662000000000,"state":"active","ping":68},{"user_id":28,"name":"doctor morbin' (official)","steam_id":76561199365241695,"connected_time":2701000000000,"state":"active","ping":116},{"user_id":55,"name":"whitebronco32","steam_id":76561197990814265,"connected_time":488000000000,"state":"active","ping":45},{"user_id":56,"name":"Mushroom","steam_id":76561198102176576,"connected_time":419000000000,"state":"active","ping":60},{"user_id":54,"name":"AceChillus","steam_id":76561198178119043,"connected_time":743000000000,"state":"active","ping":45},{"user_id":46,"name":"Cattaaaron","steam_id":76561198088619243,"connected_time":1493000000000,"state":"active","ping":59},{"user_id":48,"name":"whiteshaq","steam_id":76561198131988811,"connected_time":1230000000000,"state":"active","ping":50}]},{"server_id":396,"name":"Uncletopia | Sydney | 4 | All Maps","name_short":"syd-4","host":"syd-1.au.uncletopia.com","port":27045,"enabled":true,"region":"au","cc":"au","latitude":-33.865143,"longitude":151.2099,"reserved":0,"last_update":"0001-01-01T00:00:00Z","name_a2s":"Uncletopia | Sydney | 4 | All Maps","protocol":17,"map":"pl_barnblitz","folder":"tf","game":"Team Fortress","app_id":440,"player_count":0,"max_players":24,"Bots":0,"server_type":"Dedicated","server_os":"Linux","password":true,"vac":true,"version":"7961495","steam_id":85568392925397958,"keywords":["nocrits","nodmgspread","payload","uncletopia"],"game_id":440,"stv_port":27046,"stv_name":"Uncletopia | Sydney | 4 | All Maps | STV","players":null},{"server_id":58,"name":"Uncletopia | Sydney | 5 | Stopwatch","name_short":"syd-5","host":"syd-1.au.uncletopia.com","port":27055,"enabled":true,"region":"au","cc":"au","latitude":-33.865143,"longitude":151.2099,"reserved":0,"last_update":"0001-01-01T00:00:00Z","name_a2s":"Uncletopia | Sydney | 5 | Stopwatch","protocol":17,"map":"workshop/cp_reckoner_rc6.ugc674719999","folder":"tf","game":"Team Fortress","app_id":440,"player_count":0,"max_players":24,"Bots":0,"server_type":"Dedicated","server_os":"Linux","password":true,"vac":true,"version":"7961495","steam_id":85568392925397959,"keywords":["cp","nocrits","nodmgspread","uncletopia"],"game_id":440,"stv_port":27056,"stv_name":"Uncletopia | Sydney | 5 | Stopwatch | STV","players":null},{"server_id":59,"name":"Uncletopia | Sydney | 6 | Community","name_short":"syd-6","host":"syd-1.au.uncletopia.com","port":27065,"enabled":true,"region":"au","cc":"au","latitude":-33.865143,"longitude":151.2099,"reserved":0,"last_update":"0001-01-01T00:00:00Z","name_a2s":"Uncletopia | Sydney | 6 | Community","protocol":17,"map":"workshop/cp_fulgur_rc2a.ugc2068252300","folder":"tf","game":"Team Fortress","app_id":440,"player_count":0,"max_players":24,"Bots":0,"server_type":"Dedicated","server_os":"Linux","password":true,"vac":true,"version":"7961495","steam_id":85568392925397960,"keywords":["cp","nocrits","nodmgspread","uncletopia"],"game_id":440,"stv_port":27066,"stv_name":"Uncletopia | Sydney | 6 | Community | STV","players":null},{"server_id":49,"name":"Uncletopia | Warsaw | 1 | One Thousand Uncles","name_short":"waw-1","host":"waw-1.pl.uncletopia.com","port":27015,"enabled":true,"region":"eu","cc":"pl","latitude":52.2297,"longitude":21.017532,"reserved":0,"last_update":"0001-01-01T00:00:00Z","name_a2s":"Uncletopia | Warsaw | 1 | One Thousand Uncles","protocol":17,"map":"pl_barnblitz","folder":"tf","game":"Team Fortress","app_id":440,"player_count":0,"max_players":32,"Bots":0,"server_type":"Dedicated","server_os":"Linux","password":true,"vac":true,"version":"7961495","steam_id":85568392925397850,"keywords":["alltalk","danepve","increased_maxplayers","nocrits","norespawntime","payload","uncletopia"],"game_id":440,"stv_port":0,"stv_name":"","players":null},{"server_id":50,"name":"Uncletopia | Warsaw | 2 | One Thousand Uncles","name_short":"waw-2","host":"waw-1.pl.uncletopia.com","port":27025,"enabled":true,"region":"eu","cc":"pl","latitude":52.2297,"longitude":21.017532,"reserved":0,"last_update":"0001-01-01T00:00:00Z","name_a2s":"Uncletopia | Warsaw | 2 | One Thousand Uncles","protocol":17,"map":"pl_barnblitz","folder":"tf","game":"Team Fortress","app_id":440,"player_count":0,"max_players":32,"Bots":0,"server_type":"Dedicated","server_os":"Linux","password":true,"vac":true,"version":"7961495","steam_id":85568392925397851,"keywords":["alltalk","danepve","increased_maxplayers","nocrits","norespawntime","payload","uncletopia"],"game_id":440,"stv_port":0,"stv_name":"","players":null},{"server_id":51,"name":"Uncletopia | Warsaw | 3 | All Maps","name_short":"waw-3","host":"waw-1.pl.uncletopia.com","port":27035,"enabled":true,"region":"eu","cc":"pl","latitude":52.2297,"longitude":21.017532,"reserved":0,"last_update":"0001-01-01T00:00:00Z","name_a2s":"Uncletopia | Warsaw | 3 | All Maps","protocol":17,"map":"pl_badwater","folder":"tf","game":"Team Fortress","app_id":440,"player_count":0,"max_players":24,"Bots":0,"server_type":"Dedicated","server_os":"Linux","password":true,"vac":true,"version":"7961495","steam_id":85568392925397852,"keywords":["nocrits","nodmgspread","payload","uncletopia"],"game_id":440,"stv_port":27036,"stv_name":"Uncletopia | Warsaw | 3 | All Maps | STV","players":null},{"server_id":52,"name":"Uncletopia | Warsaw | 4 | All Maps","name_short":"waw-4","host":"waw-1.pl.uncletopia.com","port":27045,"enabled":true,"region":"eu","cc":"pl","latitude":52.2297,"longitude":21.017532,"reserved":0,"last_update":"0001-01-01T00:00:00Z","name_a2s":"Uncletopia | Warsaw | 4 | All Maps","protocol":17,"map":"koth_cascade","folder":"tf","game":"Team Fortress","app_id":440,"player_count":0,"max_players":24,"Bots":0,"server_type":"Dedicated","server_os":"Linux","password":true,"vac":true,"version":"7961495","steam_id":85568392925397853,"keywords":["cp","nocrits","nodmgspread","uncletopia"],"game_id":440,"stv_port":27046,"stv_name":"Uncletopia | Warsaw | 4 | All Maps | STV","players":null},{"server_id":53,"name":"Uncletopia | Warsaw | 5 | Stopwatch","name_short":"waw-5","host":"waw-1.pl.uncletopia.com","port":27055,"enabled":true,"region":"eu","cc":"pl","latitude":52.2297,"longitude":21.017532,"reserved":0,"last_update":"0001-01-01T00:00:00Z","name_a2s":"Uncletopia | Warsaw | 5 | Stopwatch","protocol":17,"map":"workshop/koth_ramjam_rc1.ugc459778887","folder":"tf","game":"Team Fortress","app_id":440,"player_count":0,"max_players":24,"Bots":0,"server_type":"Dedicated","server_os":"Linux","password":true,"vac":true,"version":"7961495","steam_id":85568392925397854,"keywords":["cp","nocrits","nodmgspread","uncletopia"],"game_id":440,"stv_port":27056,"stv_name":"Uncletopia | Warsaw | 5 | Stopwatch | STV","players":null},{"server_id":54,"name":"Uncletopia | Warsaw | 6 | Community","name_short":"waw-6","host":"waw-1.pl.uncletopia.com","port":27065,"enabled":true,"region":"eu","cc":"pl","latitude":52.2297,"longitude":21.017532,"reserved":0,"last_update":"0001-01-01T00:00:00Z","name_a2s":"Uncletopia | Warsaw | 6 | Community","protocol":17,"map":"workshop/cp_bruhstbowl_b6.ugc2878604990","folder":"tf","game":"Team Fortress","app_id":440,"player_count":0,"max_players":24,"Bots":0,"server_type":"Dedicated","server_os":"Linux","password":true,"vac":true,"version":"7961495","steam_id":85568392925397856,"keywords":["cp","nocrits","nodmgspread","uncletopia"],"game_id":440,"stv_port":27066,"stv_name":"Uncletopia | Warsaw | 6 | Community | STV","players":null}]}