{"status":true,"message":"","result":[{"server_id":9,"name":"Uncletopia | Atlanta | 1 | All Maps","name_short":"atl-1","host":"atl-1.us.uncletopia.com","port":27015,"enabled":true,"region":"us-east","cc":"us","latitude":33.753746,"longitude":-84.38633,"reserved":0,"last_update":"0001-01-01T00:00:00Z","name_a2s":"Uncletopia | Atlanta | 1 | All Maps","protocol":17,"map":"cp_sunshine","folder":"tf","game":"Team Fortress","app_id":440,"player_count":18,"max_players":24,"Bots":0,"server_type":"Dedicated","server_os":"Linux","password":true,"vac":true,"version":"7757534","steam_id":85568392924469982,"keywords":["cp","nocrits","nodmgspread","uncletopia"],"game_id":440,"stv_port":27016,"stv_name":"Uncletopia | Atlanta | 1 | All Maps | STV","players":[{"user_id":587,"name":"Maxxycat","steam_id":76561198194062681,"connected_time":977000000000,"state":"active","ping":61},{"user_id":547,"name":"arashsmash","steam_id":76561198277649058,"connected_time":2996000000000,"state":"active","ping":74},{"user_id":604,"name":"Kolor","steam_id":76561197988411084,"connected_time":343000000000,"state":"active","ping":73},{"user_id":596,"name":"Kernewëk","steam_id":76561198271772640,"connected_time":439000000000,"state":"active","ping":126},{"user_id":605,"name":"jsutin","steam_id":76561198145338259,"connected_time":332000000000,"state":"active","ping":68},{"user_id":553,"name":"Smug´s","steam_id":76561198071493707,"connected_time":2767000000000,"state":"active","ping":114},{"user_id":554,"name":"Left","steam_id":76561199066761834,"connected_time":2613000000000,"state":"active","ping":118},{"user_id":606,"name":"Dinky","steam_id":76561198043912726,"connected_time":331000000000,"state":"active","ping":75},{"user_id":582,"name":"Arizona","steam_id":76561198113748347,"connected_time":1215000000000,"state":"active","ping":83},{"user_id":607,"name":"don't pursue lu bu","steam_id":76561198105515914,"connected_time":279000000000,"state":"active","ping":86},{"user_id":567,"name":"Mini Orc","steam_id":76561198982594373,"connected_time":2192000000000,"state":"active","ping":84},{"user_id":560,"name":"Orc","steam_id":76561198982645378,"connected_time":2313000000000,"state":"active","ping":83},{"user_id":561,"name":"vid_","steam_id":76561198065159053,"connected_time":2308000000000,"state":"active","ping":42},{"user_id":593,"name":"UpDawg","steam_id":76561199095607635,"connected_time":571000000000,"state":"active","ping":93},{"user_id":577,"name":"Karma","steam_id":76561198030565234,"connected_time":1712000000000,"state":"active","ping":65},{"user_id":588,"name":"puppygirl gaming","steam_id":76561198044363630,"connected_time":973000000000,"state":"active","ping":55},{"user_id":595,"name":"ATL1 | Lav4ie they/them","steam_id":76561198825997674,"connected_time":525000000000,"state":"active","ping":52},{"user_id":609,"name":"Buckytr","steam_id":76561198096335025,"connected_time":247000000000,"state":"active","ping":108}]},{"server_id":400,"name":"Uncletopia | Atlanta | 3 | Stopwatch Beta","name_short":"atl-3","host":"atl-1.us.uncletopia.com","port":27035,"enabled":true,"region":"us-east","cc":"us","latitude":33.753746,"longitude":-84.38633,"reserved":0,"last_update":"0001-01-01T00:00:00Z","name_a2s":"Uncletopia | Atlanta | 3 | Stopwatch Beta","protocol":17,"map":"pl_upward","folder":"tf","game":"Team Fortress","app_id":440,"player_count":0,"max_players":24,"Bots":0,"server_type":"Dedicated","server_os":"Linux","password":true,"vac":true,"version":"7757534","steam_id":85568392924515187,"keywords":["nocrits","nodmgspread","payload","uncletopia"],"game_id":440,"stv_port":27036,"stv_name":"Uncletopia | Atlanta | 3 | Stopwatch Beta | STV","players":null},{"server_id":401,"name":"Uncletopia | Atlanta | 4 | No Payload","name_short":"atl-4","host":"atl-1.us.uncletopia.com","port":27045,"enabled":true,"region":"us-east","cc":"us","latitude":33.753746,"longitude":-84.38633,"reserved":0,"last_update":"0001-01-01T00:00:00Z","name_a2s":"Uncletopia | Atlanta | 4 | No Payload","protocol":17,"map":"pl_pier","folder":"tf","game":"Team Fortress","app_id":440,"player_count":0,"max_players":24,"Bots":0,"server_type":"Dedicated","server_os":"Linux","password":true,"vac":true,"version":"7723704","steam_id":85568392924515188,"keywords":["nocrits","nodmgspread","payload","uncletopia"],"game_id":440,"stv_port":27046,"stv_name":"Uncletopia | Atlanta | 4 | No Payload | STV","players":null},{"server_id":2,"name":"Uncletopia | Chicago | 1 | All Maps","name_short":"chi-1","host":"chi-1.us.uncletopia.com","port":27015,"enabled":true,"region":"us-central","cc":"us","latitude":41.881832,"longitude":-87.62318,"reserved":0,"last_update":"0001-01-01T00:00:00Z","name_a2s":"Uncletopia | Chicago | 1 | All Maps","protocol":17,"map":"cp_dustbowl","folder":"tf","game":"Team Fortress","app_id":440,"player_count":23,"max_players":24,"Bots":0,"server_type":"Dedicated","server_os":"Linux","password":true,"vac":true,"version":"7757534","steam_id":85568392924469984,"keywords":["cp","nocrits","nodmgspread","uncletopia"],"game_id":440,"stv_port":27016,"stv_name":"Uncletopia | Chicago | 1 | All Maps | STV","players":[{"user_id":682,"name":"rlty","steam_id":76561198009395055,"connected_time":411000000000,"state":"active","ping":62},{"user_id":683,"name":"MosBlunted","steam_id":76561198259380127,"connected_time":43000000000,"state":"active","ping":55},{"user_id":677,"name":"pv.Bebop","steam_id":76561198207022619,"connected_time":728000000000,"state":"active","ping":76},{"user_id":650,"name":"Jeremy Donclurbis","steam_id":76561198062964879,"connected_time":2534000000000,"state":"active","ping":45},{"user_id":612,"name":"Censing Auto, The Challenger","steam_id":76561198060926681,"connected_time":5480000000000,"state":"active","ping":65},{"user_id":636,"name":"Ț̷̓r̷̺̈́1̵͒̆ȅ̸͂d̵","steam_id":76561198058522069,"connected_time":4264000000000,"state":"active","ping":72},{"user_id":638,"name":"Woofly132","steam_id":76561199075738626,"connected_time":4238000000000,"state":"active","ping":73},{"user_id":675,"name":"EmbEro","steam_id":76561198075563448,"connected_time":807000000000,"state":"active","ping":76},{"user_id":614,"name":"Kothlo","steam_id":76561198072807222,"connected_time":5472000000000,"state":"active","ping":67},{"user_id":670,"name":"Dragon of Dojima","steam_id":76561198171059033,"connected_time":921000000000,"state":"active","ping":115},{"user_id":679,"name":"rikerr","steam_id":76561198019269960,"connected_time":571000000000,"state":"active","ping":134},{"user_id":678,"name":"Goth Boy Zaru","steam_id":76561198022754460,"connected_time":632000000000,"state":"active","ping":60},{"user_id":671,"name":"Halcyon","steam_id":76561197999409268,"connected_time":912000000000,"state":"active","ping":75},{"user_id":672,"name":"Grape Juice","steam_id":76561198380337568,"connected_time":876000000000,"state":"active","ping":77},{"user_id":625,"name":"Kapitan Bomba","steam_id":76561199102087660,"connected_time":5190000000000,"state":"active","ping":69},{"user_id":655,"name":"larguu","steam_id":76561197994336210,"connected_time":2486000000000,"state":"active","ping":67},{"user_id":673,"name":"swimmuician","steam_id":76561198154265853,"connected_time":841000000000,"state":"active","ping":70},{"user_id":681,"name":"Comfy!","steam_id":76561198008818346,"connected_time":457000000000,"state":"active","ping":79},{"user_id":642,"name":"PKBEAST_7","steam_id":76561198177136537,"connected_time":4127000000000,"state":"active","ping":89},{"user_id":680,"name":"Bad Hombre","steam_id":76561198046559176,"connected_time":538000000000,"state":"active","ping":50},{"user_id":644,"name":"deepmeta","steam_id":76561199053600691,"connected_time":3733000000000,"state":"active","ping":52},{"user_id":676,"name":"TallBadUserName","steam_id":76561198399685508,"connected_time":792000000000,"state":"active","ping":83},{"user_id":588,"name":"Bearegard","steam_id":76561198061926542,"connected_time":8212000000000,"state":"active","ping":58}]},{"server_id":106,"name":"Uncletopia | Chicago | 2 | All Maps","name_short":"chi-2","host":"chi-1.us.uncletopia.com","port":27025,"enabled":true,"region":"us-central","cc":"us","latitude":41.881832,"longitude":-87.62318,"reserved":0,"last_update":"0001-01-01T00:00:00Z","name_a2s":"Uncletopia | Chicago | 2 | All Maps","protocol":17,"map":"cp_sunshine","folder":"tf","game":"Team Fortress","app_id":440,"player_count":0,"max_players":24,"Bots":0,"server_type":"Dedicated","server_os":"Linux","password":true,"vac":true,"version":"7757534","steam_id":85568392924469985,"keywords":["cp","nocrits","nodmgspread","uncletopia"],"game_id":440,"stv_port":27026,"stv_name":"Uncletopia | Chicago | 2 | All Maps | STV","players":null},{"server_id":402,"name":"Uncletopia | Chicago | 3 | All Maps","name_short":"chi-3","host":"chi-1.us.uncletopia.com","port":27035,"enabled":true,"region":"us-central","cc":"us","latitude":41.881832,"longitude":-87.62318,"reserved":0,"last_update":"0001-01-01T00:00:00Z","name_a2s":"Uncletopia | Chicago | 3 | All Maps","protocol":17,"map":"pl_frontier_final","folder":"tf","game":"Team Fortress","app_id":440,"player_count":24,"max_players":24,"Bots":0,"server_type":"Dedicated","server_os":"Linux","password":true,"vac":true,"version":"7757534","steam_id":85568392924515191,"keywords":["nocrits","nodmgspread","payload","uncletopia"],"game_id":440,"stv_port":27036,"stv_name":"Uncletopia | Chicago | 3 | All Maps | STV","players":[{"user_id":658,"name":"BillButtLicker69","steam_id":76561198070119268,"connected_time":2030000000000,"state":"active","ping":110},{"user_id":667,"name":"invb","steam_id":76561197998263914,"connected_time":1383000000000,"state":"active","ping":48},{"user_id":645,"name":"Wild_Rumpus","steam_id":76561198066393719,"connected_time":4106000000000,"state":"active","ping":74},{"user_id":671,"name":"atserc","steam_id":76561197997570349,"connected_time":826000000000,"state":"active","ping":94},{"user_id":622,"name":"hauntaholic","steam_id":76561198095051652,"connected_time":6029000000000,"state":"active","ping":71},{"user_id":663,"name":"Ye ( I Love Caulk ) West","steam_id":76561198068830312,"connected_time":1672000000000,"state":"active","ping":51},{"user_id":657,"name":"NOLSEY","steam_id":76561198108959504,"connected_time":2138000000000,"state":"active","ping":58},{"user_id":643,"name":"Master Of Whales","steam_id":76561198349104889,"connected_time":4640000000000,"state":"active","ping":114},{"user_id":669,"name":"sootyquill","steam_id":76561198186883927,"connected_time":1294000000000,"state":"active","ping":104},{"user_id":670,"name":"sweaterfan","steam_id":76561199389567214,"connected_time":1262000000000,"state":"active","ping":61},{"user_id":628,"name":"Double Noodle Soup","steam_id":76561198376978394,"connected_time":5455000000000,"state":"active","ping":91},{"user_id":656,"name":"reis","steam_id":76561199232952016,"connected_time":2293000000000,"state":"active","ping":179},{"user_id":631,"name":"Myracle","steam_id":76561198070916920,"connected_time":5115000000000,"state":"active","ping":55},{"user_id":675,"name":"Mister Chief","steam_id":76561198852298142,"connected_time":223000000000,"state":"active","ping":132},{"user_id":676,"name":"Pink","steam_id":76561198181361438,"connected_time":63000000000,"state":"active","ping":82},{"user_id":672,"name":"Curvrstob","steam_id":76561199012446849,"connected_time":429000000000,"state":"active","ping":83},{"user_id":664,"name":"ExEm","steam_id":76561198832738000,"connected_time":1653000000000,"state":"active","ping":77},{"user_id":623,"name":"RaccoonCole","steam_id":76561198122478897,"connected_time":5670000000000,"state":"active","ping":72},{"user_id":647,"name":"Grandma Tarkin","steam_id":76561198001756613,"connected_time":4021000000000,"state":"active","ping":50},{"user_id":641,"name":"dairy","steam_id":76561198117033273,"connected_time":4732000000000,"state":"active","ping":139},{"user_id":666,"name":"gangster spongebob","steam_id":76561198199090317,"connected_time":1646000000000,"state":"active","ping":128},{"user_id":674,"name":"StarManMatt","steam_id":76561198125513574,"connected_time":322000000000,"state":"active","ping":88},{"user_id":548,"name":"Pierce","steam_id":76561198043747953,"connected_time":12388000000000,"state":"active","ping":58},{"user_id":649,"name":"GC.bane","steam_id":76561198196769297,"connected_time":3340000000000,"state":"active","ping":60}]},{"server_id":403,"name":"Uncletopia | Chicago | 4 | All Maps","name_short":"chi-4","host":"chi-1.us.uncletopia.com","port":27045,"enabled":true,"region":"us-central","cc":"us","latitude":41.881832,"longitude":-87.62318,"reserved":0,"last_update":"0001-01-01T00:00:00Z","name_a2s":"Uncletopia | Chicago | 4 | All Maps","protocol":17,"map":"cp_steel","folder":"tf","game":"Team Fortress","app_id":440,"player_count":21,"max_players":24,"Bots":0,"server_type":"Dedicated","server_os":"Linux","password":true,"vac":true,"version":"7757534","steam_id":85568392924515193,"keywords":["cp","nocrits","nodmgspread","uncletopia"],"game_id":440,"stv_port":27046,"stv_name":"Uncletopia | Chicago | 4 | All Maps | STV","players":[{"user_id":666,"name":"Sly Fox Lemmy","steam_id":76561198069225954,"connected_time":701000000000,"state":"active","ping":71},{"user_id":626,"name":"2000linky","steam_id":76561198128150129,"connected_time":4237000000000,"state":"active","ping":48},{"user_id":678,"name":"kametro4","steam_id":76561198835430429,"connected_time":373000000000,"state":"active","ping":81},{"user_id":643,"name":"hamal cine","steam_id":76561198079619374,"connected_time":2965000000000,"state":"active","ping":96},{"user_id":679,"name":"CheeseCake488","steam_id":76561199407617942,"connected_time":210000000000,"state":"active","ping":147},{"user_id":668,"name":"Angel Devil Fan (Derogatory)","steam_id":76561198165208572,"connected_time":666000000000,"state":"active","ping":51},{"user_id":669,"name":"john kebab sunday","steam_id":76561198026674465,"connected_time":579000000000,"state":"active","ping":100},{"user_id":646,"name":"Gardangle","steam_id":76561198394173831,"connected_time":2425000000000,"state":"active","ping":99},{"user_id":637,"name":"k8o","steam_id":76561198042481882,"connected_time":3344000000000,"state":"active","ping":85},{"user_id":670,"name":"Model CHP-3Y","steam_id":76561198107806145,"connected_time":571000000000,"state":"active","ping":74},{"user_id":653,"name":"DolphiN | RGL.gg","steam_id":76561198048614515,"connected_time":2212000000000,"state":"active","ping":52},{"user_id":672,"name":"the rizzard of oz","steam_id":76561198108196753,"connected_time":487000000000,"state":"active","ping":90},{"user_id":675,"name":"the bong james","steam_id":76561198010372082,"connected_time":464000000000,"state":"active","ping":81},{"user_id":662,"name":"Ozone-flavored Starburst","steam_id":76561199163688421,"connected_time":970000000000,"state":"active","ping":95},{"user_id":652,"name":"MYCHEMICALROMANCEENJOYER2","steam_id":76561198278655467,"connected_time":2237000000000,"state":"active","ping":65},{"user_id":676,"name":"Koolsniper123","steam_id":76561199122168520,"connected_time":463000000000,"state":"active","ping":71},{"user_id":659,"name":"gyroFSnoob","steam_id":76561198158404683,"connected_time":1894000000000,"state":"active","ping":63},{"user_id":654,"name":"Mothership","steam_id":76561198044029501,"connected_time":2211000000000,"state":"active","ping":150},{"user_id":677,"name":"Amogous Supreme","steam_id":76561198025476774,"connected_time":420000000000,"state":"active","ping":105},{"user_id":657,"name":"RyInc","steam_id":76561198874261643,"connected_time":2013000000000,"state":"active","ping":48},{"user_id":656,"name":"jack's vitamin d","steam_id":76561198036032168,"connected_time":2188000000000,"state":"active","ping":49}]},{"server_id":36,"name":"Uncletopia | Chicago | 5 | All Maps","name_short":"chi-5","host":"chi-2.us.uncletopia.com","port":27015,"enabled":true,"region":"us-central","cc":"us","latitude":41.881832,"longitude":-87.62318,"reserved":0,"last_update":"0001-01-01T00:00:00Z","name_a2s":"Uncletopia | Chicago | 5 | All Maps","protocol":17,"map":"pl_upward","folder":"tf","game":"Team Fortress","app_id":440,"player_count":22,"max_players":24,"Bots":0,"server_type":"Dedicated","server_os":"Linux","password":true,"vac":true,"version":"7757534","steam_id":85568392924866362,"keywords":["nocrits","nodmgspread","payload","uncletopia"],"game_id":440,"stv_port":27016,"stv_name":"Uncletopia | Chicago | 5 | All Maps | STV","players":[{"user_id":831,"name":"nameban","steam_id":76561198869995094,"connected_time":704000000000,"state":"active","ping":114},{"user_id":811,"name":"STrong Bomber","steam_id":76561198805051139,"connected_time":1805000000000,"state":"active","ping":62},{"user_id":812,"name":"Fantastic","steam_id":76561198079088978,"connected_time":1758000000000,"state":"active","ping":45},{"user_id":743,"name":"wolf_71","steam_id":76561198963570945,"connected_time":6819000000000,"state":"active","ping":72},{"user_id":808,"name":"EATARI","steam_id":76561198158066570,"connected_time":1917000000000,"state":"active","ping":90},{"user_id":833,"name":"stockhack","steam_id":76561198050220225,"connected_time":355000000000,"state":"active","ping":71},{"user_id":813,"name":"Yeshie the Dragon Layer","steam_id":76561198080214214,"connected_time":1752000000000,"state":"active","ping":42},{"user_id":809,"name":"Hey_Juice","steam_id":76561199013117553,"connected_time":1875000000000,"state":"active","ping":73},{"user_id":832,"name":"Menlymen","steam_id":76561198046508051,"connected_time":560000000000,"state":"active","ping":69},{"user_id":810,"name":"DJSTRIKER","steam_id":76561198259158272,"connected_time":1848000000000,"state":"active","ping":84},{"user_id":834,"name":"SoyNegro","steam_id":76561198049511068,"connected_time":90000000000,"state":"active","ping":94},{"user_id":829,"name":"Lupin III","steam_id":76561198054723601,"connected_time":998000000000,"state":"active","ping":76},{"user_id":803,"name":"HanakoToast","steam_id":76561198045233131,"connected_time":2429000000000,"state":"active","ping":104},{"user_id":815,"name":"Vulpes","steam_id":76561198038929334,"connected_time":1672000000000,"state":"active","ping":57},{"user_id":816,"name":"[CTC] kooldan","steam_id":76561198136593625,"connected_time":1642000000000,"state":"active","ping":90},{"user_id":817,"name":"Cheralgel","steam_id":76561198250240138,"connected_time":1597000000000,"state":"active","ping":76},{"user_id":830,"name":"Sleepy","steam_id":76561198108969263,"connected_time":965000000000,"state":"active","ping":105},{"user_id":819,"name":"Stanley","steam_id":76561198812086921,"connected_time":1569000000000,"state":"active","ping":62},{"user_id":822,"name":"IDNTT","steam_id":76561198080859587,"connected_time":1515000000000,"state":"active","ping":116},{"user_id":792,"name":"SomeScuffedKid","steam_id":76561198086113234,"connected_time":3516000000000,"state":"active","ping":72},{"user_id":824,"name":"Oof","steam_id":76561198079354687,"connected_time":1355000000000,"state":"active","ping":78},{"user_id":828,"name":"Queue","steam_id":76561198015899676,"connected_time":1030000000000,"state":"active","ping":113}]},{"server_id":37,"name":"Uncletopia | Chicago | 6 | All Maps","name_short":"chi-6","host":"chi-2.us.uncletopia.com","port":27025,"enabled":true,"region":"us-central","cc":"us","latitude":41.881832,"longitude":-87.62318,"reserved":0,"last_update":"0001-01-01T00:00:00Z","name_a2s":"Uncletopia | Chicago | 6 | All Maps","protocol":17,"map":"cp_process_final","folder":"tf","game":"Team Fortress","app_id":440,"player_count":22,"max_players":24,"Bots":0,"server_type":"Dedicated","server_os":"Linux","password":true,"vac":true,"version":"7757534","steam_id":85568392924866363,"keywords":["cp","nocrits","nodmgspread","uncletopia"],"game_id":440,"stv_port":27026,"stv_name":"Uncletopia | Chicago | 6 | All Maps | STV","players":[{"user_id":842,"name":"Evolution","steam_id":76561198144767370,"connected_time":2431000000000,"state":"active","ping":50},{"user_id":830,"name":"El Conquistador","steam_id":76561198066712701,"connected_time":3328000000000,"state":"active","ping":69},{"user_id":841,"name":"Paleo","steam_id":76561198053493855,"connected_time":2483000000000,"state":"active","ping":60},{"user_id":864,"name":"yeyoi","steam_id":76561198069821885,"connected_time":925000000000,"state":"active","ping":69},{"user_id":847,"name":"Eliza (They/She)","steam_id":76561198108938752,"connected_time":1877000000000,"state":"active","ping":67},{"user_id":848,"name":"Professional Spectator","steam_id":76561198085888959,"connected_time":1462000000000,"state":"active","ping":55},{"user_id":865,"name":"Moosepie","steam_id":76561199241155474,"connected_time":850000000000,"state":"active","ping":104},{"user_id":852,"name":"Stupid frogs!","steam_id":76561198069415057,"connected_time":1256000000000,"state":"active","ping":60},{"user_id":867,"name":"HollowMan","steam_id":76561198967266827,"connected_time":757000000000,"state":"active","ping":97},{"user_id":819,"name":"Daddy-O Dizzy","steam_id":76561198292349348,"connected_time":3843000000000,"state":"active","ping":70},{"user_id":869,"name":"THIRDPIERCE","steam_id":76561198405366314,"connected_time":724000000000,"state":"active","ping":85},{"user_id":855,"name":"Quietsharp","steam_id":76561198277968438,"connected_time":1185000000000,"state":"active","ping":104},{"user_id":856,"name":"BeKnown","steam_id":76561198344338970,"connected_time":1134000000000,"state":"active","ping":89},{"user_id":806,"name":"cygnusx1","steam_id":76561199079614516,"connected_time":4902000000000,"state":"active","ping":55},{"user_id":857,"name":"SubZeroDestruction","steam_id":76561198145082209,"connected_time":1114000000000,"state":"active","ping":70},{"user_id":858,"name":"SleepingBrim","steam_id":76561198067650229,"connected_time":1111000000000,"state":"active","ping":100},{"user_id":872,"name":"summerof69","steam_id":76561198069049410,"connected_time":598000000000,"state":"active","ping":45},{"user_id":861,"name":"Majestic-A","steam_id":76561198988062101,"connected_time":1074000000000,"state":"active","ping":79},{"user_id":870,"name":"AverageRundownJoe.ttv","steam_id":76561198059359620,"connected_time":714000000000,"state":"active","ping":81},{"user_id":875,"name":"warewarewa","steam_id":76561197965022076,"connected_time":386000000000,"state":"active","ping":49},{"user_id":873,"name":"Bandit","steam_id":76561199087543553,"connected_time":589000000000,"state":"active","ping":116},{"user_id":874,"name":"Rosettas Stoned","steam_id":76561198082139775,"connected_time":585000000000,"state":"active","ping":72}]},{"server_id":38,"name":"Uncletopia | Chicago | 7 | Stopwatch Beta","name_short":"chi-7","host":"chi-2.us.uncletopia.com","port":27035,"enabled":true,"region":"us-central","cc":"us","latitude":41.881832,"longitude":-87.62318,"reserved":0,"last_update":"0001-01-01T00:00:00Z","name_a2s":"Uncletopia | Chicago | 7 | Stopwatch Beta","protocol":17,"map":"workshop/pl_badwater_pro_v12.ugc2142942074","folder":"tf","game":"Team Fortress","app_id":440,"player_count":0,"max_players":24,"Bots":0,"server_type":"Dedicated","server_os":"Linux","password":true,"vac":true,"version":"7757534","steam_id":85568392924866364,"keywords":["nocrits","nodmgspread","payload","uncletopia"],"game_id":440,"stv_port":27036,"stv_name":"Uncletopia | Chicago | 7 | Stopwatch Beta | STV","players":null},{"server_id":39,"name":"Uncletopia | Chicago | 8 | Community","name_short":"chi-8","host":"chi-2.us.uncletopia.com","port":27045,"enabled":true,"region":"us-central","cc":"us","latitude":41.881832,"longitude":-87.62318,"reserved":0,"last_update":"0001-01-01T00:00:00Z","name_a2s":"Uncletopia | Chicago | 8 | Community","protocol":17,"map":"workshop/cp_caldera_rc2.ugc2834196889","folder":"tf","game":"Team Fortress","app_id":440,"player_count":4,"max_players":24,"Bots":0,"server_type":"Dedicated","server_os":"Linux","password":true,"vac":true,"version":"7757534","steam_id":85568392924866365,"keywords":["cp","nocrits","nodmgspread","uncletopia"],"game_id":440,"stv_port":27046,"stv_name":"Uncletopia | Chicago | 8 | Community | STV","players":[{"user_id":327,"name":"Leaf_It","steam_id":76561198018342862,"connected_time":2151000000000,"state":"active","ping":67},{"user_id":325,"name":"Boobert von gaming","steam_id":76561199217999178,"connected_time":3200000000000,"state":"active","ping":56},{"user_id":328,"name":"Bucket Hat Trick","steam_id":76561198381785132,"connected_time":2017000000000,"state":"active","ping":87},{"user_id":330,"name":"RiAvoTheOfficial","steam_id":76561199121022061,"connected_time":632000000000,"state":"active","ping":208}]},{"server_id":8,"name":"Uncletopia | Dallas | 1 | All Maps","name_short":"dal-1","host":"dal-1.us.uncletopia.com","port":27015,"enabled":true,"region":"us-central","cc":"us","latitude":32.779167,"longitude":-96.80889,"reserved":0,"last_update":"0001-01-01T00:00:00Z","name_a2s":"Uncletopia | Dallas | 1 | All Maps","protocol":17,"map":"cp_egypt_final","folder":"tf","game":"Team Fortress","app_id":440,"player_count":23,"max_players":24,"Bots":0,"server_type":"Dedicated","server_os":"Linux","password":true,"vac":true,"version":"7757534","steam_id":85568392924469986,"keywords":["cp","nocrits","nodmgspread","uncletopia"],"game_id":440,"stv_port":27016,"stv_name":"Uncletopia | Dallas | 1 | All Maps | STV","players":[{"user_id":754,"name":"Yes, i am","steam_id":76561198374984285,"connected_time":1725000000000,"state":"active","ping":171},{"user_id":768,"name":"Ayasuji","steam_id":76561198283021729,"connected_time":1349000000000,"state":"active","ping":93},{"user_id":770,"name":"k1tty","steam_id":76561198869348268,"connected_time":747000000000,"state":"active","ping":73},{"user_id":751,"name":"Dictator Noodle","steam_id":76561198277243768,"connected_time":2026000000000,"state":"active","ping":81},{"user_id":771,"name":"GarretGood","steam_id":76561198071881495,"connected_time":692000000000,"state":"active","ping":87},{"user_id":750,"name":"BLOCKHEAD04","steam_id":76561198808224331,"connected_time":2186000000000,"state":"active","ping":121},{"user_id":774,"name":"Mikey","steam_id":76561199027332418,"connected_time":421000000000,"state":"active","ping":86},{"user_id":708,"name":"memeboi22","steam_id":76561198172609874,"connected_time":6208000000000,"state":"active","ping":70},{"user_id":735,"name":"mbell1199","steam_id":76561198827517736,"connected_time":3253000000000,"state":"active","ping":59},{"user_id":779,"name":"Industrial Meat Grinder (real)","steam_id":76561199365172252,"connected_time":103000000000,"state":"active","ping":68},{"user_id":759,"name":"g0bl1nsm@ck3r","steam_id":76561199438645167,"connected_time":1530000000000,"state":"active","ping":49},{"user_id":780,"name":"keffers","steam_id":76561198202338796,"connected_time":77000000000,"state":"active","ping":73},{"user_id":781,"name":"heimdall","steam_id":76561198069380992,"connected_time":29000000000,"state":"active","ping":67},{"user_id":776,"name":"Large Charles","steam_id":76561197999663001,"connected_time":189000000000,"state":"active","ping":60},{"user_id":782,"name":"Charles","steam_id":76561198155322277,"connected_time":22000000000,"state":"active","ping":86},{"user_id":738,"name":"Dojojo","steam_id":76561198035654543,"connected_time":3212000000000,"state":"active","ping":65},{"user_id":775,"name":"Atlas","steam_id":76561199071658126,"connected_time":248000000000,"state":"active","ping":75},{"user_id":777,"name":"TPScout","steam_id":76561198353808504,"connected_time":171000000000,"state":"active","ping":101},{"user_id":764,"name":"Morgana","steam_id":76561198299044184,"connected_time":1444000000000,"state":"active","ping":100},{"user_id":707,"name":"A Gamer [F2P]","steam_id":76561198138712892,"connected_time":6264000000000,"state":"active","ping":37},{"user_id":765,"name":"Galactamarx","steam_id":76561198028065755,"connected_time":1444000000000,"state":"active","ping":78},{"user_id":749,"name":"boat8047","steam_id":76561198261326806,"connected_time":2382000000000,"state":"active","ping":121},{"user_id":766,"name":"veno","steam_id":76561198110261781,"connected_time":1437000000000,"state":"active","ping":53}]},{"server_id":108,"name":"Uncletopia | Dallas | 2 | All Maps","name_short":"dal-2","host":"dal-1.us.uncletopia.com","port":27025,"enabled":true,"region":"us-central","cc":"us","latitude":32.779167,"longitude":-96.80889,"reserved":0,"last_update":"0001-01-01T00:00:00Z","name_a2s":"Uncletopia | Dallas | 2 | All Maps","protocol":17,"map":"pl_frontier_final","folder":"tf","game":"Team Fortress","app_id":440,"player_count":24,"max_players":24,"Bots":0,"server_type":"Dedicated","server_os":"Linux","password":true,"vac":true,"version":"7757534","steam_id":85568392924469988,"keywords":["nocrits","nodmgspread","payload","uncletopia"],"game_id":440,"stv_port":27026,"stv_name":"Uncletopia | Dallas | 2 | All Maps | STV","players":[{"user_id":248,"name":"Etomb","steam_id":76561198210017208,"connected_time":5884000000000,"state":"active","ping":91},{"user_id":281,"name":"-- .. -.- . / .... ..- -. -","steam_id":76561198109120511,"connected_time":1911000000000,"state":"active","ping":59},{"user_id":267,"name":"Saikyo","steam_id":76561198212461467,"connected_time":3170000000000,"state":"active","ping":44},{"user_id":277,"name":"social distance warrior","steam_id":76561198128992994,"connected_time":3056000000000,"state":"active","ping":88},{"user_id":251,"name":"Birdhorse Of Course","steam_id":76561198038997485,"connected_time":5475000000000,"state":"active","ping":90},{"user_id":288,"name":"todd","steam_id":76561198140689842,"connected_time":1639000000000,"state":"active","ping":46},{"user_id":285,"name":"selvhat","steam_id":76561198114225509,"connected_time":1888000000000,"state":"active","ping":79},{"user_id":270,"name":"Chiaki Nanami","steam_id":76561198164782653,"connected_time":3126000000000,"state":"active","ping":91},{"user_id":300,"name":"JasonIsGold79","steam_id":76561198101441539,"connected_time":17000000000,"state":"spawning","ping":103},{"user_id":272,"name":"ChEeSeYtAcO24","steam_id":76561198125479386,"connected_time":3119000000000,"state":"active","ping":68},{"user_id":279,"name":"no.1 dragonvale player","steam_id":76561198124365349,"connected_time":2368000000000,"state":"active","ping":90},{"user_id":292,"name":"Hifumi Togo","steam_id":76561198074930636,"connected_time":1160000000000,"state":"active","ping":62},{"user_id":283,"name":"Riff","steam_id":76561198066921423,"connected_time":1898000000000,"state":"active","ping":68},{"user_id":290,"name":"Landlord","steam_id":76561198987913057,"connected_time":1520000000000,"state":"active","ping":98},{"user_id":247,"name":"Hooray!","steam_id":76561198136487957,"connected_time":6069000000000,"state":"active","ping":61},{"user_id":294,"name":"Trans Bumblebee","steam_id":76561198119393205,"connected_time":493000000000,"state":"active","ping":49},{"user_id":289,"name":"herb","steam_id":76561198185980055,"connected_time":1634000000000,"state":"active","ping":73},{"user_id":260,"name":"Woo-Hoo!","steam_id":76561198331647216,"connected_time":4033000000000,"state":"active","ping":63},{"user_id":287,"name":"brian eats you","steam_id":76561198109901138,"connected_time":1841000000000,"state":"active","ping":101},{"user_id":296,"name":"Seal","steam_id":76561197970204043,"connected_time":467000000000,"state":"active","ping":85},{"user_id":282,"name":"Shortbane","steam_id":76561198247166584,"connected_time":1903000000000,"state":"active","ping":60},{"user_id":297,"name":"PUDDLES","steam_id":76561198110832624,"connected_time":379000000000,"state":"active","ping":74},{"user_id":299,"name":"Skab","steam_id":76561199126112357,"connected_time":255000000000,"state":"active","ping":73}]},{"server_id":5,"name":"Uncletopia | Frankfurt | 1 | All Maps","name_short":"frk-1","host":"frk-1.de.uncletopia.com","port":27015,"enabled":true,"region":"eu","cc":"de","latitude":50.110924,"longitude":8.682127,"reserved":0,"last_update":"0001-01-01T00:00:00Z","name_a2s":"Uncletopia | Frankfurt | 1 | All Maps","protocol":17,"map":"pl_pier","folder":"tf","game":"Team Fortress","app_id":440,"player_count":0,"max_players":24,"Bots":0,"server_type":"Dedicated","server_os":"Linux","password":true,"vac":true,"version":"7757534","steam_id":85568392924469989,"keywords":["nocrits","nodmgspread","payload","uncletopia"],"game_id":440,"stv_port":27016,"stv_name":"Uncletopia | Frankfurt | 1 | All Maps | STV","players":null},{"server_id":110,"name":"Uncletopia | Frankfurt | 2 | All Maps","name_short":"frk-2","host":"frk-1.de.uncletopia.com","port":27025,"enabled":true,"region":"eu","cc":"de","latitude":50.110924,"longitude":8.682127,"reserved":0,"last_update":"0001-01-01T00:00:00Z","name_a2s":"Uncletopia | Frankfurt | 2 | All Maps","protocol":17,"map":"cp_mountainlab","folder":"tf","game":"Team Fortress","app_id":440,"player_count":0,"max_players":24,"Bots":0,"server_type":"Dedicated","server_os":"Linux","password":true,"vac":true,"version":"7757534","steam_id":85568392924469990,"keywords":["cp","nocrits","nodmgspread","uncletopia"],"game_id":440,"stv_port":27026,"stv_name":"Uncletopia | Frankfurt | 2 | All Maps | STV","players":null},{"server_id":308,"name":"Uncletopia | Frankfurt | 3 | All Maps","name_short":"frk-3","host":"frk-1.de.uncletopia.com","port":27035,"enabled":true,"region":"eu","cc":"de","latitude":50.110924,"longitude":8.682127,"reserved":0,"last_update":"0001-01-01T00:00:00Z","name_a2s":"Uncletopia | Frankfurt | 3 | All Maps","protocol":17,"map":"pl_barnblitz","folder":"tf","game":"Team Fortress","app_id":440,"player_count":0,"max_players":24,"Bots":0,"server_type":"Dedicated","server_os":"Linux","password":true,"vac":true,"version":"7757534","steam_id":85568392924504274,"keywords":["nocrits","nodmgspread","payload","uncletopia"],"game_id":440,"stv_port":27036,"stv_name":"Uncletopia | Frankfurt | 3 | All Maps | STV","players":null},{"server_id":309,"name":"Uncletopia | Frankfurt | 4 | All Maps","name_short":"frk-4","host":"frk-1.de.uncletopia.com","port":27045,"enabled":true,"region":"eu","cc":"de","latitude":50.110924,"longitude":8.682127,"reserved":0,"last_update":"0001-01-01T00:00:00Z","name_a2s":"Uncletopia | Frankfurt | 4 | All Maps","protocol":17,"map":"pl_snowycoast","folder":"tf","game":"Team Fortress","app_id":440,"player_count":0,"max_players":24,"Bots":0,"server_type":"Dedicated","server_os":"Linux","password":true,"vac":true,"version":"7757534","steam_id":85568392924504275,"keywords":["nocrits","nodmgspread","payload","uncletopia"],"game_id":440,"stv_port":27046,"stv_name":"Uncletopia | Frankfurt | 4 | All Maps | STV","players":null},{"server_id":310,"name":"Uncletopia | Frankfurt | 5 | All Maps","name_short":"frk-5","host":"frk-1.de.uncletopia.com","port":27055,"enabled":true,"region":"eu","cc":"de","latitude":50.110924,"longitude":8.682127,"reserved":0,"last_update":"0001-01-01T00:00:00Z","name_a2s":"Uncletopia | Frankfurt | 5 | All Maps","protocol":17,"map":"cp_altitude","folder":"tf","game":"Team Fortress","app_id":440,"player_count":0,"max_players":24,"Bots":0,"server_type":"Dedicated","server_os":"Linux","password":true,"vac":true,"version":"7757534","steam_id":85568392924504277,"keywords":["cp","nocrits","nodmgspread","uncletopia"],"game_id":440,"stv_port":27056,"stv_name":"Uncletopia | Frankfurt | 5 | All Maps | STV","players":null},{"server_id":311,"name":"Uncletopia | Frankfurt | 6 | All Maps","name_short":"frk-6","host":"frk-1.de.uncletopia.com","port":27065,"enabled":true,"region":"eu","cc":"de","latitude":50.110924,"longitude":8.682127,"reserved":0,"last_update":"0001-01-01T00:00:00Z","name_a2s":"Uncletopia | Frankfurt | 6 | All Maps","protocol":17,"map":"koth_highpass","folder":"tf","game":"Team Fortress","app_id":440,"player_count":0,"max_players":24,"Bots":0,"server_type":"Dedicated","server_os":"Linux","password":true,"vac":true,"version":"7757534","steam_id":85568392924504278,"keywords":["cp","nocrits","nodmgspread","uncletopia"],"game_id":440,"stv_port":27066,"stv_name":"Uncletopia | Frankfurt | 6 | All Maps | STV","players":null},{"server_id":23,"name":"Uncletopia | Frankfurt | 7 | Stopwatch Beta","name_short":"frk-7","host":"frk-1.de.uncletopia.com","port":27075,"enabled":true,"region":"eu","cc":"de","latitude":50.110924,"longitude":8.682127,"reserved":0,"last_update":"0001-01-01T00:00:00Z","name_a2s":"Uncletopia | Frankfurt | 7 | Stopwatch Beta","protocol":17,"map":"pl_borneo","folder":"tf","game":"Team Fortress","app_id":440,"player_count":0,"max_players":24,"Bots":0,"server_type":"Dedicated","server_os":"Linux","password":true,"vac":true,"version":"7757534","steam_id":85568392924742827,"keywords":["nocrits","nodmgspread","payload","uncletopia"],"game_id":440,"stv_port":27076,"stv_name":"Uncletopia | Frankfurt | 7 | Stopwatch Beta | STV","players":null},{"server_id":24,"name":"Uncletopia | Frankfurt | 8 | Community","name_short":"frk-8","host":"frk-1.de.uncletopia.com","port":27085,"enabled":true,"region":"eu","cc":"de","latitude":50.110924,"longitude":8.682127,"reserved":0,"last_update":"0001-01-01T00:00:00Z","name_a2s":"Uncletopia | Frankfurt | 8 | Community","protocol":17,"map":"koth_cascade","folder":"tf","game":"Team Fortress","app_id":440,"player_count":0,"max_players":24,"Bots":0,"server_type":"Dedicated","server_os":"Linux","password":true,"vac":true,"version":"7757534","steam_id":85568392924742828,"keywords":["cp","nocrits","nodmgspread","uncletopia"],"game_id":440,"stv_port":27086,"stv_name":"Uncletopia | Frankfurt | 8 | Community | STV","players":null},{"server_id":202,"name":"Uncletopia | Hong Kong | 1 | All Maps","name_short":"hgk-1","host":"hgk-1.hk.uncletopia.com","port":27015,"enabled":true,"region":"asia","cc":"hk","latitude":22.302711,"longitude":114.177216,"reserved":0,"last_update":"0001-01-01T00:00:00Z","name_a2s":"Uncletopia | Hong Kong | 1 | All Maps","protocol":17,"map":"pl_borneo","folder":"tf","game":"Team Fortress","app_id":440,"player_count":24,"max_players":24,"Bots":0,"server_type":"Dedicated","server_os":"Linux","password":true,"vac":true,"version":"7757534","steam_id":85568392924494504,"keywords":["nocrits","nodmgspread","payload","uncletopia"],"game_id":440,"stv_port":27016,"stv_name":"Uncletopia | Hong Kong | 1 | All Maps | STV","players":[{"user_id":266,"name":"loreley","steam_id":76561198230213828,"connected_time":850000000000,"state":"active","ping":60},{"user_id":275,"name":"renren","steam_id":76561199373304636,"connected_time":279000000000,"state":"active","ping":95},{"user_id":272,"name":"Momru","steam_id":76561198275587172,"connected_time":534000000000,"state":"active","ping":105},{"user_id":107,"name":"Zacy","steam_id":76561198114841670,"connected_time":11424000000000,"state":"active","ping":65},{"user_id":156,"name":"Peter Python","steam_id":76561198353760830,"connected_time":8765000000000,"state":"active","ping":134},{"user_id":269,"name":"tiden2000","steam_id":76561198092969425,"connected_time":600000000000,"state":"active","ping":104},{"user_id":236,"name":"Buttman","steam_id":76561198044693388,"connected_time":5070000000000,"state":"active","ping":51},{"user_id":261,"name":"steve lacy","steam_id":76561198328160461,"connected_time":1735000000000,"state":"active","ping":109},{"user_id":233,"name":"Saggle","steam_id":76561198056075147,"connected_time":5935000000000,"state":"active","ping":160},{"user_id":270,"name":"lettuce at 58p","steam_id":76561199401283123,"connected_time":577000000000,"state":"active","ping":96},{"user_id":69,"name":"timmy.1366","steam_id":76561199065433547,"connected_time":14025000000000,"state":"active","ping":76},{"user_id":262,"name":"煙海 | Enkai","steam_id":76561198050460825,"connected_time":1416000000000,"state":"active","ping":75},{"user_id":240,"name":"Light Rainbow","steam_id":76561198118966673,"connected_time":4362000000000,"state":"active","ping":43},{"user_id":241,"name":"Mehcro","steam_id":76561198856864170,"connected_time":4274000000000,"state":"active","ping":130},{"user_id":259,"name":"im_0ff","steam_id":76561198339346695,"connected_time":1895000000000,"state":"active","ping":128},{"user_id":274,"name":"jerrybel","steam_id":76561198055553140,"connected_time":311000000000,"state":"active","ping":79},{"user_id":255,"name":"water tastes good","steam_id":76561199375947670,"connected_time":2173000000000,"state":"active","ping":78},{"user_id":273,"name":"Engine220","steam_id":76561199235280166,"connected_time":492000000000,"state":"active","ping":79},{"user_id":239,"name":"Sex","steam_id":76561198871697359,"connected_time":4567000000000,"state":"active","ping":75},{"user_id":244,"name":":D","steam_id":76561198009692495,"connected_time":4215000000000,"state":"active","ping":89},{"user_id":154,"name":"Nonexistent","steam_id":76561198980563251,"connected_time":8906000000000,"state":"active","ping":85},{"user_id":127,"name":"8091573212","steam_id":76561198968776439,"connected_time":10692000000000,"state":"active","ping":89},{"user_id":248,"name":"corpse_cadaver","steam_id":76561199225360457,"connected_time":3621000000000,"state":"active","ping":76},{"user_id":229,"name":"gunslinger? i hardly know er!","steam_id":76561198834445483,"connected_time":6271000000000,"state":"active","ping":73}]},{"server_id":1,"name":"Uncletopia | Los Angeles | 1 | All Maps","name_short":"lax-1","host":"lax-1.us.uncletopia.com","port":27015,"enabled":true,"region":"us-west","cc":"us","latitude":33.94279,"longitude":-118.41004,"reserved":0,"last_update":"0001-01-01T00:00:00Z","name_a2s":"Uncletopia | Los Angeles | 1 | All Maps","protocol":17,"map":"pl_snowycoast","folder":"tf","game":"Team Fortress","app_id":440,"player_count":24,"max_players":24,"Bots":0,"server_type":"Dedicated","server_os":"Linux","password":true,"vac":true,"version":"7757534","steam_id":85568392924469991,"keywords":["nocrits","nodmgspread","payload","uncletopia"],"game_id":440,"stv_port":27016,"stv_name":"Uncletopia | Los Angeles | 1 | All Maps | STV","players":[{"user_id":501,"name":"pipeline","steam_id":76561198212263380,"connected_time":1727000000000,"state":"active","ping":78},{"user_id":491,"name":"poey","steam_id":76561198865346767,"connected_time":2530000000000,"state":"active","ping":52},{"user_id":470,"name":"Bryce Gobo","steam_id":76561199411560141,"connected_time":5118000000000,"state":"active","ping":70},{"user_id":374,"name":"ุ","steam_id":76561198084134025,"connected_time":13646000000000,"state":"active","ping":100},{"user_id":516,"name":"❄Brrr-azorn❄","steam_id":76561198096327396,"connected_time":849000000000,"state":"active","ping":113},{"user_id":439,"name":"Who is She?","steam_id":76561198080963759,"connected_time":8412000000000,"state":"active","ping":62},{"user_id":517,"name":"QueeQuee","steam_id":76561198070804012,"connected_time":664000000000,"state":"active","ping":70},{"user_id":499,"name":"Klip","steam_id":76561198316254429,"connected_time":1802000000000,"state":"active","ping":96},{"user_id":495,"name":"YungKeet","steam_id":76561198293854963,"connected_time":2349000000000,"state":"active","ping":92},{"user_id":488,"name":"Saulce","steam_id":76561198066142119,"connected_time":2686000000000,"state":"active","ping":66},{"user_id":483,"name":"Snoopy","steam_id":76561198273735974,"connected_time":2986000000000,"state":"active","ping":99},{"user_id":509,"name":"Mr. Yoshida","steam_id":76561198263829831,"connected_time":1248000000000,"state":"active","ping":75},{"user_id":508,"name":"Fresh","steam_id":76561198068565728,"connected_time":1249000000000,"state":"active","ping":54},{"user_id":429,"name":"-","steam_id":76561198021308963,"connected_time":9433000000000,"state":"active","ping":77},{"user_id":510,"name":"sly1","steam_id":76561198049014977,"connected_time":1243000000000,"state":"active","ping":64},{"user_id":481,"name":"SparklePawz ♥","steam_id":76561198093703065,"connected_time":3159000000000,"state":"active","ping":192},{"user_id":498,"name":"Federico","steam_id":76561198411873065,"connected_time":1999000000000,"state":"active","ping":110},{"user_id":496,"name":"Lavoisier","steam_id":76561198013399809,"connected_time":2282000000000,"state":"active","ping":46},{"user_id":520,"name":"The Caretaker","steam_id":76561198125241411,"connected_time":72000000000,"state":"active","ping":73},{"user_id":482,"name":"IntravenusDeMilo","steam_id":76561197970629020,"connected_time":3028000000000,"state":"active","ping":75},{"user_id":518,"name":"s9","steam_id":76561198065339248,"connected_time":589000000000,"state":"active","ping":58},{"user_id":372,"name":"FESTIVE SQU1RRELLY","steam_id":76561197961279983,"connected_time":13754000000000,"state":"active","ping":75},{"user_id":511,"name":"dumbeeon","steam_id":76561198059351874,"connected_time":1187000000000,"state":"active","ping":53},{"user_id":513,"name":"Chili","steam_id":76561198042942046,"connected_time":1029000000000,"state":"active","ping":78}]},{"server_id":112,"name":"Uncletopia | Los Angeles | 2 | All Maps","name_short":"lax-2","host":"lax-1.us.uncletopia.com","port":27025,"enabled":true,"region":"us-west","cc":"us","latitude":33.94279,"longitude":-118.41004,"reserved":0,"last_update":"0001-01-01T00:00:00Z","name_a2s":"Uncletopia | Los Angeles | 2 | All Maps","protocol":17,"map":"koth_cascade","folder":"tf","game":"Team Fortress","app_id":440,"player_count":0,"max_players":24,"Bots":0,"server_type":"Dedicated","server_os":"Linux","password":true,"vac":true,"version":"7757534","steam_id":85568392924469992,"keywords":["cp","nocrits","nodmgspread","uncletopia"],"game_id":440,"stv_port":27026,"stv_name":"Uncletopia | Los Angeles | 2 | All Maps | STV","players":null},{"server_id":324,"name":"Uncletopia | Los Angeles | 3 | All Maps","name_short":"lax-3","host":"lax-1.us.uncletopia.com","port":27035,"enabled":true,"region":"us-west","cc":"us","latitude":33.94279,"longitude":-118.41004,"reserved":0,"last_update":"0001-01-01T00:00:00Z","name_a2s":"Uncletopia | Los Angeles | 3 | All Maps","protocol":17,"map":"cp_dustbowl","folder":"tf","game":"Team Fortress","app_id":440,"player_count":16,"max_players":24,"Bots":0,"server_type":"Dedicated","server_os":"Linux","password":true,"vac":true,"version":"7757534","steam_id":85568392924510198,"keywords":["cp","nocrits","nodmgspread","uncletopia"],"game_id":440,"stv_port":27036,"stv_name":"Uncletopia | Los Angeles | 3 | All Maps | STV","players":[{"user_id":261,"name":"Dank Ghost","steam_id":76561198400690889,"connected_time":706000000000,"state":"active","ping":62},{"user_id":271,"name":"dive","steam_id":76561198025499950,"connected_time":106000000000,"state":"active","ping":127},{"user_id":250,"name":"Songborn","steam_id":76561198285259703,"connected_time":1178000000000,"state":"active","ping":75},{"user_id":252,"name":"Shadow_at_night","steam_id":76561198179164549,"connected_time":1130000000000,"state":"active","ping":108},{"user_id":265,"name":"swarm","steam_id":76561198019435762,"connected_time":495000000000,"state":"active","ping":55},{"user_id":219,"name":"Grungus","steam_id":76561198047700230,"connected_time":3463000000000,"state":"active","ping":49},{"user_id":272,"name":"Prime","steam_id":76561198218218705,"connected_time":37000000000,"state":"spawning","ping":139},{"user_id":262,"name":"mister mundy (oog)","steam_id":76561198101700544,"connected_time":646000000000,"state":"active","ping":83},{"user_id":263,"name":"Intense Weeaboo","steam_id":76561198062019784,"connected_time":575000000000,"state":"active","ping":100},{"user_id":264,"name":"Marethyu","steam_id":76561199046904940,"connected_time":559000000000,"state":"active","ping":131},{"user_id":258,"name":"mrdmnd","steam_id":76561198010278383,"connected_time":904000000000,"state":"active","ping":54},{"user_id":266,"name":"Dennis Reynolds","steam_id":76561197960371259,"connected_time":398000000000,"state":"active","ping":100},{"user_id":267,"name":"Swshbcklr","steam_id":76561197969421355,"connected_time":393000000000,"state":"active","ping":119},{"user_id":269,"name":"FightyPNW","steam_id":76561198981808810,"connected_time":231000000000,"state":"active","ping":85},{"user_id":270,"name":"bungus","steam_id":76561198026280824,"connected_time":144000000000,"state":"active","ping":89},{"user_id":240,"name":"Lavernius41","steam_id":76561198807274102,"connected_time":1875000000000,"state":"active","ping":71}]},{"server_id":25,"name":"Uncletopia | Los Angeles | 4 | Stopwatch Beta","name_short":"lax-4","host":"lax-1.us.uncletopia.com","port":27045,"enabled":true,"region":"us-west","cc":"us","latitude":33.94279,"longitude":-118.41004,"reserved":0,"last_update":"0001-01-01T00:00:00Z","name_a2s":"Uncletopia | Los Angeles | 4 | Stopwatch Beta","protocol":17,"map":"koth_viaduct","folder":"tf","game":"Team Fortress","app_id":440,"player_count":0,"max_players":24,"Bots":0,"server_type":"Dedicated","server_os":"Linux","password":true,"vac":true,"version":"7757534","steam_id":85568392924510199,"keywords":["cp","nocrits","nodmgspread","uncletopia"],"game_id":440,"stv_port":27046,"stv_name":"Uncletopia | Los Angeles | 4 | Stopwatch Beta | STV","players":null},{"server_id":11,"name":"Uncletopia | London | 1 | All Maps","name_short":"lon-1","host":"lon-1.uk.uncletopia.com","port":27015,"enabled":true,"region":"eu","cc":"gb","latitude":51.509865,"longitude":-0.118092,"reserved":0,"last_update":"0001-01-01T00:00:00Z","name_a2s":"Uncletopia | London | 1 | All Maps","protocol":17,"map":"cp_powerhouse","folder":"tf","game":"Team Fortress","app_id":440,"player_count":24,"max_players":24,"Bots":0,"server_type":"Dedicated","server_os":"Linux","password":true,"vac":true,"version":"7757534","steam_id":85568392924367362,"keywords":["cp","nocrits","nodmgspread","uncletopia"],"game_id":440,"stv_port":27016,"stv_name":"Uncletopia | London | 1 | All Maps | STV","players":[{"user_id":58,"name":"Nik1","steam_id":76561198970762992,"connected_time":1008000000000,"state":"active","ping":73},{"user_id":59,"name":"Stun","steam_id":76561198047359132,"connected_time":1007000000000,"state":"active","ping":63},{"user_id":56,"name":"DemoKnight™","steam_id":76561199152186875,"connected_time":1052000000000,"state":"active","ping":146},{"user_id":60,"name":"Rezolt","steam_id":76561198069074807,"connected_time":935000000000,"state":"active","ping":122},{"user_id":7,"name":"Hudzy","steam_id":76561198058290638,"connected_time":4326000000000,"state":"active","ping":121},{"user_id":49,"name":"sane","steam_id":76561198045205475,"connected_time":1727000000000,"state":"active","ping":73},{"user_id":9,"name":"tindy","steam_id":76561198064581209,"connected_time":4324000000000,"state":"active","ping":80},{"user_id":10,"name":"rat performance","steam_id":76561198065854668,"connected_time":4318000000000,"state":"active","ping":39},{"user_id":43,"name":"333res","steam_id":76561198148106704,"connected_time":2063000000000,"state":"active","ping":93},{"user_id":12,"name":"vani","steam_id":76561197991778291,"connected_time":4314000000000,"state":"active","ping":75},{"user_id":51,"name":"hatac","steam_id":76561198204281927,"connected_time":1492000000000,"state":"active","ping":60},{"user_id":52,"name":"Ing.Donut","steam_id":76561198088849673,"connected_time":1474000000000,"state":"active","ping":69},{"user_id":15,"name":"uhmazn","steam_id":76561198014204225,"connected_time":4304000000000,"state":"active","ping":59},{"user_id":50,"name":"ermag","steam_id":76561198029452347,"connected_time":1718000000000,"state":"active","ping":97},{"user_id":17,"name":"fredu","steam_id":76561198107605938,"connected_time":4286000000000,"state":"active","ping":97},{"user_id":18,"name":"🃔 Nugg1t(sme/lly)","steam_id":76561198065652251,"connected_time":4280000000000,"state":"active","ping":55},{"user_id":19,"name":"Ivan the Terrible","steam_id":76561198139595241,"connected_time":4272000000000,"state":"active","ping":84},{"user_id":20,"name":"Pan Pan","steam_id":76561199074670515,"connected_time":4272000000000,"state":"active","ping":91},{"user_id":21,"name":"SpyChef","steam_id":76561198075326117,"connected_time":4264000000000,"state":"active","ping":55},{"user_id":61,"name":"weed fairy","steam_id":76561197998843096,"connected_time":86000000000,"state":"active","ping":81},{"user_id":23,"name":"iuSDIB8+ ň7","steam_id":76561198363768590,"connected_time":4217000000000,"state":"active","ping":90},{"user_id":26,"name":"☠Holy(cz)☠","steam_id":76561197985535494,"connected_time":3911000000000,"state":"active","ping":98},{"user_id":45,"name":"Luke SpyWalker","steam_id":76561198008643276,"connected_time":1801000000000,"state":"active","ping":69},{"user_id":55,"name":"Eco","steam_id":76561199201938256,"connected_time":1195000000000,"state":"active","ping":83}]},{"server_id":114,"name":"Uncletopia | London | 2 | All Maps","name_short":"lon-2","host":"lon-1.uk.uncletopia.com","port":27025,"enabled":true,"region":"eu","cc":"gb","latitude":51.509865,"longitude":-0.118092,"reserved":0,"last_update":"0001-01-01T00:00:00Z","name_a2s":"Uncletopia | London | 2 | All Maps","protocol":17,"map":"pl_borneo","folder":"tf","game":"Team Fortress","app_id":440,"player_count":0,"max_players":24,"Bots":0,"server_type":"Dedicated","server_os":"Linux","password":true,"vac":true,"version":"7757534","steam_id":85568392924470941,"keywords":["nocrits","nodmgspread","payload","uncletopia"],"game_id":440,"stv_port":27026,"stv_name":"Uncletopia | London | 2 | All Maps | STV","players":null},{"server_id":320,"name":"Uncletopia | London | 3 | All Maps","name_short":"lon-3","host":"lon-1.uk.uncletopia.com","port":27035,"enabled":true,"region":"eu","cc":"gb","latitude":51.509865,"longitude":-0.118092,"reserved":0,"last_update":"0001-01-01T00:00:00Z","name_a2s":"Uncletopia | London | 3 | All Maps","protocol":17,"map":"pl_badwater","folder":"tf","game":"Team Fortress","app_id":440,"player_count":2,"max_players":24,"Bots":0,"server_type":"Dedicated","server_os":"Linux","password":true,"vac":true,"version":"7757534","steam_id":85568392924510192,"keywords":["nocrits","nodmgspread","payload","uncletopia"],"game_id":440,"stv_port":27036,"stv_name":"Uncletopia | London | 3 | All Maps | STV","players":[{"user_id":4,"name":"Sneaky boi","steam_id":76561199195985387,"connected_time":367000000000,"state":"active","ping":86},{"user_id":5,"name":"FingerMan","steam_id":76561198004040091,"connected_time":186000000000,"state":"active","ping":53}]},{"server_id":321,"name":"Uncletopia | London | 4 | All Maps","name_short":"lon-4","host":"lon-1.uk.uncletopia.com","port":27045,"enabled":true,"region":"eu","cc":"gb","latitude":51.509865,"longitude":-0.118092,"reserved":0,"last_update":"0001-01-01T00:00:00Z","name_a2s":"Uncletopia | London | 4 | All Maps","protocol":17,"map":"cp_dustbowl","folder":"tf","game":"Team Fortress","app_id":440,"player_count":0,"max_players":24,"Bots":0,"server_type":"Dedicated","server_os":"Linux","password":true,"vac":true,"version":"7757534","steam_id":85568392924510193,"keywords":["cp","nocrits","nodmgspread","uncletopia"],"game_id":440,"stv_port":27046,"stv_name":"Uncletopia | London | 4 | All Maps | STV","players":null},{"server_id":21,"name":"Uncletopia | London | 5 | All Maps","name_short":"lon-5","host":"lon-1.uk.uncletopia.com","port":27055,"enabled":true,"region":"eu","cc":"gb","latitude":51.509865,"longitude":-0.118092,"reserved":0,"last_update":"0001-01-01T00:00:00Z","name_a2s":"Uncletopia | London | 5 | All Maps","protocol":17,"map":"pl_snowycoast","folder":"tf","game":"Team Fortress","app_id":440,"player_count":0,"max_players":24,"Bots":0,"server_type":"Dedicated","server_os":"Linux","password":true,"vac":true,"version":"7757534","steam_id":85568392924742829,"keywords":["nocrits","nodmgspread","payload","uncletopia"],"game_id":440,"stv_port":27056,"stv_name":"Uncletopia | London | 5 | All Maps | STV","players":null},{"server_id":22,"name":"Uncletopia | London | 6 | All Maps","name_short":"lon-6","host":"lon-1.uk.uncletopia.com","port":27065,"enabled":true,"region":"eu","cc":"gb","latitude":51.509865,"longitude":-0.118092,"reserved":0,"last_update":"0001-01-01T00:00:00Z","name_a2s":"Uncletopia | London | 6 | All Maps","protocol":17,"map":"pl_snowycoast","folder":"tf","game":"Team Fortress","app_id":440,"player_count":0,"max_players":24,"Bots":0,"server_type":"Dedicated","server_os":"Linux","password":true,"vac":true,"version":"7757534","steam_id":85568392924742830,"keywords":["nocrits","nodmgspread","payload","uncletopia"],"game_id":440,"stv_port":27066,"stv_name":"Uncletopia | London | 6 | All Maps | STV","players":null},{"server_id":40,"name":"Uncletopia | London | 7 | No Payload","name_short":"lon-7","host":"lon-1.uk.uncletopia.com","port":27075,"enabled":true,"region":"eu","cc":"gb","latitude":51.509865,"longitude":-0.118092,"reserved":0,"last_update":"0001-01-01T00:00:00Z","name_a2s":"Uncletopia | London | 7 | No Payload","protocol":17,"map":"pl_upward","folder":"tf","game":"Team Fortress","app_id":440,"player_count":0,"max_players":24,"Bots":0,"server_type":"Dedicated","server_os":"Linux","password":true,"vac":true,"version":"7757534","steam_id":85568392924964314,"keywords":["nocrits","nodmgspread","payload","uncletopia"],"game_id":440,"stv_port":27076,"stv_name":"Uncletopia | London | 7 | No Payload | STV","players":null},{"server_id":41,"name":"Uncletopia | London | 8 | Community","name_short":"lon-8","host":"lon-1.uk.uncletopia.com","port":27085,"enabled":true,"region":"eu","cc":"gb","latitude":51.509865,"longitude":-0.118092,"reserved":0,"last_update":"0001-01-01T00:00:00Z","name_a2s":"Uncletopia | London | 8 | Community","protocol":17,"map":"cp_snakewater_final1","folder":"tf","game":"Team Fortress","app_id":440,"player_count":0,"max_players":24,"Bots":0,"server_type":"Dedicated","server_os":"Linux","password":true,"vac":true,"version":"7757534","steam_id":85568392924964315,"keywords":["cp","nocrits","nodmgspread","uncletopia"],"game_id":440,"stv_port":27086,"stv_name":"Uncletopia | London | 8 | Community | STV","players":null},{"server_id":300,"name":"Uncletopia | Montréal | 1 | All Maps","name_short":"mtl-1","host":"mtl-1.ca.uncletopia.com","port":27015,"enabled":true,"region":"us-east","cc":"ca","latitude":45.50889,"longitude":-73.56167,"reserved":0,"last_update":"0001-01-01T00:00:00Z","name_a2s":"Uncletopia | Montréal | 1 | All Maps","protocol":17,"map":"koth_harvest_final","folder":"tf","game":"Team Fortress","app_id":440,"player_count":0,"max_players":24,"Bots":0,"server_type":"Dedicated","server_os":"Linux","password":true,"vac":true,"version":"7757534","steam_id":85568392924500087,"keywords":["cp","nocrits","nodmgspread","uncletopia"],"game_id":440,"stv_port":27016,"stv_name":"Uncletopia | Montréal | 1 | All Maps | STV","players":null},{"server_id":301,"name":"Uncletopia | Montréal | 2 | All Maps","name_short":"mtl-2","host":"mtl-1.ca.uncletopia.com","port":27025,"enabled":true,"region":"us-east","cc":"ca","latitude":45.50889,"longitude":-73.56167,"reserved":0,"last_update":"0001-01-01T00:00:00Z","name_a2s":"Uncletopia | Montréal | 2 | All Maps","protocol":17,"map":"koth_cascade","folder":"tf","game":"Team Fortress","app_id":440,"player_count":0,"max_players":24,"Bots":0,"server_type":"Dedicated","server_os":"Linux","password":true,"vac":true,"version":"7757534","steam_id":85568392924500088,"keywords":["cp","nocrits","nodmgspread","uncletopia"],"game_id":440,"stv_port":27026,"stv_name":"Uncletopia | Montréal | 2 | All Maps | STV","players":null},{"server_id":302,"name":"Uncletopia | Montréal | 3 | All Maps","name_short":"mtl-3","host":"mtl-1.ca.uncletopia.com","port":27035,"enabled":true,"region":"us-east","cc":"ca","latitude":45.50889,"longitude":-73.56167,"reserved":0,"last_update":"0001-01-01T00:00:00Z","name_a2s":"Uncletopia | Montréal | 3 | All Maps","protocol":17,"map":"pl_borneo","folder":"tf","game":"Team Fortress","app_id":440,"player_count":0,"max_players":24,"Bots":0,"server_type":"Dedicated","server_os":"Linux","password":true,"vac":true,"version":"7757534","steam_id":85568392924500089,"keywords":["nocrits","nodmgspread","payload","uncletopia"],"game_id":440,"stv_port":27036,"stv_name":"Uncletopia | Montréal | 3 | All Maps | STV","players":null},{"server_id":303,"name":"Uncletopia | Montréal | 4 | No Payload","name_short":"mtl-4","host":"mtl-1.ca.uncletopia.com","port":27045,"enabled":true,"region":"us-east","cc":"ca","latitude":45.50889,"longitude":-73.56167,"reserved":0,"last_update":"0001-01-01T00:00:00Z","name_a2s":"Uncletopia | Montréal | 4 | No Payload","protocol":17,"map":"cp_well","folder":"tf","game":"Team Fortress","app_id":440,"player_count":1,"max_players":24,"Bots":0,"server_type":"Dedicated","server_os":"Linux","password":true,"vac":true,"version":"7757534","steam_id":85568392924500090,"keywords":["cp","nocrits","nodmgspread","uncletopia"],"game_id":440,"stv_port":27046,"stv_name":"Uncletopia | Montréal | 4 | No Payload | STV","players":[{"user_id":12,"name":"Challenger Charles","steam_id":76561198005576553,"connected_time":1026000000000,"state":"active","ping":54}]},{"server_id":13,"name":"Uncletopia | New York City | 1 | All Maps","name_short":"nyc-1","host":"nyc-1.us.uncletopia.com","port":27015,"enabled":true,"region":"us-east","cc":"us","latitude":40.73061,"longitude":-73.93524,"reserved":0,"last_update":"0001-01-01T00:00:00Z","name_a2s":"Uncletopia | New York City | 1 | All Maps","protocol":17,"map":"cp_process_final","folder":"tf","game":"Team Fortress","app_id":440,"player_count":0,"max_players":24,"Bots":0,"server_type":"Dedicated","server_os":"Linux","password":true,"vac":true,"version":"7757534","steam_id":85568392924469993,"keywords":["cp","nocrits","nodmgspread","uncletopia"],"game_id":440,"stv_port":27016,"stv_name":"Uncletopia | New York City | 1 | All Maps | STV","players":null},{"server_id":14,"name":"Uncletopia | New York City | 2 | All Maps","name_short":"nyc-2","host":"nyc-1.us.uncletopia.com","port":27025,"enabled":true,"region":"us-east","cc":"us","latitude":40.73061,"longitude":-73.93524,"reserved":0,"last_update":"0001-01-01T00:00:00Z","name_a2s":"Uncletopia | New York City | 2 | All Maps","protocol":17,"map":"pl_borneo","folder":"tf","game":"Team Fortress","app_id":440,"player_count":0,"max_players":24,"Bots":0,"server_type":"Dedicated","server_os":"Linux","password":true,"vac":true,"version":"7757534","steam_id":85568392924469994,"keywords":["nocrits","nodmgspread","payload","uncletopia"],"game_id":440,"stv_port":27026,"stv_name":"Uncletopia | New York City | 2 | All Maps | STV","players":null},{"server_id":15,"name":"Uncletopia | New York City | 3 | Stopwatch Beta","name_short":"nyc-3","host":"nyc-1.us.uncletopia.com","port":27035,"enabled":true,"region":"us-east","cc":"us","latitude":40.73061,"longitude":-73.93524,"reserved":0,"last_update":"0001-01-01T00:00:00Z","name_a2s":"Uncletopia | New York City | 3 | Stopwatch Beta","protocol":17,"map":"koth_lakeside_final","folder":"tf","game":"Team Fortress","app_id":440,"player_count":0,"max_players":24,"Bots":0,"server_type":"Dedicated","server_os":"Linux","password":true,"vac":true,"version":"7757534","steam_id":85568392924742820,"keywords":["cp","nocrits","nodmgspread","uncletopia"],"game_id":440,"stv_port":27036,"stv_name":"Uncletopia | New York City | 3 | Stopwatch Beta | STV","players":null},{"server_id":16,"name":"Uncletopia | New York City | 4 | Community","name_short":"nyc-4","host":"nyc-1.us.uncletopia.com","port":27045,"enabled":true,"region":"us-east","cc":"us","latitude":40.73061,"longitude":-73.93524,"reserved":0,"last_update":"0001-01-01T00:00:00Z","name_a2s":"Uncletopia | New York City | 4 | Community","protocol":17,"map":"workshop/pl_cactuscanyon_redux_rc4b.ugc2579644293","folder":"tf","game":"Team Fortress","app_id":440,"player_count":0,"max_players":24,"Bots":0,"server_type":"Dedicated","server_os":"Linux","password":true,"vac":true,"version":"7757534","steam_id":85568392924742821,"keywords":["nocrits","nodmgspread","payload","uncletopia"],"game_id":440,"stv_port":27046,"stv_name":"Uncletopia | New York City | 4 | Community | STV","players":null},{"server_id":142,"name":"Uncletopia | São Paulo | 1 | All Maps","name_short":"sao-1","host":"sao-1.br.uncletopia.com","port":27015,"enabled":true,"region":"sa","cc":"br","latitude":-23.533773,"longitude":-46.62529,"reserved":0,"last_update":"0001-01-01T00:00:00Z","name_a2s":"Uncletopia | São Paulo | 1 | All Maps","protocol":17,"map":"cp_altitude","folder":"tf","game":"Team Fortress","app_id":440,"player_count":0,"max_players":24,"Bots":0,"server_type":"Dedicated","server_os":"Linux","password":true,"vac":true,"version":"7757534","steam_id":85568392924469996,"keywords":["cp","nocrits","nodmgspread","uncletopia"],"game_id":440,"stv_port":27016,"stv_name":"Uncletopia | São Paulo | 1 | All Maps | STV","players":null},{"server_id":143,"name":"Uncletopia | São Paulo | 2 | All Maps","name_short":"sao-2","host":"sao-2.br.uncletopia.com","port":27015,"enabled":true,"region":"sa","cc":"br","latitude":-23.533773,"longitude":-46.62529,"reserved":0,"last_update":"0001-01-01T00:00:00Z","name_a2s":"Uncletopia | São Paulo | 2 | All Maps","protocol":17,"map":"pl_snowycoast","folder":"tf","game":"Team Fortress","app_id":440,"player_count":0,"max_players":24,"Bots":0,"server_type":"Dedicated","server_os":"Linux","password":true,"vac":true,"version":"7757534","steam_id":85568392924485349,"keywords":["nocrits","nodmgspread","payload","uncletopia"],"game_id":440,"stv_port":27016,"stv_name":"Uncletopia | São Paulo | 2 | All Maps | STV","players":null},{"server_id":7,"name":"Uncletopia | Seattle | 1 | All Maps","name_short":"sea-1","host":"sea-1.us.uncletopia.com","port":27015,"enabled":true,"region":"us-west","cc":"us","latitude":47.608013,"longitude":-122.33517,"reserved":0,"last_update":"0001-01-01T00:00:00Z","name_a2s":"Uncletopia | Seattle | 1 | All Maps","protocol":17,"map":"pl_borneo","folder":"tf","game":"Team Fortress","app_id":440,"player_count":23,"max_players":24,"Bots":0,"server_type":"Dedicated","server_os":"Linux","password":true,"vac":true,"version":"7757534","steam_id":85568392924469997,"keywords":["nocrits","nodmgspread","payload","uncletopia"],"game_id":440,"stv_port":27016,"stv_name":"Uncletopia | Seattle | 1 | All Maps | STV","players":[{"user_id":472,"name":"Ayayahuasca","steam_id":76561199002906056,"connected_time":5999000000000,"state":"active","ping":45},{"user_id":532,"name":"doopsies","steam_id":76561198083000867,"connected_time":60000000000,"state":"active","ping":49},{"user_id":527,"name":"Tomatop","steam_id":76561198198655869,"connected_time":764000000000,"state":"active","ping":40},{"user_id":518,"name":"squid game","steam_id":76561199248960166,"connected_time":2429000000000,"state":"active","ping":43},{"user_id":522,"name":"Mico (Insert Text Here)","steam_id":76561198125462953,"connected_time":814000000000,"state":"active","ping":48},{"user_id":410,"name":"rat gets the cheese","steam_id":76561198031234032,"connected_time":12542000000000,"state":"active","ping":98},{"user_id":505,"name":"mega","steam_id":76561198089520959,"connected_time":3301000000000,"state":"active","ping":93},{"user_id":335,"name":"soup","steam_id":76561198043209046,"connected_time":17460000000000,"state":"active","ping":74},{"user_id":515,"name":"Dad Rock Deluxe","steam_id":76561198051224819,"connected_time":2934000000000,"state":"active","ping":90},{"user_id":512,"name":"smeasly","steam_id":76561198028718812,"connected_time":3120000000000,"state":"active","ping":42},{"user_id":493,"name":"terri joe","steam_id":76561198017030029,"connected_time":3949000000000,"state":"active","ping":63},{"user_id":486,"name":"Saint Pablo","steam_id":76561198083300159,"connected_time":4437000000000,"state":"active","ping":63},{"user_id":530,"name":"Lore","steam_id":76561198098407538,"connected_time":532000000000,"state":"active","ping":101},{"user_id":524,"name":"Bagaboned","steam_id":76561198043761335,"connected_time":786000000000,"state":"active","ping":53},{"user_id":525,"name":"PerKnuckleChuckle","steam_id":76561198023221596,"connected_time":786000000000,"state":"active","ping":88},{"user_id":528,"name":"super-oofio64","steam_id":76561198954052123,"connected_time":710000000000,"state":"active","ping":79},{"user_id":503,"name":"TurboRaspberry","steam_id":76561199215360629,"connected_time":3420000000000,"state":"active","ping":53},{"user_id":495,"name":"azureglxy","steam_id":76561198861388315,"connected_time":3945000000000,"state":"active","ping":67},{"user_id":526,"name":"Number28","steam_id":76561198315018819,"connected_time":786000000000,"state":"active","ping":77},{"user_id":531,"name":"Artic_Ryuu","steam_id":76561198182194918,"connected_time":477000000000,"state":"active","ping":76},{"user_id":529,"name":"trubbabubba","steam_id":76561198095118127,"connected_time":659000000000,"state":"active","ping":107},{"user_id":477,"name":"surrealist neophyte","steam_id":76561198325306660,"connected_time":5222000000000,"state":"active","ping":107},{"user_id":500,"name":"Freddie Benson","steam_id":76561198012741266,"connected_time":3672000000000,"state":"active","ping":46}]},{"server_id":119,"name":"Uncletopia | Seattle | 2 | All Maps","name_short":"sea-2","host":"sea-1.us.uncletopia.com","port":27025,"enabled":true,"region":"us-west","cc":"us","latitude":47.608013,"longitude":-122.33517,"reserved":0,"last_update":"0001-01-01T00:00:00Z","name_a2s":"Uncletopia | Seattle | 2 | All Maps","protocol":17,"map":"pl_badwater","folder":"tf","game":"Team Fortress","app_id":440,"player_count":23,"max_players":24,"Bots":0,"server_type":"Dedicated","server_os":"Linux","password":true,"vac":true,"version":"7757534","steam_id":85568392924469998,"keywords":["nocrits","nodmgspread","payload","uncletopia"],"game_id":440,"stv_port":27026,"stv_name":"Uncletopia | Seattle | 2 | All Maps | STV","players":[{"user_id":559,"name":"goldhed","steam_id":76561198051751133,"connected_time":9130000000000,"state":"active","ping":58},{"user_id":609,"name":"JON","steam_id":76561198057971005,"connected_time":4879000000000,"state":"active","ping":38},{"user_id":657,"name":"Gaming","steam_id":76561198327632113,"connected_time":437000000000,"state":"active","ping":46},{"user_id":659,"name":"Snety Gun","steam_id":76561198862745731,"connected_time":288000000000,"state":"active","ping":63},{"user_id":628,"name":"Wormy wants to RTV","steam_id":76561198054539200,"connected_time":3339000000000,"state":"active","ping":51},{"user_id":658,"name":"Jules the Demon","steam_id":76561198325850952,"connected_time":405000000000,"state":"active","ping":123},{"user_id":644,"name":"Villchip","steam_id":76561198198599982,"connected_time":1644000000000,"state":"active","ping":47},{"user_id":656,"name":"Jface1221","steam_id":76561198188082091,"connected_time":724000000000,"state":"active","ping":74},{"user_id":660,"name":"Her Majesty's Secret Service","steam_id":76561198348770994,"connected_time":224000000000,"state":"active","ping":110},{"user_id":642,"name":"Google","steam_id":76561198857237473,"connected_time":1903000000000,"state":"active","ping":49},{"user_id":568,"name":"LazyRat","steam_id":76561198014066794,"connected_time":8856000000000,"state":"active","ping":89},{"user_id":640,"name":"The Population of Sweden","steam_id":76561198202201644,"connected_time":2042000000000,"state":"active","ping":49},{"user_id":647,"name":"Chemtrail Dream","steam_id":76561197982052071,"connected_time":1577000000000,"state":"active","ping":46},{"user_id":648,"name":"bomb","steam_id":76561198312179067,"connected_time":1543000000000,"state":"active","ping":91},{"user_id":662,"name":"qt wavyz","steam_id":76561199060668138,"connected_time":219000000000,"state":"active","ping":114},{"user_id":663,"name":"god approaches","steam_id":76561198081617990,"connected_time":213000000000,"state":"active","ping":120},{"user_id":649,"name":"Ryuujin","steam_id":76561198000897946,"connected_time":1541000000000,"state":"active","ping":64},{"user_id":583,"name":"Cinna Mon","steam_id":76561198005840633,"connected_time":7222000000000,"state":"active","ping":54},{"user_id":650,"name":"The Deders","steam_id":76561198002639950,"connected_time":1414000000000,"state":"active","ping":100},{"user_id":603,"name":"Evanb","steam_id":76561198042057792,"connected_time":5107000000000,"state":"active","ping":47},{"user_id":652,"name":"stoned jester","steam_id":76561198079609974,"connected_time":1236000000000,"state":"active","ping":90},{"user_id":637,"name":"Tomato Soup","steam_id":76561198051834684,"connected_time":2744000000000,"state":"active","ping":52},{"user_id":655,"name":"squashbone","steam_id":76561197999466442,"connected_time":879000000000,"state":"active","ping":50}]},{"server_id":406,"name":"Uncletopia | Seattle | 3 | Stopwatch Beta","name_short":"sea-3","host":"sea-1.us.uncletopia.com","port":27035,"enabled":true,"region":"us-west","cc":"us","latitude":47.608013,"longitude":-122.33517,"reserved":0,"last_update":"0001-01-01T00:00:00Z","name_a2s":"Uncletopia | Seattle | 3 | Stopwatch Beta","protocol":17,"map":"workshop/pl_badwater_pro_v12.ugc2142942074","folder":"tf","game":"Team Fortress","app_id":440,"player_count":0,"max_players":24,"Bots":0,"server_type":"Dedicated","server_os":"Linux","password":true,"vac":true,"version":"7757534","steam_id":85568392924515217,"keywords":["nocrits","nodmgspread","payload","uncletopia"],"game_id":440,"stv_port":27036,"stv_name":"Uncletopia | Seattle | 3 | Stopwatch Beta | STV","players":null},{"server_id":17,"name":"Uncletopia | San Francisco | 1 | All Maps","name_short":"sfo-1","host":"sfo-1.us.uncletopia.com","port":27015,"enabled":true,"region":"us-west","cc":"us","latitude":37.77397,"longitude":-122.4313,"reserved":0,"last_update":"0001-01-01T00:00:00Z","name_a2s":"Uncletopia | San Francisco | 1 | All Maps","protocol":17,"map":"koth_cascade","folder":"tf","game":"Team Fortress","app_id":440,"player_count":0,"max_players":24,"Bots":0,"server_type":"Dedicated","server_os":"Linux","password":true,"vac":true,"version":"7757534","steam_id":85568392924469999,"keywords":["cp","nocrits","nodmgspread","uncletopia"],"game_id":440,"stv_port":27016,"stv_name":"Uncletopia | San Francisco | 1 | All Maps | STV","players":null},{"server_id":18,"name":"Uncletopia | San Francisco | 2 | All Maps","name_short":"sfo-2","host":"sfo-1.us.uncletopia.com","port":27025,"enabled":true,"region":"us-west","cc":"us","latitude":37.77397,"longitude":-122.4313,"reserved":0,"last_update":"0001-01-01T00:00:00Z","name_a2s":"Uncletopia | San Francisco | 2 | All Maps","protocol":17,"map":"pl_pier","folder":"tf","game":"Team Fortress","app_id":440,"player_count":24,"max_players":24,"Bots":0,"server_type":"Dedicated","server_os":"Linux","password":true,"vac":true,"version":"7757534","steam_id":85568392924470000,"keywords":["nocrits","nodmgspread","payload","uncletopia"],"game_id":440,"stv_port":27026,"stv_name":"Uncletopia | San Francisco | 2 | All Maps | STV","players":[{"user_id":76,"name":"Battery_Included","steam_id":76561198067164431,"connected_time":7083000000000,"state":"active","ping":49},{"user_id":150,"name":"WeAreTheSpirits","steam_id":76561198191555728,"connected_time":1810000000000,"state":"active","ping":46},{"user_id":136,"name":"VikingPilot","steam_id":76561198242552958,"connected_time":2592000000000,"state":"active","ping":99},{"user_id":153,"name":"SuaveFrenchman","steam_id":76561198043762683,"connected_time":1753000000000,"state":"active","ping":45},{"user_id":96,"name":"Sticky","steam_id":76561198031581547,"connected_time":5668000000000,"state":"active","ping":55},{"user_id":169,"name":"\u003c blank \u003e","steam_id":76561198061448188,"connected_time":582000000000,"state":"active","ping":74},{"user_id":145,"name":"Drown Syndrome","steam_id":76561198046584592,"connected_time":2341000000000,"state":"active","ping":109},{"user_id":168,"name":"ROGUE-PLANET","steam_id":76561198116023052,"connected_time":634000000000,"state":"active","ping":73},{"user_id":151,"name":"DarthJiggles","steam_id":76561198088383875,"connected_time":1765000000000,"state":"active","ping":44},{"user_id":165,"name":"cuppo","steam_id":76561198022008901,"connected_time":785000000000,"state":"active","ping":81},{"user_id":171,"name":"BarelyAnimateObject","steam_id":76561198986264116,"connected_time":282000000000,"state":"active","ping":52},{"user_id":155,"name":"Lily Thorn","steam_id":76561198305488625,"connected_time":1357000000000,"state":"active","ping":83},{"user_id":131,"name":"Flyingcat9000","steam_id":76561198179561797,"connected_time":2787000000000,"state":"active","ping":37},{"user_id":132,"name":"ayaya?","steam_id":76561199000188109,"connected_time":2750000000000,"state":"active","ping":47},{"user_id":140,"name":"Blaaargie","steam_id":76561198040514250,"connected_time":2408000000000,"state":"active","ping":51},{"user_id":28,"name":"THE NUT","steam_id":76561198067813626,"connected_time":9768000000000,"state":"active","ping":57},{"user_id":115,"name":"G. Howard Dee","steam_id":76561198058382812,"connected_time":3952000000000,"state":"active","ping":63},{"user_id":134,"name":"Loving Single Father of Two Boy","steam_id":76561198012280046,"connected_time":2607000000000,"state":"active","ping":100},{"user_id":135,"name":"Farseer Ulwithy","steam_id":76561197965179245,"connected_time":2606000000000,"state":"active","ping":86},{"user_id":166,"name":"JaxiiRuff","steam_id":76561198093614882,"connected_time":714000000000,"state":"active","ping":45},{"user_id":170,"name":"Not Swiss Swiss","steam_id":76561199123207037,"connected_time":545000000000,"state":"active","ping":69},{"user_id":147,"name":"Newt","steam_id":76561198842909288,"connected_time":2249000000000,"state":"active","ping":123},{"user_id":158,"name":"CaptainGold1","steam_id":76561198104967772,"connected_time":1031000000000,"state":"active","ping":76},{"user_id":142,"name":"Deaf Jeff","steam_id":76561198057686070,"connected_time":2399000000000,"state":"active","ping":78}]},{"server_id":19,"name":"Uncletopia | San Francisco | 3 | Stopwatch Beta","name_short":"sfo-3","host":"sfo-1.us.uncletopia.com","port":27035,"enabled":true,"region":"us-west","cc":"us","latitude":37.77397,"longitude":-122.4313,"reserved":0,"last_update":"0001-01-01T00:00:00Z","name_a2s":"Uncletopia | San Francisco | 3 | Stopwatch Beta","protocol":17,"map":"koth_viaduct","folder":"tf","game":"Team Fortress","app_id":440,"player_count":0,"max_players":24,"Bots":0,"server_type":"Dedicated","server_os":"Linux","password":true,"vac":true,"version":"7757534","steam_id":85568392924742824,"keywords":["cp","nocrits","nodmgspread","uncletopia"],"game_id":440,"stv_port":27036,"stv_name":"Uncletopia | San Francisco | 3 | Stopwatch Beta | STV","players":null},{"server_id":20,"name":"Uncletopia | San Francisco | 4 | Community","name_short":"sfo-4","host":"sfo-1.us.uncletopia.com","port":27045,"enabled":true,"region":"us-west","cc":"us","latitude":37.77397,"longitude":-122.4313,"reserved":0,"last_update":"0001-01-01T00:00:00Z","name_a2s":"Uncletopia | San Francisco | 4 | Community","protocol":17,"map":"workshop/koth_synthetic_rc6a.ugc1549817316","folder":"tf","game":"Team Fortress","app_id":440,"player_count":0,"max_players":24,"Bots":0,"server_type":"Dedicated","server_os":"Linux","password":true,"vac":true,"version":"7757534","steam_id":85568392924742826,"keywords":["cp","nocrits","nodmgspread","uncletopia"],"game_id":440,"stv_port":27046,"stv_name":"Uncletopia | San Francisco | 4 | Community | STV","players":null},{"server_id":141,"name":"Uncletopia | Sydney | 1 | All Maps","name_short":"syd-1","host":"syd-1.au.uncletopia.com","port":27015,"enabled":true,"region":"au","cc":"au","latitude":-33.865143,"longitude":151.2099,"reserved":0,"last_update":"0001-01-01T00:00:00Z","name_a2s":"Uncletopia | Sydney | 1 | All Maps","protocol":17,"map":"cp_dustbowl","folder":"tf","game":"Team Fortress","app_id":440,"player_count":24,"max_players":24,"Bots":0,"server_type":"Dedicated","server_os":"Linux","password":true,"vac":true,"version":"7757534","steam_id":85568392924470001,"keywords":["cp","nocrits","nodmgspread","uncletopia"],"game_id":440,"stv_port":27016,"stv_name":"Uncletopia | Sydney | 1 | All Maps | STV","players":[{"user_id":99,"name":"ben","steam_id":76561198223331996,"connected_time":6079000000000,"state":"active","ping":62},{"user_id":114,"name":"wombraider","steam_id":76561199375834537,"connected_time":5237000000000,"state":"active","ping":125},{"user_id":158,"name":"krandlez` (Any/All)","steam_id":76561198044839726,"connected_time":1684000000000,"state":"active","ping":41},{"user_id":131,"name":"clout","steam_id":76561198073310502,"connected_time":4024000000000,"state":"active","ping":74},{"user_id":139,"name":"MikkyD","steam_id":76561198043452962,"connected_time":3479000000000,"state":"active","ping":61},{"user_id":132,"name":"Greg","steam_id":76561198133966374,"connected_time":4023000000000,"state":"active","ping":49},{"user_id":173,"name":"Erl","steam_id":76561198041082043,"connected_time":283000000000,"state":"active","ping":110},{"user_id":59,"name":"freek","steam_id":76561198406237673,"connected_time":7497000000000,"state":"active","ping":45},{"user_id":154,"name":"michael","steam_id":76561198052848358,"connected_time":2150000000000,"state":"active","ping":66},{"user_id":165,"name":"Linkazoid","steam_id":76561198107915685,"connected_time":1226000000000,"state":"active","ping":84},{"user_id":169,"name":"cool man","steam_id":76561198085498212,"connected_time":339000000000,"state":"active","ping":56},{"user_id":148,"name":"JokerMain","steam_id":76561198144857794,"connected_time":2623000000000,"state":"active","ping":46},{"user_id":170,"name":"snooty123","steam_id":76561199055258276,"connected_time":334000000000,"state":"active","ping":52},{"user_id":151,"name":"MaV","steam_id":76561198045682020,"connected_time":2387000000000,"state":"active","ping":65},{"user_id":123,"name":"Dr Barry Mundy PhD","steam_id":76561198034512686,"connected_time":4855000000000,"state":"active","ping":43},{"user_id":172,"name":"Pompadouraus","steam_id":76561198327530525,"connected_time":323000000000,"state":"active","ping":75},{"user_id":84,"name":"KnowZero","steam_id":76561198095752015,"connected_time":6580000000000,"state":"active","ping":65},{"user_id":136,"name":"Snowy","steam_id":76561198255720598,"connected_time":3966000000000,"state":"active","ping":41},{"user_id":144,"name":"hazz_mcpie -BvM-","steam_id":76561198092450084,"connected_time":3078000000000,"state":"active","ping":87},{"user_id":153,"name":"Rolf :)","steam_id":76561198052357164,"connected_time":2152000000000,"state":"active","ping":40},{"user_id":147,"name":"Mr.Deathclaw","steam_id":76561198025419320,"connected_time":2896000000000,"state":"active","ping":44},{"user_id":164,"name":"Servo Guy","steam_id":76561199069287849,"connected_time":1317000000000,"state":"active","ping":67},{"user_id":97,"name":"ุbifcheg","steam_id":76561198319806610,"connected_time":6218000000000,"state":"active","ping":72},{"user_id":168,"name":"Catto","steam_id":76561197999111589,"connected_time":723000000000,"state":"active","ping":38}]},{"server_id":123,"name":"Uncletopia | Sydney | 2 | All Maps","name_short":"syd-2","host":"syd-1.au.uncletopia.com","port":27025,"enabled":true,"region":"au","cc":"au","latitude":-33.865143,"longitude":151.2099,"reserved":0,"last_update":"0001-01-01T00:00:00Z","name_a2s":"Uncletopia | Sydney | 2 | All Maps","protocol":17,"map":"cp_junction_final","folder":"tf","game":"Team Fortress","app_id":440,"player_count":11,"max_players":24,"Bots":0,"server_type":"Dedicated","server_os":"Linux","password":true,"vac":true,"version":"7757534","steam_id":85568392924470002,"keywords":["cp","nocrits","nodmgspread","uncletopia"],"game_id":440,"stv_port":27026,"stv_name":"Uncletopia | Sydney | 2 | All Maps | STV","players":[{"user_id":234,"name":"Voncrumb","steam_id":76561198054076313,"connected_time":660000000000,"state":"active","ping":45},{"user_id":235,"name":"Phoog","steam_id":76561198062734990,"connected_time":616000000000,"state":"active","ping":60},{"user_id":239,"name":"MR Martian","steam_id":76561198157854561,"connected_time":289000000000,"state":"active","ping":90},{"user_id":238,"name":"ADUCK","steam_id":76561198249887912,"connected_time":313000000000,"state":"active","ping":64},{"user_id":240,"name":"lemur","steam_id":76561198278239170,"connected_time":146000000000,"state":"active","ping":84},{"user_id":241,"name":"APVC","steam_id":76561199090168813,"connected_time":127000000000,"state":"active","ping":55},{"user_id":242,"name":"Deal","steam_id":76561199141649504,"connected_time":107000000000,"state":"active","ping":65},{"user_id":243,"name":"Piyo.","steam_id":76561197985114373,"connected_time":103000000000,"state":"active","ping":63},{"user_id":244,"name":"Cursed Donut","steam_id":76561198874612440,"connected_time":36000000000,"state":"active","ping":59},{"user_id":245,"name":"SomthingFishy","steam_id":76561198202305407,"connected_time":28000000000,"state":"active","ping":81},{"user_id":246,"name":"Team Fartress Poo","steam_id":76561198139598106,"connected_time":16000000000,"state":"active","ping":54}]},{"server_id":395,"name":"Uncletopia | Sydney | 3 | All Maps","name_short":"syd-3","host":"syd-1.au.uncletopia.com","port":27035,"enabled":true,"region":"au","cc":"au","latitude":-33.865143,"longitude":151.2099,"reserved":0,"last_update":"0001-01-01T00:00:00Z","name_a2s":"Uncletopia | Sydney | 3 | All Maps","protocol":17,"map":"pl_swiftwater_final1","folder":"tf","game":"Team Fortress","app_id":440,"player_count":0,"max_players":24,"Bots":0,"server_type":"Dedicated","server_os":"Linux","password":true,"vac":true,"version":"7757534","steam_id":85568392925194467,"keywords":["nocrits","nodmgspread","payload","uncletopia"],"game_id":440,"stv_port":27036,"stv_name":"Uncletopia | Sydney | 3 | All Maps | STV","players":null},{"server_id":396,"name":"Uncletopia | Sydney | 4 | All Maps","name_short":"syd-4","host":"syd-1.au.uncletopia.com","port":27045,"enabled":true,"region":"au","cc":"au","latitude":-33.865143,"longitude":151.2099,"reserved":0,"last_update":"0001-01-01T00:00:00Z","name_a2s":"Uncletopia | Sydney | 4 | All Maps","protocol":17,"map":"pl_pier","folder":"tf","game":"Team Fortress","app_id":440,"player_count":0,"max_players":24,"Bots":0,"server_type":"Dedicated","server_os":"Linux","password":true,"vac":true,"version":"7757534","steam_id":85568392925397958,"keywords":["nocrits","nodmgspread","payload","uncletopia"],"game_id":440,"stv_port":27046,"stv_name":"Uncletopia | Sydney | 4 | All Maps | STV","players":null},{"server_id":58,"name":"Uncletopia | Sydney | 5 | Stopwatch Beta","name_short":"syd-5","host":"syd-1.au.uncletopia.com","port":27055,"enabled":true,"region":"au","cc":"au","latitude":-33.865143,"longitude":151.2099,"reserved":0,"last_update":"0001-01-01T00:00:00Z","name_a2s":"Uncletopia | Sydney | 5 | Stopwatch Beta","protocol":17,"map":"pl_barnblitz","folder":"tf","game":"Team Fortress","app_id":440,"player_count":0,"max_players":24,"Bots":0,"server_type":"Dedicated","server_os":"Linux","password":true,"vac":true,"version":"7757534","steam_id":85568392925397959,"keywords":["nocrits","nodmgspread","payload","uncletopia"],"game_id":440,"stv_port":27056,"stv_name":"Uncletopia | Sydney | 5 | Stopwatch Beta | STV","players":null},{"server_id":59,"name":"Uncletopia | Sydney | 6 | Community","name_short":"syd-6","host":"syd-1.au.uncletopia.com","port":27065,"enabled":true,"region":"au","cc":"au","latitude":-33.865143,"longitude":151.2099,"reserved":0,"last_update":"0001-01-01T00:00:00Z","name_a2s":"Uncletopia | Sydney | 6 | Community","protocol":17,"map":"workshop/koth_ashville_final.ugc2130459942","folder":"tf","game":"Team Fortress","app_id":440,"player_count":0,"max_players":24,"Bots":0,"server_type":"Dedicated","server_os":"Linux","password":true,"vac":true,"version":"7757534","steam_id":85568392925397960,"keywords":["cp","nocrits","nodmgspread","uncletopia"],"game_id":440,"stv_port":27066,"stv_name":"Uncletopia | Sydney | 6 | Community | STV","players":null},{"server_id":49,"name":"Uncletopia | Warsaw | 1 | All Maps","name_short":"waw-1","host":"waw-1.pl.uncletopia.com","port":27015,"enabled":true,"region":"eu","cc":"pl","latitude":52.2297,"longitude":21.017532,"reserved":0,"last_update":"0001-01-01T00:00:00Z","name_a2s":"","protocol":0,"map":"","folder":"","game":"","app_id":0,"player_count":0,"max_players":0,"Bots":0,"server_type":"","server_os":"","password":false,"vac":false,"version":"","steam_id":0,"keywords":null,"game_id":0,"stv_port":0,"stv_name":"","players":null},{"server_id":50,"name":"Uncletopia | Warsaw | 2 | All Maps","name_short":"waw-2","host":"waw-1.pl.uncletopia.com","port":27025,"enabled":true,"region":"eu","cc":"pl","latitude":52.2297,"longitude":21.017532,"reserved":0,"last_update":"0001-01-01T00:00:00Z","name_a2s":"Uncletopia | Warsaw | 2 | All Maps","protocol":17,"map":"cp_snakewater_final1","folder":"tf","game":"Team Fortress","app_id":440,"player_count":0,"max_players":24,"Bots":0,"server_type":"Dedicated","server_os":"Linux","password":true,"vac":true,"version":"7757534","steam_id":85568392925397851,"keywords":["cp","nocrits","nodmgspread","uncletopia"],"game_id":440,"stv_port":27026,"stv_name":"Uncletopia | Warsaw | 2 | All Maps | STV","players":null},{"server_id":51,"name":"Uncletopia | Warsaw | 3 | All Maps","name_short":"waw-3","host":"waw-1.pl.uncletopia.com","port":27035,"enabled":true,"region":"eu","cc":"pl","latitude":52.2297,"longitude":21.017532,"reserved":0,"last_update":"0001-01-01T00:00:00Z","name_a2s":"Uncletopia | Warsaw | 3 | All Maps","protocol":17,"map":"cp_sunshine","folder":"tf","game":"Team Fortress","app_id":440,"player_count":0,"max_players":24,"Bots":0,"server_type":"Dedicated","server_os":"Linux","password":true,"vac":true,"version":"7757534","steam_id":85568392925397852,"keywords":["cp","nocrits","nodmgspread","uncletopia"],"game_id":440,"stv_port":27036,"stv_name":"Uncletopia | Warsaw | 3 | All Maps | STV","players":null},{"server_id":52,"name":"Uncletopia | Warsaw | 4 | All Maps","name_short":"waw-4","host":"waw-1.pl.uncletopia.com","port":27045,"enabled":true,"region":"eu","cc":"pl","latitude":52.2297,"longitude":21.017532,"reserved":0,"last_update":"0001-01-01T00:00:00Z","name_a2s":"Uncletopia | Warsaw | 4 | All Maps","protocol":17,"map":"pl_borneo","folder":"tf","game":"Team Fortress","app_id":440,"player_count":0,"max_players":24,"Bots":0,"server_type":"Dedicated","server_os":"Linux","password":true,"vac":true,"version":"7757534","steam_id":85568392925397853,"keywords":["nocrits","nodmgspread","payload","uncletopia"],"game_id":440,"stv_port":27046,"stv_name":"Uncletopia | Warsaw | 4 | All Maps | STV","players":null},{"server_id":53,"name":"Uncletopia | Warsaw | 5 | Stopwatch Beta","name_short":"waw-5","host":"waw-1.pl.uncletopia.com","port":27055,"enabled":true,"region":"eu","cc":"pl","latitude":52.2297,"longitude":21.017532,"reserved":0,"last_update":"0001-01-01T00:00:00Z","name_a2s":"Uncletopia | Warsaw | 5 | Stopwatch Beta","protocol":17,"map":"pl_upward","folder":"tf","game":"Team Fortress","app_id":440,"player_count":0,"max_players":24,"Bots":0,"server_type":"Dedicated","server_os":"Linux","password":true,"vac":true,"version":"7757534","steam_id":85568392925397854,"keywords":["nocrits","nodmgspread","payload","uncletopia"],"game_id":440,"stv_port":27056,"stv_name":"Uncletopia | Warsaw | 5 | Stopwatch Beta | STV","players":null},{"server_id":54,"name":"Uncletopia | Warsaw | 6 | Community","name_short":"waw-6","host":"waw-1.pl.uncletopia.com","port":27065,"enabled":true,"region":"eu","cc":"pl","latitude":52.2297,"longitude":21.017532,"reserved":0,"last_update":"0001-01-01T00:00:00Z","name_a2s":"Uncletopia | Warsaw | 6 | Community","protocol":17,"map":"pl_barnblitz","folder":"tf","game":"Team Fortress","app_id":440,"player_count":0,"max_players":24,"Bots":0,"server_type":"Dedicated","server_os":"Linux","password":true,"vac":true,"version":"7757534","steam_id":85568392925397856,"keywords":["nocrits","nodmgspread","payload","uncletopia"],"game_id":440,"stv_port":27066,"stv_name":"Uncletopia | Warsaw | 6 | Community | STV","players":null}]}