{"status":true,"message":"","result":[{"server_id":9,"name":"Uncletopia | Atlanta | 1 | All Maps","name_short":"atl-1","host":"atl-1.us.uncletopia.com","port":27015,"enabled":true,"region":"us-east","cc":"us","latitude":33.753746,"longitude":-84.38633,"reserved":0,"last_update":"0001-01-01T00:00:00Z","name_a2s":"Uncletopia | Atlanta | 1 | All Maps","protocol":17,"map":"pl_barnblitz","folder":"tf","game":"Team Fortress","app_id":440,"player_count":22,"max_players":24,"Bots":0,"server_type":"Dedicated","server_os":"Linux","password":true,"vac":true,"version":"7757534","steam_id":85568392924469982,"keywords":["nocrits","nodmgspread","payload","uncletopia"],"game_id":440,"stv_port":27016,"stv_name":"Uncletopia | Atlanta | 1 | All Maps | STV","players":[{"user_id":800,"name":"twitch.tv/Blazingin","steam_id":76561198119873148,"connected_time":2773000000000,"state":"active","ping":69},{"user_id":748,"name":"⇌ StriKeR ⇋","steam_id":76561199389089862,"connected_time":6807000000000,"state":"active","ping":135},{"user_id":781,"name":"RED1 | Le4n!!!","steam_id":76561198045522596,"connected_time":3865000000000,"state":"active","ping":72},{"user_id":701,"name":"ATL1 | Kramer","steam_id":76561198083595936,"connected_time":11220000000000,"state":"active","ping":72},{"user_id":827,"name":"luminary","steam_id":76561198126358045,"connected_time":131000000000,"state":"active","ping":70},{"user_id":801,"name":"Im High","steam_id":76561198049954886,"connected_time":1951000000000,"state":"active","ping":61},{"user_id":820,"name":"A_albaTross_M","steam_id":76561198119297568,"connected_time":715000000000,"state":"active","ping":98},{"user_id":792,"name":"火星 | Marsy","steam_id":76561198014979892,"connected_time":3130000000000,"state":"active","ping":63},{"user_id":789,"name":"RED1 | ma0re","steam_id":76561199231971506,"connected_time":3156000000000,"state":"active","ping":69},{"user_id":811,"name":"Chemist","steam_id":76561198175623743,"connected_time":1243000000000,"state":"active","ping":70},{"user_id":786,"name":"façade","steam_id":76561199157009256,"connected_time":3425000000000,"state":"active","ping":102},{"user_id":818,"name":"Man Man","steam_id":76561199068338634,"connected_time":1076000000000,"state":"active","ping":92},{"user_id":814,"name":"aversa","steam_id":76561198840460101,"connected_time":1149000000000,"state":"active","ping":77},{"user_id":824,"name":"bl8demast3r","steam_id":76561198006308462,"connected_time":262000000000,"state":"active","ping":73},{"user_id":819,"name":"The Horselords and Animal Gods","steam_id":76561197975094050,"connected_time":801000000000,"state":"active","ping":107},{"user_id":769,"name":"Mickey","steam_id":76561197976868960,"connected_time":5304000000000,"state":"active","ping":160},{"user_id":760,"name":"Dwaggy","steam_id":76561198027369555,"connected_time":5691000000000,"state":"active","ping":85},{"user_id":798,"name":"MOTORTREND TRUCK OF THE YEAR","steam_id":76561198077654131,"connected_time":2857000000000,"state":"active","ping":77},{"user_id":817,"name":"Soju","steam_id":76561198044130442,"connected_time":1114000000000,"state":"active","ping":68},{"user_id":826,"name":"a cartoon of eggs (7 bucks)","steam_id":76561198319442494,"connected_time":217000000000,"state":"active","ping":107},{"user_id":822,"name":"BLU1 | Pango","steam_id":76561198069811545,"connected_time":449000000000,"state":"active","ping":45},{"user_id":828,"name":"AtomicLigma69","steam_id":76561198962918949,"connected_time":62000000000,"state":"active","ping":81}]},{"server_id":400,"name":"Uncletopia | Atlanta | 3 | Community","name_short":"atl-3","host":"atl-1.us.uncletopia.com","port":27035,"enabled":true,"region":"us-east","cc":"us","latitude":33.753746,"longitude":-84.38633,"reserved":0,"last_update":"0001-01-01T00:00:00Z","name_a2s":"Uncletopia | Atlanta | 3 | Community","protocol":17,"map":"workshop/cp_reckoner_rc6.ugc674719999","folder":"tf","game":"Team Fortress","app_id":440,"player_count":0,"max_players":24,"Bots":0,"server_type":"Dedicated","server_os":"Linux","password":true,"vac":true,"version":"7757534","steam_id":85568392924515187,"keywords":["cp","nocrits","nodmgspread","uncletopia"],"game_id":440,"stv_port":27036,"stv_name":"Uncletopia | Atlanta | 3 | Community | STV","players":null},{"server_id":401,"name":"Uncletopia | Atlanta | 4 | No Payload","name_short":"atl-4","host":"atl-1.us.uncletopia.com","port":27045,"enabled":true,"region":"us-east","cc":"us","latitude":33.753746,"longitude":-84.38633,"reserved":0,"last_update":"0001-01-01T00:00:00Z","name_a2s":"","protocol":0,"map":"","folder":"","game":"","app_id":0,"player_count":0,"max_players":0,"Bots":0,"server_type":"","server_os":"","password":false,"vac":false,"version":"","steam_id":0,"keywords":null,"game_id":0,"stv_port":0,"stv_name":"","players":null},{"server_id":2,"name":"Uncletopia | Chicago | 1 | All Maps","name_short":"chi-1","host":"chi-1.us.uncletopia.com","port":27015,"enabled":true,"region":"us-central","cc":"us","latitude":41.881832,"longitude":-87.62318,"reserved":0,"last_update":"0001-01-01T00:00:00Z","name_a2s":"Uncletopia | Chicago | 1 | All Maps","protocol":17,"map":"pl_upward","folder":"tf","game":"Team Fortress","app_id":440,"player_count":24,"max_players":24,"Bots":0,"server_type":"Dedicated","server_os":"Linux","password":true,"vac":true,"version":"7757534","steam_id":85568392924469984,"keywords":["nocrits","nodmgspread","payload","uncletopia"],"game_id":440,"stv_port":27016,"stv_name":"Uncletopia | Chicago | 1 | All Maps | STV","players":[{"user_id":457,"name":"the deadliest pyroshark","steam_id":76561198374227766,"connected_time":3618000000000,"state":"active","ping":70},{"user_id":467,"name":"Alex","steam_id":76561198220176521,"connected_time":2840000000000,"state":"active","ping":49},{"user_id":466,"name":"OneFestiveCorvid","steam_id":76561199012953221,"connected_time":2896000000000,"state":"active","ping":82},{"user_id":478,"name":"Limasio","steam_id":76561198198176191,"connected_time":1986000000000,"state":"active","ping":86},{"user_id":431,"name":"n8thegr83008","steam_id":76561198214814260,"connected_time":4796000000000,"state":"active","ping":74},{"user_id":401,"name":"The strongest ⑨ ball","steam_id":76561198126760743,"connected_time":7151000000000,"state":"active","ping":74},{"user_id":504,"name":"gangster tom","steam_id":76561198031675881,"connected_time":179000000000,"state":"active","ping":50},{"user_id":493,"name":"Underscore","steam_id":76561198374209415,"connected_time":707000000000,"state":"active","ping":60},{"user_id":472,"name":"Sol Goodman","steam_id":76561198112388117,"connected_time":2450000000000,"state":"active","ping":76},{"user_id":505,"name":"Colonel Chikara","steam_id":76561198010021087,"connected_time":175000000000,"state":"active","ping":90},{"user_id":481,"name":"Kipernicus","steam_id":76561197998180212,"connected_time":1897000000000,"state":"active","ping":58},{"user_id":496,"name":"hamster.assassination","steam_id":76561199419949968,"connected_time":650000000000,"state":"active","ping":175},{"user_id":486,"name":"Architect","steam_id":76561198015242016,"connected_time":1234000000000,"state":"active","ping":38},{"user_id":435,"name":"BookBurner23","steam_id":76561198034771185,"connected_time":4768000000000,"state":"active","ping":72},{"user_id":483,"name":"need fat bf","steam_id":76561198067104539,"connected_time":1363000000000,"state":"active","ping":58},{"user_id":501,"name":"Mr. Soupman","steam_id":76561198021649598,"connected_time":577000000000,"state":"active","ping":61},{"user_id":441,"name":"evilstuntman","steam_id":76561198056911537,"connected_time":4572000000000,"state":"active","ping":47},{"user_id":394,"name":"Marisuh","steam_id":76561198843890616,"connected_time":7767000000000,"state":"active","ping":91},{"user_id":475,"name":"Mister Frank","steam_id":76561198161473385,"connected_time":2141000000000,"state":"active","ping":64},{"user_id":495,"name":"mx","steam_id":76561198277058335,"connected_time":679000000000,"state":"active","ping":86},{"user_id":503,"name":"Ucuntu","steam_id":76561198149666258,"connected_time":567000000000,"state":"active","ping":59},{"user_id":488,"name":"MR.meeseeks","steam_id":76561198294943420,"connected_time":1064000000000,"state":"active","ping":67},{"user_id":471,"name":"fasterbum","steam_id":76561198142577444,"connected_time":2570000000000,"state":"active","ping":56},{"user_id":498,"name":"The Pill","steam_id":76561198164782423,"connected_time":633000000000,"state":"active","ping":66}]},{"server_id":106,"name":"Uncletopia | Chicago | 2 | All Maps","name_short":"chi-2","host":"chi-1.us.uncletopia.com","port":27025,"enabled":true,"region":"us-central","cc":"us","latitude":41.881832,"longitude":-87.62318,"reserved":0,"last_update":"0001-01-01T00:00:00Z","name_a2s":"Uncletopia | Chicago | 2 | All Maps","protocol":17,"map":"pl_badwater","folder":"tf","game":"Team Fortress","app_id":440,"player_count":20,"max_players":24,"Bots":0,"server_type":"Dedicated","server_os":"Linux","password":true,"vac":true,"version":"7757534","steam_id":85568392924469985,"keywords":["nocrits","nodmgspread","payload","uncletopia"],"game_id":440,"stv_port":27026,"stv_name":"Uncletopia | Chicago | 2 | All Maps | STV","players":[{"user_id":419,"name":"urine trouble","steam_id":76561199013266640,"connected_time":3000000000,"state":"spawning","ping":36},{"user_id":372,"name":"tree","steam_id":76561198116885731,"connected_time":5927000000000,"state":"active","ping":49},{"user_id":420,"name":"Deathpill","steam_id":76561197994404793,"connected_time":2000000000,"state":"spawning","ping":50},{"user_id":334,"name":"Balerion the Black Dread","steam_id":76561198003728369,"connected_time":9894000000000,"state":"active","ping":83},{"user_id":374,"name":"Coenot","steam_id":76561198052566996,"connected_time":5914000000000,"state":"active","ping":58},{"user_id":388,"name":"stephenpence1","steam_id":76561198333483433,"connected_time":4177000000000,"state":"active","ping":78},{"user_id":412,"name":"Axe Jay","steam_id":76561198292763962,"connected_time":1231000000000,"state":"active","ping":53},{"user_id":399,"name":"Wanderer","steam_id":76561197983989461,"connected_time":2323000000000,"state":"active","ping":87},{"user_id":396,"name":"for the king","steam_id":76561197973488858,"connected_time":2907000000000,"state":"active","ping":58},{"user_id":415,"name":"titan","steam_id":76561198197388678,"connected_time":1049000000000,"state":"active","ping":67},{"user_id":330,"name":"cheetaz","steam_id":76561198224614084,"connected_time":10205000000000,"state":"active","ping":60},{"user_id":413,"name":"Nani?","steam_id":76561198130982692,"connected_time":1189000000000,"state":"active","ping":55},{"user_id":416,"name":"Colin102004","steam_id":76561198202384334,"connected_time":610000000000,"state":"active","ping":54},{"user_id":383,"name":"thehookerslammer","steam_id":76561198050136796,"connected_time":5160000000000,"state":"active","ping":75},{"user_id":316,"name":"Anthid","steam_id":76561198074493797,"connected_time":10763000000000,"state":"active","ping":60},{"user_id":409,"name":"king of bogers","steam_id":76561198045731295,"connected_time":1881000000000,"state":"active","ping":68},{"user_id":418,"name":"Ragnoratsu","steam_id":76561198189688723,"connected_time":45000000000,"state":"active","ping":43},{"user_id":279,"name":"A Puppy","steam_id":76561198828184456,"connected_time":12755000000000,"state":"active","ping":56},{"user_id":417,"name":"shadowjango","steam_id":76561198001475833,"connected_time":111000000000,"state":"active","ping":63},{"user_id":311,"name":"Sick Lia :c","steam_id":76561198151569597,"connected_time":11414000000000,"state":"active","ping":148}]},{"server_id":402,"name":"Uncletopia | Chicago | 3 | All Maps","name_short":"chi-3","host":"chi-1.us.uncletopia.com","port":27035,"enabled":true,"region":"us-central","cc":"us","latitude":41.881832,"longitude":-87.62318,"reserved":0,"last_update":"0001-01-01T00:00:00Z","name_a2s":"Uncletopia | Chicago | 3 | All Maps","protocol":17,"map":"pl_barnblitz","folder":"tf","game":"Team Fortress","app_id":440,"player_count":19,"max_players":24,"Bots":0,"server_type":"Dedicated","server_os":"Linux","password":true,"vac":true,"version":"7757534","steam_id":85568392924515191,"keywords":["nocrits","nodmgspread","payload","uncletopia"],"game_id":440,"stv_port":27036,"stv_name":"Uncletopia | Chicago | 3 | All Maps | STV","players":[{"user_id":453,"name":"JanPinyon610","steam_id":76561199238454799,"connected_time":1172000000000,"state":"active","ping":102},{"user_id":402,"name":"Lore","steam_id":76561198098407538,"connected_time":5375000000000,"state":"active","ping":58},{"user_id":437,"name":"DanFunTime","steam_id":76561199070914651,"connected_time":1506000000000,"state":"active","ping":66},{"user_id":473,"name":"Venk","steam_id":76561198251131422,"connected_time":42000000000,"state":"active","ping":63},{"user_id":472,"name":"loco503","steam_id":76561198827495121,"connected_time":104000000000,"state":"active","ping":104},{"user_id":474,"name":"Deep Peepus","steam_id":76561198205395757,"connected_time":14000000000,"state":"active","ping":132},{"user_id":460,"name":"Toottoot","steam_id":76561197992404836,"connected_time":997000000000,"state":"active","ping":45},{"user_id":468,"name":"Monkey","steam_id":76561198031015186,"connected_time":455000000000,"state":"active","ping":70},{"user_id":467,"name":"Garfield Fucker","steam_id":76561198202775853,"connected_time":599000000000,"state":"active","ping":49},{"user_id":471,"name":"heimdall","steam_id":76561198069380992,"connected_time":111000000000,"state":"active","ping":90},{"user_id":475,"name":"Female Gamer","steam_id":76561199366482682,"connected_time":10000000000,"state":"active","ping":101},{"user_id":476,"name":"Omni-S","steam_id":76561198082396372,"connected_time":0,"state":"spawning","ping":0},{"user_id":465,"name":":D","steam_id":76561198282764599,"connected_time":686000000000,"state":"active","ping":45},{"user_id":461,"name":"[DEEP] Roz257","steam_id":76561198842844532,"connected_time":901000000000,"state":"active","ping":61},{"user_id":455,"name":"Juubers","steam_id":76561198088229792,"connected_time":1139000000000,"state":"active","ping":45},{"user_id":456,"name":"Deano","steam_id":76561198846529984,"connected_time":1131000000000,"state":"active","ping":84},{"user_id":347,"name":"SexySpectacles","steam_id":76561198211449103,"connected_time":9214000000000,"state":"active","ping":59},{"user_id":457,"name":"Spaghettiyos","steam_id":76561198328517683,"connected_time":1129000000000,"state":"active","ping":112},{"user_id":466,"name":":)","steam_id":76561198009818412,"connected_time":662000000000,"state":"active","ping":68}]},{"server_id":403,"name":"Uncletopia | Chicago | 4 | All Maps","name_short":"chi-4","host":"chi-1.us.uncletopia.com","port":27045,"enabled":true,"region":"us-central","cc":"us","latitude":41.881832,"longitude":-87.62318,"reserved":0,"last_update":"0001-01-01T00:00:00Z","name_a2s":"Uncletopia | Chicago | 4 | All Maps","protocol":17,"map":"pl_swiftwater_final1","folder":"tf","game":"Team Fortress","app_id":440,"player_count":5,"max_players":24,"Bots":0,"server_type":"Dedicated","server_os":"Linux","password":true,"vac":true,"version":"7757534","steam_id":85568392924515193,"keywords":["nocrits","nodmgspread","payload","uncletopia"],"game_id":440,"stv_port":27046,"stv_name":"Uncletopia | Chicago | 4 | All Maps | STV","players":[{"user_id":599,"name":"Jelqing Table","steam_id":76561198051373750,"connected_time":1354000000000,"state":"active","ping":69},{"user_id":606,"name":"Agent 7 (Troll Master)","steam_id":76561198388531544,"connected_time":249000000000,"state":"spawning","ping":103},{"user_id":584,"name":"Bullwinkle J. Moose","steam_id":76561198075977196,"connected_time":2580000000000,"state":"active","ping":74},{"user_id":608,"name":"peanutbitter","steam_id":76561198981346275,"connected_time":96000000000,"state":"active","ping":95},{"user_id":581,"name":"Great Chinaman","steam_id":76561198409907417,"connected_time":2717000000000,"state":"active","ping":105}]},{"server_id":36,"name":"Uncletopia | Chicago | 5 | All Maps","name_short":"chi-5","host":"chi-2.us.uncletopia.com","port":27015,"enabled":true,"region":"us-central","cc":"us","latitude":41.881832,"longitude":-87.62318,"reserved":0,"last_update":"0001-01-01T00:00:00Z","name_a2s":"Uncletopia | Chicago | 5 | All Maps","protocol":17,"map":"koth_lakeside_final","folder":"tf","game":"Team Fortress","app_id":440,"player_count":11,"max_players":24,"Bots":0,"server_type":"Dedicated","server_os":"Linux","password":true,"vac":true,"version":"7757534","steam_id":85568392924866362,"keywords":["cp","nocrits","nodmgspread","uncletopia"],"game_id":440,"stv_port":27016,"stv_name":"Uncletopia | Chicago | 5 | All Maps | STV","players":[{"user_id":284,"name":"Ch4rl33","steam_id":76561198037008621,"connected_time":632000000000,"state":"active","ping":78},{"user_id":285,"name":"Baka!⑨⑨⑨⑨","steam_id":76561198152948254,"connected_time":625000000000,"state":"active","ping":66},{"user_id":295,"name":"Dispenser (Twan)","steam_id":76561197991064908,"connected_time":162000000000,"state":"active","ping":59},{"user_id":220,"name":"Supr","steam_id":76561198093790672,"connected_time":6243000000000,"state":"active","ping":56},{"user_id":288,"name":"Liguy (real)","steam_id":76561199013763755,"connected_time":487000000000,"state":"active","ping":76},{"user_id":236,"name":"CrimsonPants","steam_id":76561198011169950,"connected_time":4497000000000,"state":"active","ping":89},{"user_id":265,"name":"chicanery","steam_id":76561198081654907,"connected_time":2321000000000,"state":"active","ping":69},{"user_id":290,"name":"majorbobfunction","steam_id":76561198042464632,"connected_time":446000000000,"state":"active","ping":57},{"user_id":292,"name":"SomeFuckingGuy","steam_id":76561199239165015,"connected_time":293000000000,"state":"active","ping":61},{"user_id":291,"name":"watchfull","steam_id":76561198433266742,"connected_time":416000000000,"state":"active","ping":104},{"user_id":235,"name":"Karazu","steam_id":76561198026674301,"connected_time":4564000000000,"state":"active","ping":67}]},{"server_id":37,"name":"Uncletopia | Chicago | 6 | All Maps","name_short":"chi-6","host":"chi-2.us.uncletopia.com","port":27025,"enabled":true,"region":"us-central","cc":"us","latitude":41.881832,"longitude":-87.62318,"reserved":0,"last_update":"0001-01-01T00:00:00Z","name_a2s":"Uncletopia | Chicago | 6 | All Maps","protocol":17,"map":"pl_badwater","folder":"tf","game":"Team Fortress","app_id":440,"player_count":24,"max_players":24,"Bots":0,"server_type":"Dedicated","server_os":"Linux","password":true,"vac":true,"version":"7757534","steam_id":85568392924866363,"keywords":["nocrits","nodmgspread","payload","uncletopia"],"game_id":440,"stv_port":27026,"stv_name":"Uncletopia | Chicago | 6 | All Maps | STV","players":[{"user_id":273,"name":"Gunkpump","steam_id":76561197975794806,"connected_time":455000000000,"state":"active","ping":91},{"user_id":268,"name":"superbad","steam_id":76561198065913973,"connected_time":1242000000000,"state":"active","ping":104},{"user_id":240,"name":"mu","steam_id":76561197997530228,"connected_time":2379000000000,"state":"active","ping":110},{"user_id":263,"name":"Average Midwesterner","steam_id":76561198041101188,"connected_time":1849000000000,"state":"active","ping":44},{"user_id":274,"name":"AADDAAMM","steam_id":76561198068584852,"connected_time":445000000000,"state":"active","ping":74},{"user_id":275,"name":"gwy","steam_id":76561198277458653,"connected_time":436000000000,"state":"active","ping":93},{"user_id":276,"name":"Luminaro","steam_id":76561198237301228,"connected_time":375000000000,"state":"active","ping":81},{"user_id":277,"name":"Grilled Cheese Maker Splooge","steam_id":76561198056953903,"connected_time":262000000000,"state":"active","ping":97},{"user_id":278,"name":"AsexyCommie","steam_id":76561198096330354,"connected_time":248000000000,"state":"active","ping":93},{"user_id":279,"name":"BigHam","steam_id":76561198157249056,"connected_time":242000000000,"state":"active","ping":49},{"user_id":280,"name":"Flashtasm","steam_id":76561198026635660,"connected_time":224000000000,"state":"active","ping":63},{"user_id":271,"name":"Slippery","steam_id":76561199469441947,"connected_time":856000000000,"state":"active","ping":53},{"user_id":248,"name":"☭","steam_id":76561198138444785,"connected_time":2229000000000,"state":"active","ping":87},{"user_id":251,"name":"Skitles434","steam_id":76561198151575542,"connected_time":2201000000000,"state":"active","ping":115},{"user_id":250,"name":"Bayou Bill","steam_id":76561198039522427,"connected_time":2209000000000,"state":"active","ping":115},{"user_id":261,"name":"maxresdefault","steam_id":76561198185980055,"connected_time":1970000000000,"state":"active","ping":63},{"user_id":281,"name":"Sebass","steam_id":76561198073406077,"connected_time":220000000000,"state":"active","ping":101},{"user_id":266,"name":"ItsTanleyCrunch","steam_id":76561198037915942,"connected_time":1302000000000,"state":"active","ping":80},{"user_id":264,"name":"|WS| Don't_Taze_Me_Bro","steam_id":76561198043289495,"connected_time":1780000000000,"state":"active","ping":71},{"user_id":262,"name":"CroMaLaka","steam_id":76561198380926090,"connected_time":1957000000000,"state":"active","ping":54},{"user_id":235,"name":"Hail Stone EQ","steam_id":76561198167566733,"connected_time":3259000000000,"state":"active","ping":87},{"user_id":257,"name":"powergamer","steam_id":76561198041920607,"connected_time":2152000000000,"state":"active","ping":73},{"user_id":265,"name":"joelthetroll","steam_id":76561198026605788,"connected_time":1455000000000,"state":"active","ping":77},{"user_id":283,"name":"Ahptika","steam_id":76561198436698762,"connected_time":208000000000,"state":"active","ping":104}]},{"server_id":38,"name":"Uncletopia | Chicago | 7 | Stopwatch Beta","name_short":"chi-7","host":"chi-2.us.uncletopia.com","port":27035,"enabled":true,"region":"us-central","cc":"us","latitude":41.881832,"longitude":-87.62318,"reserved":0,"last_update":"0001-01-01T00:00:00Z","name_a2s":"Uncletopia | Chicago | 7 | Stopwatch Beta","protocol":17,"map":"pl_swiftwater_final1","folder":"tf","game":"Team Fortress","app_id":440,"player_count":0,"max_players":24,"Bots":0,"server_type":"Dedicated","server_os":"Linux","password":true,"vac":true,"version":"7757534","steam_id":85568392924866364,"keywords":["nocrits","nodmgspread","payload","uncletopia"],"game_id":440,"stv_port":27036,"stv_name":"Uncletopia | Chicago | 7 | Stopwatch Beta | STV","players":null},{"server_id":39,"name":"Uncletopia | Chicago | 8 | Community","name_short":"chi-8","host":"chi-2.us.uncletopia.com","port":27045,"enabled":true,"region":"us-central","cc":"us","latitude":41.881832,"longitude":-87.62318,"reserved":0,"last_update":"0001-01-01T00:00:00Z","name_a2s":"Uncletopia | Chicago | 8 | Community","protocol":17,"map":"workshop/koth_trenchfoot_b1a.ugc731436616","folder":"tf","game":"Team Fortress","app_id":440,"player_count":0,"max_players":24,"Bots":0,"server_type":"Dedicated","server_os":"Linux","password":true,"vac":true,"version":"7757534","steam_id":85568392924866365,"keywords":["cp","nocrits","nodmgspread","uncletopia"],"game_id":440,"stv_port":27046,"stv_name":"Uncletopia | Chicago | 8 | Community | STV","players":null},{"server_id":8,"name":"Uncletopia | Dallas | 1 | All Maps","name_short":"dal-1","host":"dal-1.us.uncletopia.com","port":27015,"enabled":true,"region":"us-central","cc":"us","latitude":32.779167,"longitude":-96.80889,"reserved":0,"last_update":"0001-01-01T00:00:00Z","name_a2s":"Uncletopia | Dallas | 1 | All Maps","protocol":17,"map":"pl_badwater","folder":"tf","game":"Team Fortress","app_id":440,"player_count":24,"max_players":24,"Bots":0,"server_type":"Dedicated","server_os":"Linux","password":true,"vac":true,"version":"7757534","steam_id":85568392924469986,"keywords":["nocrits","nodmgspread","payload","uncletopia"],"game_id":440,"stv_port":27016,"stv_name":"Uncletopia | Dallas | 1 | All Maps | STV","players":[{"user_id":221,"name":"A Gmod Virgin","steam_id":76561198420637458,"connected_time":1941000000000,"state":"active","ping":81},{"user_id":219,"name":"iluvtoust","steam_id":76561198869269207,"connected_time":1999000000000,"state":"active","ping":45},{"user_id":239,"name":"tyjle","steam_id":76561198118420122,"connected_time":177000000000,"state":"active","ping":67},{"user_id":241,"name":"gouply","steam_id":76561199015788142,"connected_time":129000000000,"state":"active","ping":85},{"user_id":223,"name":"Uncomfortable Socks","steam_id":76561198077368513,"connected_time":1923000000000,"state":"active","ping":57},{"user_id":168,"name":"disrupted_thoughts","steam_id":76561198067367009,"connected_time":4912000000000,"state":"active","ping":86},{"user_id":235,"name":"kc4712","steam_id":76561199191842106,"connected_time":745000000000,"state":"active","ping":100},{"user_id":213,"name":"Rasputia","steam_id":76561198132051047,"connected_time":2891000000000,"state":"active","ping":98},{"user_id":240,"name":"T H E G A Z E","steam_id":76561198342386808,"connected_time":173000000000,"state":"active","ping":75},{"user_id":208,"name":"3-13","steam_id":76561198063929021,"connected_time":3151000000000,"state":"active","ping":55},{"user_id":177,"name":"Redguardowen","steam_id":76561198176957862,"connected_time":4446000000000,"state":"active","ping":80},{"user_id":180,"name":"The Macho Man","steam_id":76561198243714766,"connected_time":4392000000000,"state":"active","ping":71},{"user_id":236,"name":"Tezcatlipoca","steam_id":76561198010708247,"connected_time":737000000000,"state":"active","ping":91},{"user_id":210,"name":"gosh","steam_id":76561198025681784,"connected_time":3046000000000,"state":"active","ping":63},{"user_id":183,"name":"RoyalKnight557","steam_id":76561198213301523,"connected_time":4349000000000,"state":"active","ping":84},{"user_id":238,"name":"The Texan Inconvenience","steam_id":76561198958125792,"connected_time":255000000000,"state":"active","ping":120},{"user_id":242,"name":"poorly drawn gamecube","steam_id":76561199088496817,"connected_time":115000000000,"state":"active","ping":66},{"user_id":212,"name":"hawkcreeper","steam_id":76561198353479952,"connected_time":2937000000000,"state":"active","ping":78},{"user_id":233,"name":"Yonkerbonk","steam_id":76561198097628353,"connected_time":897000000000,"state":"active","ping":45},{"user_id":204,"name":"mmorpgkitty","steam_id":76561198304456893,"connected_time":3385000000000,"state":"active","ping":58},{"user_id":243,"name":"RysN Yeen ♥","steam_id":76561198105359319,"connected_time":62000000000,"state":"active","ping":75},{"user_id":202,"name":"rkp!","steam_id":76561199053070819,"connected_time":4041000000000,"state":"active","ping":68},{"user_id":211,"name":"The Robot Menace","steam_id":76561198043390413,"connected_time":2969000000000,"state":"active","ping":57},{"user_id":215,"name":"Mitty","steam_id":76561198014177684,"connected_time":2820000000000,"state":"active","ping":86}]},{"server_id":108,"name":"Uncletopia | Dallas | 2 | All Maps","name_short":"dal-2","host":"dal-1.us.uncletopia.com","port":27025,"enabled":true,"region":"us-central","cc":"us","latitude":32.779167,"longitude":-96.80889,"reserved":0,"last_update":"0001-01-01T00:00:00Z","name_a2s":"Uncletopia | Dallas | 2 | All Maps","protocol":17,"map":"pl_hoodoo_final","folder":"tf","game":"Team Fortress","app_id":440,"player_count":25,"max_players":24,"Bots":0,"server_type":"Dedicated","server_os":"Linux","password":true,"vac":true,"version":"7757534","steam_id":85568392924469988,"keywords":["nocrits","nodmgspread","payload","uncletopia"],"game_id":440,"stv_port":27026,"stv_name":"Uncletopia | Dallas | 2 | All Maps | STV","players":[{"user_id":301,"name":"GLG.Liz","steam_id":76561198021957956,"connected_time":647000000000,"state":"active","ping":45},{"user_id":237,"name":"Bart Harley Jarvis","steam_id":76561199215811448,"connected_time":4755000000000,"state":"active","ping":108},{"user_id":280,"name":"tom delonge gaming","steam_id":76561198044581674,"connected_time":1515000000000,"state":"active","ping":51},{"user_id":275,"name":"Keg","steam_id":76561198242688458,"connected_time":1658000000000,"state":"active","ping":60},{"user_id":302,"name":"Jac","steam_id":76561199118187089,"connected_time":550000000000,"state":"active","ping":101},{"user_id":305,"name":"jturner1nm","steam_id":76561198344493652,"connected_time":175000000000,"state":"active","ping":89},{"user_id":273,"name":"Nodspine","steam_id":76561198253579994,"connected_time":2929000000000,"state":"active","ping":134},{"user_id":277,"name":"Krampus Kraut","steam_id":76561198018912093,"connected_time":1599000000000,"state":"active","ping":130},{"user_id":303,"name":"Black Mesa Scientist","steam_id":76561198064466577,"connected_time":489000000000,"state":"active","ping":73},{"user_id":298,"name":"An Erect Penis :)","steam_id":76561198086477485,"connected_time":811000000000,"state":"active","ping":68},{"user_id":254,"name":"rude boi","steam_id":76561198006783260,"connected_time":4208000000000,"state":"active","ping":65},{"user_id":279,"name":"butch cowboy monkey","steam_id":76561198097175164,"connected_time":1529000000000,"state":"active","ping":103},{"user_id":266,"name":"TF2 need a sex update","steam_id":76561199103964705,"connected_time":3289000000000,"state":"active","ping":123},{"user_id":282,"name":"mark hoppus gaming","steam_id":76561198374453163,"connected_time":1505000000000,"state":"active","ping":65},{"user_id":304,"name":"Luffa Rigno","steam_id":76561197998700507,"connected_time":467000000000,"state":"active","ping":114},{"user_id":274,"name":"FG7","steam_id":76561198381197197,"connected_time":1989000000000,"state":"active","ping":106},{"user_id":299,"name":"Red","steam_id":76561198031865869,"connected_time":802000000000,"state":"active","ping":60},{"user_id":292,"name":"GojoPreto","steam_id":76561198979348045,"connected_time":1428000000000,"state":"active","ping":89},{"user_id":272,"name":"Marty McFly","steam_id":76561198197327722,"connected_time":3073000000000,"state":"active","ping":67},{"user_id":300,"name":"Bliztank | RGL.gg","steam_id":76561198019252798,"connected_time":799000000000,"state":"active","ping":73},{"user_id":260,"name":"Malmart_Employee","steam_id":76561198320388704,"connected_time":3573000000000,"state":"active","ping":123},{"user_id":306,"name":"Room","steam_id":76561199174579733,"connected_time":148000000000,"state":"connecting","ping":0},{"user_id":308,"name":"snoiper","steam_id":76561198089355751,"connected_time":37000000000,"state":"spawning","ping":48},{"user_id":294,"name":"AlvWhispery","steam_id":76561198850017423,"connected_time":1401000000000,"state":"active","ping":77},{"user_id":307,"name":"Ġ1 ♦ Synth","steam_id":76561198058660228,"connected_time":117000000000,"state":"active","ping":50}]},{"server_id":5,"name":"Uncletopia | Frankfurt | 1 | All Maps","name_short":"frk-1","host":"frk-1.de.uncletopia.com","port":27015,"enabled":true,"region":"eu","cc":"de","latitude":50.110924,"longitude":8.682127,"reserved":0,"last_update":"0001-01-01T00:00:00Z","name_a2s":"Uncletopia | Frankfurt | 1 | All Maps","protocol":17,"map":"cp_sunshine","folder":"tf","game":"Team Fortress","app_id":440,"player_count":0,"max_players":24,"Bots":0,"server_type":"Dedicated","server_os":"Linux","password":true,"vac":true,"version":"7757534","steam_id":85568392924469989,"keywords":["cp","nocrits","nodmgspread","uncletopia"],"game_id":440,"stv_port":27016,"stv_name":"Uncletopia | Frankfurt | 1 | All Maps | STV","players":null},{"server_id":110,"name":"Uncletopia | Frankfurt | 2 | All Maps","name_short":"frk-2","host":"frk-1.de.uncletopia.com","port":27025,"enabled":true,"region":"eu","cc":"de","latitude":50.110924,"longitude":8.682127,"reserved":0,"last_update":"0001-01-01T00:00:00Z","name_a2s":"Uncletopia | Frankfurt | 2 | All Maps","protocol":17,"map":"cp_altitude","folder":"tf","game":"Team Fortress","app_id":440,"player_count":0,"max_players":24,"Bots":0,"server_type":"Dedicated","server_os":"Linux","password":true,"vac":true,"version":"7757534","steam_id":85568392924469990,"keywords":["cp","nocrits","nodmgspread","uncletopia"],"game_id":440,"stv_port":27026,"stv_name":"Uncletopia | Frankfurt | 2 | All Maps | STV","players":null},{"server_id":308,"name":"Uncletopia | Frankfurt | 3 | All Maps","name_short":"frk-3","host":"frk-1.de.uncletopia.com","port":27035,"enabled":true,"region":"eu","cc":"de","latitude":50.110924,"longitude":8.682127,"reserved":0,"last_update":"0001-01-01T00:00:00Z","name_a2s":"Uncletopia | Frankfurt | 3 | All Maps","protocol":17,"map":"pl_frontier_final","folder":"tf","game":"Team Fortress","app_id":440,"player_count":0,"max_players":24,"Bots":0,"server_type":"Dedicated","server_os":"Linux","password":true,"vac":true,"version":"7757534","steam_id":85568392924504274,"keywords":["nocrits","nodmgspread","payload","uncletopia"],"game_id":440,"stv_port":27036,"stv_name":"Uncletopia | Frankfurt | 3 | All Maps | STV","players":null},{"server_id":309,"name":"Uncletopia | Frankfurt | 4 | All Maps","name_short":"frk-4","host":"frk-1.de.uncletopia.com","port":27045,"enabled":true,"region":"eu","cc":"de","latitude":50.110924,"longitude":8.682127,"reserved":0,"last_update":"0001-01-01T00:00:00Z","name_a2s":"Uncletopia | Frankfurt | 4 | All Maps","protocol":17,"map":"pl_pier","folder":"tf","game":"Team Fortress","app_id":440,"player_count":0,"max_players":24,"Bots":0,"server_type":"Dedicated","server_os":"Linux","password":true,"vac":true,"version":"7757534","steam_id":85568392924504275,"keywords":["nocrits","nodmgspread","payload","uncletopia"],"game_id":440,"stv_port":27046,"stv_name":"Uncletopia | Frankfurt | 4 | All Maps | STV","players":null},{"server_id":310,"name":"Uncletopia | Frankfurt | 5 | All Maps","name_short":"frk-5","host":"frk-1.de.uncletopia.com","port":27055,"enabled":true,"region":"eu","cc":"de","latitude":50.110924,"longitude":8.682127,"reserved":0,"last_update":"0001-01-01T00:00:00Z","name_a2s":"Uncletopia | Frankfurt | 5 | All Maps","protocol":17,"map":"cp_mountainlab","folder":"tf","game":"Team Fortress","app_id":440,"player_count":0,"max_players":24,"Bots":0,"server_type":"Dedicated","server_os":"Linux","password":true,"vac":true,"version":"7757534","steam_id":85568392924504277,"keywords":["cp","nocrits","nodmgspread","uncletopia"],"game_id":440,"stv_port":27056,"stv_name":"Uncletopia | Frankfurt | 5 | All Maps | STV","players":null},{"server_id":311,"name":"Uncletopia | Frankfurt | 6 | All Maps","name_short":"frk-6","host":"frk-1.de.uncletopia.com","port":27065,"enabled":true,"region":"eu","cc":"de","latitude":50.110924,"longitude":8.682127,"reserved":0,"last_update":"0001-01-01T00:00:00Z","name_a2s":"Uncletopia | Frankfurt | 6 | All Maps","protocol":17,"map":"koth_lakeside_final","folder":"tf","game":"Team Fortress","app_id":440,"player_count":0,"max_players":24,"Bots":0,"server_type":"Dedicated","server_os":"Linux","password":true,"vac":true,"version":"7757534","steam_id":85568392924504278,"keywords":["cp","nocrits","nodmgspread","uncletopia"],"game_id":440,"stv_port":27066,"stv_name":"Uncletopia | Frankfurt | 6 | All Maps | STV","players":null},{"server_id":23,"name":"Uncletopia | Frankfurt | 7 | Stopwatch Beta","name_short":"frk-7","host":"frk-1.de.uncletopia.com","port":27075,"enabled":true,"region":"eu","cc":"de","latitude":50.110924,"longitude":8.682127,"reserved":0,"last_update":"0001-01-01T00:00:00Z","name_a2s":"Uncletopia | Frankfurt | 7 | Stopwatch Beta","protocol":17,"map":"workshop/koth_product_final.ugc454272353","folder":"tf","game":"Team Fortress","app_id":440,"player_count":0,"max_players":24,"Bots":0,"server_type":"Dedicated","server_os":"Linux","password":true,"vac":true,"version":"7757534","steam_id":85568392924742827,"keywords":["cp","nocrits","nodmgspread","uncletopia"],"game_id":440,"stv_port":27076,"stv_name":"Uncletopia | Frankfurt | 7 | Stopwatch Beta | STV","players":null},{"server_id":24,"name":"Uncletopia | Frankfurt | 8 | Community","name_short":"frk-8","host":"frk-1.de.uncletopia.com","port":27085,"enabled":true,"region":"eu","cc":"de","latitude":50.110924,"longitude":8.682127,"reserved":0,"last_update":"0001-01-01T00:00:00Z","name_a2s":"Uncletopia | Frankfurt | 8 | Community","protocol":17,"map":"workshop/koth_trenchfoot_b1a.ugc731436616","folder":"tf","game":"Team Fortress","app_id":440,"player_count":0,"max_players":24,"Bots":0,"server_type":"Dedicated","server_os":"Linux","password":true,"vac":true,"version":"7757534","steam_id":85568392924742828,"keywords":["cp","nocrits","nodmgspread","uncletopia"],"game_id":440,"stv_port":27086,"stv_name":"Uncletopia | Frankfurt | 8 | Community | STV","players":null},{"server_id":202,"name":"Uncletopia | Hong Kong | 1 | All Maps","name_short":"hgk-1","host":"hgk-1.hk.uncletopia.com","port":27015,"enabled":true,"region":"asia","cc":"hk","latitude":22.302711,"longitude":114.177216,"reserved":0,"last_update":"0001-01-01T00:00:00Z","name_a2s":"Uncletopia | Hong Kong | 1 | All Maps","protocol":17,"map":"koth_cascade","folder":"tf","game":"Team Fortress","app_id":440,"player_count":0,"max_players":24,"Bots":0,"server_type":"Dedicated","server_os":"Linux","password":true,"vac":true,"version":"7757534","steam_id":85568392924494504,"keywords":["cp","nocrits","nodmgspread","uncletopia"],"game_id":440,"stv_port":27016,"stv_name":"Uncletopia | Hong Kong | 1 | All Maps | STV","players":null},{"server_id":1,"name":"Uncletopia | Los Angeles | 1 | All Maps","name_short":"lax-1","host":"lax-1.us.uncletopia.com","port":27015,"enabled":true,"region":"us-west","cc":"us","latitude":33.94279,"longitude":-118.41004,"reserved":0,"last_update":"0001-01-01T00:00:00Z","name_a2s":"Uncletopia | Los Angeles | 1 | All Maps","protocol":17,"map":"pl_barnblitz","folder":"tf","game":"Team Fortress","app_id":440,"player_count":24,"max_players":24,"Bots":0,"server_type":"Dedicated","server_os":"Linux","password":true,"vac":true,"version":"7757534","steam_id":85568392924469991,"keywords":["nocrits","nodmgspread","payload","uncletopia"],"game_id":440,"stv_port":27016,"stv_name":"Uncletopia | Los Angeles | 1 | All Maps | STV","players":[{"user_id":156,"name":"Marc Antony","steam_id":76561198011366517,"connected_time":5272000000000,"state":"active","ping":90},{"user_id":167,"name":"Uprightmoss7528","steam_id":76561199200138486,"connected_time":4600000000000,"state":"active","ping":58},{"user_id":223,"name":"squish","steam_id":76561198097657352,"connected_time":216000000000,"state":"active","ping":60},{"user_id":216,"name":"AreChiGan","steam_id":76561199029026723,"connected_time":640000000000,"state":"active","ping":56},{"user_id":202,"name":"Dim Strike","steam_id":76561199087298816,"connected_time":1721000000000,"state":"active","ping":49},{"user_id":225,"name":"Matte :)","steam_id":76561198070631073,"connected_time":60000000000,"state":"active","ping":59},{"user_id":193,"name":"SneekiCheekiQbone","steam_id":76561198045077980,"connected_time":2365000000000,"state":"active","ping":43},{"user_id":200,"name":"Euphoria","steam_id":76561198187168787,"connected_time":2116000000000,"state":"active","ping":101},{"user_id":210,"name":"walker","steam_id":76561198031669769,"connected_time":938000000000,"state":"active","ping":92},{"user_id":226,"name":"pooblygonzooly2012","steam_id":76561198982054880,"connected_time":39000000000,"state":"active","ping":51},{"user_id":171,"name":"aceYT","steam_id":76561199068211863,"connected_time":4397000000000,"state":"active","ping":78},{"user_id":217,"name":"Charles Barkley","steam_id":76561198153634425,"connected_time":608000000000,"state":"active","ping":78},{"user_id":203,"name":"Boat","steam_id":76561198319185335,"connected_time":1544000000000,"state":"active","ping":66},{"user_id":227,"name":"Jhon Xina","steam_id":76561198411174051,"connected_time":22000000000,"state":"active","ping":78},{"user_id":218,"name":"Riske","steam_id":76561198115840568,"connected_time":600000000000,"state":"active","ping":127},{"user_id":228,"name":"choi","steam_id":76561198053669887,"connected_time":19000000000,"state":"active","ping":60},{"user_id":207,"name":"Impulse","steam_id":76561198235782750,"connected_time":1082000000000,"state":"active","ping":56},{"user_id":201,"name":"Viritidom","steam_id":76561198169197221,"connected_time":2084000000000,"state":"active","ping":323},{"user_id":208,"name":"Fachedin","steam_id":76561198041850415,"connected_time":1066000000000,"state":"active","ping":54},{"user_id":144,"name":"spot","steam_id":76561198151135298,"connected_time":7573000000000,"state":"active","ping":32},{"user_id":219,"name":"Electric Hawk","steam_id":76561198129732108,"connected_time":570000000000,"state":"active","ping":42},{"user_id":209,"name":"Barack Obama Gaming","steam_id":76561198129242016,"connected_time":1063000000000,"state":"active","ping":72},{"user_id":220,"name":"TeCon","steam_id":76561198049127236,"connected_time":561000000000,"state":"active","ping":59},{"user_id":198,"name":"Reem0h","steam_id":76561198169848690,"connected_time":2311000000000,"state":"active","ping":110}]},{"server_id":112,"name":"Uncletopia | Los Angeles | 2 | All Maps","name_short":"lax-2","host":"lax-1.us.uncletopia.com","port":27025,"enabled":true,"region":"us-west","cc":"us","latitude":33.94279,"longitude":-118.41004,"reserved":0,"last_update":"0001-01-01T00:00:00Z","name_a2s":"Uncletopia | Los Angeles | 2 | All Maps","protocol":17,"map":"koth_cascade","folder":"tf","game":"Team Fortress","app_id":440,"player_count":0,"max_players":24,"Bots":0,"server_type":"Dedicated","server_os":"Linux","password":true,"vac":true,"version":"7757534","steam_id":85568392924469992,"keywords":["cp","nocrits","nodmgspread","uncletopia"],"game_id":440,"stv_port":27026,"stv_name":"Uncletopia | Los Angeles | 2 | All Maps | STV","players":null},{"server_id":324,"name":"Uncletopia | Los Angeles | 3 | All Maps","name_short":"lax-3","host":"lax-1.us.uncletopia.com","port":27035,"enabled":true,"region":"us-west","cc":"us","latitude":33.94279,"longitude":-118.41004,"reserved":0,"last_update":"0001-01-01T00:00:00Z","name_a2s":"Uncletopia | Los Angeles | 3 | All Maps","protocol":17,"map":"pl_badwater","folder":"tf","game":"Team Fortress","app_id":440,"player_count":24,"max_players":24,"Bots":0,"server_type":"Dedicated","server_os":"Linux","password":true,"vac":true,"version":"7757534","steam_id":85568392924510198,"keywords":["nocrits","nodmgspread","payload","uncletopia"],"game_id":440,"stv_port":27036,"stv_name":"Uncletopia | Los Angeles | 3 | All Maps | STV","players":[{"user_id":119,"name":"SunVolt","steam_id":76561199034645001,"connected_time":1752000000000,"state":"active","ping":96},{"user_id":127,"name":"Gravy Chalmers","steam_id":76561198005309532,"connected_time":1139000000000,"state":"active","ping":38},{"user_id":57,"name":"Uta","steam_id":76561198271964253,"connected_time":6501000000000,"state":"active","ping":95},{"user_id":65,"name":"Sir Galahad","steam_id":76561198195999859,"connected_time":5335000000000,"state":"active","ping":84},{"user_id":121,"name":"Not A Rapper","steam_id":76561198077523537,"connected_time":1648000000000,"state":"active","ping":108},{"user_id":141,"name":"level 1 pyro","steam_id":76561198281197072,"connected_time":20000000000,"state":"spawning","ping":89},{"user_id":129,"name":"PersonMan","steam_id":76561198153426326,"connected_time":1132000000000,"state":"active","ping":89},{"user_id":34,"name":"AmyPercent","steam_id":76561198071896932,"connected_time":8325000000000,"state":"active","ping":75},{"user_id":137,"name":"Sammy!","steam_id":76561198184171743,"connected_time":685000000000,"state":"active","ping":68},{"user_id":128,"name":"Duncle Racco","steam_id":76561198009983499,"connected_time":1137000000000,"state":"active","ping":118},{"user_id":123,"name":"doopsuiker","steam_id":76561198025916703,"connected_time":1528000000000,"state":"active","ping":136},{"user_id":140,"name":"Ronnie Pickering!","steam_id":76561198041842118,"connected_time":139000000000,"state":"active","ping":50},{"user_id":125,"name":"cabin","steam_id":76561198113194774,"connected_time":1236000000000,"state":"active","ping":54},{"user_id":132,"name":"K2f","steam_id":76561198049600563,"connected_time":1033000000000,"state":"active","ping":54},{"user_id":99,"name":"monsterkill4567","steam_id":76561198272986367,"connected_time":2896000000000,"state":"active","ping":60},{"user_id":133,"name":"hypotenuse","steam_id":76561198062479158,"connected_time":1026000000000,"state":"active","ping":92},{"user_id":134,"name":"BrightOrangeMango","steam_id":76561198023144607,"connected_time":948000000000,"state":"active","ping":62},{"user_id":126,"name":"corbenis","steam_id":76561199012442511,"connected_time":1205000000000,"state":"active","ping":47},{"user_id":113,"name":"medisun","steam_id":76561198858474714,"connected_time":1854000000000,"state":"active","ping":76},{"user_id":114,"name":"Fremond Games","steam_id":76561198847910046,"connected_time":1853000000000,"state":"active","ping":68},{"user_id":115,"name":"intek","steam_id":76561198052705291,"connected_time":1836000000000,"state":"active","ping":86},{"user_id":78,"name":"teh mummy","steam_id":76561198044123636,"connected_time":4935000000000,"state":"active","ping":33},{"user_id":135,"name":"✿ PoutyBun ✿","steam_id":76561197965762847,"connected_time":894000000000,"state":"active","ping":71},{"user_id":136,"name":"-=Bits=-Dinkleberg","steam_id":76561198080367616,"connected_time":880000000000,"state":"active","ping":75}]},{"server_id":25,"name":"Uncletopia | Los Angeles | 4 | Stopwatch Beta","name_short":"lax-4","host":"lax-1.us.uncletopia.com","port":27045,"enabled":true,"region":"us-west","cc":"us","latitude":33.94279,"longitude":-118.41004,"reserved":0,"last_update":"0001-01-01T00:00:00Z","name_a2s":"Uncletopia | Los Angeles | 4 | Stopwatch Beta","protocol":17,"map":"pl_frontier_final","folder":"tf","game":"Team Fortress","app_id":440,"player_count":0,"max_players":24,"Bots":0,"server_type":"Dedicated","server_os":"Linux","password":true,"vac":true,"version":"7757534","steam_id":85568392924510199,"keywords":["nocrits","nodmgspread","payload","uncletopia"],"game_id":440,"stv_port":27046,"stv_name":"Uncletopia | Los Angeles | 4 | Stopwatch Beta | STV","players":null},{"server_id":11,"name":"Uncletopia | London | 1 | All Maps","name_short":"lon-1","host":"lon-1.uk.uncletopia.com","port":27015,"enabled":true,"region":"eu","cc":"gb","latitude":51.509865,"longitude":-0.118092,"reserved":0,"last_update":"0001-01-01T00:00:00Z","name_a2s":"Uncletopia | London | 1 | All Maps","protocol":17,"map":"koth_highpass","folder":"tf","game":"Team Fortress","app_id":440,"player_count":0,"max_players":24,"Bots":0,"server_type":"Dedicated","server_os":"Linux","password":true,"vac":true,"version":"7757534","steam_id":85568392924367362,"keywords":["cp","nocrits","nodmgspread","uncletopia"],"game_id":440,"stv_port":27016,"stv_name":"Uncletopia | London | 1 | All Maps | STV","players":null},{"server_id":114,"name":"Uncletopia | London | 2 | All Maps","name_short":"lon-2","host":"lon-1.uk.uncletopia.com","port":27025,"enabled":true,"region":"eu","cc":"gb","latitude":51.509865,"longitude":-0.118092,"reserved":0,"last_update":"0001-01-01T00:00:00Z","name_a2s":"Uncletopia | London | 2 | All Maps","protocol":17,"map":"koth_viaduct","folder":"tf","game":"Team Fortress","app_id":440,"player_count":0,"max_players":24,"Bots":0,"server_type":"Dedicated","server_os":"Linux","password":true,"vac":true,"version":"7757534","steam_id":85568392924470941,"keywords":["cp","nocrits","nodmgspread","uncletopia"],"game_id":440,"stv_port":27026,"stv_name":"Uncletopia | London | 2 | All Maps | STV","players":null},{"server_id":320,"name":"Uncletopia | London | 3 | All Maps","name_short":"lon-3","host":"lon-1.uk.uncletopia.com","port":27035,"enabled":true,"region":"eu","cc":"gb","latitude":51.509865,"longitude":-0.118092,"reserved":0,"last_update":"0001-01-01T00:00:00Z","name_a2s":"Uncletopia | London | 3 | All Maps","protocol":17,"map":"plr_bananabay","folder":"tf","game":"Team Fortress","app_id":440,"player_count":0,"max_players":24,"Bots":0,"server_type":"Dedicated","server_os":"Linux","password":true,"vac":true,"version":"7757534","steam_id":85568392924510192,"keywords":["nocrits","nodmgspread","payload","uncletopia"],"game_id":440,"stv_port":27036,"stv_name":"Uncletopia | London | 3 | All Maps | STV","players":null},{"server_id":321,"name":"Uncletopia | London | 4 | All Maps","name_short":"lon-4","host":"lon-1.uk.uncletopia.com","port":27045,"enabled":true,"region":"eu","cc":"gb","latitude":51.509865,"longitude":-0.118092,"reserved":0,"last_update":"0001-01-01T00:00:00Z","name_a2s":"Uncletopia | London | 4 | All Maps","protocol":17,"map":"koth_cascade","folder":"tf","game":"Team Fortress","app_id":440,"player_count":0,"max_players":24,"Bots":0,"server_type":"Dedicated","server_os":"Linux","password":true,"vac":true,"version":"7757534","steam_id":85568392924510193,"keywords":["cp","nocrits","nodmgspread","uncletopia"],"game_id":440,"stv_port":27046,"stv_name":"Uncletopia | London | 4 | All Maps | STV","players":null},{"server_id":21,"name":"Uncletopia | London | 5 | All Maps","name_short":"lon-5","host":"lon-1.uk.uncletopia.com","port":27055,"enabled":true,"region":"eu","cc":"gb","latitude":51.509865,"longitude":-0.118092,"reserved":0,"last_update":"0001-01-01T00:00:00Z","name_a2s":"Uncletopia | London | 5 | All Maps","protocol":17,"map":"koth_lakeside_final","folder":"tf","game":"Team Fortress","app_id":440,"player_count":1,"max_players":24,"Bots":0,"server_type":"Dedicated","server_os":"Linux","password":true,"vac":true,"version":"7757534","steam_id":85568392924742829,"keywords":["cp","nocrits","nodmgspread","uncletopia"],"game_id":440,"stv_port":27056,"stv_name":"Uncletopia | London | 5 | All Maps | STV","players":[{"user_id":666,"name":"thekoolest88","steam_id":76561199022415672,"connected_time":669000000000,"state":"active","ping":124}]},{"server_id":22,"name":"Uncletopia | London | 6 | All Maps","name_short":"lon-6","host":"lon-1.uk.uncletopia.com","port":27065,"enabled":true,"region":"eu","cc":"gb","latitude":51.509865,"longitude":-0.118092,"reserved":0,"last_update":"0001-01-01T00:00:00Z","name_a2s":"Uncletopia | London | 6 | All Maps","protocol":17,"map":"koth_cascade","folder":"tf","game":"Team Fortress","app_id":440,"player_count":0,"max_players":24,"Bots":0,"server_type":"Dedicated","server_os":"Linux","password":true,"vac":true,"version":"7757534","steam_id":85568392924742830,"keywords":["cp","nocrits","nodmgspread","uncletopia"],"game_id":440,"stv_port":27066,"stv_name":"Uncletopia | London | 6 | All Maps | STV","players":null},{"server_id":40,"name":"Uncletopia | London | 7 | No Payload","name_short":"lon-7","host":"lon-1.uk.uncletopia.com","port":27075,"enabled":true,"region":"eu","cc":"gb","latitude":51.509865,"longitude":-0.118092,"reserved":0,"last_update":"0001-01-01T00:00:00Z","name_a2s":"Uncletopia | London | 7 | No Payload","protocol":17,"map":"ctf_landfall","folder":"tf","game":"Team Fortress","app_id":440,"player_count":0,"max_players":24,"Bots":0,"server_type":"Dedicated","server_os":"Linux","password":true,"vac":true,"version":"7757534","steam_id":85568392924964314,"keywords":["ctf","nocrits","nodmgspread","uncletopia"],"game_id":440,"stv_port":27076,"stv_name":"Uncletopia | London | 7 | No Payload | STV","players":null},{"server_id":41,"name":"Uncletopia | London | 8 | Community","name_short":"lon-8","host":"lon-1.uk.uncletopia.com","port":27085,"enabled":true,"region":"eu","cc":"gb","latitude":51.509865,"longitude":-0.118092,"reserved":0,"last_update":"0001-01-01T00:00:00Z","name_a2s":"Uncletopia | London | 8 | Community","protocol":17,"map":"workshop/koth_kemptown_rc1.ugc767410655","folder":"tf","game":"Team Fortress","app_id":440,"player_count":0,"max_players":24,"Bots":0,"server_type":"Dedicated","server_os":"Linux","password":true,"vac":true,"version":"7757534","steam_id":85568392924964315,"keywords":["cp","nocrits","nodmgspread","uncletopia"],"game_id":440,"stv_port":27086,"stv_name":"Uncletopia | London | 8 | Community | STV","players":null},{"server_id":300,"name":"Uncletopia | Montréal | 1 | All Maps","name_short":"mtl-1","host":"mtl-1.ca.uncletopia.com","port":27015,"enabled":true,"region":"us-east","cc":"ca","latitude":45.50889,"longitude":-73.56167,"reserved":0,"last_update":"0001-01-01T00:00:00Z","name_a2s":"Uncletopia | Montréal | 1 | All Maps","protocol":17,"map":"koth_cascade","folder":"tf","game":"Team Fortress","app_id":440,"player_count":0,"max_players":24,"Bots":0,"server_type":"Dedicated","server_os":"Linux","password":true,"vac":true,"version":"7757534","steam_id":85568392924500087,"keywords":["cp","nocrits","nodmgspread","uncletopia"],"game_id":440,"stv_port":27016,"stv_name":"Uncletopia | Montréal | 1 | All Maps | STV","players":null},{"server_id":301,"name":"Uncletopia | Montréal | 2 | All Maps","name_short":"mtl-2","host":"mtl-1.ca.uncletopia.com","port":27025,"enabled":true,"region":"us-east","cc":"ca","latitude":45.50889,"longitude":-73.56167,"reserved":0,"last_update":"0001-01-01T00:00:00Z","name_a2s":"Uncletopia | Montréal | 2 | All Maps","protocol":17,"map":"koth_highpass","folder":"tf","game":"Team Fortress","app_id":440,"player_count":0,"max_players":24,"Bots":0,"server_type":"Dedicated","server_os":"Linux","password":true,"vac":true,"version":"7757534","steam_id":85568392924500088,"keywords":["cp","nocrits","nodmgspread","uncletopia"],"game_id":440,"stv_port":27026,"stv_name":"Uncletopia | Montréal | 2 | All Maps | STV","players":null},{"server_id":302,"name":"Uncletopia | Montréal | 3 | All Maps","name_short":"mtl-3","host":"mtl-1.ca.uncletopia.com","port":27035,"enabled":true,"region":"us-east","cc":"ca","latitude":45.50889,"longitude":-73.56167,"reserved":0,"last_update":"0001-01-01T00:00:00Z","name_a2s":"Uncletopia | Montréal | 3 | All Maps","protocol":17,"map":"cp_altitude","folder":"tf","game":"Team Fortress","app_id":440,"player_count":0,"max_players":24,"Bots":0,"server_type":"Dedicated","server_os":"Linux","password":true,"vac":true,"version":"7757534","steam_id":85568392924500089,"keywords":["cp","nocrits","nodmgspread","uncletopia"],"game_id":440,"stv_port":27036,"stv_name":"Uncletopia | Montréal | 3 | All Maps | STV","players":null},{"server_id":303,"name":"Uncletopia | Montréal | 4 | No Payload","name_short":"mtl-4","host":"mtl-1.ca.uncletopia.com","port":27045,"enabled":true,"region":"us-east","cc":"ca","latitude":45.50889,"longitude":-73.56167,"reserved":0,"last_update":"0001-01-01T00:00:00Z","name_a2s":"Uncletopia | Montréal | 4 | No Payload","protocol":17,"map":"koth_lazarus","folder":"tf","game":"Team Fortress","app_id":440,"player_count":0,"max_players":24,"Bots":0,"server_type":"Dedicated","server_os":"Linux","password":true,"vac":true,"version":"7757534","steam_id":85568392924500090,"keywords":["cp","nocrits","nodmgspread","uncletopia"],"game_id":440,"stv_port":27046,"stv_name":"Uncletopia | Montréal | 4 | No Payload | STV","players":null},{"server_id":13,"name":"Uncletopia | New York City | 1 | All Maps","name_short":"nyc-1","host":"nyc-1.us.uncletopia.com","port":27015,"enabled":true,"region":"us-east","cc":"us","latitude":40.73061,"longitude":-73.93524,"reserved":0,"last_update":"0001-01-01T00:00:00Z","name_a2s":"Uncletopia | New York City | 1 | All Maps","protocol":17,"map":"pl_borneo","folder":"tf","game":"Team Fortress","app_id":440,"player_count":15,"max_players":24,"Bots":0,"server_type":"Dedicated","server_os":"Linux","password":true,"vac":true,"version":"7757534","steam_id":85568392924469993,"keywords":["nocrits","nodmgspread","payload","uncletopia"],"game_id":440,"stv_port":27016,"stv_name":"Uncletopia | New York City | 1 | All Maps | STV","players":[{"user_id":709,"name":"Randy \"the Man\" Johnson","steam_id":76561198039124445,"connected_time":265000000000,"state":"active","ping":116},{"user_id":710,"name":"Goblin","steam_id":76561198338245497,"connected_time":173000000000,"state":"active","ping":60},{"user_id":694,"name":"ash monte","steam_id":76561198382343820,"connected_time":1306000000000,"state":"active","ping":37},{"user_id":696,"name":"beatrix","steam_id":76561199057103062,"connected_time":1142000000000,"state":"active","ping":105},{"user_id":712,"name":"Room","steam_id":76561199174579733,"connected_time":20000000000,"state":"active","ping":56},{"user_id":679,"name":"Albino Jellyfish","steam_id":76561198208561097,"connected_time":2277000000000,"state":"active","ping":52},{"user_id":664,"name":"JimboSlice","steam_id":76561199225336634,"connected_time":3427000000000,"state":"active","ping":60},{"user_id":675,"name":"Onion Dent","steam_id":76561198303976037,"connected_time":2370000000000,"state":"active","ping":45},{"user_id":698,"name":"matthew.caffee","steam_id":76561199069898310,"connected_time":1112000000000,"state":"active","ping":94},{"user_id":707,"name":"kel","steam_id":76561199153923345,"connected_time":762000000000,"state":"active","ping":89},{"user_id":701,"name":"frigidhyacinth","steam_id":76561198181234621,"connected_time":1054000000000,"state":"active","ping":129},{"user_id":646,"name":"ndvr","steam_id":76561199379200102,"connected_time":4703000000000,"state":"active","ping":54},{"user_id":685,"name":"sticky keys on","steam_id":76561198089638718,"connected_time":2193000000000,"state":"active","ping":43},{"user_id":706,"name":"dicksouls26","steam_id":76561198838196266,"connected_time":845000000000,"state":"active","ping":60},{"user_id":691,"name":"Horse","steam_id":76561199112075552,"connected_time":1934000000000,"state":"active","ping":50}]},{"server_id":14,"name":"Uncletopia | New York City | 2 | All Maps","name_short":"nyc-2","host":"nyc-1.us.uncletopia.com","port":27025,"enabled":true,"region":"us-east","cc":"us","latitude":40.73061,"longitude":-73.93524,"reserved":0,"last_update":"0001-01-01T00:00:00Z","name_a2s":"Uncletopia | New York City | 2 | All Maps","protocol":17,"map":"pl_snowycoast","folder":"tf","game":"Team Fortress","app_id":440,"player_count":23,"max_players":24,"Bots":0,"server_type":"Dedicated","server_os":"Linux","password":true,"vac":true,"version":"7757534","steam_id":85568392924469994,"keywords":["nocrits","nodmgspread","payload","uncletopia"],"game_id":440,"stv_port":27026,"stv_name":"Uncletopia | New York City | 2 | All Maps | STV","players":[{"user_id":441,"name":"JimmyBreeze (3)","steam_id":76561198243918128,"connected_time":152000000000,"state":"active","ping":53},{"user_id":391,"name":"Brisk","steam_id":76561198129769783,"connected_time":4476000000000,"state":"active","ping":72},{"user_id":440,"name":"Acute Surrealism","steam_id":76561198109618175,"connected_time":209000000000,"state":"active","ping":101},{"user_id":403,"name":"Braamklauw","steam_id":76561198283287697,"connected_time":3815000000000,"state":"active","ping":145},{"user_id":394,"name":"Pozyomka","steam_id":76561198086331015,"connected_time":4158000000000,"state":"active","ping":30},{"user_id":444,"name":"ikealuvr","steam_id":76561198998340318,"connected_time":103000000000,"state":"active","ping":149},{"user_id":405,"name":"iceman","steam_id":76561198135397441,"connected_time":3751000000000,"state":"active","ping":77},{"user_id":430,"name":"Tulse Luper","steam_id":76561198027915682,"connected_time":1836000000000,"state":"active","ping":62},{"user_id":442,"name":"schizo","steam_id":76561198351895498,"connected_time":139000000000,"state":"active","ping":44},{"user_id":438,"name":"bat","steam_id":76561198137216654,"connected_time":421000000000,"state":"active","ping":85},{"user_id":407,"name":"matkaster","steam_id":76561197998546486,"connected_time":3648000000000,"state":"active","ping":85},{"user_id":415,"name":"LazerCannon","steam_id":76561198256696159,"connected_time":3025000000000,"state":"active","ping":148},{"user_id":431,"name":"gristle","steam_id":76561198046815360,"connected_time":1772000000000,"state":"active","ping":121},{"user_id":423,"name":"HAT-WEARING™ Maggot Gamer Cat","steam_id":76561197973992705,"connected_time":2031000000000,"state":"active","ping":119},{"user_id":443,"name":"Ziath","steam_id":76561198094009164,"connected_time":135000000000,"state":"active","ping":45},{"user_id":445,"name":"CJDGuy","steam_id":76561198213009545,"connected_time":38000000000,"state":"active","ping":118},{"user_id":412,"name":"TheSpyAssassin","steam_id":76561198098007833,"connected_time":3501000000000,"state":"active","ping":145},{"user_id":433,"name":"bendera","steam_id":76561197965486503,"connected_time":1350000000000,"state":"active","ping":87},{"user_id":436,"name":"Tor","steam_id":76561198148621828,"connected_time":1199000000000,"state":"active","ping":97},{"user_id":434,"name":"CobyNoH0es","steam_id":76561198122236594,"connected_time":1338000000000,"state":"active","ping":75},{"user_id":439,"name":"Finn","steam_id":76561198179960193,"connected_time":352000000000,"state":"active","ping":108},{"user_id":379,"name":"Young-OG","steam_id":76561198058800479,"connected_time":5496000000000,"state":"active","ping":90},{"user_id":396,"name":"Sir Quacksalot","steam_id":76561198048942777,"connected_time":4059000000000,"state":"active","ping":91}]},{"server_id":15,"name":"Uncletopia | New York City | 3 | Stopwatch Beta","name_short":"nyc-3","host":"nyc-1.us.uncletopia.com","port":27035,"enabled":true,"region":"us-east","cc":"us","latitude":40.73061,"longitude":-73.93524,"reserved":0,"last_update":"0001-01-01T00:00:00Z","name_a2s":"Uncletopia | New York City | 3 | Stopwatch Beta","protocol":17,"map":"workshop/pl_vigil_rc9.ugc1266210012","folder":"tf","game":"Team Fortress","app_id":440,"player_count":0,"max_players":24,"Bots":0,"server_type":"Dedicated","server_os":"Linux","password":true,"vac":true,"version":"7757534","steam_id":85568392924742820,"keywords":["nocrits","nodmgspread","payload","uncletopia"],"game_id":440,"stv_port":27036,"stv_name":"Uncletopia | New York City | 3 | Stopwatch Beta | STV","players":null},{"server_id":16,"name":"Uncletopia | New York City | 4 | Community","name_short":"nyc-4","host":"nyc-1.us.uncletopia.com","port":27045,"enabled":true,"region":"us-east","cc":"us","latitude":40.73061,"longitude":-73.93524,"reserved":0,"last_update":"0001-01-01T00:00:00Z","name_a2s":"Uncletopia | New York City | 4 | Community","protocol":17,"map":"workshop/koth_kemptown_rc1.ugc767410655","folder":"tf","game":"Team Fortress","app_id":440,"player_count":22,"max_players":24,"Bots":0,"server_type":"Dedicated","server_os":"Linux","password":true,"vac":true,"version":"7757534","steam_id":85568392924742821,"keywords":["cp","nocrits","nodmgspread","uncletopia"],"game_id":440,"stv_port":27046,"stv_name":"Uncletopia | New York City | 4 | Community | STV","players":[{"user_id":368,"name":"Leonard","steam_id":76561199031172409,"connected_time":755000000000,"state":"active","ping":81},{"user_id":340,"name":"LBFable","steam_id":76561198034232593,"connected_time":2617000000000,"state":"active","ping":71},{"user_id":341,"name":"A Skeleton","steam_id":76561198038046971,"connected_time":2608000000000,"state":"active","ping":153},{"user_id":335,"name":"AYE","steam_id":76561198181368101,"connected_time":3062000000000,"state":"active","ping":141},{"user_id":337,"name":"Mommy Cloud Audios Gaming","steam_id":76561198880304614,"connected_time":2864000000000,"state":"active","ping":36},{"user_id":367,"name":"EliminateSingleFamilyZoning","steam_id":76561198276653985,"connected_time":773000000000,"state":"active","ping":46},{"user_id":365,"name":"b0b4 8710","steam_id":76561198068752705,"connected_time":1311000000000,"state":"active","ping":45},{"user_id":325,"name":"gourmet salad","steam_id":76561198173128765,"connected_time":3849000000000,"state":"active","ping":36},{"user_id":350,"name":"Johnny Esports","steam_id":76561198115812405,"connected_time":2424000000000,"state":"active","ping":63},{"user_id":351,"name":"$200 Shirt","steam_id":76561197977329534,"connected_time":2405000000000,"state":"active","ping":49},{"user_id":355,"name":"hrVst-m00n","steam_id":76561198062484489,"connected_time":1812000000000,"state":"active","ping":101},{"user_id":360,"name":"Ashley","steam_id":76561198056152479,"connected_time":1617000000000,"state":"active","ping":105},{"user_id":255,"name":"Pinapley","steam_id":76561198063130298,"connected_time":7339000000000,"state":"active","ping":45},{"user_id":366,"name":"EmeraldCola","steam_id":76561198066663687,"connected_time":790000000000,"state":"active","ping":56},{"user_id":348,"name":"GnomeCow","steam_id":76561198374041040,"connected_time":2489000000000,"state":"active","ping":98},{"user_id":320,"name":"Grouch","steam_id":76561198080790944,"connected_time":4399000000000,"state":"active","ping":47},{"user_id":369,"name":"V1dia","steam_id":76561198376807150,"connected_time":673000000000,"state":"active","ping":58},{"user_id":352,"name":"pasta","steam_id":76561198084719895,"connected_time":2398000000000,"state":"active","ping":61},{"user_id":307,"name":"drooskie","steam_id":76561198036083886,"connected_time":5162000000000,"state":"active","ping":67},{"user_id":308,"name":"Pardigger","steam_id":76561198884444224,"connected_time":5162000000000,"state":"active","ping":75},{"user_id":309,"name":"Zaider","steam_id":76561198049839645,"connected_time":5129000000000,"state":"active","ping":51},{"user_id":372,"name":"Karma's Camera","steam_id":76561198059385185,"connected_time":560000000000,"state":"active","ping":70}]},{"server_id":142,"name":"Uncletopia | São Paulo | 1 | All Maps","name_short":"sao-1","host":"sao-1.br.uncletopia.com","port":27015,"enabled":true,"region":"sa","cc":"br","latitude":-23.533773,"longitude":-46.62529,"reserved":0,"last_update":"0001-01-01T00:00:00Z","name_a2s":"Uncletopia | São Paulo | 1 | All Maps","protocol":17,"map":"koth_cascade","folder":"tf","game":"Team Fortress","app_id":440,"player_count":0,"max_players":24,"Bots":0,"server_type":"Dedicated","server_os":"Linux","password":true,"vac":true,"version":"7757534","steam_id":85568392924469996,"keywords":["cp","nocrits","nodmgspread","uncletopia"],"game_id":440,"stv_port":27016,"stv_name":"Uncletopia | São Paulo | 1 | All Maps | STV","players":null},{"server_id":143,"name":"Uncletopia | São Paulo | 2 | All Maps","name_short":"sao-2","host":"sao-2.br.uncletopia.com","port":27015,"enabled":true,"region":"sa","cc":"br","latitude":-23.533773,"longitude":-46.62529,"reserved":0,"last_update":"0001-01-01T00:00:00Z","name_a2s":"Uncletopia | São Paulo | 2 | All Maps","protocol":17,"map":"pl_barnblitz","folder":"tf","game":"Team Fortress","app_id":440,"player_count":0,"max_players":24,"Bots":0,"server_type":"Dedicated","server_os":"Linux","password":true,"vac":true,"version":"7757534","steam_id":85568392924485349,"keywords":["nocrits","nodmgspread","payload","uncletopia"],"game_id":440,"stv_port":27016,"stv_name":"Uncletopia | São Paulo | 2 | All Maps | STV","players":null},{"server_id":7,"name":"Uncletopia | Seattle | 1 | All Maps","name_short":"sea-1","host":"sea-1.us.uncletopia.com","port":27015,"enabled":true,"region":"us-west","cc":"us","latitude":47.608013,"longitude":-122.33517,"reserved":0,"last_update":"0001-01-01T00:00:00Z","name_a2s":"Uncletopia | Seattle | 1 | All Maps","protocol":17,"map":"koth_harvest_final","folder":"tf","game":"Team Fortress","app_id":440,"player_count":24,"max_players":24,"Bots":0,"server_type":"Dedicated","server_os":"Linux","password":true,"vac":true,"version":"7757534","steam_id":85568392924469997,"keywords":["cp","nocrits","nodmgspread","uncletopia"],"game_id":440,"stv_port":27016,"stv_name":"Uncletopia | Seattle | 1 | All Maps | STV","players":[{"user_id":651,"name":"Archimedes!","steam_id":76561199446023933,"connected_time":6554000000000,"state":"active","ping":82},{"user_id":813,"name":"Kuma","steam_id":76561199100813140,"connected_time":1266000000000,"state":"active","ping":90},{"user_id":821,"name":"HDI","steam_id":76561199062715724,"connected_time":1028000000000,"state":"active","ping":82},{"user_id":799,"name":"Mrcheesey","steam_id":76561199078252493,"connected_time":2501000000000,"state":"active","ping":52},{"user_id":787,"name":"ShredMaan","steam_id":76561198429982138,"connected_time":3681000000000,"state":"active","ping":86},{"user_id":805,"name":"Mark","steam_id":76561198063507231,"connected_time":2389000000000,"state":"active","ping":156},{"user_id":825,"name":"Cyberbreeze","steam_id":76561198148654069,"connected_time":974000000000,"state":"active","ping":57},{"user_id":814,"name":"fwoov","steam_id":76561198129166260,"connected_time":1264000000000,"state":"active","ping":75},{"user_id":789,"name":"MSIBoys","steam_id":76561198213692935,"connected_time":3635000000000,"state":"active","ping":92},{"user_id":828,"name":"goldhed","steam_id":76561198051751133,"connected_time":611000000000,"state":"active","ping":57},{"user_id":790,"name":"[TrC] Nosy","steam_id":76561197978859310,"connected_time":3634000000000,"state":"active","ping":63},{"user_id":786,"name":"lavender","steam_id":76561199069518286,"connected_time":3697000000000,"state":"active","ping":78},{"user_id":823,"name":"PLATYPUS","steam_id":76561198255796625,"connected_time":1002000000000,"state":"active","ping":180},{"user_id":796,"name":"Tomato Soup","steam_id":76561198051834684,"connected_time":2995000000000,"state":"active","ping":62},{"user_id":827,"name":"Willy Wonker","steam_id":76561198082944789,"connected_time":691000000000,"state":"active","ping":70},{"user_id":820,"name":"〣dust〣 -she/her-","steam_id":76561198045218909,"connected_time":1195000000000,"state":"active","ping":44},{"user_id":806,"name":"Zee❤","steam_id":76561198274550638,"connected_time":2388000000000,"state":"active","ping":108},{"user_id":788,"name":"[TrC] Dackstrus","steam_id":76561197973518509,"connected_time":3650000000000,"state":"active","ping":64},{"user_id":818,"name":"SomeGuyWhoLikesPotatoes","steam_id":76561198110276797,"connected_time":1238000000000,"state":"active","ping":61},{"user_id":800,"name":"weed boner","steam_id":76561198034131572,"connected_time":2497000000000,"state":"active","ping":43},{"user_id":809,"name":"dougrocks421","steam_id":76561198165063918,"connected_time":2341000000000,"state":"active","ping":36},{"user_id":807,"name":"HaphazardHazel","steam_id":76561198316812693,"connected_time":2371000000000,"state":"active","ping":135},{"user_id":819,"name":"we did it mate","steam_id":76561199471434875,"connected_time":1229000000000,"state":"active","ping":42},{"user_id":824,"name":"Jahms","steam_id":76561198122043365,"connected_time":1002000000000,"state":"active","ping":162}]},{"server_id":119,"name":"Uncletopia | Seattle | 2 | All Maps","name_short":"sea-2","host":"sea-1.us.uncletopia.com","port":27025,"enabled":true,"region":"us-west","cc":"us","latitude":47.608013,"longitude":-122.33517,"reserved":0,"last_update":"0001-01-01T00:00:00Z","name_a2s":"Uncletopia | Seattle | 2 | All Maps","protocol":17,"map":"pl_barnblitz","folder":"tf","game":"Team Fortress","app_id":440,"player_count":24,"max_players":24,"Bots":0,"server_type":"Dedicated","server_os":"Linux","password":true,"vac":true,"version":"7757534","steam_id":85568392924469998,"keywords":["nocrits","nodmgspread","payload","uncletopia"],"game_id":440,"stv_port":27026,"stv_name":"Uncletopia | Seattle | 2 | All Maps | STV","players":[{"user_id":427,"name":"tuturu 🎵","steam_id":76561198093687851,"connected_time":1263000000000,"state":"active","ping":55},{"user_id":396,"name":"Loki❤ |She/her|","steam_id":76561198280150602,"connected_time":3995000000000,"state":"active","ping":56},{"user_id":337,"name":"FiddyFoMike","steam_id":76561198057072581,"connected_time":9220000000000,"state":"active","ping":61},{"user_id":420,"name":"TROY","steam_id":76561197983852176,"connected_time":2386000000000,"state":"active","ping":76},{"user_id":434,"name":"fortnite.jeremy.2010@gmail.com","steam_id":76561198123478546,"connected_time":216000000000,"state":"active","ping":43},{"user_id":412,"name":"EGaySports","steam_id":76561198983736610,"connected_time":2847000000000,"state":"active","ping":58},{"user_id":421,"name":"strong and healthy gamer","steam_id":76561198049489349,"connected_time":1619000000000,"state":"active","ping":54},{"user_id":424,"name":"Tom Skirrett","steam_id":76561198014600788,"connected_time":1277000000000,"state":"active","ping":68},{"user_id":391,"name":"doopsies","steam_id":76561198083000867,"connected_time":4619000000000,"state":"active","ping":51},{"user_id":407,"name":"YuuriDaThrilla","steam_id":76561198184814466,"connected_time":3659000000000,"state":"active","ping":45},{"user_id":422,"name":"The Super Mario Bros. Movie","steam_id":76561198871692156,"connected_time":1441000000000,"state":"active","ping":56},{"user_id":373,"name":"DistantJragon","steam_id":76561198117563641,"connected_time":5877000000000,"state":"active","ping":104},{"user_id":330,"name":"Court Wizard, Sir Dr. Clydesdal","steam_id":76561198149267697,"connected_time":9435000000000,"state":"active","ping":68},{"user_id":425,"name":"insane amphibian","steam_id":76561198221557344,"connected_time":1277000000000,"state":"active","ping":61},{"user_id":419,"name":"Bendidy","steam_id":76561198041964300,"connected_time":2410000000000,"state":"active","ping":77},{"user_id":394,"name":"That \"Spud\" Guy","steam_id":76561197997444126,"connected_time":4020000000000,"state":"active","ping":47},{"user_id":426,"name":"Iggledeebop","steam_id":76561198107095745,"connected_time":1274000000000,"state":"active","ping":56},{"user_id":431,"name":"Morgan Freeman","steam_id":76561197984792526,"connected_time":568000000000,"state":"active","ping":49},{"user_id":435,"name":"mayor of penjamin city","steam_id":76561198881144114,"connected_time":23000000000,"state":"active","ping":49},{"user_id":382,"name":"͓͓̝͙̠̝͖͉̥C͂͑ͬ͛͋̿","steam_id":76561198423390455,"connected_time":5430000000000,"state":"active","ping":57},{"user_id":432,"name":"Xevon","steam_id":76561198355618921,"connected_time":567000000000,"state":"active","ping":128},{"user_id":414,"name":"Hint of Sausage","steam_id":76561198098879664,"connected_time":2437000000000,"state":"active","ping":53},{"user_id":429,"name":"Amateur Glaswegian","steam_id":76561198030851956,"connected_time":725000000000,"state":"active","ping":56},{"user_id":415,"name":"Haydob13","steam_id":76561198110378191,"connected_time":2437000000000,"state":"active","ping":56}]},{"server_id":406,"name":"Uncletopia | Seattle | 3 | Stopwatch Beta","name_short":"sea-3","host":"sea-1.us.uncletopia.com","port":27035,"enabled":true,"region":"us-west","cc":"us","latitude":47.608013,"longitude":-122.33517,"reserved":0,"last_update":"0001-01-01T00:00:00Z","name_a2s":"Uncletopia | Seattle | 3 | Stopwatch Beta","protocol":17,"map":"cp_sunshine","folder":"tf","game":"Team Fortress","app_id":440,"player_count":24,"max_players":24,"Bots":0,"server_type":"Dedicated","server_os":"Linux","password":true,"vac":true,"version":"7757534","steam_id":85568392924515217,"keywords":["cp","nocrits","nodmgspread","uncletopia"],"game_id":440,"stv_port":27036,"stv_name":"Uncletopia | Seattle | 3 | Stopwatch Beta | STV","players":[{"user_id":204,"name":"Skoomer","steam_id":76561199076901508,"connected_time":4000000000,"state":"spawning","ping":222},{"user_id":149,"name":"WannaSeeA","steam_id":76561198097701042,"connected_time":2022000000000,"state":"active","ping":91},{"user_id":187,"name":"Gordon Ramsay.","steam_id":76561199167165627,"connected_time":706000000000,"state":"active","ping":57},{"user_id":199,"name":"Big ol' Willy Gaming","steam_id":76561198048545731,"connected_time":393000000000,"state":"active","ping":78},{"user_id":188,"name":"Mish","steam_id":76561198042287075,"connected_time":640000000000,"state":"active","ping":75},{"user_id":189,"name":"GIANT ISOPOD","steam_id":76561198073113902,"connected_time":638000000000,"state":"active","ping":106},{"user_id":200,"name":"r u guys going trick or treatin","steam_id":76561199074585110,"connected_time":368000000000,"state":"active","ping":78},{"user_id":203,"name":"spo","steam_id":76561198453203619,"connected_time":69000000000,"state":"active","ping":73},{"user_id":155,"name":"Wife Enjoyer","steam_id":76561198044109761,"connected_time":1749000000000,"state":"active","ping":94},{"user_id":173,"name":"old birb man","steam_id":76561199410269097,"connected_time":1394000000000,"state":"active","ping":171},{"user_id":191,"name":"tanner","steam_id":76561198137381904,"connected_time":553000000000,"state":"active","ping":94},{"user_id":123,"name":"Dauntless Duelist","steam_id":76561198025056018,"connected_time":3292000000000,"state":"active","ping":55},{"user_id":195,"name":"Goobins McMichael","steam_id":76561198142772896,"connected_time":470000000000,"state":"active","ping":68},{"user_id":141,"name":"EricFiredragon","steam_id":76561198189270586,"connected_time":2284000000000,"state":"active","ping":68},{"user_id":158,"name":"nonary","steam_id":76561198334082754,"connected_time":1737000000000,"state":"active","ping":108},{"user_id":202,"name":"Kaluka","steam_id":76561198036861445,"connected_time":114000000000,"state":"active","ping":128},{"user_id":178,"name":"Google","steam_id":76561198857237473,"connected_time":1104000000000,"state":"active","ping":46},{"user_id":175,"name":"Megumin Tech Tips","steam_id":76561198375650360,"connected_time":1308000000000,"state":"active","ping":87},{"user_id":63,"name":"Skaði","steam_id":76561198063949642,"connected_time":6432000000000,"state":"active","ping":41},{"user_id":197,"name":"uzr","steam_id":76561198799343084,"connected_time":441000000000,"state":"active","ping":83},{"user_id":179,"name":"Thanks Ants","steam_id":76561197966221018,"connected_time":1072000000000,"state":"active","ping":54},{"user_id":180,"name":"Thicctician","steam_id":76561198260284491,"connected_time":1065000000000,"state":"active","ping":85},{"user_id":198,"name":"1000 Ping","steam_id":76561198098330939,"connected_time":439000000000,"state":"active","ping":101},{"user_id":201,"name":"dysesthesia","steam_id":76561198027159018,"connected_time":356000000000,"state":"active","ping":140}]},{"server_id":17,"name":"Uncletopia | San Francisco | 1 | All Maps","name_short":"sfo-1","host":"sfo-1.us.uncletopia.com","port":27015,"enabled":true,"region":"us-west","cc":"us","latitude":37.77397,"longitude":-122.4313,"reserved":0,"last_update":"0001-01-01T00:00:00Z","name_a2s":"Uncletopia | San Francisco | 1 | All Maps","protocol":17,"map":"pl_swiftwater_final1","folder":"tf","game":"Team Fortress","app_id":440,"player_count":23,"max_players":24,"Bots":0,"server_type":"Dedicated","server_os":"Linux","password":true,"vac":true,"version":"7757534","steam_id":85568392924469999,"keywords":["nocrits","nodmgspread","payload","uncletopia"],"game_id":440,"stv_port":27016,"stv_name":"Uncletopia | San Francisco | 1 | All Maps | STV","players":[{"user_id":693,"name":"Azaheth","steam_id":76561198253616898,"connected_time":1753000000000,"state":"active","ping":58},{"user_id":697,"name":"inubby","steam_id":76561198018471589,"connected_time":1061000000000,"state":"active","ping":85},{"user_id":710,"name":"bruxing and boggling","steam_id":76561198204169516,"connected_time":2000000000,"state":"spawning","ping":75},{"user_id":698,"name":"Frosted Lighted Ornament","steam_id":76561197971250619,"connected_time":1021000000000,"state":"active","ping":47},{"user_id":687,"name":"l_teri","steam_id":76561198853507579,"connected_time":2228000000000,"state":"active","ping":110},{"user_id":699,"name":"Iskcal75","steam_id":76561199446407203,"connected_time":1018000000000,"state":"active","ping":168},{"user_id":673,"name":"Dosario","steam_id":76561198298095535,"connected_time":3007000000000,"state":"active","ping":79},{"user_id":700,"name":"Vegasx702s","steam_id":76561198799772874,"connected_time":985000000000,"state":"active","ping":76},{"user_id":701,"name":"Luigiminer8","steam_id":76561198803438732,"connected_time":960000000000,"state":"active","ping":66},{"user_id":708,"name":"Reagent","steam_id":76561198039663113,"connected_time":753000000000,"state":"active","ping":60},{"user_id":667,"name":"wait no stop dont do that","steam_id":76561199117157198,"connected_time":3608000000000,"state":"active","ping":108},{"user_id":703,"name":"themankeys","steam_id":76561198149339536,"connected_time":885000000000,"state":"active","ping":116},{"user_id":704,"name":"MR.PO","steam_id":76561198272031863,"connected_time":862000000000,"state":"active","ping":99},{"user_id":688,"name":"Doinnoid","steam_id":76561198262276139,"connected_time":1959000000000,"state":"active","ping":79},{"user_id":684,"name":"pepsi max","steam_id":76561198038568295,"connected_time":2707000000000,"state":"active","ping":117},{"user_id":705,"name":"MultiGamesz","steam_id":76561198136278198,"connected_time":855000000000,"state":"active","ping":98},{"user_id":690,"name":"Antzen","steam_id":76561198041343470,"connected_time":1856000000000,"state":"active","ping":54},{"user_id":706,"name":"rysworld","steam_id":76561198015372065,"connected_time":825000000000,"state":"active","ping":57},{"user_id":695,"name":"❄ ǝlddɐǝuᴉd ❄","steam_id":76561198041108726,"connected_time":1486000000000,"state":"active","ping":66},{"user_id":707,"name":"Grammer","steam_id":76561197977007845,"connected_time":814000000000,"state":"active","ping":60},{"user_id":685,"name":"dr pepper","steam_id":76561198032821962,"connected_time":2527000000000,"state":"active","ping":58},{"user_id":694,"name":"Dezzithediscoduck","steam_id":76561198037043489,"connected_time":1598000000000,"state":"active","ping":46},{"user_id":709,"name":"bird dude","steam_id":76561198163322767,"connected_time":746000000000,"state":"active","ping":98}]},{"server_id":18,"name":"Uncletopia | San Francisco | 2 | All Maps","name_short":"sfo-2","host":"sfo-1.us.uncletopia.com","port":27025,"enabled":true,"region":"us-west","cc":"us","latitude":37.77397,"longitude":-122.4313,"reserved":0,"last_update":"0001-01-01T00:00:00Z","name_a2s":"Uncletopia | San Francisco | 2 | All Maps","protocol":17,"map":"pl_upward","folder":"tf","game":"Team Fortress","app_id":440,"player_count":24,"max_players":24,"Bots":0,"server_type":"Dedicated","server_os":"Linux","password":true,"vac":true,"version":"7757534","steam_id":85568392924470000,"keywords":["nocrits","nodmgspread","payload","uncletopia"],"game_id":440,"stv_port":27026,"stv_name":"Uncletopia | San Francisco | 2 | All Maps | STV","players":[{"user_id":19,"name":"Tylody","steam_id":76561198229690552,"connected_time":2508000000000,"state":"active","ping":54},{"user_id":20,"name":"An old sandwich on the floor!","steam_id":76561198108791583,"connected_time":2506000000000,"state":"active","ping":70},{"user_id":21,"name":"Flamachio","steam_id":76561198095720134,"connected_time":2498000000000,"state":"active","ping":120},{"user_id":51,"name":"Mom","steam_id":76561198207936000,"connected_time":423000000000,"state":"active","ping":44},{"user_id":23,"name":"ender","steam_id":76561198092159728,"connected_time":2488000000000,"state":"active","ping":78},{"user_id":29,"name":"Waffle \u003c3","steam_id":76561199060912561,"connected_time":1695000000000,"state":"active","ping":81},{"user_id":25,"name":"Dorso","steam_id":76561198380590080,"connected_time":2371000000000,"state":"active","ping":69},{"user_id":52,"name":"I leaked the code","steam_id":76561198272327629,"connected_time":409000000000,"state":"active","ping":50},{"user_id":31,"name":"Jetstream Sam","steam_id":76561199076491805,"connected_time":1306000000000,"state":"active","ping":91},{"user_id":34,"name":"Comms","steam_id":76561198388364061,"connected_time":1207000000000,"state":"active","ping":52},{"user_id":33,"name":"Fresh","steam_id":76561198068565728,"connected_time":1250000000000,"state":"active","ping":45},{"user_id":35,"name":"sly1","steam_id":76561198049014977,"connected_time":1092000000000,"state":"active","ping":72},{"user_id":36,"name":"Riyker","steam_id":76561198298645133,"connected_time":1072000000000,"state":"active","ping":79},{"user_id":37,"name":"MissMatches_","steam_id":76561198048925904,"connected_time":1070000000000,"state":"active","ping":74},{"user_id":49,"name":"Noobot9k","steam_id":76561198067338651,"connected_time":442000000000,"state":"active","ping":84},{"user_id":39,"name":"Champagne Supernova","steam_id":76561198918114562,"connected_time":852000000000,"state":"active","ping":61},{"user_id":40,"name":"Lowtierdemo","steam_id":76561198342427583,"connected_time":834000000000,"state":"active","ping":109},{"user_id":53,"name":"KKRDD","steam_id":76561198291976960,"connected_time":80000000000,"state":"active","ping":76},{"user_id":54,"name":"uufyfuu","steam_id":76561198142787212,"connected_time":42000000000,"state":"active","ping":89},{"user_id":47,"name":"tf2","steam_id":76561198997614989,"connected_time":710000000000,"state":"active","ping":81},{"user_id":44,"name":"DEQUAVIS","steam_id":76561198843060075,"connected_time":760000000000,"state":"active","ping":60},{"user_id":45,"name":"Akkawi","steam_id":76561198203159952,"connected_time":758000000000,"state":"active","ping":61},{"user_id":46,"name":"[Bandit]","steam_id":76561197986919852,"connected_time":731000000000,"state":"active","ping":68},{"user_id":55,"name":"bruxing hater","steam_id":76561198069190432,"connected_time":19000000000,"state":"active","ping":129}]},{"server_id":19,"name":"Uncletopia | San Francisco | 3 | Stopwatch Beta","name_short":"sfo-3","host":"sfo-1.us.uncletopia.com","port":27035,"enabled":true,"region":"us-west","cc":"us","latitude":37.77397,"longitude":-122.4313,"reserved":0,"last_update":"0001-01-01T00:00:00Z","name_a2s":"Uncletopia | San Francisco | 3 | Stopwatch Beta","protocol":17,"map":"pl_borneo","folder":"tf","game":"Team Fortress","app_id":440,"player_count":0,"max_players":24,"Bots":0,"server_type":"Dedicated","server_os":"Linux","password":true,"vac":true,"version":"7757534","steam_id":85568392924742824,"keywords":["nocrits","nodmgspread","payload","uncletopia"],"game_id":440,"stv_port":27036,"stv_name":"Uncletopia | San Francisco | 3 | Stopwatch Beta | STV","players":null},{"server_id":20,"name":"Uncletopia | San Francisco | 4 | Community","name_short":"sfo-4","host":"sfo-1.us.uncletopia.com","port":27045,"enabled":true,"region":"us-west","cc":"us","latitude":37.77397,"longitude":-122.4313,"reserved":0,"last_update":"0001-01-01T00:00:00Z","name_a2s":"Uncletopia | San Francisco | 4 | Community","protocol":17,"map":"workshop/cp_mannbase_rc2a.ugc1900737467","folder":"tf","game":"Team Fortress","app_id":440,"player_count":0,"max_players":24,"Bots":0,"server_type":"Dedicated","server_os":"Linux","password":true,"vac":true,"version":"7757534","steam_id":85568392924742826,"keywords":["cp","nocrits","nodmgspread","uncletopia"],"game_id":440,"stv_port":27046,"stv_name":"Uncletopia | San Francisco | 4 | Community | STV","players":null},{"server_id":141,"name":"Uncletopia | Sydney | 1 | All Maps","name_short":"syd-1","host":"syd-1.au.uncletopia.com","port":27015,"enabled":true,"region":"au","cc":"au","latitude":-33.865143,"longitude":151.2099,"reserved":0,"last_update":"0001-01-01T00:00:00Z","name_a2s":"Uncletopia | Sydney | 1 | All Maps","protocol":17,"map":"pl_pier","folder":"tf","game":"Team Fortress","app_id":440,"player_count":24,"max_players":24,"Bots":0,"server_type":"Dedicated","server_os":"Linux","password":true,"vac":true,"version":"7757534","steam_id":85568392924470001,"keywords":["nocrits","nodmgspread","payload","uncletopia"],"game_id":440,"stv_port":27016,"stv_name":"Uncletopia | Sydney | 1 | All Maps | STV","players":[{"user_id":302,"name":"ANML","steam_id":76561198260039591,"connected_time":763000000000,"state":"active","ping":46},{"user_id":309,"name":"mind goblin","steam_id":76561198048064049,"connected_time":207000000000,"state":"active","ping":83},{"user_id":254,"name":"conga man","steam_id":76561198406959622,"connected_time":3588000000000,"state":"active","ping":55},{"user_id":298,"name":"TW_light2022","steam_id":76561199393566784,"connected_time":917000000000,"state":"active","ping":62},{"user_id":308,"name":"Barry Bougar M.D.","steam_id":76561198301282416,"connected_time":477000000000,"state":"active","ping":51},{"user_id":208,"name":"Really","steam_id":76561198153397177,"connected_time":5147000000000,"state":"active","ping":125},{"user_id":295,"name":"nojnosbod11","steam_id":76561199176012151,"connected_time":1032000000000,"state":"active","ping":59},{"user_id":296,"name":"kcajnosbod","steam_id":76561198400431574,"connected_time":1013000000000,"state":"active","ping":66},{"user_id":291,"name":"mark cark","steam_id":76561198095659574,"connected_time":1383000000000,"state":"active","ping":49},{"user_id":253,"name":"syl","steam_id":76561198049270541,"connected_time":3588000000000,"state":"active","ping":42},{"user_id":207,"name":"Raypest","steam_id":76561197980678745,"connected_time":5173000000000,"state":"active","ping":43},{"user_id":193,"name":"Del Davis","steam_id":76561199365669004,"connected_time":5685000000000,"state":"active","ping":58},{"user_id":300,"name":"hobo","steam_id":76561199046481213,"connected_time":847000000000,"state":"active","ping":66},{"user_id":280,"name":"Zeron","steam_id":76561198125778202,"connected_time":1723000000000,"state":"active","ping":58},{"user_id":271,"name":"bonehead #saveTF2","steam_id":76561199020855261,"connected_time":2517000000000,"state":"active","ping":72},{"user_id":305,"name":"Jersh","steam_id":76561198048641834,"connected_time":607000000000,"state":"active","ping":55},{"user_id":290,"name":"Hawk","steam_id":76561198135164277,"connected_time":1422000000000,"state":"active","ping":49},{"user_id":252,"name":"thrax","steam_id":76561197992385270,"connected_time":3599000000000,"state":"active","ping":49},{"user_id":301,"name":"novacks","steam_id":76561199248390911,"connected_time":780000000000,"state":"active","ping":57},{"user_id":287,"name":"juffowup","steam_id":76561198011036628,"connected_time":1564000000000,"state":"active","ping":66},{"user_id":231,"name":"Catto","steam_id":76561197999111589,"connected_time":3810000000000,"state":"active","ping":30},{"user_id":285,"name":"ToadFungus","steam_id":76561199219667039,"connected_time":1629000000000,"state":"active","ping":102},{"user_id":299,"name":"LittleAucky","steam_id":76561198040678996,"connected_time":865000000000,"state":"active","ping":76},{"user_id":306,"name":"Phranklin","steam_id":76561199472060833,"connected_time":598000000000,"state":"active","ping":83}]},{"server_id":123,"name":"Uncletopia | Sydney | 2 | All Maps","name_short":"syd-2","host":"syd-1.au.uncletopia.com","port":27025,"enabled":true,"region":"au","cc":"au","latitude":-33.865143,"longitude":151.2099,"reserved":0,"last_update":"0001-01-01T00:00:00Z","name_a2s":"Uncletopia | Sydney | 2 | All Maps","protocol":17,"map":"pl_swiftwater_final1","folder":"tf","game":"Team Fortress","app_id":440,"player_count":17,"max_players":24,"Bots":0,"server_type":"Dedicated","server_os":"Linux","password":true,"vac":true,"version":"7757534","steam_id":85568392924470002,"keywords":["nocrits","nodmgspread","payload","uncletopia"],"game_id":440,"stv_port":27026,"stv_name":"Uncletopia | Sydney | 2 | All Maps | STV","players":[{"user_id":14,"name":"Branko","steam_id":76561199262196710,"connected_time":3031000000000,"state":"active","ping":34},{"user_id":28,"name":"braddles","steam_id":76561198153854876,"connected_time":1170000000000,"state":"active","ping":36},{"user_id":16,"name":"Nutty Sandvich","steam_id":76561198089548531,"connected_time":2902000000000,"state":"active","ping":102},{"user_id":44,"name":"by_azura","steam_id":76561198116105044,"connected_time":99000000000,"state":"active","ping":43},{"user_id":21,"name":"pooparse","steam_id":76561198217959591,"connected_time":2116000000000,"state":"active","ping":60},{"user_id":20,"name":"cullen","steam_id":76561198128695488,"connected_time":2128000000000,"state":"active","ping":60},{"user_id":22,"name":"Percallione","steam_id":76561199212652320,"connected_time":2029000000000,"state":"active","ping":58},{"user_id":36,"name":"Fresh Produce Gaming","steam_id":76561198358483352,"connected_time":493000000000,"state":"active","ping":59},{"user_id":37,"name":"UpsideDown","steam_id":76561199099672129,"connected_time":458000000000,"state":"active","ping":44},{"user_id":38,"name":"MadmannsHat","steam_id":76561199063185304,"connected_time":445000000000,"state":"active","ping":81},{"user_id":34,"name":"scout tf2","steam_id":76561198251386932,"connected_time":649000000000,"state":"active","ping":65},{"user_id":35,"name":"JayTheLlamaKing","steam_id":76561198836354249,"connected_time":643000000000,"state":"active","ping":62},{"user_id":43,"name":"wse.","steam_id":76561198272148020,"connected_time":195000000000,"state":"active","ping":49},{"user_id":40,"name":"Mr. Dick™","steam_id":76561198047309044,"connected_time":355000000000,"state":"active","ping":246},{"user_id":45,"name":"Undefined_syntax","steam_id":76561199330079332,"connected_time":17000000000,"state":"active","ping":52},{"user_id":42,"name":"RR D0n","steam_id":76561199171436009,"connected_time":224000000000,"state":"active","ping":56},{"user_id":46,"name":"wirthy","steam_id":76561198061532381,"connected_time":15000000000,"state":"active","ping":51}]},{"server_id":395,"name":"Uncletopia | Sydney | 3 | All Maps","name_short":"syd-3","host":"syd-1.au.uncletopia.com","port":27035,"enabled":true,"region":"au","cc":"au","latitude":-33.865143,"longitude":151.2099,"reserved":0,"last_update":"0001-01-01T00:00:00Z","name_a2s":"Uncletopia | Sydney | 3 | All Maps","protocol":17,"map":"koth_lakeside_final","folder":"tf","game":"Team Fortress","app_id":440,"player_count":0,"max_players":24,"Bots":0,"server_type":"Dedicated","server_os":"Linux","password":true,"vac":true,"version":"7757534","steam_id":85568392925194467,"keywords":["cp","nocrits","nodmgspread","uncletopia"],"game_id":440,"stv_port":27036,"stv_name":"Uncletopia | Sydney | 3 | All Maps | STV","players":null},{"server_id":396,"name":"Uncletopia | Sydney | 4 | All Maps","name_short":"syd-4","host":"syd-1.au.uncletopia.com","port":27045,"enabled":true,"region":"au","cc":"au","latitude":-33.865143,"longitude":151.2099,"reserved":0,"last_update":"0001-01-01T00:00:00Z","name_a2s":"Uncletopia | Sydney | 4 | All Maps","protocol":17,"map":"koth_lakeside_final","folder":"tf","game":"Team Fortress","app_id":440,"player_count":0,"max_players":24,"Bots":0,"server_type":"Dedicated","server_os":"Linux","password":true,"vac":true,"version":"7757534","steam_id":85568392925397958,"keywords":["cp","nocrits","nodmgspread","uncletopia"],"game_id":440,"stv_port":27046,"stv_name":"Uncletopia | Sydney | 4 | All Maps | STV","players":null},{"server_id":58,"name":"Uncletopia | Sydney | 5 | Stopwatch Beta","name_short":"syd-5","host":"syd-1.au.uncletopia.com","port":27055,"enabled":true,"region":"au","cc":"au","latitude":-33.865143,"longitude":151.2099,"reserved":0,"last_update":"0001-01-01T00:00:00Z","name_a2s":"Uncletopia | Sydney | 5 | Stopwatch Beta","protocol":17,"map":"koth_highpass","folder":"tf","game":"Team Fortress","app_id":440,"player_count":0,"max_players":24,"Bots":0,"server_type":"Dedicated","server_os":"Linux","password":true,"vac":true,"version":"7757534","steam_id":85568392925397959,"keywords":["cp","nocrits","nodmgspread","uncletopia"],"game_id":440,"stv_port":27056,"stv_name":"Uncletopia | Sydney | 5 | Stopwatch Beta | STV","players":null},{"server_id":59,"name":"Uncletopia | Sydney | 6 | Community","name_short":"syd-6","host":"syd-1.au.uncletopia.com","port":27065,"enabled":true,"region":"au","cc":"au","latitude":-33.865143,"longitude":151.2099,"reserved":0,"last_update":"0001-01-01T00:00:00Z","name_a2s":"Uncletopia | Sydney | 6 | Community","protocol":17,"map":"workshop/koth_product_final.ugc454272353","folder":"tf","game":"Team Fortress","app_id":440,"player_count":0,"max_players":24,"Bots":0,"server_type":"Dedicated","server_os":"Linux","password":true,"vac":true,"version":"7757534","steam_id":85568392925397960,"keywords":["cp","nocrits","nodmgspread","uncletopia"],"game_id":440,"stv_port":27066,"stv_name":"Uncletopia | Sydney | 6 | Community | STV","players":null},{"server_id":49,"name":"Uncletopia | Warsaw | 1 | All Maps","name_short":"waw-1","host":"waw-1.pl.uncletopia.com","port":27015,"enabled":true,"region":"eu","cc":"pl","latitude":52.2297,"longitude":21.017532,"reserved":0,"last_update":"0001-01-01T00:00:00Z","name_a2s":"","protocol":0,"map":"","folder":"","game":"","app_id":0,"player_count":0,"max_players":0,"Bots":0,"server_type":"","server_os":"","password":false,"vac":false,"version":"","steam_id":0,"keywords":null,"game_id":0,"stv_port":0,"stv_name":"","players":null},{"server_id":50,"name":"Uncletopia | Warsaw | 2 | All Maps","name_short":"waw-2","host":"waw-1.pl.uncletopia.com","port":27025,"enabled":true,"region":"eu","cc":"pl","latitude":52.2297,"longitude":21.017532,"reserved":0,"last_update":"0001-01-01T00:00:00Z","name_a2s":"Uncletopia | Warsaw | 2 | All Maps","protocol":17,"map":"pl_badwater","folder":"tf","game":"Team Fortress","app_id":440,"player_count":0,"max_players":24,"Bots":0,"server_type":"Dedicated","server_os":"Linux","password":true,"vac":true,"version":"7757534","steam_id":85568392925397851,"keywords":["nocrits","nodmgspread","payload","uncletopia"],"game_id":440,"stv_port":27026,"stv_name":"Uncletopia | Warsaw | 2 | All Maps | STV","players":null},{"server_id":51,"name":"Uncletopia | Warsaw | 3 | All Maps","name_short":"waw-3","host":"waw-1.pl.uncletopia.com","port":27035,"enabled":true,"region":"eu","cc":"pl","latitude":52.2297,"longitude":21.017532,"reserved":0,"last_update":"0001-01-01T00:00:00Z","name_a2s":"Uncletopia | Warsaw | 3 | All Maps","protocol":17,"map":"koth_lakeside_final","folder":"tf","game":"Team Fortress","app_id":440,"player_count":0,"max_players":24,"Bots":0,"server_type":"Dedicated","server_os":"Linux","password":true,"vac":true,"version":"7757534","steam_id":85568392925397852,"keywords":["cp","nocrits","nodmgspread","uncletopia"],"game_id":440,"stv_port":27036,"stv_name":"Uncletopia | Warsaw | 3 | All Maps | STV","players":null},{"server_id":52,"name":"Uncletopia | Warsaw | 4 | All Maps","name_short":"waw-4","host":"waw-1.pl.uncletopia.com","port":27045,"enabled":true,"region":"eu","cc":"pl","latitude":52.2297,"longitude":21.017532,"reserved":0,"last_update":"0001-01-01T00:00:00Z","name_a2s":"Uncletopia | Warsaw | 4 | All Maps","protocol":17,"map":"koth_highpass","folder":"tf","game":"Team Fortress","app_id":440,"player_count":0,"max_players":24,"Bots":0,"server_type":"Dedicated","server_os":"Linux","password":true,"vac":true,"version":"7757534","steam_id":85568392925397853,"keywords":["cp","nocrits","nodmgspread","uncletopia"],"game_id":440,"stv_port":27046,"stv_name":"Uncletopia | Warsaw | 4 | All Maps | STV","players":null},{"server_id":53,"name":"Uncletopia | Warsaw | 5 | Stopwatch Beta","name_short":"waw-5","host":"waw-1.pl.uncletopia.com","port":27055,"enabled":true,"region":"eu","cc":"pl","latitude":52.2297,"longitude":21.017532,"reserved":0,"last_update":"0001-01-01T00:00:00Z","name_a2s":"Uncletopia | Warsaw | 5 | Stopwatch Beta","protocol":17,"map":"pl_barnblitz","folder":"tf","game":"Team Fortress","app_id":440,"player_count":0,"max_players":24,"Bots":0,"server_type":"Dedicated","server_os":"Linux","password":true,"vac":true,"version":"7757534","steam_id":85568392925397854,"keywords":["nocrits","nodmgspread","payload","uncletopia"],"game_id":440,"stv_port":27056,"stv_name":"Uncletopia | Warsaw | 5 | Stopwatch Beta | STV","players":null},{"server_id":54,"name":"Uncletopia | Warsaw | 6 | Community","name_short":"waw-6","host":"waw-1.pl.uncletopia.com","port":27065,"enabled":true,"region":"eu","cc":"pl","latitude":52.2297,"longitude":21.017532,"reserved":0,"last_update":"0001-01-01T00:00:00Z","name_a2s":"Uncletopia | Warsaw | 6 | Community","protocol":17,"map":"workshop/pl_vigil_rc9.ugc1266210012","folder":"tf","game":"Team Fortress","app_id":440,"player_count":0,"max_players":24,"Bots":0,"server_type":"Dedicated","server_os":"Linux","password":true,"vac":true,"version":"7757534","steam_id":85568392925397856,"keywords":["nocrits","nodmgspread","payload","uncletopia"],"game_id":440,"stv_port":27066,"stv_name":"Uncletopia | Warsaw | 6 | Community | STV","players":null}]}