{"status":true,"message":"","result":[{"server_id":9,"name":"Uncletopia | Atlanta | 1 | All Maps","name_short":"atl-1","host":"atl-1.us.uncletopia.com","port":27015,"enabled":true,"region":"us-east","cc":"us","latitude":33.753746,"longitude":-84.38633,"reserved":0,"last_update":"0001-01-01T00:00:00Z","name_a2s":"Uncletopia | Atlanta | 1 | All Maps","protocol":17,"map":"pl_badwater","folder":"tf","game":"Team Fortress","app_id":440,"player_count":19,"max_players":24,"Bots":0,"server_type":"Dedicated","server_os":"Linux","password":true,"vac":true,"version":"7757534","steam_id":85568392924469982,"keywords":["nocrits","nodmgspread","payload","uncletopia"],"game_id":440,"stv_port":27016,"stv_name":"Uncletopia | Atlanta | 1 | All Maps | STV","players":[{"user_id":9,"name":"ATL1 | Crystron","steam_id":76561198880437428,"connected_time":2717000000000,"state":"active","ping":76},{"user_id":44,"name":"Chimpish","steam_id":76561199263493270,"connected_time":95000000000,"state":"connecting","ping":75},{"user_id":17,"name":"One week at Frederick's","steam_id":76561198264752535,"connected_time":796000000000,"state":"active","ping":30},{"user_id":15,"name":"Dojodank","steam_id":76561198088894863,"connected_time":826000000000,"state":"active","ping":61},{"user_id":16,"name":"Teddybear","steam_id":76561198190486863,"connected_time":824000000000,"state":"active","ping":59},{"user_id":18,"name":"ECCO","steam_id":76561198002821513,"connected_time":749000000000,"state":"active","ping":69},{"user_id":23,"name":"üÖúüÖîüÖîüÖöüÖ¢üÖ£üÖî\ufffd\ufffd\ufffd","steam_id":76561197999748343,"connected_time":627000000000,"state":"active","ping":49},{"user_id":34,"name":"SuperFresh","steam_id":76561198200723198,"connected_time":466000000000,"state":"spawning","ping":65},{"user_id":24,"name":"FOrce of nature","steam_id":76561198390522839,"connected_time":603000000000,"state":"active","ping":742},{"user_id":25,"name":"kametro4","steam_id":76561198835430429,"connected_time":594000000000,"state":"active","ping":100},{"user_id":37,"name":"Uung","steam_id":76561198183956731,"connected_time":385000000000,"state":"active","ping":49},{"user_id":29,"name":"bad bitch lover","steam_id":76561199065645094,"connected_time":532000000000,"state":"active","ping":86},{"user_id":32,"name":"CFG Ponder","steam_id":76561198127039453,"connected_time":518000000000,"state":"active","ping":97},{"user_id":35,"name":"MjrMovnTARGET","steam_id":76561199125908849,"connected_time":419000000000,"state":"active","ping":70},{"user_id":36,"name":"lexapro delirium","steam_id":76561198343005244,"connected_time":413000000000,"state":"active","ping":109},{"user_id":38,"name":"Pathara44","steam_id":76561198048238620,"connected_time":380000000000,"state":"active","ping":69},{"user_id":40,"name":"Maverick","steam_id":76561198035615249,"connected_time":344000000000,"state":"active","ping":45},{"user_id":41,"name":"SeaBass","steam_id":76561198278914206,"connected_time":294000000000,"state":"active","ping":54},{"user_id":43,"name":"Guns Blazing","steam_id":76561198379461118,"connected_time":241000000000,"state":"active","ping":379}]},{"server_id":104,"name":"Uncletopia | Atlanta | 2 | All Maps","name_short":"atl-2","host":"atl-1.us.uncletopia.com","port":27025,"enabled":true,"region":"us-east","cc":"us","latitude":33.753746,"longitude":-84.38633,"reserved":0,"last_update":"0001-01-01T00:00:00Z","name_a2s":"Uncletopia | Atlanta | 2 | All Maps","protocol":17,"map":"cp_mountainlab","folder":"tf","game":"Team Fortress","app_id":440,"player_count":0,"max_players":24,"Bots":0,"server_type":"Dedicated","server_os":"Linux","password":true,"vac":true,"version":"7757534","steam_id":85568392924469983,"keywords":["cp","nocrits","nodmgspread","uncletopia"],"game_id":440,"stv_port":27026,"stv_name":"Uncletopia | Atlanta | 2 | All Maps | STV","players":null},{"server_id":400,"name":"Uncletopia | Atlanta | 3 | Community","name_short":"atl-3","host":"atl-1.us.uncletopia.com","port":27035,"enabled":true,"region":"us-east","cc":"us","latitude":33.753746,"longitude":-84.38633,"reserved":0,"last_update":"0001-01-01T00:00:00Z","name_a2s":"Uncletopia | Atlanta | 3 | Community","protocol":17,"map":"cp_snakewater_final1","folder":"tf","game":"Team Fortress","app_id":440,"player_count":0,"max_players":24,"Bots":0,"server_type":"Dedicated","server_os":"Linux","password":true,"vac":true,"version":"7757534","steam_id":85568392924515187,"keywords":["cp","nocrits","nodmgspread","uncletopia"],"game_id":440,"stv_port":27036,"stv_name":"Uncletopia | Atlanta | 3 | Community | STV","players":null},{"server_id":401,"name":"Uncletopia | Atlanta | 4 | No Payload","name_short":"atl-4","host":"atl-1.us.uncletopia.com","port":27045,"enabled":true,"region":"us-east","cc":"us","latitude":33.753746,"longitude":-84.38633,"reserved":0,"last_update":"0001-01-01T00:00:00Z","name_a2s":"","protocol":0,"map":"","folder":"","game":"","app_id":0,"player_count":0,"max_players":0,"Bots":0,"server_type":"","server_os":"","password":false,"vac":false,"version":"","steam_id":0,"keywords":null,"game_id":0,"stv_port":0,"stv_name":"","players":null},{"server_id":2,"name":"Uncletopia | Chicago | 1 | All Maps","name_short":"chi-1","host":"chi-1.us.uncletopia.com","port":27015,"enabled":true,"region":"us-central","cc":"us","latitude":41.881832,"longitude":-87.62318,"reserved":0,"last_update":"0001-01-01T00:00:00Z","name_a2s":"Uncletopia | Chicago | 1 | All Maps","protocol":17,"map":"pl_badwater","folder":"tf","game":"Team Fortress","app_id":440,"player_count":24,"max_players":24,"Bots":0,"server_type":"Dedicated","server_os":"Linux","password":true,"vac":true,"version":"7757534","steam_id":85568392924469984,"keywords":["nocrits","nodmgspread","payload","uncletopia"],"game_id":440,"stv_port":27016,"stv_name":"Uncletopia | Chicago | 1 | All Maps | STV","players":[{"user_id":176,"name":"WatchWill","steam_id":76561198157237945,"connected_time":3857000000000,"state":"active","ping":79},{"user_id":191,"name":"Ramadan Steve","steam_id":76561198138568488,"connected_time":2204000000000,"state":"active","ping":65},{"user_id":192,"name":"Nurse WigglyTuff","steam_id":76561198069711386,"connected_time":1919000000000,"state":"active","ping":68},{"user_id":172,"name":"reis","steam_id":76561199232952016,"connected_time":4201000000000,"state":"active","ping":194},{"user_id":207,"name":"donatello „ÉÑ","steam_id":76561198091157081,"connected_time":225000000000,"state":"active","ping":52},{"user_id":200,"name":"Rx Auntie","steam_id":76561198051618393,"connected_time":883000000000,"state":"active","ping":65},{"user_id":205,"name":"Macko","steam_id":76561198452005461,"connected_time":356000000000,"state":"active","ping":88},{"user_id":165,"name":"Milkf porn","steam_id":76561198152601497,"connected_time":4770000000000,"state":"active","ping":57},{"user_id":189,"name":"TheSmokingMan","steam_id":76561198032652995,"connected_time":2359000000000,"state":"active","ping":80},{"user_id":204,"name":"blakejack226","steam_id":76561199128917566,"connected_time":810000000000,"state":"active","ping":84},{"user_id":202,"name":"mechiimi ‚òÖ","steam_id":76561198321627268,"connected_time":871000000000,"state":"active","ping":111},{"user_id":179,"name":"4+1MyriadFuturesCosMo@BousouFC","steam_id":76561198181929019,"connected_time":3763000000000,"state":"active","ping":50},{"user_id":206,"name":"hatchetax","steam_id":76561199013337543,"connected_time":316000000000,"state":"active","ping":74},{"user_id":185,"name":"mangoman36","steam_id":76561198094984106,"connected_time":2908000000000,"state":"active","ping":59},{"user_id":110,"name":"BTS | Bumbler","steam_id":76561198048895038,"connected_time":9764000000000,"state":"active","ping":82},{"user_id":208,"name":"Zeek","steam_id":76561197987204351,"connected_time":81000000000,"state":"active","ping":60},{"user_id":53,"name":"ScantilyCladPlatypus","steam_id":76561199192800557,"connected_time":13436000000000,"state":"active","ping":142},{"user_id":170,"name":"Count Flandy","steam_id":76561198009708759,"connected_time":4261000000000,"state":"active","ping":77},{"user_id":156,"name":"IGotTheLettuce","steam_id":76561198062473897,"connected_time":5039000000000,"state":"active","ping":76},{"user_id":197,"name":"slumvillage","steam_id":76561199061380038,"connected_time":1367000000000,"state":"active","ping":75},{"user_id":193,"name":"Towns","steam_id":76561198984662863,"connected_time":1733000000000,"state":"active","ping":72},{"user_id":182,"name":"Yarn","steam_id":76561199227148369,"connected_time":2924000000000,"state":"active","ping":100},{"user_id":175,"name":"dobby","steam_id":76561198012274834,"connected_time":3969000000000,"state":"active","ping":89},{"user_id":199,"name":"Veir≈´ Viseris","steam_id":76561197989857176,"connected_time":1277000000000,"state":"active","ping":167}]},{"server_id":106,"name":"Uncletopia | Chicago | 2 | All Maps","name_short":"chi-2","host":"chi-1.us.uncletopia.com","port":27025,"enabled":true,"region":"us-central","cc":"us","latitude":41.881832,"longitude":-87.62318,"reserved":0,"last_update":"0001-01-01T00:00:00Z","name_a2s":"Uncletopia | Chicago | 2 | All Maps","protocol":17,"map":"pl_frontier_final","folder":"tf","game":"Team Fortress","app_id":440,"player_count":10,"max_players":24,"Bots":0,"server_type":"Dedicated","server_os":"Linux","password":true,"vac":true,"version":"7757534","steam_id":85568392924469985,"keywords":["nocrits","nodmgspread","payload","uncletopia"],"game_id":440,"stv_port":27026,"stv_name":"Uncletopia | Chicago | 2 | All Maps | STV","players":[{"user_id":14,"name":"Boiba Fett","steam_id":76561198027511884,"connected_time":1129000000000,"state":"active","ping":69},{"user_id":15,"name":"Chief Diggery K.","steam_id":76561198066629137,"connected_time":1060000000000,"state":"active","ping":91},{"user_id":16,"name":"Finchy22","steam_id":76561198063355600,"connected_time":849000000000,"state":"active","ping":63},{"user_id":17,"name":"Squash","steam_id":76561198376453255,"connected_time":826000000000,"state":"active","ping":62},{"user_id":18,"name":"Squatchamo","steam_id":76561198012968239,"connected_time":789000000000,"state":"active","ping":64},{"user_id":19,"name":"Meh","steam_id":76561198078187920,"connected_time":728000000000,"state":"active","ping":73},{"user_id":22,"name":"Spraxinator","steam_id":76561199083563607,"connected_time":456000000000,"state":"active","ping":417},{"user_id":21,"name":"Ringo x Seiran","steam_id":76561198357437908,"connected_time":596000000000,"state":"active","ping":57},{"user_id":23,"name":"shawty say i smell","steam_id":76561198059560324,"connected_time":446000000000,"state":"active","ping":85},{"user_id":24,"name":"Sunflower","steam_id":76561198081223793,"connected_time":193000000000,"state":"active","ping":54}]},{"server_id":402,"name":"Uncletopia | Chicago | 3 | All Maps","name_short":"chi-3","host":"chi-1.us.uncletopia.com","port":27035,"enabled":true,"region":"us-central","cc":"us","latitude":41.881832,"longitude":-87.62318,"reserved":0,"last_update":"0001-01-01T00:00:00Z","name_a2s":"Uncletopia | Chicago | 3 | All Maps","protocol":17,"map":"pl_upward","folder":"tf","game":"Team Fortress","app_id":440,"player_count":24,"max_players":24,"Bots":0,"server_type":"Dedicated","server_os":"Linux","password":true,"vac":true,"version":"7757534","steam_id":85568392924515191,"keywords":["nocrits","nodmgspread","payload","uncletopia"],"game_id":440,"stv_port":27036,"stv_name":"Uncletopia | Chicago | 3 | All Maps | STV","players":[{"user_id":68,"name":"schizophrenic Stack stan","steam_id":76561198214370515,"connected_time":2884000000000,"state":"active","ping":66},{"user_id":104,"name":"Donkski","steam_id":76561198406895347,"connected_time":415000000000,"state":"active","ping":72},{"user_id":99,"name":"bo scrungulus","steam_id":76561198038036122,"connected_time":633000000000,"state":"active","ping":75},{"user_id":103,"name":"War-thog125","steam_id":76561198139383220,"connected_time":499000000000,"state":"active","ping":66},{"user_id":98,"name":"DiscoTraveler","steam_id":76561199240168088,"connected_time":812000000000,"state":"active","ping":50},{"user_id":63,"name":"gugcat","steam_id":76561198129822860,"connected_time":3427000000000,"state":"active","ping":89},{"user_id":57,"name":"Roguefluff","steam_id":76561198169269105,"connected_time":4039000000000,"state":"active","ping":72},{"user_id":102,"name":"dingle whompus","steam_id":76561198084749109,"connected_time":532000000000,"state":"active","ping":83},{"user_id":97,"name":"Straight White Male","steam_id":76561199234350287,"connected_time":874000000000,"state":"active","ping":56},{"user_id":71,"name":"ascendant","steam_id":76561198077902438,"connected_time":2784000000000,"state":"active","ping":74},{"user_id":89,"name":"Back to Basics","steam_id":76561198125692166,"connected_time":1107000000000,"state":"active","ping":50},{"user_id":65,"name":"Resistance","steam_id":76561198146782074,"connected_time":3264000000000,"state":"active","ping":54},{"user_id":100,"name":"Yuri Tarded","steam_id":76561198034339940,"connected_time":622000000000,"state":"active","ping":59},{"user_id":105,"name":"Kirum","steam_id":76561199050174626,"connected_time":276000000000,"state":"active","ping":60},{"user_id":74,"name":"Brown_Dream","steam_id":76561198975766145,"connected_time":2492000000000,"state":"active","ping":79},{"user_id":86,"name":"JetZ","steam_id":76561199122488957,"connected_time":1119000000000,"state":"active","ping":70},{"user_id":76,"name":"H1SM43L","steam_id":76561198133168564,"connected_time":2478000000000,"state":"active","ping":164},{"user_id":39,"name":"BIG HOG","steam_id":76561198079923652,"connected_time":4987000000000,"state":"active","ping":76},{"user_id":92,"name":"hej","steam_id":76561197996366940,"connected_time":1087000000000,"state":"active","ping":59},{"user_id":95,"name":"MedRed‚Ñ¢ #IATAH","steam_id":76561198002962970,"connected_time":985000000000,"state":"active","ping":98},{"user_id":84,"name":"YammaY ‚òÜÔΩû","steam_id":76561197997576246,"connected_time":1454000000000,"state":"active","ping":56},{"user_id":78,"name":"Yune","steam_id":76561198039324447,"connected_time":2155000000000,"state":"active","ping":98},{"user_id":59,"name":"Monster","steam_id":76561198189429665,"connected_time":3856000000000,"state":"active","ping":75},{"user_id":107,"name":"Bread Baker","steam_id":76561198185335103,"connected_time":84000000000,"state":"active","ping":54}]},{"server_id":403,"name":"Uncletopia | Chicago | 4 | All Maps","name_short":"chi-4","host":"chi-1.us.uncletopia.com","port":27045,"enabled":true,"region":"us-central","cc":"us","latitude":41.881832,"longitude":-87.62318,"reserved":0,"last_update":"0001-01-01T00:00:00Z","name_a2s":"Uncletopia | Chicago | 4 | All Maps","protocol":17,"map":"koth_lakeside_final","folder":"tf","game":"Team Fortress","app_id":440,"player_count":0,"max_players":24,"Bots":0,"server_type":"Dedicated","server_os":"Linux","password":true,"vac":true,"version":"7757534","steam_id":85568392924515193,"keywords":["cp","nocrits","nodmgspread","uncletopia"],"game_id":440,"stv_port":27046,"stv_name":"Uncletopia | Chicago | 4 | All Maps | STV","players":null},{"server_id":36,"name":"Uncletopia | Chicago | 5 | All Maps","name_short":"chi-5","host":"chi-2.us.uncletopia.com","port":27015,"enabled":true,"region":"us-central","cc":"us","latitude":41.881832,"longitude":-87.62318,"reserved":0,"last_update":"0001-01-01T00:00:00Z","name_a2s":"Uncletopia | Chicago | 5 | All Maps","protocol":17,"map":"koth_cascade","folder":"tf","game":"Team Fortress","app_id":440,"player_count":0,"max_players":24,"Bots":0,"server_type":"Dedicated","server_os":"Linux","password":true,"vac":true,"version":"7757534","steam_id":85568392924866362,"keywords":["cp","nocrits","nodmgspread","uncletopia"],"game_id":440,"stv_port":27016,"stv_name":"Uncletopia | Chicago | 5 | All Maps | STV","players":null},{"server_id":37,"name":"Uncletopia | Chicago | 6 | All Maps","name_short":"chi-6","host":"chi-2.us.uncletopia.com","port":27025,"enabled":true,"region":"us-central","cc":"us","latitude":41.881832,"longitude":-87.62318,"reserved":0,"last_update":"0001-01-01T00:00:00Z","name_a2s":"Uncletopia | Chicago | 6 | All Maps","protocol":17,"map":"pl_borneo","folder":"tf","game":"Team Fortress","app_id":440,"player_count":0,"max_players":24,"Bots":0,"server_type":"Dedicated","server_os":"Linux","password":true,"vac":true,"version":"7757534","steam_id":85568392924866363,"keywords":["nocrits","nodmgspread","payload","uncletopia"],"game_id":440,"stv_port":27026,"stv_name":"Uncletopia | Chicago | 6 | All Maps | STV","players":null},{"server_id":38,"name":"Uncletopia | Chicago | 7 | Stopwatch Beta","name_short":"chi-7","host":"chi-2.us.uncletopia.com","port":27035,"enabled":true,"region":"us-central","cc":"us","latitude":41.881832,"longitude":-87.62318,"reserved":0,"last_update":"0001-01-01T00:00:00Z","name_a2s":"Uncletopia | Chicago | 7 | Stopwatch Beta","protocol":17,"map":"pl_barnblitz","folder":"tf","game":"Team Fortress","app_id":440,"player_count":0,"max_players":24,"Bots":0,"server_type":"Dedicated","server_os":"Linux","password":true,"vac":true,"version":"7757534","steam_id":85568392924866364,"keywords":["nocrits","nodmgspread","payload","uncletopia"],"game_id":440,"stv_port":27036,"stv_name":"Uncletopia | Chicago | 7 | Stopwatch Beta | STV","players":null},{"server_id":39,"name":"Uncletopia | Chicago | 8 | Community","name_short":"chi-8","host":"chi-2.us.uncletopia.com","port":27045,"enabled":true,"region":"us-central","cc":"us","latitude":41.881832,"longitude":-87.62318,"reserved":0,"last_update":"0001-01-01T00:00:00Z","name_a2s":"Uncletopia | Chicago | 8 | Community","protocol":17,"map":"koth_cascade","folder":"tf","game":"Team Fortress","app_id":440,"player_count":0,"max_players":24,"Bots":0,"server_type":"Dedicated","server_os":"Linux","password":true,"vac":true,"version":"7757534","steam_id":85568392924866365,"keywords":["cp","nocrits","nodmgspread","uncletopia"],"game_id":440,"stv_port":27046,"stv_name":"Uncletopia | Chicago | 8 | Community | STV","players":null},{"server_id":8,"name":"Uncletopia | Dallas | 1 | All Maps","name_short":"dal-1","host":"dal-1.us.uncletopia.com","port":27015,"enabled":true,"region":"us-central","cc":"us","latitude":32.779167,"longitude":-96.80889,"reserved":0,"last_update":"0001-01-01T00:00:00Z","name_a2s":"Uncletopia | Dallas | 1 | All Maps","protocol":17,"map":"koth_cascade","folder":"tf","game":"Team Fortress","app_id":440,"player_count":0,"max_players":24,"Bots":0,"server_type":"Dedicated","server_os":"Linux","password":true,"vac":true,"version":"7757534","steam_id":85568392924469986,"keywords":["cp","nocrits","nodmgspread","uncletopia"],"game_id":440,"stv_port":27016,"stv_name":"Uncletopia | Dallas | 1 | All Maps | STV","players":null},{"server_id":108,"name":"Uncletopia | Dallas | 2 | All Maps","name_short":"dal-2","host":"dal-1.us.uncletopia.com","port":27025,"enabled":true,"region":"us-central","cc":"us","latitude":32.779167,"longitude":-96.80889,"reserved":0,"last_update":"0001-01-01T00:00:00Z","name_a2s":"Uncletopia | Dallas | 2 | All Maps","protocol":17,"map":"pl_badwater","folder":"tf","game":"Team Fortress","app_id":440,"player_count":24,"max_players":24,"Bots":0,"server_type":"Dedicated","server_os":"Linux","password":true,"vac":true,"version":"7757534","steam_id":85568392924469988,"keywords":["nocrits","nodmgspread","payload","uncletopia"],"game_id":440,"stv_port":27026,"stv_name":"Uncletopia | Dallas | 2 | All Maps | STV","players":[{"user_id":17,"name":"rkp!","steam_id":76561199053070819,"connected_time":2025000000000,"state":"active","ping":60},{"user_id":29,"name":"Kid named download","steam_id":76561199192074448,"connected_time":1663000000000,"state":"active","ping":106},{"user_id":105,"name":"silvestrelops","steam_id":76561198275189720,"connected_time":168000000000,"state":"active","ping":105},{"user_id":11,"name":"Kurayami","steam_id":76561198089630547,"connected_time":3033000000000,"state":"active","ping":71},{"user_id":104,"name":"Dietrich","steam_id":76561198028163840,"connected_time":212000000000,"state":"active","ping":71},{"user_id":75,"name":"7 dollar stogie","steam_id":76561198191347183,"connected_time":873000000000,"state":"active","ping":86},{"user_id":90,"name":"Legit_Jaxer","steam_id":76561198172234053,"connected_time":585000000000,"state":"active","ping":106},{"user_id":23,"name":"Glitchpower64","steam_id":76561198994710718,"connected_time":1910000000000,"state":"active","ping":170},{"user_id":19,"name":"medome","steam_id":76561198399990744,"connected_time":1997000000000,"state":"active","ping":123},{"user_id":106,"name":"Acro Banwagon","steam_id":76561198092451804,"connected_time":152000000000,"state":"active","ping":106},{"user_id":25,"name":"Fanficfangal","steam_id":76561199010649578,"connected_time":1899000000000,"state":"active","ping":70},{"user_id":108,"name":"‚òºBarracuda‚òº","steam_id":76561198013022083,"connected_time":111000000000,"state":"active","ping":48},{"user_id":68,"name":"Argo","steam_id":76561198353725622,"connected_time":940000000000,"state":"active","ping":91},{"user_id":109,"name":"9Bendy9","steam_id":76561198164023601,"connected_time":101000000000,"state":"active","ping":86},{"user_id":27,"name":"Just A Red Cultist","steam_id":76561198369543102,"connected_time":1809000000000,"state":"active","ping":60},{"user_id":113,"name":"joethefool","steam_id":76561199015436319,"connected_time":25000000000,"state":"active","ping":108},{"user_id":31,"name":"Moonflower ‚ú¶","steam_id":76561198191782483,"connected_time":1650000000000,"state":"active","ping":48},{"user_id":32,"name":"dP | I'm in a Wookie Suit","steam_id":76561198083307644,"connected_time":1614000000000,"state":"active","ping":109},{"user_id":98,"name":"Woozy","steam_id":76561198008220735,"connected_time":418000000000,"state":"active","ping":75},{"user_id":70,"name":"(Maj) Dr Freak","steam_id":76561198046450332,"connected_time":926000000000,"state":"active","ping":87},{"user_id":112,"name":"catrinaisahuman","steam_id":76561198281355729,"connected_time":67000000000,"state":"active","ping":74},{"user_id":36,"name":"Z4LTte","steam_id":76561198283258068,"connected_time":1578000000000,"state":"active","ping":81},{"user_id":96,"name":"Big Cat, CEO of Pain Train Inc.","steam_id":76561198115695203,"connected_time":436000000000,"state":"active","ping":57},{"user_id":51,"name":"the smiling zombie","steam_id":76561199246231090,"connected_time":1297000000000,"state":"active","ping":84}]},{"server_id":5,"name":"Uncletopia | Frankfurt | 1 | All Maps","name_short":"frk-1","host":"frk-1.de.uncletopia.com","port":27015,"enabled":true,"region":"eu","cc":"de","latitude":50.110924,"longitude":8.682127,"reserved":0,"last_update":"0001-01-01T00:00:00Z","name_a2s":"Uncletopia | Frankfurt | 1 | All Maps","protocol":17,"map":"cp_powerhouse","folder":"tf","game":"Team Fortress","app_id":440,"player_count":24,"max_players":24,"Bots":0,"server_type":"Dedicated","server_os":"Linux","password":true,"vac":true,"version":"7757534","steam_id":85568392924469989,"keywords":["cp","nocrits","nodmgspread","uncletopia"],"game_id":440,"stv_port":27016,"stv_name":"Uncletopia | Frankfurt | 1 | All Maps | STV","players":[{"user_id":755,"name":"Wujek Cacek","steam_id":76561198010267943,"connected_time":1201000000000,"state":"active","ping":63},{"user_id":694,"name":"The Wolf Leader","steam_id":76561198038007462,"connected_time":6646000000000,"state":"active","ping":63},{"user_id":750,"name":"ereh","steam_id":76561198061239823,"connected_time":1269000000000,"state":"active","ping":66},{"user_id":745,"name":"„ÉÜ„Ç§„É´„Çπ","steam_id":76561198022403271,"connected_time":1861000000000,"state":"active","ping":45},{"user_id":757,"name":"Mad Cat Kivima","steam_id":76561198028959678,"connected_time":1162000000000,"state":"active","ping":97},{"user_id":763,"name":"lore","steam_id":76561198120984188,"connected_time":1046000000000,"state":"active","ping":58},{"user_id":698,"name":"rodeybodey","steam_id":76561198165351355,"connected_time":6539000000000,"state":"active","ping":93},{"user_id":756,"name":"Wululu","steam_id":76561198180657331,"connected_time":1197000000000,"state":"active","ping":59},{"user_id":758,"name":"schweppestr","steam_id":76561198037485644,"connected_time":1157000000000,"state":"active","ping":39},{"user_id":751,"name":"LarsInABox","steam_id":76561198028329262,"connected_time":1245000000000,"state":"active","ping":71},{"user_id":767,"name":"Yelowchy","steam_id":76561198199416121,"connected_time":121000000000,"state":"active","ping":61},{"user_id":729,"name":"Zy","steam_id":76561198346329494,"connected_time":3523000000000,"state":"active","ping":87},{"user_id":727,"name":"hourglass","steam_id":76561198166613799,"connected_time":3960000000000,"state":"active","ping":86},{"user_id":759,"name":"TryX","steam_id":76561199356781475,"connected_time":1145000000000,"state":"active","ping":67},{"user_id":760,"name":"BookFps","steam_id":76561199113947978,"connected_time":1145000000000,"state":"active","ping":72},{"user_id":761,"name":"Alarmed Felix","steam_id":76561198167208311,"connected_time":1116000000000,"state":"active","ping":60},{"user_id":743,"name":"walluu","steam_id":76561198121830870,"connected_time":2122000000000,"state":"active","ping":73},{"user_id":764,"name":"noodlehairronaldoprime","steam_id":76561199471954402,"connected_time":289000000000,"state":"active","ping":61},{"user_id":717,"name":"school playground bully","steam_id":76561198049581293,"connected_time":4765000000000,"state":"active","ping":74},{"user_id":736,"name":"XPullaHiiri","steam_id":76561198031652375,"connected_time":2341000000000,"state":"active","ping":90},{"user_id":707,"name":"Sinny","steam_id":76561197999598422,"connected_time":5440000000000,"state":"active","ping":70},{"user_id":765,"name":"–ö–æ—Å–ºi—á–Ω–∞ –∫–∏—Ü—è","steam_id":76561199004650924,"connected_time":155000000000,"state":"active","ping":103},{"user_id":754,"name":"Francis Crabb","steam_id":76561198259082154,"connected_time":1211000000000,"state":"active","ping":95},{"user_id":737,"name":"Makeways","steam_id":76561198274466477,"connected_time":2319000000000,"state":"active","ping":60}]},{"server_id":110,"name":"Uncletopia | Frankfurt | 2 | All Maps","name_short":"frk-2","host":"frk-1.de.uncletopia.com","port":27025,"enabled":true,"region":"eu","cc":"de","latitude":50.110924,"longitude":8.682127,"reserved":0,"last_update":"0001-01-01T00:00:00Z","name_a2s":"Uncletopia | Frankfurt | 2 | All Maps","protocol":17,"map":"ctf_turbine","folder":"tf","game":"Team Fortress","app_id":440,"player_count":24,"max_players":24,"Bots":0,"server_type":"Dedicated","server_os":"Linux","password":true,"vac":true,"version":"7757534","steam_id":85568392924469990,"keywords":["ctf","nocrits","nodmgspread","uncletopia"],"game_id":440,"stv_port":27026,"stv_name":"Uncletopia | Frankfurt | 2 | All Maps | STV","players":[{"user_id":164,"name":"Tonne","steam_id":76561197970856766,"connected_time":1563000000000,"state":"active","ping":49},{"user_id":126,"name":"OreHaX","steam_id":76561198272166623,"connected_time":3306000000000,"state":"active","ping":70},{"user_id":127,"name":"Creative","steam_id":76561198835034247,"connected_time":3293000000000,"state":"active","ping":76},{"user_id":175,"name":"Kentucky Fried Children","steam_id":76561198145686102,"connected_time":1101000000000,"state":"active","ping":60},{"user_id":172,"name":"Citizen 2-35","steam_id":76561197998355104,"connected_time":1249000000000,"state":"active","ping":59},{"user_id":125,"name":"Adib al-asfar","steam_id":76561198095691592,"connected_time":3400000000000,"state":"active","ping":64},{"user_id":181,"name":"small_boy","steam_id":76561199466836649,"connected_time":252000000000,"state":"active","ping":95},{"user_id":153,"name":"peppino","steam_id":76561198824712597,"connected_time":2027000000000,"state":"active","ping":83},{"user_id":188,"name":"sebciosz","steam_id":76561198275906734,"connected_time":149000000000,"state":"active","ping":72},{"user_id":162,"name":"The pusheen cat","steam_id":76561199002462516,"connected_time":1741000000000,"state":"active","ping":92},{"user_id":33,"name":"Valdis","steam_id":76561198057340489,"connected_time":8650000000000,"state":"active","ping":62},{"user_id":184,"name":"Cranto","steam_id":76561198101745576,"connected_time":210000000000,"state":"active","ping":155},{"user_id":159,"name":"Tekky","steam_id":76561197990987315,"connected_time":1809000000000,"state":"active","ping":49},{"user_id":186,"name":"Rui","steam_id":76561198263735498,"connected_time":193000000000,"state":"active","ping":78},{"user_id":180,"name":"Rosenmontag","steam_id":76561198079477964,"connected_time":292000000000,"state":"active","ping":42},{"user_id":157,"name":"JohkupohkuXD","steam_id":76561198391108762,"connected_time":1935000000000,"state":"active","ping":84},{"user_id":166,"name":"gagalak","steam_id":76561198089979108,"connected_time":1540000000000,"state":"active","ping":81},{"user_id":168,"name":"GamerPanda","steam_id":76561198061454277,"connected_time":1472000000000,"state":"active","ping":60},{"user_id":144,"name":"Alice can't hit pipes","steam_id":76561198052410860,"connected_time":2468000000000,"state":"active","ping":134},{"user_id":118,"name":"supercharger832","steam_id":76561198871408515,"connected_time":4003000000000,"state":"active","ping":54},{"user_id":187,"name":"SourcePan","steam_id":76561199070294504,"connected_time":174000000000,"state":"active","ping":98},{"user_id":189,"name":"Setter Ball Gaul","steam_id":76561198130427881,"connected_time":141000000000,"state":"active","ping":162},{"user_id":176,"name":"ANDROMEDA","steam_id":76561199213073534,"connected_time":1063000000000,"state":"active","ping":85},{"user_id":156,"name":"Gibbed_GIBus30","steam_id":76561199272782484,"connected_time":2014000000000,"state":"active","ping":58}]},{"server_id":308,"name":"Uncletopia | Frankfurt | 3 | All Maps","name_short":"frk-3","host":"frk-1.de.uncletopia.com","port":27035,"enabled":true,"region":"eu","cc":"de","latitude":50.110924,"longitude":8.682127,"reserved":0,"last_update":"0001-01-01T00:00:00Z","name_a2s":"Uncletopia | Frankfurt | 3 | All Maps","protocol":17,"map":"koth_highpass","folder":"tf","game":"Team Fortress","app_id":440,"player_count":0,"max_players":24,"Bots":0,"server_type":"Dedicated","server_os":"Linux","password":true,"vac":true,"version":"7757534","steam_id":85568392924504274,"keywords":["cp","nocrits","nodmgspread","uncletopia"],"game_id":440,"stv_port":27036,"stv_name":"Uncletopia | Frankfurt | 3 | All Maps | STV","players":null},{"server_id":309,"name":"Uncletopia | Frankfurt | 4 | All Maps","name_short":"frk-4","host":"frk-1.de.uncletopia.com","port":27045,"enabled":true,"region":"eu","cc":"de","latitude":50.110924,"longitude":8.682127,"reserved":0,"last_update":"0001-01-01T00:00:00Z","name_a2s":"Uncletopia | Frankfurt | 4 | All Maps","protocol":17,"map":"cp_snakewater_final1","folder":"tf","game":"Team Fortress","app_id":440,"player_count":3,"max_players":24,"Bots":0,"server_type":"Dedicated","server_os":"Linux","password":true,"vac":true,"version":"7757534","steam_id":85568392924504275,"keywords":["cp","nocrits","nodmgspread","uncletopia"],"game_id":440,"stv_port":27046,"stv_name":"Uncletopia | Frankfurt | 4 | All Maps | STV","players":[{"user_id":32,"name":"result","steam_id":76561198269200388,"connected_time":16000000000,"state":"active","ping":65},{"user_id":31,"name":"Flint","steam_id":76561197995920776,"connected_time":79000000000,"state":"active","ping":31},{"user_id":25,"name":"Magnificent Medic","steam_id":76561198388750592,"connected_time":484000000000,"state":"active","ping":72}]},{"server_id":310,"name":"Uncletopia | Frankfurt | 5 | All Maps","name_short":"frk-5","host":"frk-1.de.uncletopia.com","port":27055,"enabled":true,"region":"eu","cc":"de","latitude":50.110924,"longitude":8.682127,"reserved":0,"last_update":"0001-01-01T00:00:00Z","name_a2s":"Uncletopia | Frankfurt | 5 | All Maps","protocol":17,"map":"koth_lakeside_final","folder":"tf","game":"Team Fortress","app_id":440,"player_count":1,"max_players":24,"Bots":0,"server_type":"Dedicated","server_os":"Linux","password":true,"vac":true,"version":"7757534","steam_id":85568392924504277,"keywords":["cp","nocrits","nodmgspread","uncletopia"],"game_id":440,"stv_port":27056,"stv_name":"Uncletopia | Frankfurt | 5 | All Maps | STV","players":[{"user_id":10,"name":"strideŒî","steam_id":76561199007826093,"connected_time":477000000000,"state":"active","ping":76}]},{"server_id":311,"name":"Uncletopia | Frankfurt | 6 | All Maps","name_short":"frk-6","host":"frk-1.de.uncletopia.com","port":27065,"enabled":true,"region":"eu","cc":"de","latitude":50.110924,"longitude":8.682127,"reserved":0,"last_update":"0001-01-01T00:00:00Z","name_a2s":"Uncletopia | Frankfurt | 6 | All Maps","protocol":17,"map":"cp_altitude","folder":"tf","game":"Team Fortress","app_id":440,"player_count":0,"max_players":24,"Bots":0,"server_type":"Dedicated","server_os":"Linux","password":true,"vac":true,"version":"7757534","steam_id":85568392924504278,"keywords":["cp","nocrits","nodmgspread","uncletopia"],"game_id":440,"stv_port":27066,"stv_name":"Uncletopia | Frankfurt | 6 | All Maps | STV","players":null},{"server_id":23,"name":"Uncletopia | Frankfurt | 7 | Stopwatch Beta","name_short":"frk-7","host":"frk-1.de.uncletopia.com","port":27075,"enabled":true,"region":"eu","cc":"de","latitude":50.110924,"longitude":8.682127,"reserved":0,"last_update":"0001-01-01T00:00:00Z","name_a2s":"Uncletopia | Frankfurt | 7 | Stopwatch Beta","protocol":17,"map":"koth_highpass","folder":"tf","game":"Team Fortress","app_id":440,"player_count":0,"max_players":24,"Bots":0,"server_type":"Dedicated","server_os":"Linux","password":true,"vac":true,"version":"7757534","steam_id":85568392924742827,"keywords":["cp","nocrits","nodmgspread","uncletopia"],"game_id":440,"stv_port":27076,"stv_name":"Uncletopia | Frankfurt | 7 | Stopwatch Beta | STV","players":null},{"server_id":24,"name":"Uncletopia | Frankfurt | 8 | Community","name_short":"frk-8","host":"frk-1.de.uncletopia.com","port":27085,"enabled":true,"region":"eu","cc":"de","latitude":50.110924,"longitude":8.682127,"reserved":0,"last_update":"0001-01-01T00:00:00Z","name_a2s":"Uncletopia | Frankfurt | 8 | Community","protocol":17,"map":"koth_lakeside_final","folder":"tf","game":"Team Fortress","app_id":440,"player_count":0,"max_players":24,"Bots":0,"server_type":"Dedicated","server_os":"Linux","password":true,"vac":true,"version":"7757534","steam_id":85568392924742828,"keywords":["cp","nocrits","nodmgspread","uncletopia"],"game_id":440,"stv_port":27086,"stv_name":"Uncletopia | Frankfurt | 8 | Community | STV","players":null},{"server_id":202,"name":"Uncletopia | Hong Kong | 1 | All Maps","name_short":"hgk-1","host":"hgk-1.hk.uncletopia.com","port":27015,"enabled":true,"region":"asia","cc":"hk","latitude":22.302711,"longitude":114.177216,"reserved":0,"last_update":"0001-01-01T00:00:00Z","name_a2s":"Uncletopia | Hong Kong | 1 | All Maps","protocol":17,"map":"koth_nucleus","folder":"tf","game":"Team Fortress","app_id":440,"player_count":2,"max_players":24,"Bots":0,"server_type":"Dedicated","server_os":"Linux","password":true,"vac":true,"version":"7757534","steam_id":85568392924494504,"keywords":["cp","nocrits","nodmgspread","uncletopia"],"game_id":440,"stv_port":27016,"stv_name":"Uncletopia | Hong Kong | 1 | All Maps | STV","players":[{"user_id":395,"name":"IDontLaunder","steam_id":76561199103223706,"connected_time":813000000000,"state":"active","ping":165},{"user_id":362,"name":"silverhouse7","steam_id":76561198349634906,"connected_time":6400000000000,"state":"active","ping":60}]},{"server_id":1,"name":"Uncletopia | Los Angeles | 1 | All Maps","name_short":"lax-1","host":"lax-1.us.uncletopia.com","port":27015,"enabled":true,"region":"us-west","cc":"us","latitude":33.94279,"longitude":-118.41004,"reserved":0,"last_update":"0001-01-01T00:00:00Z","name_a2s":"Uncletopia | Los Angeles | 1 | All Maps","protocol":17,"map":"koth_lakeside_final","folder":"tf","game":"Team Fortress","app_id":440,"player_count":0,"max_players":24,"Bots":0,"server_type":"Dedicated","server_os":"Linux","password":true,"vac":true,"version":"7757534","steam_id":85568392924469991,"keywords":["cp","nocrits","nodmgspread","uncletopia"],"game_id":440,"stv_port":27016,"stv_name":"Uncletopia | Los Angeles | 1 | All Maps | STV","players":null},{"server_id":112,"name":"Uncletopia | Los Angeles | 2 | All Maps","name_short":"lax-2","host":"lax-1.us.uncletopia.com","port":27025,"enabled":true,"region":"us-west","cc":"us","latitude":33.94279,"longitude":-118.41004,"reserved":0,"last_update":"0001-01-01T00:00:00Z","name_a2s":"Uncletopia | Los Angeles | 2 | All Maps","protocol":17,"map":"pl_badwater","folder":"tf","game":"Team Fortress","app_id":440,"player_count":0,"max_players":24,"Bots":0,"server_type":"Dedicated","server_os":"Linux","password":true,"vac":true,"version":"7757534","steam_id":85568392924469992,"keywords":["nocrits","nodmgspread","payload","uncletopia"],"game_id":440,"stv_port":27026,"stv_name":"Uncletopia | Los Angeles | 2 | All Maps | STV","players":null},{"server_id":324,"name":"Uncletopia | Los Angeles | 3 | All Maps","name_short":"lax-3","host":"lax-1.us.uncletopia.com","port":27035,"enabled":true,"region":"us-west","cc":"us","latitude":33.94279,"longitude":-118.41004,"reserved":0,"last_update":"0001-01-01T00:00:00Z","name_a2s":"Uncletopia | Los Angeles | 3 | All Maps","protocol":17,"map":"pl_barnblitz","folder":"tf","game":"Team Fortress","app_id":440,"player_count":0,"max_players":24,"Bots":0,"server_type":"Dedicated","server_os":"Linux","password":true,"vac":true,"version":"7757534","steam_id":85568392924510198,"keywords":["nocrits","nodmgspread","payload","uncletopia"],"game_id":440,"stv_port":27036,"stv_name":"Uncletopia | Los Angeles | 3 | All Maps | STV","players":null},{"server_id":25,"name":"Uncletopia | Los Angeles | 4 | Stopwatch Beta","name_short":"lax-4","host":"lax-1.us.uncletopia.com","port":27045,"enabled":true,"region":"us-west","cc":"us","latitude":33.94279,"longitude":-118.41004,"reserved":0,"last_update":"0001-01-01T00:00:00Z","name_a2s":"Uncletopia | Los Angeles | 4 | Stopwatch Beta","protocol":17,"map":"pl_swiftwater_final1","folder":"tf","game":"Team Fortress","app_id":440,"player_count":0,"max_players":24,"Bots":0,"server_type":"Dedicated","server_os":"Linux","password":true,"vac":true,"version":"7757534","steam_id":85568392924510199,"keywords":["nocrits","nodmgspread","payload","uncletopia"],"game_id":440,"stv_port":27046,"stv_name":"Uncletopia | Los Angeles | 4 | Stopwatch Beta | STV","players":null},{"server_id":11,"name":"Uncletopia | London | 1 | All Maps","name_short":"lon-1","host":"lon-1.uk.uncletopia.com","port":27015,"enabled":true,"region":"eu","cc":"gb","latitude":51.509865,"longitude":-0.118092,"reserved":0,"last_update":"0001-01-01T00:00:00Z","name_a2s":"Uncletopia | London | 1 | All Maps","protocol":17,"map":"cp_steel","folder":"tf","game":"Team Fortress","app_id":440,"player_count":24,"max_players":24,"Bots":0,"server_type":"Dedicated","server_os":"Linux","password":true,"vac":true,"version":"7757534","steam_id":85568392924367362,"keywords":["cp","nocrits","nodmgspread","uncletopia"],"game_id":440,"stv_port":27016,"stv_name":"Uncletopia | London | 1 | All Maps | STV","players":[{"user_id":518,"name":"Wyro","steam_id":76561199176835169,"connected_time":1075000000000,"state":"active","ping":52},{"user_id":459,"name":"Sara","steam_id":76561198065287954,"connected_time":6137000000000,"state":"active","ping":84},{"user_id":510,"name":"the","steam_id":76561198079277466,"connected_time":1999000000000,"state":"active","ping":61},{"user_id":470,"name":"‚Ä† RUBENEITOR ‚Ä†","steam_id":76561198017805714,"connected_time":4871000000000,"state":"active","ping":75},{"user_id":451,"name":"rz-/Atomic Punch","steam_id":76561199195508541,"connected_time":6610000000000,"state":"active","ping":73},{"user_id":486,"name":"Milca_11 [Wielder of Ham]","steam_id":76561198848650365,"connected_time":4449000000000,"state":"active","ping":81},{"user_id":520,"name":"Fwebbie","steam_id":76561199006875621,"connected_time":724000000000,"state":"active","ping":61},{"user_id":485,"name":"Cheers Mate!","steam_id":76561198265192382,"connected_time":4491000000000,"state":"active","ping":71},{"user_id":493,"name":"CAR DOOR","steam_id":76561198055283295,"connected_time":3699000000000,"state":"active","ping":56},{"user_id":501,"name":"y'all","steam_id":76561198106049954,"connected_time":2959000000000,"state":"active","ping":88},{"user_id":463,"name":"Ape","steam_id":76561198322703872,"connected_time":5539000000000,"state":"active","ping":71},{"user_id":526,"name":"ü¶ê Tust ü¶ê","steam_id":76561198045694677,"connected_time":448000000000,"state":"active","ping":47},{"user_id":513,"name":"Ablativus","steam_id":76561198025698470,"connected_time":1680000000000,"state":"active","ping":82},{"user_id":519,"name":"Jinx my beloved","steam_id":76561198819986745,"connected_time":1050000000000,"state":"active","ping":97},{"user_id":494,"name":"I AM THE ONE WHO BUILDS","steam_id":76561199438413886,"connected_time":3698000000000,"state":"active","ping":157},{"user_id":517,"name":"cosmetical","steam_id":76561198444036574,"connected_time":1180000000000,"state":"active","ping":57},{"user_id":527,"name":"Hookiest Owler","steam_id":76561198872013525,"connected_time":277000000000,"state":"active","ping":161},{"user_id":460,"name":"Space","steam_id":76561198021572167,"connected_time":5839000000000,"state":"active","ping":45},{"user_id":525,"name":"Jeeworth","steam_id":76561198797972504,"connected_time":537000000000,"state":"active","ping":86},{"user_id":515,"name":"JOHN GAMING (depressed)","steam_id":76561199085822219,"connected_time":1442000000000,"state":"active","ping":80},{"user_id":508,"name":"Desj","steam_id":76561198114212636,"connected_time":2380000000000,"state":"active","ping":47},{"user_id":506,"name":"Lyra","steam_id":76561198043601838,"connected_time":2446000000000,"state":"active","ping":70},{"user_id":329,"name":"Birdseye","steam_id":76561198025852216,"connected_time":16955000000000,"state":"active","ping":50},{"user_id":523,"name":"StarBridge56","steam_id":76561198154221684,"connected_time":575000000000,"state":"active","ping":54}]},{"server_id":114,"name":"Uncletopia | London | 2 | All Maps","name_short":"lon-2","host":"lon-1.uk.uncletopia.com","port":27025,"enabled":true,"region":"eu","cc":"gb","latitude":51.509865,"longitude":-0.118092,"reserved":0,"last_update":"0001-01-01T00:00:00Z","name_a2s":"Uncletopia | London | 2 | All Maps","protocol":17,"map":"pl_badwater","folder":"tf","game":"Team Fortress","app_id":440,"player_count":24,"max_players":24,"Bots":0,"server_type":"Dedicated","server_os":"Linux","password":true,"vac":true,"version":"7757534","steam_id":85568392924470941,"keywords":["nocrits","nodmgspread","payload","uncletopia"],"game_id":440,"stv_port":27026,"stv_name":"Uncletopia | London | 2 | All Maps | STV","players":[{"user_id":357,"name":"The Evil","steam_id":76561198005342133,"connected_time":1695000000000,"state":"active","ping":43},{"user_id":349,"name":"SpilledMilk","steam_id":76561198174123971,"connected_time":2386000000000,"state":"active","ping":60},{"user_id":376,"name":"GEP Gun","steam_id":76561197981821003,"connected_time":692000000000,"state":"active","ping":60},{"user_id":384,"name":"CarbonPan","steam_id":76561198072169983,"connected_time":64000000000,"state":"active","ping":105},{"user_id":329,"name":"Man Made Mad","steam_id":76561198808819694,"connected_time":3721000000000,"state":"active","ping":50},{"user_id":216,"name":"Fat Pigeon","steam_id":76561198817940142,"connected_time":12106000000000,"state":"active","ping":47},{"user_id":350,"name":"muZ","steam_id":76561198060145190,"connected_time":2377000000000,"state":"active","ping":63},{"user_id":362,"name":"wouris","steam_id":76561198876188003,"connected_time":1233000000000,"state":"active","ping":60},{"user_id":360,"name":"static","steam_id":76561198836825741,"connected_time":1608000000000,"state":"active","ping":45},{"user_id":368,"name":"Trokmanaoul","steam_id":76561199148272568,"connected_time":943000000000,"state":"active","ping":92},{"user_id":383,"name":"Oldworldjazz","steam_id":76561198184632645,"connected_time":201000000000,"state":"active","ping":108},{"user_id":340,"name":"sekaaaaaaaaaaaaaaaaa","steam_id":76561198158219063,"connected_time":2967000000000,"state":"active","ping":105},{"user_id":251,"name":"He could be any one of us","steam_id":76561198320506848,"connected_time":9613000000000,"state":"active","ping":45},{"user_id":361,"name":"Brallerin","steam_id":76561198060026189,"connected_time":1606000000000,"state":"active","ping":56},{"user_id":374,"name":"Blob","steam_id":76561197971418993,"connected_time":755000000000,"state":"active","ping":95},{"user_id":334,"name":"Lowy","steam_id":76561198031470048,"connected_time":3343000000000,"state":"active","ping":49},{"user_id":382,"name":"Colonel 100","steam_id":76561198090379437,"connected_time":203000000000,"state":"active","ping":55},{"user_id":363,"name":"tori_spring","steam_id":76561199375975842,"connected_time":1112000000000,"state":"active","ping":53},{"user_id":261,"name":"EdSuedi","steam_id":76561199387956486,"connected_time":8593000000000,"state":"active","ping":63},{"user_id":343,"name":"Milfshake","steam_id":76561198208740557,"connected_time":2451000000000,"state":"active","ping":61},{"user_id":380,"name":"on1on (julienned)","steam_id":76561197995304137,"connected_time":226000000000,"state":"active","ping":73},{"user_id":342,"name":"Ethical Cannibalism","steam_id":76561198060638325,"connected_time":2674000000000,"state":"active","ping":49},{"user_id":358,"name":"‚ô• Aura ‚òÖ","steam_id":76561198066258544,"connected_time":1654000000000,"state":"active","ping":68},{"user_id":372,"name":"D√•vid","steam_id":76561198184135755,"connected_time":883000000000,"state":"active","ping":68}]},{"server_id":320,"name":"Uncletopia | London | 3 | All Maps","name_short":"lon-3","host":"lon-1.uk.uncletopia.com","port":27035,"enabled":true,"region":"eu","cc":"gb","latitude":51.509865,"longitude":-0.118092,"reserved":0,"last_update":"0001-01-01T00:00:00Z","name_a2s":"Uncletopia | London | 3 | All Maps","protocol":17,"map":"pl_upward","folder":"tf","game":"Team Fortress","app_id":440,"player_count":24,"max_players":24,"Bots":0,"server_type":"Dedicated","server_os":"Linux","password":true,"vac":true,"version":"7757534","steam_id":85568392924510192,"keywords":["nocrits","nodmgspread","payload","uncletopia"],"game_id":440,"stv_port":27036,"stv_name":"Uncletopia | London | 3 | All Maps | STV","players":[{"user_id":196,"name":"‚ô¨ ·¥õ·¥á·¥ã…™·¥õ ‚ô¨","steam_id":76561198111704722,"connected_time":62000000000,"state":"active","ping":100},{"user_id":187,"name":"Kumquat","steam_id":76561198200490386,"connected_time":488000000000,"state":"active","ping":78},{"user_id":195,"name":"kotamine","steam_id":76561198068907991,"connected_time":220000000000,"state":"active","ping":75},{"user_id":142,"name":"cool guy","steam_id":76561199244543995,"connected_time":3650000000000,"state":"active","ping":74},{"user_id":191,"name":"yawnn","steam_id":76561198088624259,"connected_time":423000000000,"state":"active","ping":58},{"user_id":166,"name":"After8","steam_id":76561198090750865,"connected_time":2075000000000,"state":"active","ping":72},{"user_id":160,"name":"Wattseyy","steam_id":76561198248567360,"connected_time":2171000000000,"state":"active","ping":102},{"user_id":174,"name":"‚ú™ Danny","steam_id":76561198104483241,"connected_time":1680000000000,"state":"active","ping":51},{"user_id":158,"name":"dogs_drink_water","steam_id":76561198296630670,"connected_time":2286000000000,"state":"active","ping":87},{"user_id":161,"name":"snork","steam_id":76561198138386260,"connected_time":2127000000000,"state":"active","ping":62},{"user_id":136,"name":"lark","steam_id":76561198091724522,"connected_time":4146000000000,"state":"active","ping":56},{"user_id":192,"name":"laser","steam_id":76561198036030697,"connected_time":330000000000,"state":"active","ping":58},{"user_id":73,"name":"Kenopsia","steam_id":76561198126750888,"connected_time":8594000000000,"state":"active","ping":88},{"user_id":188,"name":"mauvais √† l'os lft","steam_id":76561198798803845,"connected_time":487000000000,"state":"active","ping":45},{"user_id":190,"name":"Pitch Black","steam_id":76561198063095696,"connected_time":443000000000,"state":"active","ping":74},{"user_id":194,"name":"suigi","steam_id":76561198037810091,"connected_time":278000000000,"state":"active","ping":118},{"user_id":193,"name":"Trench_Hands","steam_id":76561198063348835,"connected_time":302000000000,"state":"active","ping":66},{"user_id":141,"name":"Sirzen","steam_id":76561198170155434,"connected_time":3742000000000,"state":"active","ping":51},{"user_id":182,"name":"etc","steam_id":76561197998394797,"connected_time":1066000000000,"state":"active","ping":59},{"user_id":173,"name":"BlueBlueFox","steam_id":76561198053817230,"connected_time":1701000000000,"state":"active","ping":84},{"user_id":178,"name":"Testicular torsion","steam_id":76561198119547399,"connected_time":1576000000000,"state":"active","ping":63},{"user_id":185,"name":"Gerwyn Price","steam_id":76561198307037169,"connected_time":600000000000,"state":"active","ping":56},{"user_id":162,"name":"Fran","steam_id":76561199070516960,"connected_time":2119000000000,"state":"active","ping":68},{"user_id":171,"name":"Packet","steam_id":76561199173195875,"connected_time":1722000000000,"state":"active","ping":111}]},{"server_id":321,"name":"Uncletopia | London | 4 | All Maps","name_short":"lon-4","host":"lon-1.uk.uncletopia.com","port":27045,"enabled":true,"region":"eu","cc":"gb","latitude":51.509865,"longitude":-0.118092,"reserved":0,"last_update":"0001-01-01T00:00:00Z","name_a2s":"Uncletopia | London | 4 | All Maps","protocol":17,"map":"cp_dustbowl","folder":"tf","game":"Team Fortress","app_id":440,"player_count":24,"max_players":24,"Bots":0,"server_type":"Dedicated","server_os":"Linux","password":true,"vac":true,"version":"7757534","steam_id":85568392924510193,"keywords":["cp","nocrits","nodmgspread","uncletopia"],"game_id":440,"stv_port":27046,"stv_name":"Uncletopia | London | 4 | All Maps | STV","players":[{"user_id":155,"name":"skilltissues","steam_id":76561198025828664,"connected_time":373000000000,"state":"active","ping":58},{"user_id":151,"name":"Gregsticles","steam_id":76561198805480191,"connected_time":963000000000,"state":"active","ping":54},{"user_id":50,"name":":)","steam_id":76561198039964082,"connected_time":7604000000000,"state":"active","ping":67},{"user_id":149,"name":"weed fairy","steam_id":76561197998843096,"connected_time":985000000000,"state":"active","ping":76},{"user_id":118,"name":"engie?","steam_id":76561198331852832,"connected_time":2728000000000,"state":"active","ping":47},{"user_id":154,"name":"Sza","steam_id":76561198022132105,"connected_time":542000000000,"state":"active","ping":63},{"user_id":150,"name":"Coldary","steam_id":76561198158968852,"connected_time":971000000000,"state":"active","ping":69},{"user_id":147,"name":"stace","steam_id":76561198115041415,"connected_time":1065000000000,"state":"active","ping":64},{"user_id":145,"name":"Jabussy","steam_id":76561198111148719,"connected_time":1470000000000,"state":"active","ping":70},{"user_id":132,"name":"Vibing Wave","steam_id":76561198866358613,"connected_time":1797000000000,"state":"active","ping":172},{"user_id":133,"name":"hbivnm","steam_id":76561197996468677,"connected_time":1784000000000,"state":"active","ping":60},{"user_id":103,"name":"Reverie","steam_id":76561198987005784,"connected_time":4348000000000,"state":"active","ping":150},{"user_id":134,"name":"Toebeans","steam_id":76561198049890080,"connected_time":1779000000000,"state":"active","ping":48},{"user_id":152,"name":"goblin","steam_id":76561199010825303,"connected_time":957000000000,"state":"active","ping":78},{"user_id":146,"name":"0xDEADBEEF","steam_id":76561199075416111,"connected_time":1328000000000,"state":"active","ping":76},{"user_id":135,"name":"Tre3","steam_id":76561198054795379,"connected_time":1770000000000,"state":"active","ping":60},{"user_id":144,"name":"Edla","steam_id":76561198062815315,"connected_time":1606000000000,"state":"active","ping":118},{"user_id":137,"name":"sanjifan2010","steam_id":76561198884659731,"connected_time":1732000000000,"state":"active","ping":105},{"user_id":139,"name":"RFireRed","steam_id":76561198982078622,"connected_time":1720000000000,"state":"active","ping":64},{"user_id":76,"name":"NatP","steam_id":76561198012083811,"connected_time":6116000000000,"state":"active","ping":76},{"user_id":140,"name":"Darkny","steam_id":76561198045570547,"connected_time":1681000000000,"state":"active","ping":103},{"user_id":141,"name":"maci","steam_id":76561198029150178,"connected_time":1659000000000,"state":"active","ping":70},{"user_id":156,"name":"IJN Amagi","steam_id":76561198090874324,"connected_time":148000000000,"state":"active","ping":86},{"user_id":153,"name":"rosepinkyfuzz","steam_id":76561198018546334,"connected_time":938000000000,"state":"active","ping":75}]},{"server_id":21,"name":"Uncletopia | London | 5 | All Maps","name_short":"lon-5","host":"lon-1.uk.uncletopia.com","port":27055,"enabled":true,"region":"eu","cc":"gb","latitude":51.509865,"longitude":-0.118092,"reserved":0,"last_update":"0001-01-01T00:00:00Z","name_a2s":"Uncletopia | London | 5 | All Maps","protocol":17,"map":"pl_borneo","folder":"tf","game":"Team Fortress","app_id":440,"player_count":0,"max_players":24,"Bots":0,"server_type":"Dedicated","server_os":"Linux","password":true,"vac":true,"version":"7757534","steam_id":85568392924742829,"keywords":["nocrits","nodmgspread","payload","uncletopia"],"game_id":440,"stv_port":27056,"stv_name":"Uncletopia | London | 5 | All Maps | STV","players":null},{"server_id":22,"name":"Uncletopia | London | 6 | All Maps","name_short":"lon-6","host":"lon-1.uk.uncletopia.com","port":27065,"enabled":true,"region":"eu","cc":"gb","latitude":51.509865,"longitude":-0.118092,"reserved":0,"last_update":"0001-01-01T00:00:00Z","name_a2s":"Uncletopia | London | 6 | All Maps","protocol":17,"map":"pl_frontier_final","folder":"tf","game":"Team Fortress","app_id":440,"player_count":24,"max_players":24,"Bots":0,"server_type":"Dedicated","server_os":"Linux","password":true,"vac":true,"version":"7757534","steam_id":85568392924742830,"keywords":["nocrits","nodmgspread","payload","uncletopia"],"game_id":440,"stv_port":27066,"stv_name":"Uncletopia | London | 6 | All Maps | STV","players":[{"user_id":282,"name":"TayTay","steam_id":76561198115819111,"connected_time":128000000000,"state":"active","ping":133},{"user_id":217,"name":"Justin Egger","steam_id":76561198155108452,"connected_time":2444000000000,"state":"active","ping":62},{"user_id":281,"name":"Dark ^^","steam_id":76561198036241064,"connected_time":611000000000,"state":"active","ping":63},{"user_id":235,"name":"‚®Ç","steam_id":76561198087800030,"connected_time":2072000000000,"state":"active","ping":75},{"user_id":279,"name":"Noob_with_source","steam_id":76561198870362103,"connected_time":739000000000,"state":"active","ping":60},{"user_id":273,"name":"john fortress","steam_id":76561198013237629,"connected_time":899000000000,"state":"active","ping":96},{"user_id":278,"name":"dr. coom","steam_id":76561198172193711,"connected_time":845000000000,"state":"active","ping":39},{"user_id":274,"name":"24/7 lofi hip hop beats","steam_id":76561198130597374,"connected_time":894000000000,"state":"active","ping":69},{"user_id":207,"name":"Lee","steam_id":76561198021448321,"connected_time":3827000000000,"state":"active","ping":74},{"user_id":262,"name":"goblinninja110","steam_id":76561198269159354,"connected_time":1335000000000,"state":"active","ping":67},{"user_id":220,"name":"beheading video from 2009","steam_id":76561198834897089,"connected_time":2415000000000,"state":"active","ping":70},{"user_id":189,"name":"SuntanPikachu","steam_id":76561198121242476,"connected_time":4939000000000,"state":"active","ping":70},{"user_id":252,"name":"twitch.tv/vision515","steam_id":76561198065293729,"connected_time":1715000000000,"state":"active","ping":166},{"user_id":266,"name":"the squirt lurker","steam_id":76561198914610283,"connected_time":1191000000000,"state":"active","ping":87},{"user_id":259,"name":"Cave Johnson","steam_id":76561198366456565,"connected_time":1415000000000,"state":"active","ping":75},{"user_id":258,"name":"brtaba","steam_id":76561198796334790,"connected_time":1419000000000,"state":"active","ping":75},{"user_id":212,"name":"gibb (official)","steam_id":76561198074097655,"connected_time":3056000000000,"state":"active","ping":40},{"user_id":276,"name":"Nicholas Angel","steam_id":76561198434652604,"connected_time":861000000000,"state":"active","ping":107},{"user_id":270,"name":"tomar","steam_id":76561198451471161,"connected_time":1069000000000,"state":"active","ping":55},{"user_id":277,"name":"Pineapple Okan","steam_id":76561198069199449,"connected_time":861000000000,"state":"active","ping":114},{"user_id":210,"name":"Adam","steam_id":76561198259467867,"connected_time":3179000000000,"state":"active","ping":93},{"user_id":268,"name":"Kodutah","steam_id":76561198203405574,"connected_time":1164000000000,"state":"active","ping":82},{"user_id":163,"name":"fearlessbot","steam_id":76561199002587064,"connected_time":7866000000000,"state":"active","ping":48},{"user_id":231,"name":"rotting","steam_id":76561198349648942,"connected_time":2110000000000,"state":"active","ping":90}]},{"server_id":40,"name":"Uncletopia | London | 7 | No Payload","name_short":"lon-7","host":"lon-1.uk.uncletopia.com","port":27075,"enabled":true,"region":"eu","cc":"gb","latitude":51.509865,"longitude":-0.118092,"reserved":0,"last_update":"0001-01-01T00:00:00Z","name_a2s":"Uncletopia | London | 7 | No Payload","protocol":17,"map":"plr_bananabay","folder":"tf","game":"Team Fortress","app_id":440,"player_count":24,"max_players":24,"Bots":0,"server_type":"Dedicated","server_os":"Linux","password":true,"vac":true,"version":"7757534","steam_id":85568392924964314,"keywords":["nocrits","nodmgspread","payload","uncletopia"],"game_id":440,"stv_port":27076,"stv_name":"Uncletopia | London | 7 | No Payload | STV","players":[{"user_id":178,"name":"Mi Manchi","steam_id":76561198171573129,"connected_time":1965000000000,"state":"active","ping":60},{"user_id":198,"name":"Kvicha Kvaratskhelia","steam_id":76561198179339326,"connected_time":901000000000,"state":"active","ping":84},{"user_id":118,"name":"Minimi","steam_id":76561198873850443,"connected_time":5144000000000,"state":"active","ping":40},{"user_id":195,"name":"teletabigamer100","steam_id":76561199087217482,"connected_time":1348000000000,"state":"active","ping":79},{"user_id":215,"name":"Jonkheervanflep","steam_id":76561198006853101,"connected_time":533000000000,"state":"active","ping":84},{"user_id":117,"name":"Pinkchup","steam_id":76561198106802803,"connected_time":5150000000000,"state":"active","ping":76},{"user_id":223,"name":"JAZZ COMMANDO","steam_id":76561198031766068,"connected_time":67000000000,"state":"active","ping":50},{"user_id":199,"name":"Slim3rs","steam_id":76561199088010585,"connected_time":881000000000,"state":"active","ping":183},{"user_id":170,"name":"Kendo-6","steam_id":76561198318748304,"connected_time":2756000000000,"state":"active","ping":132},{"user_id":200,"name":"Raldow","steam_id":76561198021389301,"connected_time":876000000000,"state":"active","ping":62},{"user_id":196,"name":"Weather Report","steam_id":76561199109494283,"connected_time":1201000000000,"state":"active","ping":109},{"user_id":221,"name":"Rex","steam_id":76561199474556920,"connected_time":267000000000,"state":"active","ping":95},{"user_id":224,"name":"nub_x3","steam_id":76561198433803829,"connected_time":20000000000,"state":"active","ping":83},{"user_id":203,"name":"el hombre de la agricultura","steam_id":76561198060530483,"connected_time":816000000000,"state":"active","ping":73},{"user_id":220,"name":"chssdk","steam_id":76561198262231733,"connected_time":373000000000,"state":"active","ping":74},{"user_id":205,"name":"Mr Amon Seus Gus","steam_id":76561198140797304,"connected_time":780000000000,"state":"active","ping":66},{"user_id":210,"name":"Snokie Boi","steam_id":76561198081126247,"connected_time":650000000000,"state":"active","ping":75},{"user_id":222,"name":"MedicMania","steam_id":76561199013190566,"connected_time":136000000000,"state":"active","ping":51},{"user_id":212,"name":"Breadcrab","steam_id":76561198015924039,"connected_time":628000000000,"state":"active","ping":110},{"user_id":189,"name":"NitPig","steam_id":76561198212991935,"connected_time":1533000000000,"state":"active","ping":126},{"user_id":169,"name":"fume.","steam_id":76561197960476801,"connected_time":2917000000000,"state":"active","ping":55},{"user_id":216,"name":"rajAs","steam_id":76561198035928111,"connected_time":481000000000,"state":"active","ping":100},{"user_id":217,"name":"Plague Doctor F","steam_id":76561198121443358,"connected_time":480000000000,"state":"active","ping":99},{"user_id":218,"name":"sandvich demolisher","steam_id":76561198192343263,"connected_time":475000000000,"state":"active","ping":45}]},{"server_id":41,"name":"Uncletopia | London | 8 | Community","name_short":"lon-8","host":"lon-1.uk.uncletopia.com","port":27085,"enabled":true,"region":"eu","cc":"gb","latitude":51.509865,"longitude":-0.118092,"reserved":0,"last_update":"0001-01-01T00:00:00Z","name_a2s":"Uncletopia | London | 8 | Community","protocol":17,"map":"workshop/cp_propaganda_b18.ugc1603743849","folder":"tf","game":"Team Fortress","app_id":440,"player_count":3,"max_players":24,"Bots":0,"server_type":"Dedicated","server_os":"Linux","password":true,"vac":true,"version":"7757534","steam_id":85568392924964315,"keywords":["cp","nocrits","nodmgspread","uncletopia"],"game_id":440,"stv_port":27086,"stv_name":"Uncletopia | London | 8 | Community | STV","players":[{"user_id":22,"name":"Uncle Terry","steam_id":76561198396415736,"connected_time":109000000000,"state":"active","ping":47},{"user_id":23,"name":"Balls","steam_id":76561198086400484,"connected_time":73000000000,"state":"active","ping":75},{"user_id":19,"name":"Dor_atar","steam_id":76561198973980542,"connected_time":1191000000000,"state":"active","ping":84}]},{"server_id":300,"name":"Uncletopia | Montr√©al | 1 | All Maps","name_short":"mtl-1","host":"mtl-1.ca.uncletopia.com","port":27015,"enabled":true,"region":"us-east","cc":"ca","latitude":45.50889,"longitude":-73.56167,"reserved":0,"last_update":"0001-01-01T00:00:00Z","name_a2s":"Uncletopia | Montr√©al | 1 | All Maps","protocol":17,"map":"koth_viaduct","folder":"tf","game":"Team Fortress","app_id":440,"player_count":0,"max_players":24,"Bots":0,"server_type":"Dedicated","server_os":"Linux","password":true,"vac":true,"version":"7757534","steam_id":85568392924500087,"keywords":["cp","nocrits","nodmgspread","uncletopia"],"game_id":440,"stv_port":27016,"stv_name":"Uncletopia | Montr√©al | 1 | All Maps | STV","players":null},{"server_id":301,"name":"Uncletopia | Montr√©al | 2 | All Maps","name_short":"mtl-2","host":"mtl-1.ca.uncletopia.com","port":27025,"enabled":true,"region":"us-east","cc":"ca","latitude":45.50889,"longitude":-73.56167,"reserved":0,"last_update":"0001-01-01T00:00:00Z","name_a2s":"Uncletopia | Montr√©al | 2 | All Maps","protocol":17,"map":"pl_snowycoast","folder":"tf","game":"Team Fortress","app_id":440,"player_count":0,"max_players":24,"Bots":0,"server_type":"Dedicated","server_os":"Linux","password":true,"vac":true,"version":"7757534","steam_id":85568392924500088,"keywords":["nocrits","nodmgspread","payload","uncletopia"],"game_id":440,"stv_port":27026,"stv_name":"Uncletopia | Montr√©al | 2 | All Maps | STV","players":null},{"server_id":302,"name":"Uncletopia | Montr√©al | 3 | All Maps","name_short":"mtl-3","host":"mtl-1.ca.uncletopia.com","port":27035,"enabled":true,"region":"us-east","cc":"ca","latitude":45.50889,"longitude":-73.56167,"reserved":0,"last_update":"0001-01-01T00:00:00Z","name_a2s":"Uncletopia | Montr√©al | 3 | All Maps","protocol":17,"map":"koth_highpass","folder":"tf","game":"Team Fortress","app_id":440,"player_count":0,"max_players":24,"Bots":0,"server_type":"Dedicated","server_os":"Linux","password":true,"vac":true,"version":"7757534","steam_id":85568392924500089,"keywords":["cp","nocrits","nodmgspread","uncletopia"],"game_id":440,"stv_port":27036,"stv_name":"Uncletopia | Montr√©al | 3 | All Maps | STV","players":null},{"server_id":303,"name":"Uncletopia | Montr√©al | 4 | No Payload","name_short":"mtl-4","host":"mtl-1.ca.uncletopia.com","port":27045,"enabled":true,"region":"us-east","cc":"ca","latitude":45.50889,"longitude":-73.56167,"reserved":0,"last_update":"0001-01-01T00:00:00Z","name_a2s":"Uncletopia | Montr√©al | 4 | No Payload","protocol":17,"map":"pl_pier","folder":"tf","game":"Team Fortress","app_id":440,"player_count":0,"max_players":24,"Bots":0,"server_type":"Dedicated","server_os":"Linux","password":true,"vac":true,"version":"7757534","steam_id":85568392924500090,"keywords":["nocrits","nodmgspread","payload","uncletopia"],"game_id":440,"stv_port":27046,"stv_name":"Uncletopia | Montr√©al | 4 | No Payload | STV","players":null},{"server_id":13,"name":"Uncletopia | New York City | 1 | All Maps","name_short":"nyc-1","host":"nyc-1.us.uncletopia.com","port":27015,"enabled":true,"region":"us-east","cc":"us","latitude":40.73061,"longitude":-73.93524,"reserved":0,"last_update":"0001-01-01T00:00:00Z","name_a2s":"Uncletopia | New York City | 1 | All Maps","protocol":17,"map":"koth_viaduct","folder":"tf","game":"Team Fortress","app_id":440,"player_count":3,"max_players":24,"Bots":0,"server_type":"Dedicated","server_os":"Linux","password":true,"vac":true,"version":"7757534","steam_id":85568392924469993,"keywords":["cp","nocrits","nodmgspread","uncletopia"],"game_id":440,"stv_port":27016,"stv_name":"Uncletopia | New York City | 1 | All Maps | STV","players":[{"user_id":14,"name":"BishopAdams","steam_id":76561198110541862,"connected_time":1062000000000,"state":"active","ping":113},{"user_id":15,"name":"fireheart759","steam_id":76561199006391274,"connected_time":1047000000000,"state":"active","ping":328},{"user_id":17,"name":"Oppsitegrain37","steam_id":76561199197986316,"connected_time":191000000000,"state":"active","ping":85}]},{"server_id":14,"name":"Uncletopia | New York City | 2 | All Maps","name_short":"nyc-2","host":"nyc-1.us.uncletopia.com","port":27025,"enabled":true,"region":"us-east","cc":"us","latitude":40.73061,"longitude":-73.93524,"reserved":0,"last_update":"0001-01-01T00:00:00Z","name_a2s":"Uncletopia | New York City | 2 | All Maps","protocol":17,"map":"pl_borneo","folder":"tf","game":"Team Fortress","app_id":440,"player_count":18,"max_players":24,"Bots":0,"server_type":"Dedicated","server_os":"Linux","password":true,"vac":true,"version":"7757534","steam_id":85568392924469994,"keywords":["nocrits","nodmgspread","payload","uncletopia"],"game_id":440,"stv_port":27026,"stv_name":"Uncletopia | New York City | 2 | All Maps | STV","players":[{"user_id":211,"name":"n8thegr83008","steam_id":76561198214814260,"connected_time":2961000000000,"state":"active","ping":74},{"user_id":232,"name":"Altruistic_Aardvark","steam_id":76561198088191503,"connected_time":1510000000000,"state":"active","ping":51},{"user_id":244,"name":"Toonice","steam_id":76561198402994885,"connected_time":470000000000,"state":"active","ping":61},{"user_id":228,"name":"Bergmann MP18","steam_id":76561198218417512,"connected_time":1990000000000,"state":"active","ping":129},{"user_id":217,"name":"YoshaBoss","steam_id":76561198449656454,"connected_time":2731000000000,"state":"active","ping":46},{"user_id":218,"name":"Herobrineclone7","steam_id":76561199193733613,"connected_time":2728000000000,"state":"active","ping":83},{"user_id":214,"name":"Lt. Derp","steam_id":76561198014436382,"connected_time":2950000000000,"state":"active","ping":70},{"user_id":197,"name":"Titus Tyrwitt","steam_id":76561197990779673,"connected_time":3623000000000,"state":"active","ping":74},{"user_id":195,"name":"your–¥—Ä—É–≥","steam_id":76561198317927140,"connected_time":3696000000000,"state":"active","ping":84},{"user_id":243,"name":"TF2 players are retarded","steam_id":76561198039763676,"connected_time":667000000000,"state":"active","ping":75},{"user_id":202,"name":"Propaniac Gaming ‚òë","steam_id":76561198133963270,"connected_time":3521000000000,"state":"active","ping":51},{"user_id":237,"name":"Hello I'm a Swedish Plumber","steam_id":76561199215811448,"connected_time":1123000000000,"state":"active","ping":78},{"user_id":233,"name":"-","steam_id":76561198057101042,"connected_time":1496000000000,"state":"active","ping":75},{"user_id":249,"name":"shake","steam_id":76561199064204750,"connected_time":298000000000,"state":"active","ping":66},{"user_id":231,"name":"p4lly","steam_id":76561198078400787,"connected_time":1758000000000,"state":"active","ping":58},{"user_id":247,"name":"Unreliable Narrator","steam_id":76561198021303959,"connected_time":377000000000,"state":"active","ping":107},{"user_id":219,"name":"Ozirion","steam_id":76561198108901767,"connected_time":2558000000000,"state":"active","ping":74},{"user_id":203,"name":"the spy behind the healing (F2P","steam_id":76561198854070384,"connected_time":3515000000000,"state":"active","ping":123}]},{"server_id":15,"name":"Uncletopia | New York City | 3 | Stopwatch Beta","name_short":"nyc-3","host":"nyc-1.us.uncletopia.com","port":27035,"enabled":true,"region":"us-east","cc":"us","latitude":40.73061,"longitude":-73.93524,"reserved":0,"last_update":"0001-01-01T00:00:00Z","name_a2s":"Uncletopia | New York City | 3 | Stopwatch Beta","protocol":17,"map":"pl_upward","folder":"tf","game":"Team Fortress","app_id":440,"player_count":0,"max_players":24,"Bots":0,"server_type":"Dedicated","server_os":"Linux","password":true,"vac":true,"version":"7757534","steam_id":85568392924742820,"keywords":["nocrits","nodmgspread","payload","uncletopia"],"game_id":440,"stv_port":27036,"stv_name":"Uncletopia | New York City | 3 | Stopwatch Beta | STV","players":null},{"server_id":16,"name":"Uncletopia | New York City | 4 | Community","name_short":"nyc-4","host":"nyc-1.us.uncletopia.com","port":27045,"enabled":true,"region":"us-east","cc":"us","latitude":40.73061,"longitude":-73.93524,"reserved":0,"last_update":"0001-01-01T00:00:00Z","name_a2s":"Uncletopia | New York City | 4 | Community","protocol":17,"map":"workshop/koth_ashville_final.ugc2130459942","folder":"tf","game":"Team Fortress","app_id":440,"player_count":0,"max_players":24,"Bots":0,"server_type":"Dedicated","server_os":"Linux","password":true,"vac":true,"version":"7757534","steam_id":85568392924742821,"keywords":["cp","nocrits","nodmgspread","uncletopia"],"game_id":440,"stv_port":27046,"stv_name":"Uncletopia | New York City | 4 | Community | STV","players":null},{"server_id":142,"name":"Uncletopia | S√£o Paulo | 1 | All Maps","name_short":"sao-1","host":"sao-1.br.uncletopia.com","port":27015,"enabled":true,"region":"sa","cc":"br","latitude":-23.533773,"longitude":-46.62529,"reserved":0,"last_update":"0001-01-01T00:00:00Z","name_a2s":"Uncletopia | S√£o Paulo | 1 | All Maps","protocol":17,"map":"koth_lakeside_final","folder":"tf","game":"Team Fortress","app_id":440,"player_count":1,"max_players":24,"Bots":0,"server_type":"Dedicated","server_os":"Linux","password":true,"vac":true,"version":"7757534","steam_id":85568392924469996,"keywords":["cp","nocrits","nodmgspread","uncletopia"],"game_id":440,"stv_port":27016,"stv_name":"Uncletopia | S√£o Paulo | 1 | All Maps | STV","players":[{"user_id":6,"name":"CJAIME01345","steam_id":76561199091599141,"connected_time":409000000000,"state":"active","ping":83}]},{"server_id":143,"name":"Uncletopia | S√£o Paulo | 2 | All Maps","name_short":"sao-2","host":"sao-2.br.uncletopia.com","port":27015,"enabled":true,"region":"sa","cc":"br","latitude":-23.533773,"longitude":-46.62529,"reserved":0,"last_update":"0001-01-01T00:00:00Z","name_a2s":"Uncletopia | S√£o Paulo | 2 | All Maps","protocol":17,"map":"pl_borneo","folder":"tf","game":"Team Fortress","app_id":440,"player_count":2,"max_players":24,"Bots":0,"server_type":"Dedicated","server_os":"Linux","password":true,"vac":true,"version":"7757534","steam_id":85568392924485349,"keywords":["nocrits","nodmgspread","payload","uncletopia"],"game_id":440,"stv_port":27016,"stv_name":"Uncletopia | S√£o Paulo | 2 | All Maps | STV","players":[{"user_id":4,"name":"LouLowRuschel","steam_id":76561198423325380,"connected_time":72000000000,"state":"active","ping":58},{"user_id":5,"name":"Miel","steam_id":76561199442213560,"connected_time":50000000000,"state":"spawning","ping":38}]},{"server_id":7,"name":"Uncletopia | Seattle | 1 | All Maps","name_short":"sea-1","host":"sea-1.us.uncletopia.com","port":27015,"enabled":true,"region":"us-west","cc":"us","latitude":47.608013,"longitude":-122.33517,"reserved":0,"last_update":"0001-01-01T00:00:00Z","name_a2s":"Uncletopia | Seattle | 1 | All Maps","protocol":17,"map":"cp_steel","folder":"tf","game":"Team Fortress","app_id":440,"player_count":23,"max_players":24,"Bots":0,"server_type":"Dedicated","server_os":"Linux","password":true,"vac":true,"version":"7757534","steam_id":85568392924469997,"keywords":["cp","nocrits","nodmgspread","uncletopia"],"game_id":440,"stv_port":27016,"stv_name":"Uncletopia | Seattle | 1 | All Maps | STV","players":[{"user_id":188,"name":"Terratomere","steam_id":76561198067716320,"connected_time":81000000000,"state":"active","ping":82},{"user_id":98,"name":"Neo Kojiro","steam_id":76561198000967076,"connected_time":7535000000000,"state":"active","ping":139},{"user_id":178,"name":"Confirmed Bachelor","steam_id":76561198441041496,"connected_time":1410000000000,"state":"active","ping":53},{"user_id":125,"name":"Pyro410","steam_id":76561199241277109,"connected_time":5103000000000,"state":"active","ping":121},{"user_id":145,"name":"Tyler\u0026Fingers","steam_id":76561198085154485,"connected_time":3192000000000,"state":"active","ping":136},{"user_id":171,"name":"kid named 985","steam_id":76561198936412406,"connected_time":1910000000000,"state":"active","ping":126},{"user_id":181,"name":"Anony1200","steam_id":76561197999145545,"connected_time":1077000000000,"state":"active","ping":113},{"user_id":135,"name":"my monitor is off","steam_id":76561198074499537,"connected_time":4007000000000,"state":"active","ping":96},{"user_id":185,"name":"JamesSetRadio","steam_id":76561198444320809,"connected_time":103000000000,"state":"active","ping":177},{"user_id":153,"name":"Versuski","steam_id":76561198085193084,"connected_time":3057000000000,"state":"active","ping":115},{"user_id":142,"name":"SadFapping","steam_id":76561198076651049,"connected_time":3718000000000,"state":"active","ping":57},{"user_id":154,"name":"Barton","steam_id":76561198203088523,"connected_time":2959000000000,"state":"active","ping":63},{"user_id":174,"name":"Siegfried Stern","steam_id":76561198012453523,"connected_time":1708000000000,"state":"active","ping":57},{"user_id":76,"name":"Super Kami Guru","steam_id":76561198322956099,"connected_time":9018000000000,"state":"active","ping":83},{"user_id":186,"name":"Ricky Dicky Doo Dah Grimes","steam_id":76561198143221900,"connected_time":103000000000,"state":"active","ping":139},{"user_id":176,"name":"yup","steam_id":76561199190800520,"connected_time":1616000000000,"state":"active","ping":39},{"user_id":187,"name":"please fart","steam_id":76561198965079927,"connected_time":103000000000,"state":"active","ping":91},{"user_id":99,"name":"The Punisher","steam_id":76561198129763115,"connected_time":7451000000000,"state":"active","ping":78},{"user_id":166,"name":"CDI_FrEAk","steam_id":76561198004708244,"connected_time":2408000000000,"state":"active","ping":86},{"user_id":182,"name":"[TrC] Dackstrus","steam_id":76561197973518509,"connected_time":534000000000,"state":"active","ping":54},{"user_id":164,"name":"‚ô•Npenplz‚ô•","steam_id":76561197999605423,"connected_time":2529000000000,"state":"active","ping":82},{"user_id":144,"name":"Perfume Department","steam_id":76561198128299594,"connected_time":3195000000000,"state":"active","ping":83},{"user_id":184,"name":"C U Next Tuesday","steam_id":76561198058493492,"connected_time":220000000000,"state":"active","ping":57}]},{"server_id":119,"name":"Uncletopia | Seattle | 2 | All Maps","name_short":"sea-2","host":"sea-1.us.uncletopia.com","port":27025,"enabled":true,"region":"us-west","cc":"us","latitude":47.608013,"longitude":-122.33517,"reserved":0,"last_update":"0001-01-01T00:00:00Z","name_a2s":"Uncletopia | Seattle | 2 | All Maps","protocol":17,"map":"pl_badwater","folder":"tf","game":"Team Fortress","app_id":440,"player_count":0,"max_players":24,"Bots":0,"server_type":"Dedicated","server_os":"Linux","password":true,"vac":true,"version":"7757534","steam_id":85568392924469998,"keywords":["nocrits","nodmgspread","payload","uncletopia"],"game_id":440,"stv_port":27026,"stv_name":"Uncletopia | Seattle | 2 | All Maps | STV","players":null},{"server_id":406,"name":"Uncletopia | Seattle | 3 | Stopwatch Beta","name_short":"sea-3","host":"sea-1.us.uncletopia.com","port":27035,"enabled":true,"region":"us-west","cc":"us","latitude":47.608013,"longitude":-122.33517,"reserved":0,"last_update":"0001-01-01T00:00:00Z","name_a2s":"Uncletopia | Seattle | 3 | Stopwatch Beta","protocol":17,"map":"cp_dustbowl","folder":"tf","game":"Team Fortress","app_id":440,"player_count":0,"max_players":24,"Bots":0,"server_type":"Dedicated","server_os":"Linux","password":true,"vac":true,"version":"7757534","steam_id":85568392924515217,"keywords":["cp","nocrits","nodmgspread","uncletopia"],"game_id":440,"stv_port":27036,"stv_name":"Uncletopia | Seattle | 3 | Stopwatch Beta | STV","players":null},{"server_id":17,"name":"Uncletopia | San Francisco | 1 | All Maps","name_short":"sfo-1","host":"sfo-1.us.uncletopia.com","port":27015,"enabled":true,"region":"us-west","cc":"us","latitude":37.77397,"longitude":-122.4313,"reserved":0,"last_update":"0001-01-01T00:00:00Z","name_a2s":"Uncletopia | San Francisco | 1 | All Maps","protocol":17,"map":"cp_process_final","folder":"tf","game":"Team Fortress","app_id":440,"player_count":0,"max_players":24,"Bots":0,"server_type":"Dedicated","server_os":"Linux","password":true,"vac":true,"version":"7757534","steam_id":85568392924469999,"keywords":["cp","nocrits","nodmgspread","uncletopia"],"game_id":440,"stv_port":27016,"stv_name":"Uncletopia | San Francisco | 1 | All Maps | STV","players":null},{"server_id":18,"name":"Uncletopia | San Francisco | 2 | All Maps","name_short":"sfo-2","host":"sfo-1.us.uncletopia.com","port":27025,"enabled":true,"region":"us-west","cc":"us","latitude":37.77397,"longitude":-122.4313,"reserved":0,"last_update":"0001-01-01T00:00:00Z","name_a2s":"Uncletopia | San Francisco | 2 | All Maps","protocol":17,"map":"koth_highpass","folder":"tf","game":"Team Fortress","app_id":440,"player_count":0,"max_players":24,"Bots":0,"server_type":"Dedicated","server_os":"Linux","password":true,"vac":true,"version":"7757534","steam_id":85568392924470000,"keywords":["cp","nocrits","nodmgspread","uncletopia"],"game_id":440,"stv_port":27026,"stv_name":"Uncletopia | San Francisco | 2 | All Maps | STV","players":null},{"server_id":19,"name":"Uncletopia | San Francisco | 3 | Stopwatch Beta","name_short":"sfo-3","host":"sfo-1.us.uncletopia.com","port":27035,"enabled":true,"region":"us-west","cc":"us","latitude":37.77397,"longitude":-122.4313,"reserved":0,"last_update":"0001-01-01T00:00:00Z","name_a2s":"Uncletopia | San Francisco | 3 | Stopwatch Beta","protocol":17,"map":"pl_swiftwater_final1","folder":"tf","game":"Team Fortress","app_id":440,"player_count":0,"max_players":24,"Bots":0,"server_type":"Dedicated","server_os":"Linux","password":true,"vac":true,"version":"7757534","steam_id":85568392924742824,"keywords":["nocrits","nodmgspread","payload","uncletopia"],"game_id":440,"stv_port":27036,"stv_name":"Uncletopia | San Francisco | 3 | Stopwatch Beta | STV","players":null},{"server_id":20,"name":"Uncletopia | San Francisco | 4 | Community","name_short":"sfo-4","host":"sfo-1.us.uncletopia.com","port":27045,"enabled":true,"region":"us-west","cc":"us","latitude":37.77397,"longitude":-122.4313,"reserved":0,"last_update":"0001-01-01T00:00:00Z","name_a2s":"Uncletopia | San Francisco | 4 | Community","protocol":17,"map":"workshop/cp_bruhstbowl_b5.ugc2878604990","folder":"tf","game":"Team Fortress","app_id":440,"player_count":0,"max_players":24,"Bots":0,"server_type":"Dedicated","server_os":"Linux","password":true,"vac":true,"version":"7757534","steam_id":85568392924742826,"keywords":["cp","nocrits","nodmgspread","uncletopia"],"game_id":440,"stv_port":27046,"stv_name":"Uncletopia | San Francisco | 4 | Community | STV","players":null},{"server_id":141,"name":"Uncletopia | Sydney | 1 | All Maps","name_short":"syd-1","host":"syd-1.au.uncletopia.com","port":27015,"enabled":true,"region":"au","cc":"au","latitude":-33.865143,"longitude":151.2099,"reserved":0,"last_update":"0001-01-01T00:00:00Z","name_a2s":"Uncletopia | Sydney | 1 | All Maps","protocol":17,"map":"cp_mountainlab","folder":"tf","game":"Team Fortress","app_id":440,"player_count":0,"max_players":24,"Bots":0,"server_type":"Dedicated","server_os":"Linux","password":true,"vac":true,"version":"7757534","steam_id":85568392924470001,"keywords":["cp","nocrits","nodmgspread","uncletopia"],"game_id":440,"stv_port":27016,"stv_name":"Uncletopia | Sydney | 1 | All Maps | STV","players":null},{"server_id":123,"name":"Uncletopia | Sydney | 2 | All Maps","name_short":"syd-2","host":"syd-1.au.uncletopia.com","port":27025,"enabled":true,"region":"au","cc":"au","latitude":-33.865143,"longitude":151.2099,"reserved":0,"last_update":"0001-01-01T00:00:00Z","name_a2s":"Uncletopia | Sydney | 2 | All Maps","protocol":17,"map":"pl_frontier_final","folder":"tf","game":"Team Fortress","app_id":440,"player_count":0,"max_players":24,"Bots":0,"server_type":"Dedicated","server_os":"Linux","password":true,"vac":true,"version":"7757534","steam_id":85568392924470002,"keywords":["nocrits","nodmgspread","payload","uncletopia"],"game_id":440,"stv_port":27026,"stv_name":"Uncletopia | Sydney | 2 | All Maps | STV","players":null},{"server_id":395,"name":"Uncletopia | Sydney | 3 | All Maps","name_short":"syd-3","host":"syd-1.au.uncletopia.com","port":27035,"enabled":true,"region":"au","cc":"au","latitude":-33.865143,"longitude":151.2099,"reserved":0,"last_update":"0001-01-01T00:00:00Z","name_a2s":"Uncletopia | Sydney | 3 | All Maps","protocol":17,"map":"pl_snowycoast","folder":"tf","game":"Team Fortress","app_id":440,"player_count":0,"max_players":24,"Bots":0,"server_type":"Dedicated","server_os":"Linux","password":true,"vac":true,"version":"7757534","steam_id":85568392925194467,"keywords":["nocrits","nodmgspread","payload","uncletopia"],"game_id":440,"stv_port":27036,"stv_name":"Uncletopia | Sydney | 3 | All Maps | STV","players":null},{"server_id":396,"name":"Uncletopia | Sydney | 4 | All Maps","name_short":"syd-4","host":"syd-1.au.uncletopia.com","port":27045,"enabled":true,"region":"au","cc":"au","latitude":-33.865143,"longitude":151.2099,"reserved":0,"last_update":"0001-01-01T00:00:00Z","name_a2s":"Uncletopia | Sydney | 4 | All Maps","protocol":17,"map":"koth_viaduct","folder":"tf","game":"Team Fortress","app_id":440,"player_count":0,"max_players":24,"Bots":0,"server_type":"Dedicated","server_os":"Linux","password":true,"vac":true,"version":"7757534","steam_id":85568392925397958,"keywords":["cp","nocrits","nodmgspread","uncletopia"],"game_id":440,"stv_port":27046,"stv_name":"Uncletopia | Sydney | 4 | All Maps | STV","players":null},{"server_id":58,"name":"Uncletopia | Sydney | 5 | Stopwatch Beta","name_short":"syd-5","host":"syd-1.au.uncletopia.com","port":27055,"enabled":true,"region":"au","cc":"au","latitude":-33.865143,"longitude":151.2099,"reserved":0,"last_update":"0001-01-01T00:00:00Z","name_a2s":"Uncletopia | Sydney | 5 | Stopwatch Beta","protocol":17,"map":"pl_upward","folder":"tf","game":"Team Fortress","app_id":440,"player_count":0,"max_players":24,"Bots":0,"server_type":"Dedicated","server_os":"Linux","password":true,"vac":true,"version":"7757534","steam_id":85568392925397959,"keywords":["nocrits","nodmgspread","payload","uncletopia"],"game_id":440,"stv_port":27056,"stv_name":"Uncletopia | Sydney | 5 | Stopwatch Beta | STV","players":null},{"server_id":59,"name":"Uncletopia | Sydney | 6 | Community","name_short":"syd-6","host":"syd-1.au.uncletopia.com","port":27065,"enabled":true,"region":"au","cc":"au","latitude":-33.865143,"longitude":151.2099,"reserved":0,"last_update":"0001-01-01T00:00:00Z","name_a2s":"Uncletopia | Sydney | 6 | Community","protocol":17,"map":"workshop/koth_kemptown_rc1.ugc767410655","folder":"tf","game":"Team Fortress","app_id":440,"player_count":0,"max_players":24,"Bots":0,"server_type":"Dedicated","server_os":"Linux","password":true,"vac":true,"version":"7757534","steam_id":85568392925397960,"keywords":["cp","nocrits","nodmgspread","uncletopia"],"game_id":440,"stv_port":27066,"stv_name":"Uncletopia | Sydney | 6 | Community | STV","players":null},{"server_id":49,"name":"Uncletopia | Warsaw | 1 | All Maps","name_short":"waw-1","host":"waw-1.pl.uncletopia.com","port":27015,"enabled":true,"region":"eu","cc":"pl","latitude":52.2297,"longitude":21.017532,"reserved":0,"last_update":"0001-01-01T00:00:00Z","name_a2s":"","protocol":0,"map":"","folder":"","game":"","app_id":0,"player_count":0,"max_players":0,"Bots":0,"server_type":"","server_os":"","password":false,"vac":false,"version":"","steam_id":0,"keywords":null,"game_id":0,"stv_port":0,"stv_name":"","players":null},{"server_id":50,"name":"Uncletopia | Warsaw | 2 | All Maps","name_short":"waw-2","host":"waw-1.pl.uncletopia.com","port":27025,"enabled":true,"region":"eu","cc":"pl","latitude":52.2297,"longitude":21.017532,"reserved":0,"last_update":"0001-01-01T00:00:00Z","name_a2s":"Uncletopia | Warsaw | 2 | All Maps","protocol":17,"map":"koth_viaduct","folder":"tf","game":"Team Fortress","app_id":440,"player_count":0,"max_players":24,"Bots":0,"server_type":"Dedicated","server_os":"Linux","password":true,"vac":true,"version":"7757534","steam_id":85568392925397851,"keywords":["cp","nocrits","nodmgspread","uncletopia"],"game_id":440,"stv_port":27026,"stv_name":"Uncletopia | Warsaw | 2 | All Maps | STV","players":null},{"server_id":51,"name":"Uncletopia | Warsaw | 3 | All Maps","name_short":"waw-3","host":"waw-1.pl.uncletopia.com","port":27035,"enabled":true,"region":"eu","cc":"pl","latitude":52.2297,"longitude":21.017532,"reserved":0,"last_update":"0001-01-01T00:00:00Z","name_a2s":"Uncletopia | Warsaw | 3 | All Maps","protocol":17,"map":"cp_sunshine","folder":"tf","game":"Team Fortress","app_id":440,"player_count":0,"max_players":24,"Bots":0,"server_type":"Dedicated","server_os":"Linux","password":true,"vac":true,"version":"7757534","steam_id":85568392925397852,"keywords":["cp","nocrits","nodmgspread","uncletopia"],"game_id":440,"stv_port":27036,"stv_name":"Uncletopia | Warsaw | 3 | All Maps | STV","players":null},{"server_id":52,"name":"Uncletopia | Warsaw | 4 | All Maps","name_short":"waw-4","host":"waw-1.pl.uncletopia.com","port":27045,"enabled":true,"region":"eu","cc":"pl","latitude":52.2297,"longitude":21.017532,"reserved":0,"last_update":"0001-01-01T00:00:00Z","name_a2s":"Uncletopia | Warsaw | 4 | All Maps","protocol":17,"map":"koth_lakeside_final","folder":"tf","game":"Team Fortress","app_id":440,"player_count":0,"max_players":24,"Bots":0,"server_type":"Dedicated","server_os":"Linux","password":true,"vac":true,"version":"7757534","steam_id":85568392925397853,"keywords":["cp","nocrits","nodmgspread","uncletopia"],"game_id":440,"stv_port":27046,"stv_name":"Uncletopia | Warsaw | 4 | All Maps | STV","players":null},{"server_id":53,"name":"Uncletopia | Warsaw | 5 | Stopwatch Beta","name_short":"waw-5","host":"waw-1.pl.uncletopia.com","port":27055,"enabled":true,"region":"eu","cc":"pl","latitude":52.2297,"longitude":21.017532,"reserved":0,"last_update":"0001-01-01T00:00:00Z","name_a2s":"Uncletopia | Warsaw | 5 | Stopwatch Beta","protocol":17,"map":"pl_borneo","folder":"tf","game":"Team Fortress","app_id":440,"player_count":0,"max_players":24,"Bots":0,"server_type":"Dedicated","server_os":"Linux","password":true,"vac":true,"version":"7757534","steam_id":85568392925397854,"keywords":["nocrits","nodmgspread","payload","uncletopia"],"game_id":440,"stv_port":27056,"stv_name":"Uncletopia | Warsaw | 5 | Stopwatch Beta | STV","players":null},{"server_id":54,"name":"Uncletopia | Warsaw | 6 | Community","name_short":"waw-6","host":"waw-1.pl.uncletopia.com","port":27065,"enabled":true,"region":"eu","cc":"pl","latitude":52.2297,"longitude":21.017532,"reserved":0,"last_update":"0001-01-01T00:00:00Z","name_a2s":"Uncletopia | Warsaw | 6 | Community","protocol":17,"map":"workshop/cp_kalinka_rc6a.ugc1272700588","folder":"tf","game":"Team Fortress","app_id":440,"player_count":0,"max_players":24,"Bots":0,"server_type":"Dedicated","server_os":"Linux","password":true,"vac":true,"version":"7757534","steam_id":85568392925397856,"keywords":["cp","nocrits","nodmgspread","uncletopia"],"game_id":440,"stv_port":27066,"stv_name":"Uncletopia | Warsaw | 6 | Community | STV","players":null}]}