{"status":true,"message":"","result":[{"server_id":9,"name":"Uncletopia | Atlanta | 1 | All Maps","name_short":"atl-1","host":"atl-1.us.uncletopia.com","port":27015,"enabled":true,"region":"us-east","cc":"us","latitude":33.753746,"longitude":-84.38633,"reserved":0,"last_update":"0001-01-01T00:00:00Z","name_a2s":"Uncletopia | Atlanta | 1 | All Maps","protocol":17,"map":"pl_swiftwater_final1","folder":"tf","game":"Team Fortress","app_id":440,"player_count":24,"max_players":24,"Bots":0,"server_type":"Dedicated","server_os":"Linux","password":true,"vac":true,"version":"7961495","steam_id":85568392924469982,"keywords":["nocrits","nodmgspread","payload","uncletopia"],"game_id":440,"stv_port":27016,"stv_name":"Uncletopia | Atlanta | 1 | All Maps | STV","players":[{"user_id":499,"name":"Xavibite","steam_id":76561198209380493,"connected_time":7413000000000,"state":"active","ping":61},{"user_id":538,"name":"mangokip","steam_id":76561198156471516,"connected_time":2766000000000,"state":"active","ping":58},{"user_id":516,"name":"Rat","steam_id":76561198137925582,"connected_time":5603000000000,"state":"active","ping":61},{"user_id":523,"name":"Monkey Mode","steam_id":76561197961267543,"connected_time":5418000000000,"state":"active","ping":54},{"user_id":519,"name":"Jared","steam_id":76561198027210228,"connected_time":5590000000000,"state":"active","ping":85},{"user_id":542,"name":"com lag","steam_id":76561198019019392,"connected_time":2731000000000,"state":"active","ping":62},{"user_id":557,"name":"Aniz","steam_id":76561199226665024,"connected_time":386000000000,"state":"active","ping":122},{"user_id":556,"name":"Le4n!!!","steam_id":76561198045522596,"connected_time":416000000000,"state":"active","ping":71},{"user_id":509,"name":"Maestro","steam_id":76561198157325020,"connected_time":5999000000000,"state":"active","ping":60},{"user_id":559,"name":"Onyx","steam_id":76561198275349640,"connected_time":183000000000,"state":"active","ping":76},{"user_id":555,"name":"Willly the WHALE","steam_id":76561198927517471,"connected_time":425000000000,"state":"active","ping":56},{"user_id":550,"name":"Tay1Qr","steam_id":76561198082809935,"connected_time":1558000000000,"state":"active","ping":61},{"user_id":533,"name":"bkiller","steam_id":76561198029265697,"connected_time":3720000000000,"state":"active","ping":64},{"user_id":520,"name":"corviraptor!!!!!!","steam_id":76561198058284392,"connected_time":5586000000000,"state":"active","ping":80},{"user_id":552,"name":"Ghetto Smosh Fan","steam_id":76561198097272509,"connected_time":530000000000,"state":"active","ping":37},{"user_id":518,"name":"ATL1 | to4st","steam_id":76561198981009008,"connected_time":5601000000000,"state":"active","ping":71},{"user_id":510,"name":"eish","steam_id":76561198089463603,"connected_time":5976000000000,"state":"active","ping":119},{"user_id":527,"name":"lil hog","steam_id":76561199230929836,"connected_time":4652000000000,"state":"active","ping":88},{"user_id":558,"name":"Vaudeville Villain","steam_id":76561199212093339,"connected_time":272000000000,"state":"active","ping":103},{"user_id":549,"name":"BreatheWater","steam_id":76561199066460803,"connected_time":1668000000000,"state":"active","ping":94},{"user_id":551,"name":"Valenhart","steam_id":76561198354036240,"connected_time":656000000000,"state":"active","ping":71},{"user_id":541,"name":"kite","steam_id":76561198346516392,"connected_time":2755000000000,"state":"active","ping":82},{"user_id":554,"name":"Oddball","steam_id":76561198040440984,"connected_time":514000000000,"state":"active","ping":91},{"user_id":531,"name":"Im High","steam_id":76561198049954886,"connected_time":4193000000000,"state":"active","ping":73}]},{"server_id":104,"name":"Uncletopia | Atlanta | 2 | All Maps","name_short":"atl-2","host":"atl-1.us.uncletopia.com","port":27025,"enabled":true,"region":"us-east","cc":"us","latitude":33.753746,"longitude":-84.38633,"reserved":0,"last_update":"0001-01-01T00:00:00Z","name_a2s":"Uncletopia | Atlanta | 2 | All Maps","protocol":17,"map":"pl_frontier_final","folder":"tf","game":"Team Fortress","app_id":440,"player_count":23,"max_players":24,"Bots":0,"server_type":"Dedicated","server_os":"Linux","password":true,"vac":true,"version":"7961495","steam_id":85568392924469983,"keywords":["nocrits","nodmgspread","payload","uncletopia"],"game_id":440,"stv_port":27026,"stv_name":"Uncletopia | Atlanta | 2 | All Maps | STV","players":[{"user_id":762,"name":"Yoru","steam_id":76561198119698950,"connected_time":568000000000,"state":"active","ping":126},{"user_id":750,"name":"Mr. Luggy","steam_id":76561198072723392,"connected_time":1162000000000,"state":"active","ping":87},{"user_id":691,"name":"Bunnyboy","steam_id":76561198298416058,"connected_time":6159000000000,"state":"active","ping":80},{"user_id":754,"name":"Catscr","steam_id":76561198076589280,"connected_time":897000000000,"state":"active","ping":66},{"user_id":710,"name":"Download a car","steam_id":76561198027174998,"connected_time":4293000000000,"state":"active","ping":82},{"user_id":684,"name":"MeMyBongusAndTheGreatOutdoors","steam_id":76561198097708978,"connected_time":6707000000000,"state":"active","ping":60},{"user_id":761,"name":"wise","steam_id":76561198030066204,"connected_time":652000000000,"state":"active","ping":56},{"user_id":763,"name":"DethSQRL","steam_id":76561199149628610,"connected_time":396000000000,"state":"active","ping":62},{"user_id":764,"name":"big boobs","steam_id":76561198151150175,"connected_time":240000000000,"state":"active","ping":65},{"user_id":760,"name":"Bob","steam_id":76561199100437824,"connected_time":696000000000,"state":"active","ping":74},{"user_id":765,"name":"Sponge","steam_id":76561198099024378,"connected_time":218000000000,"state":"active","ping":77},{"user_id":725,"name":"femboy gaming","steam_id":76561199084226553,"connected_time":2865000000000,"state":"active","ping":49},{"user_id":739,"name":"ElElliot","steam_id":76561198842278840,"connected_time":2301000000000,"state":"active","ping":70},{"user_id":757,"name":"katacks+","steam_id":76561198103915348,"connected_time":822000000000,"state":"active","ping":48},{"user_id":741,"name":"REALLINUSJEWTIP.","steam_id":76561198056647983,"connected_time":2222000000000,"state":"active","ping":79},{"user_id":733,"name":"illious","steam_id":76561198169925494,"connected_time":2464000000000,"state":"active","ping":59},{"user_id":766,"name":"Silverkeys","steam_id":76561197986012496,"connected_time":196000000000,"state":"active","ping":68},{"user_id":759,"name":"Shystie","steam_id":76561198025371440,"connected_time":801000000000,"state":"active","ping":97},{"user_id":705,"name":"howard-10973","steam_id":76561198449656454,"connected_time":5034000000000,"state":"active","ping":64},{"user_id":743,"name":"Wonderwall","steam_id":76561198080757197,"connected_time":1962000000000,"state":"active","ping":78},{"user_id":742,"name":"pai-sano","steam_id":76561198065575472,"connected_time":2219000000000,"state":"active","ping":60},{"user_id":749,"name":"my monitor is off","steam_id":76561198148905570,"connected_time":1269000000000,"state":"active","ping":61},{"user_id":758,"name":"Resident Goober","steam_id":76561199205471969,"connected_time":816000000000,"state":"active","ping":85}]},{"server_id":400,"name":"Uncletopia | Atlanta | 3 | Stopwatch","name_short":"atl-3","host":"atl-1.us.uncletopia.com","port":27035,"enabled":true,"region":"us-east","cc":"us","latitude":33.753746,"longitude":-84.38633,"reserved":0,"last_update":"0001-01-01T00:00:00Z","name_a2s":"Uncletopia | Atlanta | 3 | Stopwatch","protocol":17,"map":"cp_process_final","folder":"tf","game":"Team Fortress","app_id":440,"player_count":0,"max_players":24,"Bots":0,"server_type":"Dedicated","server_os":"Linux","password":true,"vac":true,"version":"7961495","steam_id":85568392924515187,"keywords":["cp","nocrits","nodmgspread","uncletopia"],"game_id":440,"stv_port":27036,"stv_name":"Uncletopia | Atlanta | 3 | Stopwatch | STV","players":null},{"server_id":401,"name":"Uncletopia | Atlanta | 4 | Community","name_short":"atl-4","host":"atl-1.us.uncletopia.com","port":27045,"enabled":true,"region":"us-east","cc":"us","latitude":33.753746,"longitude":-84.38633,"reserved":0,"last_update":"0001-01-01T00:00:00Z","name_a2s":"Uncletopia | Atlanta | 4 | Community","protocol":17,"map":"workshop/pl_shoreleave_rc2.ugc1238849347","folder":"tf","game":"Team Fortress","app_id":440,"player_count":0,"max_players":24,"Bots":0,"server_type":"Dedicated","server_os":"Linux","password":true,"vac":true,"version":"7961495","steam_id":85568392924515188,"keywords":["nocrits","nodmgspread","payload","uncletopia"],"game_id":440,"stv_port":27046,"stv_name":"Uncletopia | Atlanta | 4 | Community | STV","players":null},{"server_id":2,"name":"Uncletopia | Chicago | 1 | All Maps","name_short":"chi-1","host":"chi-1.us.uncletopia.com","port":27015,"enabled":true,"region":"us-central","cc":"us","latitude":41.881832,"longitude":-87.62318,"reserved":0,"last_update":"0001-01-01T00:00:00Z","name_a2s":"Uncletopia | Chicago | 1 | All Maps","protocol":17,"map":"pl_barnblitz","folder":"tf","game":"Team Fortress","app_id":440,"player_count":24,"max_players":24,"Bots":0,"server_type":"Dedicated","server_os":"Linux","password":true,"vac":true,"version":"7961495","steam_id":85568392924469984,"keywords":["nocrits","nodmgspread","payload","uncletopia"],"game_id":440,"stv_port":27016,"stv_name":"Uncletopia | Chicago | 1 | All Maps | STV","players":[{"user_id":675,"name":"Tinaho","steam_id":76561198815585874,"connected_time":916000000000,"state":"active","ping":89},{"user_id":682,"name":"imperial guard","steam_id":76561198882986104,"connected_time":787000000000,"state":"active","ping":83},{"user_id":670,"name":"cotton candy testament","steam_id":76561198058998371,"connected_time":981000000000,"state":"active","ping":64},{"user_id":689,"name":"Honk","steam_id":76561198076720361,"connected_time":556000000000,"state":"active","ping":56},{"user_id":687,"name":"punk cock","steam_id":76561198418182764,"connected_time":641000000000,"state":"active","ping":68},{"user_id":508,"name":"vga cable","steam_id":76561198217402847,"connected_time":5946000000000,"state":"active","ping":105},{"user_id":690,"name":"Captain Crunch","steam_id":76561199141538581,"connected_time":529000000000,"state":"active","ping":107},{"user_id":662,"name":"bird enthusiast","steam_id":76561198087661713,"connected_time":3398000000000,"state":"active","ping":62},{"user_id":693,"name":"Archallis","steam_id":76561198310324554,"connected_time":383000000000,"state":"active","ping":93},{"user_id":694,"name":"ravenmooseman","steam_id":76561198828854464,"connected_time":382000000000,"state":"active","ping":72},{"user_id":664,"name":"agless","steam_id":76561198045248344,"connected_time":2899000000000,"state":"active","ping":52},{"user_id":695,"name":"Nexusuxen","steam_id":76561198117547131,"connected_time":366000000000,"state":"active","ping":66},{"user_id":673,"name":"Butteryback","steam_id":76561198049642485,"connected_time":957000000000,"state":"active","ping":56},{"user_id":692,"name":"Engineer2650","steam_id":76561198121410799,"connected_time":471000000000,"state":"active","ping":80},{"user_id":680,"name":"Classic","steam_id":76561198215293509,"connected_time":817000000000,"state":"active","ping":60},{"user_id":507,"name":"‡∏∏","steam_id":76561198170624701,"connected_time":6006000000000,"state":"active","ping":82},{"user_id":696,"name":"‚∏∏ gaige ‚õß","steam_id":76561198090576796,"connected_time":0,"state":"spawning","ping":0},{"user_id":683,"name":"‚ô•RizaTiz‚ô•","steam_id":76561198165274309,"connected_time":756000000000,"state":"active","ping":123},{"user_id":685,"name":"Helmet Hands","steam_id":76561197961141994,"connected_time":706000000000,"state":"active","ping":105},{"user_id":668,"name":"Aztea","steam_id":76561198982089893,"connected_time":1367000000000,"state":"active","ping":81},{"user_id":459,"name":"loser","steam_id":76561198259380127,"connected_time":10532000000000,"state":"active","ping":59},{"user_id":691,"name":"player4","steam_id":76561197985140870,"connected_time":481000000000,"state":"active","ping":118},{"user_id":512,"name":"lobster","steam_id":76561198147417707,"connected_time":5515000000000,"state":"active","ping":78},{"user_id":671,"name":"dunk","steam_id":76561198132476501,"connected_time":973000000000,"state":"active","ping":49}]},{"server_id":106,"name":"Uncletopia | Chicago | 2 | All Maps","name_short":"chi-2","host":"chi-1.us.uncletopia.com","port":27025,"enabled":true,"region":"us-central","cc":"us","latitude":41.881832,"longitude":-87.62318,"reserved":0,"last_update":"0001-01-01T00:00:00Z","name_a2s":"Uncletopia | Chicago | 2 | All Maps","protocol":17,"map":"pl_barnblitz","folder":"tf","game":"Team Fortress","app_id":440,"player_count":22,"max_players":24,"Bots":0,"server_type":"Dedicated","server_os":"Linux","password":true,"vac":true,"version":"7961495","steam_id":85568392924469985,"keywords":["nocrits","nodmgspread","payload","uncletopia"],"game_id":440,"stv_port":27026,"stv_name":"Uncletopia | Chicago | 2 | All Maps | STV","players":[{"user_id":279,"name":"mrappledumb","steam_id":76561199133590774,"connected_time":643000000000,"state":"active","ping":62},{"user_id":248,"name":"Jambo","steam_id":76561198281754022,"connected_time":2055000000000,"state":"active","ping":56},{"user_id":249,"name":"Goblin","steam_id":76561198338245497,"connected_time":2032000000000,"state":"active","ping":49},{"user_id":218,"name":"kiso","steam_id":76561198141026844,"connected_time":3503000000000,"state":"active","ping":138},{"user_id":281,"name":"/dev/null","steam_id":76561198042144148,"connected_time":624000000000,"state":"active","ping":51},{"user_id":250,"name":"cotton","steam_id":76561198018652890,"connected_time":2029000000000,"state":"active","ping":62},{"user_id":282,"name":"THE CUMEST LORD","steam_id":76561198061412592,"connected_time":615000000000,"state":"active","ping":66},{"user_id":283,"name":"KYLE KYLESON","steam_id":76561198021920887,"connected_time":572000000000,"state":"active","ping":34},{"user_id":269,"name":"BurnN8or101","steam_id":76561198132668224,"connected_time":1092000000000,"state":"active","ping":62},{"user_id":254,"name":"Some_Arse","steam_id":76561198039095394,"connected_time":1882000000000,"state":"active","ping":63},{"user_id":270,"name":"TheWorstSpeedRunner","steam_id":76561199075273861,"connected_time":1091000000000,"state":"active","ping":70},{"user_id":271,"name":"Space Lizard","steam_id":76561198056798193,"connected_time":1046000000000,"state":"active","ping":72},{"user_id":87,"name":"Sunshine","steam_id":76561198885528098,"connected_time":12085000000000,"state":"active","ping":65},{"user_id":284,"name":"pipebombrater","steam_id":76561199029030831,"connected_time":560000000000,"state":"active","ping":81},{"user_id":272,"name":"Username","steam_id":76561198198918781,"connected_time":1039000000000,"state":"active","ping":116},{"user_id":285,"name":"üçíbutaüçí","steam_id":76561198135538212,"connected_time":556000000000,"state":"active","ping":57},{"user_id":89,"name":"magamum!","steam_id":76561198880304614,"connected_time":12048000000000,"state":"active","ping":60},{"user_id":273,"name":"Aristotle Voulton","steam_id":76561198100174923,"connected_time":1027000000000,"state":"active","ping":105},{"user_id":278,"name":"Jest","steam_id":76561198170173062,"connected_time":898000000000,"state":"active","ping":104},{"user_id":275,"name":"Fightin Cow","steam_id":76561198080941486,"connected_time":1010000000000,"state":"active","ping":84},{"user_id":276,"name":"Comic","steam_id":76561198268254154,"connected_time":994000000000,"state":"active","ping":81},{"user_id":227,"name":"Yackaboi","steam_id":76561199444911765,"connected_time":3256000000000,"state":"active","ping":105}]},{"server_id":402,"name":"Uncletopia | Chicago | 3 | All Maps","name_short":"chi-3","host":"chi-1.us.uncletopia.com","port":27035,"enabled":true,"region":"us-central","cc":"us","latitude":41.881832,"longitude":-87.62318,"reserved":0,"last_update":"0001-01-01T00:00:00Z","name_a2s":"Uncletopia | Chicago | 3 | All Maps","protocol":17,"map":"pl_badwater","folder":"tf","game":"Team Fortress","app_id":440,"player_count":24,"max_players":24,"Bots":0,"server_type":"Dedicated","server_os":"Linux","password":true,"vac":true,"version":"7961495","steam_id":85568392924515191,"keywords":["nocrits","nodmgspread","payload","uncletopia"],"game_id":440,"stv_port":27036,"stv_name":"Uncletopia | Chicago | 3 | All Maps | STV","players":[{"user_id":435,"name":"psi","steam_id":76561198061497429,"connected_time":593000000000,"state":"active","ping":66},{"user_id":436,"name":"kookiestkookaburra","steam_id":76561197972601902,"connected_time":572000000000,"state":"active","ping":115},{"user_id":390,"name":"Strange Diplomat","steam_id":76561198428191920,"connected_time":3912000000000,"state":"active","ping":69},{"user_id":396,"name":"Ace Chromatica","steam_id":76561198042211131,"connected_time":3634000000000,"state":"active","ping":73},{"user_id":421,"name":" è·¥ú·¥ä…™","steam_id":76561198401572620,"connected_time":1482000000000,"state":"active","ping":61},{"user_id":389,"name":"Beebo, Son of Beebo","steam_id":76561198055948497,"connected_time":4635000000000,"state":"active","ping":54},{"user_id":430,"name":"a Salty Individual","steam_id":76561197979951077,"connected_time":924000000000,"state":"active","ping":114},{"user_id":407,"name":"Blaze","steam_id":76561198043797702,"connected_time":2860000000000,"state":"active","ping":64},{"user_id":433,"name":"Shoeshocker","steam_id":76561198174302467,"connected_time":740000000000,"state":"active","ping":97},{"user_id":406,"name":"for the king","steam_id":76561197973488858,"connected_time":2949000000000,"state":"active","ping":61},{"user_id":412,"name":"The One True Luke","steam_id":76561198180891187,"connected_time":1674000000000,"state":"active","ping":75},{"user_id":429,"name":"d-_-b","steam_id":76561198120725877,"connected_time":957000000000,"state":"active","ping":48},{"user_id":423,"name":"Gene Takovic","steam_id":76561198881039861,"connected_time":1337000000000,"state":"active","ping":51},{"user_id":410,"name":"Sushibrain","steam_id":76561198041929555,"connected_time":2319000000000,"state":"active","ping":73},{"user_id":437,"name":"Constipated Barry","steam_id":76561198004482269,"connected_time":554000000000,"state":"active","ping":94},{"user_id":415,"name":"gmaay","steam_id":76561199104911185,"connected_time":1594000000000,"state":"active","ping":72},{"user_id":417,"name":"Joyous Jenny","steam_id":76561198127998866,"connected_time":1533000000000,"state":"active","ping":79},{"user_id":418,"name":"TabbyCat","steam_id":76561198414125672,"connected_time":1530000000000,"state":"active","ping":84},{"user_id":419,"name":"trackball triops","steam_id":76561198059041027,"connected_time":1529000000000,"state":"active","ping":103},{"user_id":380,"name":"Coolcat","steam_id":76561198180933957,"connected_time":5569000000000,"state":"active","ping":60},{"user_id":368,"name":"CocoNelly the Cat","steam_id":76561198073176682,"connected_time":6361000000000,"state":"active","ping":62},{"user_id":420,"name":"chilis baby back ribs","steam_id":76561198813516435,"connected_time":1521000000000,"state":"active","ping":94},{"user_id":439,"name":"bengineer","steam_id":76561198171912174,"connected_time":371000000000,"state":"active","ping":99},{"user_id":434,"name":"Professor","steam_id":76561198097038169,"connected_time":680000000000,"state":"active","ping":55}]},{"server_id":403,"name":"Uncletopia | Chicago | 4 | All Maps","name_short":"chi-4","host":"chi-1.us.uncletopia.com","port":27045,"enabled":true,"region":"us-central","cc":"us","latitude":41.881832,"longitude":-87.62318,"reserved":0,"last_update":"0001-01-01T00:00:00Z","name_a2s":"Uncletopia | Chicago | 4 | All Maps","protocol":17,"map":"pl_upward","folder":"tf","game":"Team Fortress","app_id":440,"player_count":23,"max_players":24,"Bots":0,"server_type":"Dedicated","server_os":"Linux","password":true,"vac":true,"version":"7961495","steam_id":85568392924515193,"keywords":["nocrits","nodmgspread","payload","uncletopia"],"game_id":440,"stv_port":27046,"stv_name":"Uncletopia | Chicago | 4 | All Maps | STV","players":[{"user_id":546,"name":"Jey","steam_id":76561198110957641,"connected_time":1897000000000,"state":"active","ping":83},{"user_id":562,"name":"Cheese","steam_id":76561199207081299,"connected_time":718000000000,"state":"active","ping":95},{"user_id":558,"name":"Phee","steam_id":76561198014317211,"connected_time":1170000000000,"state":"active","ping":154},{"user_id":531,"name":"Reaganomics","steam_id":76561199106877333,"connected_time":2408000000000,"state":"active","ping":102},{"user_id":544,"name":"gps","steam_id":76561198067492304,"connected_time":1990000000000,"state":"active","ping":76},{"user_id":533,"name":"JakeK","steam_id":76561198149375504,"connected_time":2299000000000,"state":"active","ping":65},{"user_id":549,"name":"Prsm","steam_id":76561198053344995,"connected_time":1701000000000,"state":"active","ping":59},{"user_id":563,"name":"It's pronounced GIF.","steam_id":76561197993151595,"connected_time":709000000000,"state":"active","ping":68},{"user_id":497,"name":"Dragus","steam_id":76561198032967285,"connected_time":4319000000000,"state":"active","ping":48},{"user_id":572,"name":"Headshotsnake","steam_id":76561198067130248,"connected_time":34000000000,"state":"active","ping":47},{"user_id":535,"name":"gunna sayit","steam_id":76561198034339940,"connected_time":2252000000000,"state":"active","ping":60},{"user_id":561,"name":"SaintDeathanator","steam_id":76561198325125346,"connected_time":757000000000,"state":"active","ping":57},{"user_id":569,"name":"Poyo Boyo","steam_id":76561198010201227,"connected_time":167000000000,"state":"active","ping":70},{"user_id":570,"name":"Protato","steam_id":76561198061182563,"connected_time":114000000000,"state":"active","ping":77},{"user_id":566,"name":"Harbor Seal","steam_id":76561198162631724,"connected_time":474000000000,"state":"active","ping":78},{"user_id":571,"name":"Sauce","steam_id":76561198398722419,"connected_time":90000000000,"state":"active","ping":93},{"user_id":567,"name":"El Dorito","steam_id":76561198044544789,"connected_time":432000000000,"state":"active","ping":65},{"user_id":530,"name":"kukin2cm","steam_id":76561198848888973,"connected_time":2416000000000,"state":"active","ping":125},{"user_id":568,"name":"Quigi","steam_id":76561198144645874,"connected_time":390000000000,"state":"active","ping":123},{"user_id":515,"name":"dog","steam_id":76561198263873491,"connected_time":3436000000000,"state":"active","ping":45},{"user_id":550,"name":"Piyono","steam_id":76561197962188504,"connected_time":1686000000000,"state":"active","ping":68},{"user_id":560,"name":"Metal Witch","steam_id":76561198138560080,"connected_time":1071000000000,"state":"active","ping":87},{"user_id":542,"name":"Sonico167","steam_id":76561199135588265,"connected_time":2143000000000,"state":"active","ping":59}]},{"server_id":36,"name":"Uncletopia | Chicago | 5 | All Maps","name_short":"chi-5","host":"chi-2.us.uncletopia.com","port":27015,"enabled":true,"region":"us-central","cc":"us","latitude":41.881832,"longitude":-87.62318,"reserved":0,"last_update":"0001-01-01T00:00:00Z","name_a2s":"Uncletopia | Chicago | 5 | All Maps","protocol":17,"map":"koth_lakeside_final","folder":"tf","game":"Team Fortress","app_id":440,"player_count":15,"max_players":24,"Bots":0,"server_type":"Dedicated","server_os":"Linux","password":true,"vac":true,"version":"7961495","steam_id":85568392924866362,"keywords":["cp","nocrits","nodmgspread","uncletopia"],"game_id":440,"stv_port":27016,"stv_name":"Uncletopia | Chicago | 5 | All Maps | STV","players":[{"user_id":286,"name":"Autizmo_08","steam_id":76561199130339892,"connected_time":88000000000,"state":"active","ping":75},{"user_id":243,"name":"Ninetees","steam_id":76561198119483989,"connected_time":4301000000000,"state":"active","ping":77},{"user_id":281,"name":"Salt Dragon","steam_id":76561198331207987,"connected_time":536000000000,"state":"active","ping":68},{"user_id":258,"name":"Obersteuermann","steam_id":76561198044468707,"connected_time":2919000000000,"state":"active","ping":96},{"user_id":282,"name":"garfield","steam_id":76561198114119308,"connected_time":525000000000,"state":"active","ping":61},{"user_id":285,"name":"rip and tear","steam_id":76561198175134329,"connected_time":329000000000,"state":"active","ping":87},{"user_id":274,"name":"squart guy","steam_id":76561199411560141,"connected_time":1988000000000,"state":"active","ping":92},{"user_id":275,"name":"Ampere","steam_id":76561198853751432,"connected_time":1617000000000,"state":"active","ping":69},{"user_id":253,"name":"Chickenhalf21","steam_id":76561198966588372,"connected_time":3337000000000,"state":"active","ping":70},{"user_id":260,"name":"UNAWARE","steam_id":76561198180951431,"connected_time":2868000000000,"state":"active","ping":58},{"user_id":237,"name":"c00kie","steam_id":76561198418178297,"connected_time":4766000000000,"state":"active","ping":48},{"user_id":247,"name":"‚òëJuanaco is dead","steam_id":76561198029895630,"connected_time":4273000000000,"state":"active","ping":75},{"user_id":263,"name":"silver","steam_id":76561198140887655,"connected_time":2855000000000,"state":"active","ping":54},{"user_id":264,"name":"spingaskhan","steam_id":76561198099412571,"connected_time":2847000000000,"state":"active","ping":60},{"user_id":236,"name":"graham crackr","steam_id":76561199072720886,"connected_time":4929000000000,"state":"active","ping":60}]},{"server_id":37,"name":"Uncletopia | Chicago | 6 | All Maps","name_short":"chi-6","host":"chi-2.us.uncletopia.com","port":27025,"enabled":true,"region":"us-central","cc":"us","latitude":41.881832,"longitude":-87.62318,"reserved":0,"last_update":"0001-01-01T00:00:00Z","name_a2s":"Uncletopia | Chicago | 6 | All Maps","protocol":17,"map":"koth_highpass","folder":"tf","game":"Team Fortress","app_id":440,"player_count":0,"max_players":24,"Bots":0,"server_type":"Dedicated","server_os":"Linux","password":true,"vac":true,"version":"7961495","steam_id":85568392924866363,"keywords":["cp","nocrits","nodmgspread","uncletopia"],"game_id":440,"stv_port":27026,"stv_name":"Uncletopia | Chicago | 6 | All Maps | STV","players":null},{"server_id":38,"name":"Uncletopia | Chicago | 7 | Stopwatch","name_short":"chi-7","host":"chi-2.us.uncletopia.com","port":27035,"enabled":true,"region":"us-central","cc":"us","latitude":41.881832,"longitude":-87.62318,"reserved":0,"last_update":"0001-01-01T00:00:00Z","name_a2s":"Uncletopia | Chicago | 7 | Stopwatch","protocol":17,"map":"pl_badwater","folder":"tf","game":"Team Fortress","app_id":440,"player_count":0,"max_players":24,"Bots":0,"server_type":"Dedicated","server_os":"Linux","password":true,"vac":true,"version":"7961495","steam_id":85568392924866364,"keywords":["nocrits","nodmgspread","payload","uncletopia"],"game_id":440,"stv_port":27036,"stv_name":"Uncletopia | Chicago | 7 | Stopwatch | STV","players":null},{"server_id":39,"name":"Uncletopia | Chicago | 8 | Community","name_short":"chi-8","host":"chi-2.us.uncletopia.com","port":27045,"enabled":true,"region":"us-central","cc":"us","latitude":41.881832,"longitude":-87.62318,"reserved":0,"last_update":"0001-01-01T00:00:00Z","name_a2s":"Uncletopia | Chicago | 8 | Community","protocol":17,"map":"workshop/cp_overgrown_rc8.ugc503939302","folder":"tf","game":"Team Fortress","app_id":440,"player_count":22,"max_players":24,"Bots":0,"server_type":"Dedicated","server_os":"Linux","password":true,"vac":true,"version":"7961495","steam_id":85568392924866365,"keywords":["cp","nocrits","nodmgspread","uncletopia"],"game_id":440,"stv_port":27046,"stv_name":"Uncletopia | Chicago | 8 | Community | STV","players":[{"user_id":31,"name":"DaMultiversalist","steam_id":76561198239552412,"connected_time":10186000000000,"state":"active","ping":58},{"user_id":152,"name":"Fattened Dessert","steam_id":76561198351008375,"connected_time":3382000000000,"state":"active","ping":45},{"user_id":190,"name":"oblivionlol","steam_id":76561198223682744,"connected_time":360000000000,"state":"active","ping":73},{"user_id":191,"name":"Evenaris","steam_id":76561198087544319,"connected_time":304000000000,"state":"active","ping":88},{"user_id":189,"name":"firefish","steam_id":76561199135656474,"connected_time":410000000000,"state":"active","ping":90},{"user_id":168,"name":"mu","steam_id":76561197997530228,"connected_time":2092000000000,"state":"active","ping":106},{"user_id":184,"name":"Steve Jobs' cousin Hand Jobs","steam_id":76561198282766831,"connected_time":696000000000,"state":"active","ping":59},{"user_id":58,"name":"canadian birds","steam_id":76561198059466588,"connected_time":8865000000000,"state":"active","ping":67},{"user_id":173,"name":"spybuster pyro","steam_id":76561198805603832,"connected_time":1505000000000,"state":"active","ping":68},{"user_id":195,"name":"Theo","steam_id":76561198000991724,"connected_time":16000000000,"state":"spawning","ping":111},{"user_id":185,"name":"frank","steam_id":76561198137777483,"connected_time":673000000000,"state":"active","ping":69},{"user_id":175,"name":"RectalExam","steam_id":76561197970502312,"connected_time":1439000000000,"state":"active","ping":90},{"user_id":155,"name":"Epha","steam_id":76561198079379951,"connected_time":3293000000000,"state":"active","ping":68},{"user_id":177,"name":"GuyGoom","steam_id":76561198254522178,"connected_time":1344000000000,"state":"active","ping":50},{"user_id":176,"name":"Cthulhu's Malewife","steam_id":76561198085888959,"connected_time":1408000000000,"state":"active","ping":55},{"user_id":178,"name":"the.land.of.avalon","steam_id":76561198245431668,"connected_time":1310000000000,"state":"active","ping":55},{"user_id":186,"name":"MikeLovesRabbit","steam_id":76561197997742625,"connected_time":645000000000,"state":"active","ping":58},{"user_id":194,"name":"Scremz","steam_id":76561198090314229,"connected_time":163000000000,"state":"active","ping":79},{"user_id":156,"name":"Bongjour","steam_id":76561198083851689,"connected_time":3291000000000,"state":"active","ping":58},{"user_id":144,"name":"Lee?","steam_id":76561199060892634,"connected_time":4036000000000,"state":"active","ping":84},{"user_id":181,"name":"evegioyidechadab","steam_id":76561198075991626,"connected_time":1242000000000,"state":"active","ping":180},{"user_id":193,"name":"Mountain Man","steam_id":76561198841559088,"connected_time":174000000000,"state":"active","ping":59}]},{"server_id":8,"name":"Uncletopia | Dallas | 1 | All Maps","name_short":"dal-1","host":"dal-1.us.uncletopia.com","port":27015,"enabled":true,"region":"us-central","cc":"us","latitude":32.779167,"longitude":-96.80889,"reserved":0,"last_update":"0001-01-01T00:00:00Z","name_a2s":"Uncletopia | Dallas | 1 | All Maps","protocol":17,"map":"pl_badwater","folder":"tf","game":"Team Fortress","app_id":440,"player_count":24,"max_players":24,"Bots":0,"server_type":"Dedicated","server_os":"Linux","password":true,"vac":true,"version":"7961495","steam_id":85568392924469986,"keywords":["nocrits","nodmgspread","payload","uncletopia"],"game_id":440,"stv_port":27016,"stv_name":"Uncletopia | Dallas | 1 | All Maps | STV","players":[{"user_id":458,"name":"7TH DOORDASH ORDER TODAY","steam_id":76561198042773724,"connected_time":2031000000000,"state":"active","ping":92},{"user_id":476,"name":"The Grim Heaper","steam_id":76561197987759101,"connected_time":813000000000,"state":"active","ping":113},{"user_id":421,"name":"Zykron","steam_id":76561199056400800,"connected_time":4334000000000,"state":"active","ping":108},{"user_id":469,"name":"PTR","steam_id":76561198237253772,"connected_time":1369000000000,"state":"active","ping":46},{"user_id":486,"name":"big doinks","steam_id":76561198184385763,"connected_time":77000000000,"state":"active","ping":66},{"user_id":446,"name":"Vintage TV","steam_id":76561198800334545,"connected_time":2537000000000,"state":"active","ping":78},{"user_id":485,"name":"lettuce, ground beef, tomatoes","steam_id":76561198046948758,"connected_time":119000000000,"state":"active","ping":64},{"user_id":442,"name":"Kaylock","steam_id":76561197971437742,"connected_time":3020000000000,"state":"active","ping":71},{"user_id":422,"name":"errant","steam_id":76561197961758410,"connected_time":3920000000000,"state":"active","ping":44},{"user_id":447,"name":"chill good dm","steam_id":76561199061380038,"connected_time":2525000000000,"state":"active","ping":63},{"user_id":482,"name":"Monte","steam_id":76561198097499917,"connected_time":354000000000,"state":"active","ping":74},{"user_id":483,"name":"Big Chad","steam_id":76561198015304658,"connected_time":352000000000,"state":"active","ping":86},{"user_id":484,"name":"Stapler","steam_id":76561198099295077,"connected_time":288000000000,"state":"active","ping":90},{"user_id":456,"name":"local man","steam_id":76561198074946673,"connected_time":2112000000000,"state":"active","ping":90},{"user_id":475,"name":"cook","steam_id":76561198073106278,"connected_time":874000000000,"state":"active","ping":61},{"user_id":464,"name":"[TRR/IO] Tangerine Baker","steam_id":76561199004774964,"connected_time":1944000000000,"state":"active","ping":100},{"user_id":453,"name":"Snoogs","steam_id":76561198444880931,"connected_time":2349000000000,"state":"active","ping":99},{"user_id":465,"name":"jus a lil dude","steam_id":76561198013326889,"connected_time":1920000000000,"state":"active","ping":84},{"user_id":481,"name":"backshot overlord","steam_id":76561198984612489,"connected_time":402000000000,"state":"active","ping":84},{"user_id":445,"name":"certified boy lover","steam_id":76561199122281764,"connected_time":2599000000000,"state":"active","ping":75},{"user_id":474,"name":"shakoiwa","steam_id":76561199059441773,"connected_time":908000000000,"state":"active","ping":85},{"user_id":480,"name":"Brody Yukin","steam_id":76561198084712019,"connected_time":462000000000,"state":"active","ping":83},{"user_id":454,"name":"mccrispy","steam_id":76561198418172095,"connected_time":2323000000000,"state":"active","ping":90},{"user_id":472,"name":"BitPieStudios","steam_id":76561198059216393,"connected_time":1265000000000,"state":"active","ping":89}]},{"server_id":108,"name":"Uncletopia | Dallas | 2 | All Maps","name_short":"dal-2","host":"dal-1.us.uncletopia.com","port":27025,"enabled":true,"region":"us-central","cc":"us","latitude":32.779167,"longitude":-96.80889,"reserved":0,"last_update":"0001-01-01T00:00:00Z","name_a2s":"Uncletopia | Dallas | 2 | All Maps","protocol":17,"map":"pl_frontier_final","folder":"tf","game":"Team Fortress","app_id":440,"player_count":24,"max_players":24,"Bots":0,"server_type":"Dedicated","server_os":"Linux","password":true,"vac":true,"version":"7961495","steam_id":85568392924469988,"keywords":["nocrits","nodmgspread","payload","uncletopia"],"game_id":440,"stv_port":27026,"stv_name":"Uncletopia | Dallas | 2 | All Maps | STV","players":[{"user_id":619,"name":"wish","steam_id":76561198019206178,"connected_time":350000000000,"state":"active","ping":80},{"user_id":620,"name":"turnip","steam_id":76561197999375941,"connected_time":348000000000,"state":"active","ping":57},{"user_id":623,"name":"Squatter1","steam_id":76561198078987734,"connected_time":297000000000,"state":"active","ping":92},{"user_id":602,"name":"Yippe!!!","steam_id":76561199151545966,"connected_time":1927000000000,"state":"active","ping":64},{"user_id":621,"name":"tsz","steam_id":76561199246231090,"connected_time":343000000000,"state":"active","ping":87},{"user_id":610,"name":"Leon","steam_id":76561198950938712,"connected_time":1333000000000,"state":"active","ping":120},{"user_id":616,"name":"Gamer1243","steam_id":76561199073760355,"connected_time":612000000000,"state":"active","ping":80},{"user_id":604,"name":"Pickles","steam_id":76561198010609340,"connected_time":1861000000000,"state":"active","ping":74},{"user_id":591,"name":"Cervid√©","steam_id":76561198098579497,"connected_time":2197000000000,"state":"active","ping":99},{"user_id":617,"name":"LazySushi","steam_id":76561198043802202,"connected_time":602000000000,"state":"active","ping":78},{"user_id":606,"name":"Drakon","steam_id":76561198078210822,"connected_time":1844000000000,"state":"active","ping":98},{"user_id":584,"name":"Volify","steam_id":76561198146648035,"connected_time":2381000000000,"state":"active","ping":64},{"user_id":624,"name":"Dillon","steam_id":76561198191469611,"connected_time":246000000000,"state":"active","ping":95},{"user_id":625,"name":"arse77","steam_id":76561198169613105,"connected_time":232000000000,"state":"active","ping":93},{"user_id":590,"name":"HeroOfTime","steam_id":76561199096218001,"connected_time":2240000000000,"state":"active","ping":89},{"user_id":587,"name":"Pilot Boy","steam_id":76561198090857288,"connected_time":2346000000000,"state":"active","ping":151},{"user_id":525,"name":"SAGE(‡§∏‡§ó‡•á*)","steam_id":76561198811114074,"connected_time":6276000000000,"state":"active","ping":67},{"user_id":588,"name":"millerbv14","steam_id":76561198453908595,"connected_time":2332000000000,"state":"active","ping":79},{"user_id":593,"name":"Gnaash","steam_id":76561198940657194,"connected_time":2162000000000,"state":"active","ping":59},{"user_id":594,"name":"FiddyFoMike","steam_id":76561198057072581,"connected_time":2154000000000,"state":"active","ping":89},{"user_id":560,"name":"despicable gamer","steam_id":76561198312055294,"connected_time":3435000000000,"state":"active","ping":88},{"user_id":561,"name":"da goofy gamer! ^_^ \u003c3","steam_id":76561198832230598,"connected_time":3434000000000,"state":"active","ping":88},{"user_id":611,"name":"Casey","steam_id":76561198068810896,"connected_time":1316000000000,"state":"active","ping":78},{"user_id":613,"name":"RAWRWAFL","steam_id":76561198032118386,"connected_time":1070000000000,"state":"active","ping":75}]},{"server_id":404,"name":"Uncletopia | Dallas | 3 | All Maps","name_short":"dal-3","host":"dal-1.us.uncletopia.com","port":27035,"enabled":true,"region":"us-central","cc":"us","latitude":32.779167,"longitude":-96.80889,"reserved":0,"last_update":"0001-01-01T00:00:00Z","name_a2s":"Uncletopia | Dallas | 3 | All Maps","protocol":17,"map":"pl_upward","folder":"tf","game":"Team Fortress","app_id":440,"player_count":21,"max_players":24,"Bots":0,"server_type":"Dedicated","server_os":"Linux","password":true,"vac":true,"version":"7961495","steam_id":85568392924515219,"keywords":["nocrits","nodmgspread","payload","uncletopia"],"game_id":440,"stv_port":27036,"stv_name":"Uncletopia | Dallas | 3 | All Maps | STV","players":[{"user_id":156,"name":"Pistol Engie Monday","steam_id":76561198409907417,"connected_time":2035000000000,"state":"active","ping":95},{"user_id":176,"name":"elephant thumb","steam_id":76561198118859752,"connected_time":667000000000,"state":"active","ping":73},{"user_id":167,"name":"Femboy Wrangler","steam_id":76561199057899661,"connected_time":1480000000000,"state":"active","ping":81},{"user_id":157,"name":"scrundlebundle","steam_id":76561199209883822,"connected_time":1814000000000,"state":"active","ping":93},{"user_id":149,"name":"Light-Work","steam_id":76561198084263001,"connected_time":2313000000000,"state":"active","ping":51},{"user_id":177,"name":"Friendzone \u003c3","steam_id":76561198115386740,"connected_time":546000000000,"state":"active","ping":73},{"user_id":169,"name":"b","steam_id":76561198118211523,"connected_time":1384000000000,"state":"active","ping":77},{"user_id":180,"name":"CatLike Pigeon","steam_id":76561198171716030,"connected_time":362000000000,"state":"active","ping":97},{"user_id":179,"name":"Erodplayer","steam_id":76561198183840185,"connected_time":458000000000,"state":"active","ping":53},{"user_id":161,"name":"Gamerfan64","steam_id":76561198801410962,"connected_time":1662000000000,"state":"active","ping":45},{"user_id":182,"name":"microwavable football","steam_id":76561198260688856,"connected_time":291000000000,"state":"active","ping":85},{"user_id":162,"name":"mrpineapple070","steam_id":76561199088278757,"connected_time":1649000000000,"state":"active","ping":72},{"user_id":183,"name":"ichster fishman","steam_id":76561198011675372,"connected_time":252000000000,"state":"active","ping":107},{"user_id":189,"name":"Hunter","steam_id":76561198041932384,"connected_time":42000000000,"state":"active","ping":102},{"user_id":185,"name":"souljaboytellem.com","steam_id":76561198095824426,"connected_time":181000000000,"state":"active","ping":70},{"user_id":186,"name":"LaChancla","steam_id":76561198971528917,"connected_time":128000000000,"state":"active","ping":53},{"user_id":187,"name":"celestia ludenberg","steam_id":76561199196437823,"connected_time":101000000000,"state":"active","ping":99},{"user_id":117,"name":"V. G. Sunderland","steam_id":76561198161839980,"connected_time":5278000000000,"state":"active","ping":79},{"user_id":82,"name":"Jesse Bear","steam_id":76561198217075305,"connected_time":8247000000000,"state":"active","ping":94},{"user_id":151,"name":"my buddy Eric","steam_id":76561198297248469,"connected_time":2217000000000,"state":"active","ping":123},{"user_id":171,"name":"Dr Oshawott","steam_id":76561198042021629,"connected_time":1323000000000,"state":"active","ping":85}]},{"server_id":405,"name":"Uncletopia | Dallas | 4 | Community","name_short":"dal-4","host":"dal-1.us.uncletopia.com","port":27045,"enabled":true,"region":"us-central","cc":"us","latitude":32.779167,"longitude":-96.80889,"reserved":0,"last_update":"0001-01-01T00:00:00Z","name_a2s":"Uncletopia | Dallas | 4 | Community","protocol":17,"map":"workshop/cp_glassworks_rc7a.ugc454118349","folder":"tf","game":"Team Fortress","app_id":440,"player_count":0,"max_players":24,"Bots":0,"server_type":"Dedicated","server_os":"Linux","password":true,"vac":true,"version":"7961495","steam_id":85568392924515220,"keywords":["cp","nocrits","nodmgspread","uncletopia"],"game_id":440,"stv_port":27046,"stv_name":"Uncletopia | Dallas | 4 | Community | STV","players":null},{"server_id":5,"name":"Uncletopia | Frankfurt | 1 | All Maps","name_short":"frk-1","host":"frk-1.de.uncletopia.com","port":27015,"enabled":true,"region":"eu","cc":"de","latitude":50.110924,"longitude":8.682127,"reserved":0,"last_update":"0001-01-01T00:00:00Z","name_a2s":"Uncletopia | Frankfurt | 1 | All Maps","protocol":17,"map":"cp_process_final","folder":"tf","game":"Team Fortress","app_id":440,"player_count":0,"max_players":24,"Bots":0,"server_type":"Dedicated","server_os":"Linux","password":true,"vac":true,"version":"7961495","steam_id":85568392924469989,"keywords":["cp","nocrits","nodmgspread","uncletopia"],"game_id":440,"stv_port":27016,"stv_name":"Uncletopia | Frankfurt | 1 | All Maps | STV","players":null},{"server_id":110,"name":"Uncletopia | Frankfurt | 2 | All Maps","name_short":"frk-2","host":"frk-1.de.uncletopia.com","port":27025,"enabled":true,"region":"eu","cc":"de","latitude":50.110924,"longitude":8.682127,"reserved":0,"last_update":"0001-01-01T00:00:00Z","name_a2s":"Uncletopia | Frankfurt | 2 | All Maps","protocol":17,"map":"koth_lakeside_final","folder":"tf","game":"Team Fortress","app_id":440,"player_count":0,"max_players":24,"Bots":0,"server_type":"Dedicated","server_os":"Linux","password":true,"vac":true,"version":"7961495","steam_id":85568392924469990,"keywords":["cp","nocrits","nodmgspread","uncletopia"],"game_id":440,"stv_port":27026,"stv_name":"Uncletopia | Frankfurt | 2 | All Maps | STV","players":null},{"server_id":308,"name":"Uncletopia | Frankfurt | 3 | All Maps","name_short":"frk-3","host":"frk-1.de.uncletopia.com","port":27035,"enabled":true,"region":"eu","cc":"de","latitude":50.110924,"longitude":8.682127,"reserved":0,"last_update":"0001-01-01T00:00:00Z","name_a2s":"Uncletopia | Frankfurt | 3 | All Maps","protocol":17,"map":"koth_cascade","folder":"tf","game":"Team Fortress","app_id":440,"player_count":0,"max_players":24,"Bots":0,"server_type":"Dedicated","server_os":"Linux","password":true,"vac":true,"version":"7961495","steam_id":85568392924504274,"keywords":["cp","nocrits","nodmgspread","uncletopia"],"game_id":440,"stv_port":27036,"stv_name":"Uncletopia | Frankfurt | 3 | All Maps | STV","players":null},{"server_id":309,"name":"Uncletopia | Frankfurt | 4 | All Maps","name_short":"frk-4","host":"frk-1.de.uncletopia.com","port":27045,"enabled":true,"region":"eu","cc":"de","latitude":50.110924,"longitude":8.682127,"reserved":0,"last_update":"0001-01-01T00:00:00Z","name_a2s":"Uncletopia | Frankfurt | 4 | All Maps","protocol":17,"map":"cp_dustbowl","folder":"tf","game":"Team Fortress","app_id":440,"player_count":0,"max_players":24,"Bots":0,"server_type":"Dedicated","server_os":"Linux","password":true,"vac":true,"version":"7961495","steam_id":85568392924504275,"keywords":["cp","nocrits","nodmgspread","uncletopia"],"game_id":440,"stv_port":27046,"stv_name":"Uncletopia | Frankfurt | 4 | All Maps | STV","players":null},{"server_id":310,"name":"Uncletopia | Frankfurt | 5 | All Maps","name_short":"frk-5","host":"frk-1.de.uncletopia.com","port":27055,"enabled":true,"region":"eu","cc":"de","latitude":50.110924,"longitude":8.682127,"reserved":0,"last_update":"0001-01-01T00:00:00Z","name_a2s":"Uncletopia | Frankfurt | 5 | All Maps","protocol":17,"map":"cp_sunshine","folder":"tf","game":"Team Fortress","app_id":440,"player_count":0,"max_players":24,"Bots":0,"server_type":"Dedicated","server_os":"Linux","password":true,"vac":true,"version":"7961495","steam_id":85568392924504277,"keywords":["cp","nocrits","nodmgspread","uncletopia"],"game_id":440,"stv_port":27056,"stv_name":"Uncletopia | Frankfurt | 5 | All Maps | STV","players":null},{"server_id":311,"name":"Uncletopia | Frankfurt | 6 | All Maps","name_short":"frk-6","host":"frk-1.de.uncletopia.com","port":27065,"enabled":true,"region":"eu","cc":"de","latitude":50.110924,"longitude":8.682127,"reserved":0,"last_update":"0001-01-01T00:00:00Z","name_a2s":"Uncletopia | Frankfurt | 6 | All Maps","protocol":17,"map":"koth_lakeside_final","folder":"tf","game":"Team Fortress","app_id":440,"player_count":0,"max_players":24,"Bots":0,"server_type":"Dedicated","server_os":"Linux","password":true,"vac":true,"version":"7961495","steam_id":85568392924504278,"keywords":["cp","nocrits","nodmgspread","uncletopia"],"game_id":440,"stv_port":27066,"stv_name":"Uncletopia | Frankfurt | 6 | All Maps | STV","players":null},{"server_id":23,"name":"Uncletopia | Frankfurt | 7 | Stopwatch","name_short":"frk-7","host":"frk-1.de.uncletopia.com","port":27075,"enabled":true,"region":"eu","cc":"de","latitude":50.110924,"longitude":8.682127,"reserved":0,"last_update":"0001-01-01T00:00:00Z","name_a2s":"Uncletopia | Frankfurt | 7 | Stopwatch","protocol":17,"map":"workshop/koth_ramjam_rc1.ugc459778887","folder":"tf","game":"Team Fortress","app_id":440,"player_count":0,"max_players":24,"Bots":0,"server_type":"Dedicated","server_os":"Linux","password":true,"vac":true,"version":"7961495","steam_id":85568392924742827,"keywords":["cp","nocrits","nodmgspread","uncletopia"],"game_id":440,"stv_port":27076,"stv_name":"Uncletopia | Frankfurt | 7 | Stopwatch | STV","players":null},{"server_id":24,"name":"Uncletopia | Frankfurt | 8 | Community","name_short":"frk-8","host":"frk-1.de.uncletopia.com","port":27085,"enabled":true,"region":"eu","cc":"de","latitude":50.110924,"longitude":8.682127,"reserved":0,"last_update":"0001-01-01T00:00:00Z","name_a2s":"Uncletopia | Frankfurt | 8 | Community","protocol":17,"map":"workshop/koth_ramjam_rc1.ugc459778887","folder":"tf","game":"Team Fortress","app_id":440,"player_count":0,"max_players":24,"Bots":0,"server_type":"Dedicated","server_os":"Linux","password":true,"vac":true,"version":"7961495","steam_id":85568392924742828,"keywords":["cp","nocrits","nodmgspread","uncletopia"],"game_id":440,"stv_port":27086,"stv_name":"Uncletopia | Frankfurt | 8 | Community | STV","players":null},{"server_id":202,"name":"Uncletopia | Hong Kong | 1 | All Maps","name_short":"hgk-1","host":"hgk-1.hk.uncletopia.com","port":27015,"enabled":true,"region":"asia","cc":"hk","latitude":22.302711,"longitude":114.177216,"reserved":0,"last_update":"0001-01-01T00:00:00Z","name_a2s":"Uncletopia | Hong Kong | 1 | All Maps","protocol":17,"map":"pl_badwater","folder":"tf","game":"Team Fortress","app_id":440,"player_count":0,"max_players":24,"Bots":0,"server_type":"Dedicated","server_os":"Linux","password":true,"vac":true,"version":"7961495","steam_id":85568392924494504,"keywords":["nocrits","nodmgspread","payload","uncletopia"],"game_id":440,"stv_port":27016,"stv_name":"Uncletopia | Hong Kong | 1 | All Maps | STV","players":null},{"server_id":1,"name":"Uncletopia | Los Angeles | 1 | All Maps","name_short":"lax-1","host":"lax-1.us.uncletopia.com","port":27015,"enabled":true,"region":"us-west","cc":"us","latitude":33.94279,"longitude":-118.41004,"reserved":0,"last_update":"0001-01-01T00:00:00Z","name_a2s":"Uncletopia | Los Angeles | 1 | All Maps","protocol":17,"map":"pl_frontier_final","folder":"tf","game":"Team Fortress","app_id":440,"player_count":15,"max_players":24,"Bots":0,"server_type":"Dedicated","server_os":"Linux","password":true,"vac":true,"version":"7961495","steam_id":85568392924469991,"keywords":["nocrits","nodmgspread","payload","uncletopia"],"game_id":440,"stv_port":27016,"stv_name":"Uncletopia | Los Angeles | 1 | All Maps | STV","players":[{"user_id":37,"name":"Eugene Thaddeus Hinkle V","steam_id":76561198821535846,"connected_time":1965000000000,"state":"active","ping":104},{"user_id":41,"name":"Mr. Noodle","steam_id":76561198025280658,"connected_time":1006000000000,"state":"active","ping":50},{"user_id":39,"name":"Lysander Crow","steam_id":76561198214659356,"connected_time":1259000000000,"state":"active","ping":52},{"user_id":42,"name":"Metalogic","steam_id":76561198049469629,"connected_time":1003000000000,"state":"active","ping":85},{"user_id":54,"name":"They could be ********","steam_id":76561198441020995,"connected_time":191000000000,"state":"active","ping":46},{"user_id":45,"name":"Velgrauder","steam_id":76561198848526938,"connected_time":687000000000,"state":"active","ping":98},{"user_id":51,"name":"Guapote","steam_id":76561199187895660,"connected_time":248000000000,"state":"active","ping":60},{"user_id":47,"name":"ProtogenGaming_808","steam_id":76561199440523721,"connected_time":626000000000,"state":"active","ping":80},{"user_id":48,"name":"jesus marie they're minerals","steam_id":76561198168492250,"connected_time":607000000000,"state":"active","ping":62},{"user_id":52,"name":"squibonacci","steam_id":76561198305870184,"connected_time":207000000000,"state":"active","ping":69},{"user_id":53,"name":"walrooos","steam_id":76561198024521839,"connected_time":191000000000,"state":"active","ping":43},{"user_id":55,"name":"MayKay","steam_id":76561199016092265,"connected_time":144000000000,"state":"active","ping":56},{"user_id":56,"name":"HeHedron","steam_id":76561199199667164,"connected_time":133000000000,"state":"active","ping":73},{"user_id":57,"name":"crumbles","steam_id":76561198168707036,"connected_time":89000000000,"state":"active","ping":60},{"user_id":58,"name":"r u guys going trick or treatin","steam_id":76561199074585110,"connected_time":50000000000,"state":"spawning","ping":48}]},{"server_id":112,"name":"Uncletopia | Los Angeles | 2 | All Maps","name_short":"lax-2","host":"lax-1.us.uncletopia.com","port":27025,"enabled":true,"region":"us-west","cc":"us","latitude":33.94279,"longitude":-118.41004,"reserved":0,"last_update":"0001-01-01T00:00:00Z","name_a2s":"Uncletopia | Los Angeles | 2 | All Maps","protocol":17,"map":"koth_viaduct","folder":"tf","game":"Team Fortress","app_id":440,"player_count":0,"max_players":24,"Bots":0,"server_type":"Dedicated","server_os":"Linux","password":true,"vac":true,"version":"7961495","steam_id":85568392924469992,"keywords":["cp","nocrits","nodmgspread","uncletopia"],"game_id":440,"stv_port":27026,"stv_name":"Uncletopia | Los Angeles | 2 | All Maps | STV","players":null},{"server_id":324,"name":"Uncletopia | Los Angeles | 3 | All Maps","name_short":"lax-3","host":"lax-1.us.uncletopia.com","port":27035,"enabled":true,"region":"us-west","cc":"us","latitude":33.94279,"longitude":-118.41004,"reserved":0,"last_update":"0001-01-01T00:00:00Z","name_a2s":"Uncletopia | Los Angeles | 3 | All Maps","protocol":17,"map":"koth_viaduct","folder":"tf","game":"Team Fortress","app_id":440,"player_count":0,"max_players":24,"Bots":0,"server_type":"Dedicated","server_os":"Linux","password":true,"vac":true,"version":"7961495","steam_id":85568392924510198,"keywords":["cp","nocrits","nodmgspread","uncletopia"],"game_id":440,"stv_port":27036,"stv_name":"Uncletopia | Los Angeles | 3 | All Maps | STV","players":null},{"server_id":25,"name":"Uncletopia | Los Angeles | 4 | Stopwatch","name_short":"lax-4","host":"lax-1.us.uncletopia.com","port":27045,"enabled":true,"region":"us-west","cc":"us","latitude":33.94279,"longitude":-118.41004,"reserved":0,"last_update":"0001-01-01T00:00:00Z","name_a2s":"Uncletopia | Los Angeles | 4 | Stopwatch","protocol":17,"map":"cp_metalworks","folder":"tf","game":"Team Fortress","app_id":440,"player_count":0,"max_players":24,"Bots":0,"server_type":"Dedicated","server_os":"Linux","password":true,"vac":true,"version":"7961495","steam_id":85568392924510199,"keywords":["cp","nocrits","nodmgspread","uncletopia"],"game_id":440,"stv_port":27046,"stv_name":"Uncletopia | Los Angeles | 4 | Stopwatch | STV","players":null},{"server_id":11,"name":"Uncletopia | London | 1 | All Maps","name_short":"lon-1","host":"lon-1.uk.uncletopia.com","port":27015,"enabled":true,"region":"eu","cc":"gb","latitude":51.509865,"longitude":-0.118092,"reserved":0,"last_update":"0001-01-01T00:00:00Z","name_a2s":"Uncletopia | London | 1 | All Maps","protocol":17,"map":"pl_barnblitz","folder":"tf","game":"Team Fortress","app_id":440,"player_count":17,"max_players":24,"Bots":0,"server_type":"Dedicated","server_os":"Linux","password":true,"vac":true,"version":"7961495","steam_id":85568392924367362,"keywords":["nocrits","nodmgspread","payload","uncletopia"],"game_id":440,"stv_port":27016,"stv_name":"Uncletopia | London | 1 | All Maps | STV","players":[{"user_id":1138,"name":"ne,dange","steam_id":76561198044189114,"connected_time":636000000000,"state":"active","ping":63},{"user_id":1130,"name":"K","steam_id":76561198144604444,"connected_time":1657000000000,"state":"active","ping":46},{"user_id":1143,"name":"Jack \"Hee Ho\" Frost","steam_id":76561198353395198,"connected_time":146000000000,"state":"active","ping":150},{"user_id":1135,"name":"H","steam_id":76561198158608309,"connected_time":893000000000,"state":"active","ping":52},{"user_id":1122,"name":"Eidolon","steam_id":76561198043919565,"connected_time":2294000000000,"state":"active","ping":52},{"user_id":1136,"name":"G_raff","steam_id":76561199048512726,"connected_time":798000000000,"state":"active","ping":77},{"user_id":1139,"name":"Mingo","steam_id":76561198281639166,"connected_time":568000000000,"state":"active","ping":89},{"user_id":1107,"name":"TomBradyKissesHisSonOnTheLips","steam_id":76561198272910051,"connected_time":3638000000000,"state":"active","ping":45},{"user_id":1141,"name":"Subxo","steam_id":76561198341198154,"connected_time":376000000000,"state":"active","ping":117},{"user_id":1140,"name":"Aliss‚ù§","steam_id":76561198129509399,"connected_time":450000000000,"state":"active","ping":87},{"user_id":1103,"name":"Morthunn","steam_id":76561198060062298,"connected_time":4108000000000,"state":"active","ping":57},{"user_id":1142,"name":"Smorth","steam_id":76561198051316160,"connected_time":313000000000,"state":"active","ping":86},{"user_id":1132,"name":"FurthestBen","steam_id":76561198056681239,"connected_time":1363000000000,"state":"active","ping":62},{"user_id":1074,"name":"BlueBlueFox","steam_id":76561198053817230,"connected_time":7213000000000,"state":"active","ping":79},{"user_id":1093,"name":"BONK","steam_id":76561199120275042,"connected_time":5829000000000,"state":"active","ping":68},{"user_id":1133,"name":"FoxyTheFish","steam_id":76561199074190919,"connected_time":1323000000000,"state":"active","ping":63},{"user_id":1128,"name":"DaisyTheCat","steam_id":76561198241732704,"connected_time":1888000000000,"state":"active","ping":49}]},{"server_id":114,"name":"Uncletopia | London | 2 | All Maps","name_short":"lon-2","host":"lon-1.uk.uncletopia.com","port":27025,"enabled":true,"region":"eu","cc":"gb","latitude":51.509865,"longitude":-0.118092,"reserved":0,"last_update":"0001-01-01T00:00:00Z","name_a2s":"Uncletopia | London | 2 | All Maps","protocol":17,"map":"koth_highpass","folder":"tf","game":"Team Fortress","app_id":440,"player_count":3,"max_players":24,"Bots":0,"server_type":"Dedicated","server_os":"Linux","password":true,"vac":true,"version":"7961495","steam_id":85568392924470941,"keywords":["cp","nocrits","nodmgspread","uncletopia"],"game_id":440,"stv_port":27026,"stv_name":"Uncletopia | London | 2 | All Maps | STV","players":[{"user_id":365,"name":"Jack1125","steam_id":76561198142745882,"connected_time":202000000000,"state":"active","ping":201},{"user_id":366,"name":"PaletteCat","steam_id":76561198200449002,"connected_time":191000000000,"state":"active","ping":219},{"user_id":367,"name":"dog 2","steam_id":76561198399216526,"connected_time":169000000000,"state":"active","ping":191}]},{"server_id":320,"name":"Uncletopia | London | 3 | All Maps","name_short":"lon-3","host":"lon-1.uk.uncletopia.com","port":27035,"enabled":true,"region":"eu","cc":"gb","latitude":51.509865,"longitude":-0.118092,"reserved":0,"last_update":"0001-01-01T00:00:00Z","name_a2s":"Uncletopia | London | 3 | All Maps","protocol":17,"map":"koth_highpass","folder":"tf","game":"Team Fortress","app_id":440,"player_count":0,"max_players":24,"Bots":0,"server_type":"Dedicated","server_os":"Linux","password":true,"vac":true,"version":"7961495","steam_id":85568392924510192,"keywords":["cp","nocrits","nodmgspread","uncletopia"],"game_id":440,"stv_port":27036,"stv_name":"Uncletopia | London | 3 | All Maps | STV","players":null},{"server_id":321,"name":"Uncletopia | London | 4 | All Maps","name_short":"lon-4","host":"lon-1.uk.uncletopia.com","port":27045,"enabled":true,"region":"eu","cc":"gb","latitude":51.509865,"longitude":-0.118092,"reserved":0,"last_update":"0001-01-01T00:00:00Z","name_a2s":"Uncletopia | London | 4 | All Maps","protocol":17,"map":"cp_sunshine","folder":"tf","game":"Team Fortress","app_id":440,"player_count":0,"max_players":24,"Bots":0,"server_type":"Dedicated","server_os":"Linux","password":true,"vac":true,"version":"7961495","steam_id":85568392924510193,"keywords":["cp","nocrits","nodmgspread","uncletopia"],"game_id":440,"stv_port":27046,"stv_name":"Uncletopia | London | 4 | All Maps | STV","players":null},{"server_id":21,"name":"Uncletopia | London | 5 | All Maps","name_short":"lon-5","host":"lon-1.uk.uncletopia.com","port":27055,"enabled":true,"region":"eu","cc":"gb","latitude":51.509865,"longitude":-0.118092,"reserved":0,"last_update":"0001-01-01T00:00:00Z","name_a2s":"Uncletopia | London | 5 | All Maps","protocol":17,"map":"plr_bananabay","folder":"tf","game":"Team Fortress","app_id":440,"player_count":0,"max_players":24,"Bots":0,"server_type":"Dedicated","server_os":"Linux","password":true,"vac":true,"version":"7961495","steam_id":85568392924742829,"keywords":["nocrits","nodmgspread","payload","uncletopia"],"game_id":440,"stv_port":27056,"stv_name":"Uncletopia | London | 5 | All Maps | STV","players":null},{"server_id":22,"name":"Uncletopia | London | 6 | All Maps","name_short":"lon-6","host":"lon-1.uk.uncletopia.com","port":27065,"enabled":true,"region":"eu","cc":"gb","latitude":51.509865,"longitude":-0.118092,"reserved":0,"last_update":"0001-01-01T00:00:00Z","name_a2s":"Uncletopia | London | 6 | All Maps","protocol":17,"map":"cp_process_final","folder":"tf","game":"Team Fortress","app_id":440,"player_count":0,"max_players":24,"Bots":0,"server_type":"Dedicated","server_os":"Linux","password":true,"vac":true,"version":"7961495","steam_id":85568392924742830,"keywords":["cp","nocrits","nodmgspread","uncletopia"],"game_id":440,"stv_port":27066,"stv_name":"Uncletopia | London | 6 | All Maps | STV","players":null},{"server_id":40,"name":"Uncletopia | London | 7 | Stopwatch","name_short":"lon-7","host":"lon-1.uk.uncletopia.com","port":27075,"enabled":true,"region":"eu","cc":"gb","latitude":51.509865,"longitude":-0.118092,"reserved":0,"last_update":"0001-01-01T00:00:00Z","name_a2s":"Uncletopia | London | 7 | Stopwatch","protocol":17,"map":"workshop/pl_vigil_rc10.ugc1266210012","folder":"tf","game":"Team Fortress","app_id":440,"player_count":0,"max_players":24,"Bots":0,"server_type":"Dedicated","server_os":"Linux","password":true,"vac":true,"version":"7961495","steam_id":85568392924964314,"keywords":["nocrits","nodmgspread","payload","uncletopia"],"game_id":440,"stv_port":27076,"stv_name":"Uncletopia | London | 7 | Stopwatch | STV","players":null},{"server_id":41,"name":"Uncletopia | London | 8 | Community","name_short":"lon-8","host":"lon-1.uk.uncletopia.com","port":27085,"enabled":true,"region":"eu","cc":"gb","latitude":51.509865,"longitude":-0.118092,"reserved":0,"last_update":"0001-01-01T00:00:00Z","name_a2s":"Uncletopia | London | 8 | Community","protocol":17,"map":"workshop/pl_cactuscanyon_redux_final2.ugc2579644293","folder":"tf","game":"Team Fortress","app_id":440,"player_count":0,"max_players":24,"Bots":0,"server_type":"Dedicated","server_os":"Linux","password":true,"vac":true,"version":"7961495","steam_id":85568392924964315,"keywords":["nocrits","nodmgspread","payload","uncletopia"],"game_id":440,"stv_port":27086,"stv_name":"Uncletopia | London | 8 | Community | STV","players":null},{"server_id":300,"name":"Uncletopia | Montr√©al | 1 | One Thousand Uncles","name_short":"mtl-1","host":"mtl-1.ca.uncletopia.com","port":27015,"enabled":true,"region":"us-east","cc":"ca","latitude":45.50889,"longitude":-73.56167,"reserved":0,"last_update":"0001-01-01T00:00:00Z","name_a2s":"","protocol":0,"map":"","folder":"","game":"","app_id":0,"player_count":10,"max_players":0,"Bots":0,"server_type":"","server_os":"","password":false,"vac":false,"version":"","steam_id":0,"keywords":null,"game_id":0,"stv_port":0,"stv_name":"","players":[{"user_id":295,"name":"FROYO donovin","steam_id":76561198045679387,"connected_time":594000000000,"state":"active","ping":70},{"user_id":312,"name":"FROYO b4nny","steam_id":76561197970669109,"connected_time":570000000000,"state":"active","ping":114},{"user_id":313,"name":"Xel'Naga","steam_id":76561198049461668,"connected_time":567000000000,"state":"active","ping":60},{"user_id":314,"name":"antiweb","steam_id":76561198017539604,"connected_time":558000000000,"state":"active","ping":90},{"user_id":315,"name":"‡∏∏","steam_id":76561198084134025,"connected_time":556000000000,"state":"active","ping":90},{"user_id":316,"name":"logan","steam_id":76561198083063071,"connected_time":536000000000,"state":"active","ping":52},{"user_id":317,"name":"Philo","steam_id":76561198061873341,"connected_time":105000000000,"state":"active","ping":87},{"user_id":318,"name":"Lost CS2 player","steam_id":76561198892387723,"connected_time":101000000000,"state":"active","ping":60},{"user_id":319,"name":"A_b","steam_id":76561198149140645,"connected_time":9000000000,"state":"spawning","ping":113},{"user_id":320,"name":"two tickets to paradise","steam_id":76561197992498834,"connected_time":6000000000,"state":"spawning","ping":70}]},{"server_id":301,"name":"Uncletopia | Montr√©al | 2 | One Thousand Uncles","name_short":"mtl-2","host":"mtl-1.ca.uncletopia.com","port":27025,"enabled":true,"region":"us-east","cc":"ca","latitude":45.50889,"longitude":-73.56167,"reserved":0,"last_update":"0001-01-01T00:00:00Z","name_a2s":"","protocol":0,"map":"","folder":"","game":"","app_id":0,"player_count":0,"max_players":0,"Bots":0,"server_type":"","server_os":"","password":false,"vac":false,"version":"","steam_id":0,"keywords":null,"game_id":0,"stv_port":0,"stv_name":"","players":null},{"server_id":302,"name":"Uncletopia | Montr√©al | 3 | One Thousand Uncles","name_short":"mtl-3","host":"mtl-1.ca.uncletopia.com","port":27035,"enabled":true,"region":"us-east","cc":"ca","latitude":45.50889,"longitude":-73.56167,"reserved":0,"last_update":"0001-01-01T00:00:00Z","name_a2s":"","protocol":0,"map":"","folder":"","game":"","app_id":0,"player_count":0,"max_players":0,"Bots":0,"server_type":"","server_os":"","password":false,"vac":false,"version":"","steam_id":0,"keywords":null,"game_id":0,"stv_port":0,"stv_name":"","players":null},{"server_id":13,"name":"Uncletopia | New York City | 1 | All Maps","name_short":"nyc-1","host":"nyc-1.us.uncletopia.com","port":27015,"enabled":true,"region":"us-east","cc":"us","latitude":40.73061,"longitude":-73.93524,"reserved":0,"last_update":"0001-01-01T00:00:00Z","name_a2s":"Uncletopia | New York City | 1 | All Maps","protocol":17,"map":"cp_sunshine","folder":"tf","game":"Team Fortress","app_id":440,"player_count":24,"max_players":24,"Bots":0,"server_type":"Dedicated","server_os":"Linux","password":true,"vac":true,"version":"7961495","steam_id":85568392924469993,"keywords":["cp","nocrits","nodmgspread","uncletopia"],"game_id":440,"stv_port":27016,"stv_name":"Uncletopia | New York City | 1 | All Maps | STV","players":[{"user_id":432,"name":"corntent","steam_id":76561198824847948,"connected_time":2269000000000,"state":"active","ping":49},{"user_id":423,"name":"ctf_well","steam_id":76561198016826181,"connected_time":3015000000000,"state":"active","ping":57},{"user_id":449,"name":"Equinox","steam_id":76561198274279754,"connected_time":1241000000000,"state":"active","ping":82},{"user_id":425,"name":"nerf me","steam_id":76561198310495200,"connected_time":2911000000000,"state":"active","ping":75},{"user_id":439,"name":"Werm","steam_id":76561198149601897,"connected_time":1758000000000,"state":"active","ping":61},{"user_id":358,"name":"Brawns","steam_id":76561198045190199,"connected_time":7600000000000,"state":"active","ping":59},{"user_id":452,"name":"STANLEY","steam_id":76561198812086921,"connected_time":801000000000,"state":"active","ping":44},{"user_id":433,"name":"lfty","steam_id":76561198283841707,"connected_time":2137000000000,"state":"active","ping":50},{"user_id":459,"name":"Festive Conch Shell","steam_id":76561198042072993,"connected_time":409000000000,"state":"active","ping":45},{"user_id":455,"name":"ExtraSoap","steam_id":76561198008712409,"connected_time":555000000000,"state":"active","ping":59},{"user_id":438,"name":"BFro","steam_id":76561198102758681,"connected_time":1770000000000,"state":"active","ping":65},{"user_id":460,"name":"Nodding","steam_id":76561198077789314,"connected_time":211000000000,"state":"active","ping":54},{"user_id":456,"name":"rach9411","steam_id":76561198256535721,"connected_time":536000000000,"state":"active","ping":141},{"user_id":454,"name":"All Tomorrow's Parties","steam_id":76561197995936212,"connected_time":653000000000,"state":"active","ping":64},{"user_id":414,"name":"Mocha","steam_id":76561198368999744,"connected_time":4038000000000,"state":"active","ping":52},{"user_id":374,"name":"Yuzu","steam_id":76561198417913035,"connected_time":6557000000000,"state":"active","ping":76},{"user_id":461,"name":"Jones","steam_id":76561198046037216,"connected_time":127000000000,"state":"active","ping":108},{"user_id":440,"name":"Da Walrus","steam_id":76561198045190191,"connected_time":1750000000000,"state":"active","ping":62},{"user_id":447,"name":"Tokyo_Timeshift_","steam_id":76561198048677523,"connected_time":1434000000000,"state":"active","ping":61},{"user_id":392,"name":"Jeff","steam_id":76561197997564762,"connected_time":5182000000000,"state":"active","ping":89},{"user_id":434,"name":"Thunderous","steam_id":76561198192752793,"connected_time":2119000000000,"state":"active","ping":55},{"user_id":458,"name":"somef2p","steam_id":76561199379135210,"connected_time":470000000000,"state":"active","ping":1715},{"user_id":373,"name":"RealStanzy","steam_id":76561199060261003,"connected_time":6634000000000,"state":"active","ping":59},{"user_id":448,"name":"Sitting Duck","steam_id":76561197980506451,"connected_time":1387000000000,"state":"active","ping":92}]},{"server_id":14,"name":"Uncletopia | New York City | 2 | All Maps","name_short":"nyc-2","host":"nyc-1.us.uncletopia.com","port":27025,"enabled":true,"region":"us-east","cc":"us","latitude":40.73061,"longitude":-73.93524,"reserved":0,"last_update":"0001-01-01T00:00:00Z","name_a2s":"Uncletopia | New York City | 2 | All Maps","protocol":17,"map":"pl_frontier_final","folder":"tf","game":"Team Fortress","app_id":440,"player_count":24,"max_players":24,"Bots":0,"server_type":"Dedicated","server_os":"Linux","password":true,"vac":true,"version":"7961495","steam_id":85568392924469994,"keywords":["nocrits","nodmgspread","payload","uncletopia"],"game_id":440,"stv_port":27026,"stv_name":"Uncletopia | New York City | 2 | All Maps | STV","players":[{"user_id":435,"name":"Darling","steam_id":76561198102959234,"connected_time":1793000000000,"state":"active","ping":92},{"user_id":427,"name":"Genn","steam_id":76561198070450699,"connected_time":3455000000000,"state":"active","ping":37},{"user_id":433,"name":"‚ú™Type_Alpha","steam_id":76561198122780598,"connected_time":3120000000000,"state":"active","ping":58},{"user_id":444,"name":"the flying spoon","steam_id":76561199039152146,"connected_time":1536000000000,"state":"active","ping":62},{"user_id":451,"name":"MilesFireStorm","steam_id":76561198078642820,"connected_time":118000000000,"state":"active","ping":71},{"user_id":443,"name":"Toxic Medic Main (he/they)","steam_id":76561198009314845,"connected_time":1560000000000,"state":"active","ping":125},{"user_id":434,"name":"poke_ravi","steam_id":76561198006619886,"connected_time":2937000000000,"state":"active","ping":55},{"user_id":346,"name":"Havok","steam_id":76561198063455003,"connected_time":9786000000000,"state":"active","ping":56},{"user_id":426,"name":"River","steam_id":76561198137529294,"connected_time":3540000000000,"state":"active","ping":68},{"user_id":439,"name":"Hydroxianchaos","steam_id":76561198043786828,"connected_time":1753000000000,"state":"active","ping":58},{"user_id":450,"name":"Pomegranate88","steam_id":76561198056385456,"connected_time":567000000000,"state":"active","ping":56},{"user_id":432,"name":"Cave404","steam_id":76561198165788760,"connected_time":3295000000000,"state":"active","ping":83},{"user_id":419,"name":"Brook Prime","steam_id":76561198185126222,"connected_time":4478000000000,"state":"active","ping":115},{"user_id":445,"name":"Fish Fisherman","steam_id":76561198018656022,"connected_time":1526000000000,"state":"active","ping":58},{"user_id":417,"name":"TheBoxWizard","steam_id":76561198447992832,"connected_time":5001000000000,"state":"active","ping":59},{"user_id":446,"name":"PurPle","steam_id":76561198050393396,"connected_time":1518000000000,"state":"active","ping":64},{"user_id":374,"name":"Dragon-of-Kings","steam_id":76561198277395682,"connected_time":7913000000000,"state":"active","ping":75},{"user_id":436,"name":"Pink Dragon Express","steam_id":76561198119494277,"connected_time":1778000000000,"state":"active","ping":61},{"user_id":376,"name":"Breadman","steam_id":76561198122782153,"connected_time":7848000000000,"state":"active","ping":82},{"user_id":447,"name":"ndvr (femboy (REAL))","steam_id":76561199379200102,"connected_time":1509000000000,"state":"active","ping":54},{"user_id":388,"name":"Your Loyal Familiar","steam_id":76561198106476075,"connected_time":6651000000000,"state":"active","ping":75},{"user_id":449,"name":"Phattman","steam_id":76561198000896064,"connected_time":1276000000000,"state":"active","ping":57},{"user_id":424,"name":"emotional suppport e-cigarette","steam_id":76561198172120615,"connected_time":3855000000000,"state":"active","ping":37},{"user_id":393,"name":"Farded and shidded","steam_id":76561198844270350,"connected_time":6405000000000,"state":"active","ping":86}]},{"server_id":15,"name":"Uncletopia | New York City | 3 | Stopwatch","name_short":"nyc-3","host":"nyc-1.us.uncletopia.com","port":27035,"enabled":true,"region":"us-east","cc":"us","latitude":40.73061,"longitude":-73.93524,"reserved":0,"last_update":"0001-01-01T00:00:00Z","name_a2s":"Uncletopia | New York City | 3 | Stopwatch","protocol":17,"map":"workshop/koth_clearcut_b15.ugc2107050255","folder":"tf","game":"Team Fortress","app_id":440,"player_count":19,"max_players":24,"Bots":0,"server_type":"Dedicated","server_os":"Linux","password":true,"vac":true,"version":"7961495","steam_id":85568392924742820,"keywords":["cp","nocrits","nodmgspread","uncletopia"],"game_id":440,"stv_port":27036,"stv_name":"Uncletopia | New York City | 3 | Stopwatch | STV","players":[{"user_id":257,"name":"Lamb Dilemma","steam_id":76561197995711892,"connected_time":720000000000,"state":"active","ping":73},{"user_id":213,"name":"AQUŒõRIA","steam_id":76561198065592204,"connected_time":3216000000000,"state":"active","ping":62},{"user_id":199,"name":"Lordofthekevins","steam_id":76561198169066956,"connected_time":5103000000000,"state":"active","ping":74},{"user_id":233,"name":"quack","steam_id":76561198138783216,"connected_time":1929000000000,"state":"active","ping":43},{"user_id":259,"name":"the pizza he-man","steam_id":76561199166474769,"connected_time":399000000000,"state":"active","ping":139},{"user_id":215,"name":"Goey Jangs","steam_id":76561198017027543,"connected_time":3205000000000,"state":"active","ping":45},{"user_id":241,"name":"Poopisviel Von Einzbern","steam_id":76561198259260433,"connected_time":1550000000000,"state":"active","ping":83},{"user_id":236,"name":"Almonicus","steam_id":76561198044401351,"connected_time":1747000000000,"state":"active","ping":79},{"user_id":255,"name":"kritik","steam_id":76561198075216115,"connected_time":1106000000000,"state":"active","ping":168},{"user_id":242,"name":"GH578","steam_id":76561199493262585,"connected_time":1513000000000,"state":"active","ping":112},{"user_id":245,"name":"Lemonty","steam_id":76561198163812778,"connected_time":1401000000000,"state":"active","ping":60},{"user_id":239,"name":"TTV/YT hunter","steam_id":76561198115812405,"connected_time":1579000000000,"state":"active","ping":69},{"user_id":216,"name":"Mecha","steam_id":76561198094531215,"connected_time":3201000000000,"state":"active","ping":68},{"user_id":186,"name":"Sentry Gun Main Man","steam_id":76561198327938247,"connected_time":5606000000000,"state":"active","ping":80},{"user_id":189,"name":"craven","steam_id":76561198088191503,"connected_time":5429000000000,"state":"active","ping":57},{"user_id":253,"name":"GoodleShoes/ttv","steam_id":76561198030993521,"connected_time":1201000000000,"state":"active","ping":82},{"user_id":227,"name":"Juan Pablo Gonzalez 2023","steam_id":76561199197961413,"connected_time":2276000000000,"state":"active","ping":41},{"user_id":226,"name":"Melonfrog","steam_id":76561198389885427,"connected_time":2452000000000,"state":"active","ping":107},{"user_id":225,"name":"the keebler","steam_id":76561199486326945,"connected_time":2577000000000,"state":"active","ping":76}]},{"server_id":16,"name":"Uncletopia | New York City | 4 | Community","name_short":"nyc-4","host":"nyc-1.us.uncletopia.com","port":27045,"enabled":true,"region":"us-east","cc":"us","latitude":40.73061,"longitude":-73.93524,"reserved":0,"last_update":"0001-01-01T00:00:00Z","name_a2s":"Uncletopia | New York City | 4 | Community","protocol":17,"map":"workshop/koth_product_final.ugc454272353","folder":"tf","game":"Team Fortress","app_id":440,"player_count":0,"max_players":24,"Bots":0,"server_type":"Dedicated","server_os":"Linux","password":true,"vac":true,"version":"7961495","steam_id":85568392924742821,"keywords":["cp","nocrits","nodmgspread","uncletopia"],"game_id":440,"stv_port":27046,"stv_name":"Uncletopia | New York City | 4 | Community | STV","players":null},{"server_id":142,"name":"Uncletopia | S√£o Paulo | 1 | All Maps","name_short":"sao-1","host":"sao-1.br.uncletopia.com","port":27015,"enabled":true,"region":"sa","cc":"br","latitude":-23.533773,"longitude":-46.62529,"reserved":0,"last_update":"0001-01-01T00:00:00Z","name_a2s":"Uncletopia | S√£o Paulo | 1 | All Maps","protocol":17,"map":"pl_frontier_final","folder":"tf","game":"Team Fortress","app_id":440,"player_count":0,"max_players":24,"Bots":0,"server_type":"Dedicated","server_os":"Linux","password":true,"vac":true,"version":"7961495","steam_id":85568392924469996,"keywords":["nocrits","nodmgspread","payload","uncletopia"],"game_id":440,"stv_port":27016,"stv_name":"Uncletopia | S√£o Paulo | 1 | All Maps | STV","players":null},{"server_id":143,"name":"Uncletopia | S√£o Paulo | 2 | Community","name_short":"sao-2","host":"sao-2.br.uncletopia.com","port":27015,"enabled":true,"region":"sa","cc":"br","latitude":-23.533773,"longitude":-46.62529,"reserved":0,"last_update":"0001-01-01T00:00:00Z","name_a2s":"Uncletopia | S√£o Paulo | 2 | Community","protocol":17,"map":"workshop/koth_kemptown_rc1.ugc767410655","folder":"tf","game":"Team Fortress","app_id":440,"player_count":3,"max_players":24,"Bots":0,"server_type":"Dedicated","server_os":"Linux","password":true,"vac":true,"version":"7961495","steam_id":85568392924485349,"keywords":["cp","nocrits","nodmgspread","uncletopia"],"game_id":440,"stv_port":27016,"stv_name":"Uncletopia | S√£o Paulo | 2 | Community | STV","players":[{"user_id":19,"name":"Spooqui","steam_id":76561198829748673,"connected_time":1457000000000,"state":"active","ping":57},{"user_id":20,"name":"N00B","steam_id":76561199101427851,"connected_time":1448000000000,"state":"active","ping":97},{"user_id":21,"name":"guy¬Æ","steam_id":76561199001759153,"connected_time":715000000000,"state":"active","ping":83}]},{"server_id":7,"name":"Uncletopia | Seattle | 1 | All Maps","name_short":"sea-1","host":"sea-1.us.uncletopia.com","port":27015,"enabled":true,"region":"us-west","cc":"us","latitude":47.608013,"longitude":-122.33517,"reserved":0,"last_update":"0001-01-01T00:00:00Z","name_a2s":"Uncletopia | Seattle | 1 | All Maps","protocol":17,"map":"koth_viaduct","folder":"tf","game":"Team Fortress","app_id":440,"player_count":24,"max_players":24,"Bots":0,"server_type":"Dedicated","server_os":"Linux","password":true,"vac":true,"version":"7961495","steam_id":85568392924469997,"keywords":["cp","nocrits","nodmgspread","uncletopia"],"game_id":440,"stv_port":27016,"stv_name":"Uncletopia | Seattle | 1 | All Maps | STV","players":[{"user_id":403,"name":"MrYadaization","steam_id":76561198050770818,"connected_time":758000000000,"state":"active","ping":58},{"user_id":409,"name":"Lynx","steam_id":76561198322363286,"connected_time":628000000000,"state":"active","ping":66},{"user_id":410,"name":"Kelladrin","steam_id":76561198040727880,"connected_time":621000000000,"state":"active","ping":60},{"user_id":351,"name":"roody","steam_id":76561198066260405,"connected_time":5574000000000,"state":"active","ping":45},{"user_id":363,"name":"duddlee","steam_id":76561198030052564,"connected_time":4672000000000,"state":"active","ping":59},{"user_id":394,"name":"toes","steam_id":76561198221151676,"connected_time":1864000000000,"state":"active","ping":50},{"user_id":413,"name":"50 Cent","steam_id":76561199076902831,"connected_time":398000000000,"state":"active","ping":65},{"user_id":356,"name":"Walter White","steam_id":76561199102963294,"connected_time":4886000000000,"state":"active","ping":71},{"user_id":397,"name":"NE–ØO","steam_id":76561197965450216,"connected_time":1818000000000,"state":"active","ping":45},{"user_id":408,"name":"Motto tsuyoku, Ani-san","steam_id":76561198851421641,"connected_time":683000000000,"state":"active","ping":34},{"user_id":388,"name":"Hassium","steam_id":76561198162541373,"connected_time":2559000000000,"state":"active","ping":57},{"user_id":395,"name":"RainboomCrash","steam_id":76561198065612273,"connected_time":1857000000000,"state":"active","ping":52},{"user_id":350,"name":"–ö–æ—Ä–∑–∞–ø","steam_id":76561198086030373,"connected_time":5714000000000,"state":"active","ping":51},{"user_id":415,"name":"Nom Skirrett","steam_id":76561198014600788,"connected_time":367000000000,"state":"active","ping":64},{"user_id":416,"name":"TROY","steam_id":76561197983852176,"connected_time":237000000000,"state":"active","ping":80},{"user_id":404,"name":"Mii Guest C, From Wii Sports","steam_id":76561198197964803,"connected_time":757000000000,"state":"active","ping":50},{"user_id":412,"name":"spenca","steam_id":76561198025371154,"connected_time":440000000000,"state":"active","ping":57},{"user_id":371,"name":"GumCuzzler69","steam_id":76561198257418930,"connected_time":4220000000000,"state":"active","ping":103},{"user_id":385,"name":"Tungsten","steam_id":76561198312854342,"connected_time":2584000000000,"state":"active","ping":53},{"user_id":411,"name":"GibbsDLC","steam_id":76561198044004111,"connected_time":488000000000,"state":"active","ping":44},{"user_id":353,"name":"Ayayayayayayayayayayayayahuasca","steam_id":76561199002906056,"connected_time":5161000000000,"state":"active","ping":47},{"user_id":406,"name":"sobadorci","steam_id":76561198208627555,"connected_time":735000000000,"state":"active","ping":91},{"user_id":407,"name":"Thanks Ants","steam_id":76561197966221018,"connected_time":729000000000,"state":"active","ping":42},{"user_id":382,"name":"Hazel Nutts","steam_id":76561199247095754,"connected_time":2741000000000,"state":"active","ping":61}]},{"server_id":119,"name":"Uncletopia | Seattle | 2 | All Maps","name_short":"sea-2","host":"sea-1.us.uncletopia.com","port":27025,"enabled":true,"region":"us-west","cc":"us","latitude":47.608013,"longitude":-122.33517,"reserved":0,"last_update":"0001-01-01T00:00:00Z","name_a2s":"Uncletopia | Seattle | 2 | All Maps","protocol":17,"map":"pl_snowycoast","folder":"tf","game":"Team Fortress","app_id":440,"player_count":24,"max_players":24,"Bots":0,"server_type":"Dedicated","server_os":"Linux","password":true,"vac":true,"version":"7961495","steam_id":85568392924469998,"keywords":["nocrits","nodmgspread","payload","uncletopia"],"game_id":440,"stv_port":27026,"stv_name":"Uncletopia | Seattle | 2 | All Maps | STV","players":[{"user_id":120,"name":"pIRO_AGUA","steam_id":76561199041880779,"connected_time":34000000000,"state":"active","ping":46},{"user_id":70,"name":"dodecadron","steam_id":76561198027397222,"connected_time":3013000000000,"state":"active","ping":60},{"user_id":118,"name":"GreenApples","steam_id":76561198120559543,"connected_time":83000000000,"state":"active","ping":73},{"user_id":97,"name":"WitchesBwew","steam_id":76561198871652065,"connected_time":1198000000000,"state":"active","ping":83},{"user_id":117,"name":"·ÑÇ”®·ÑÉŒõ·ÑÇ FŒ£MB”®Y","steam_id":76561198807521291,"connected_time":225000000000,"state":"active","ping":120},{"user_id":106,"name":"Meatball Obsessed Demoman","steam_id":76561198253325844,"connected_time":636000000000,"state":"active","ping":60},{"user_id":103,"name":"sun","steam_id":76561198858474714,"connected_time":864000000000,"state":"active","ping":59},{"user_id":119,"name":"Mak","steam_id":76561198089197922,"connected_time":59000000000,"state":"active","ping":62},{"user_id":93,"name":"Tideflat","steam_id":76561198179850851,"connected_time":1928000000000,"state":"active","ping":55},{"user_id":89,"name":"Lunarthrope","steam_id":76561198292132147,"connected_time":2032000000000,"state":"active","ping":81},{"user_id":64,"name":"Petrivus","steam_id":76561198202152453,"connected_time":3557000000000,"state":"active","ping":45},{"user_id":95,"name":"Marz","steam_id":76561198799364911,"connected_time":1386000000000,"state":"active","ping":71},{"user_id":104,"name":"Major_Pippy","steam_id":76561198004482878,"connected_time":859000000000,"state":"active","ping":37},{"user_id":110,"name":"WonkyCow","steam_id":76561198307611953,"connected_time":482000000000,"state":"active","ping":49},{"user_id":116,"name":"deathk1ller100","steam_id":76561198274486390,"connected_time":299000000000,"state":"active","ping":123},{"user_id":112,"name":"Tyle","steam_id":76561198382924744,"connected_time":441000000000,"state":"active","ping":51},{"user_id":54,"name":"Nick","steam_id":76561198329096986,"connected_time":3856000000000,"state":"active","ping":84},{"user_id":96,"name":"Dextersbrain","steam_id":76561198011831579,"connected_time":1351000000000,"state":"active","ping":66},{"user_id":98,"name":"Lunch Enjoyer","steam_id":76561198037361116,"connected_time":1168000000000,"state":"active","ping":59},{"user_id":121,"name":"Future Tusk","steam_id":76561198199635217,"connected_time":30000000000,"state":"active","ping":80},{"user_id":114,"name":"World's 1 GOAT","steam_id":76561198970641535,"connected_time":408000000000,"state":"active","ping":54},{"user_id":122,"name":"Gloorpiss","steam_id":76561199038840623,"connected_time":6000000000,"state":"active","ping":230},{"user_id":74,"name":"james_bondage","steam_id":76561199476062624,"connected_time":2759000000000,"state":"active","ping":123},{"user_id":88,"name":"laughs bigman","steam_id":76561198067714032,"connected_time":2072000000000,"state":"active","ping":83}]},{"server_id":406,"name":"Uncletopia | Seattle | 3 | Stopwatch","name_short":"sea-3","host":"sea-1.us.uncletopia.com","port":27035,"enabled":true,"region":"us-west","cc":"us","latitude":47.608013,"longitude":-122.33517,"reserved":0,"last_update":"0001-01-01T00:00:00Z","name_a2s":"Uncletopia | Seattle | 3 | Stopwatch","protocol":17,"map":"cp_sunshine","folder":"tf","game":"Team Fortress","app_id":440,"player_count":24,"max_players":24,"Bots":0,"server_type":"Dedicated","server_os":"Linux","password":true,"vac":true,"version":"7961495","steam_id":85568392924515217,"keywords":["cp","nocrits","nodmgspread","uncletopia"],"game_id":440,"stv_port":27036,"stv_name":"Uncletopia | Seattle | 3 | Stopwatch | STV","players":[{"user_id":249,"name":"ButteryJack","steam_id":76561198021691102,"connected_time":2374000000000,"state":"active","ping":90},{"user_id":273,"name":"PeptoBismol","steam_id":76561198082669076,"connected_time":1516000000000,"state":"active","ping":75},{"user_id":183,"name":"Klone","steam_id":76561198854485605,"connected_time":5624000000000,"state":"active","ping":110},{"user_id":280,"name":"don't get mad","steam_id":76561198064662875,"connected_time":773000000000,"state":"active","ping":67},{"user_id":281,"name":"JawnyMac","steam_id":76561198179529599,"connected_time":768000000000,"state":"active","ping":70},{"user_id":242,"name":"type \"bad med\" to kick","steam_id":76561198076402476,"connected_time":2626000000000,"state":"active","ping":86},{"user_id":269,"name":"ORANGE","steam_id":76561198000401769,"connected_time":1618000000000,"state":"active","ping":53},{"user_id":213,"name":"\u003e:3 Muiramme Œµ—ó–∑","steam_id":76561197994458543,"connected_time":4406000000000,"state":"active","ping":46},{"user_id":186,"name":"pi???","steam_id":76561198450073779,"connected_time":5358000000000,"state":"active","ping":45},{"user_id":245,"name":"Dr. Juvenal","steam_id":76561198114553453,"connected_time":2436000000000,"state":"active","ping":53},{"user_id":277,"name":"JOHN WICK","steam_id":76561198091877422,"connected_time":1055000000000,"state":"active","ping":49},{"user_id":263,"name":"Cowboyfos","steam_id":76561199055740230,"connected_time":1822000000000,"state":"active","ping":73},{"user_id":215,"name":"Munky","steam_id":76561197993491054,"connected_time":4378000000000,"state":"active","ping":55},{"user_id":288,"name":"theManMan","steam_id":76561199488457138,"connected_time":213000000000,"state":"active","ping":51},{"user_id":289,"name":"Firedust19","steam_id":76561198153238631,"connected_time":2000000000,"state":"spawning","ping":161},{"user_id":270,"name":"Jukebox","steam_id":76561198043930636,"connected_time":1571000000000,"state":"active","ping":46},{"user_id":272,"name":"Dongus","steam_id":76561197979056451,"connected_time":1549000000000,"state":"active","ping":47},{"user_id":260,"name":"Set","steam_id":76561198063949642,"connected_time":1962000000000,"state":"active","ping":45},{"user_id":262,"name":"Synergy","steam_id":76561198098630198,"connected_time":1881000000000,"state":"active","ping":46},{"user_id":286,"name":"Zincian","steam_id":76561198055484259,"connected_time":521000000000,"state":"active","ping":60},{"user_id":265,"name":"IMPROBABLE FLIPPING","steam_id":76561198045964573,"connected_time":1781000000000,"state":"active","ping":76},{"user_id":222,"name":"Armpit!","steam_id":76561197978095727,"connected_time":4217000000000,"state":"active","ping":56},{"user_id":287,"name":"MonchyCronchy","steam_id":76561199071770590,"connected_time":413000000000,"state":"active","ping":69},{"user_id":266,"name":"Gojira19","steam_id":76561198206384351,"connected_time":1771000000000,"state":"active","ping":201}]},{"server_id":17,"name":"Uncletopia | San Francisco | 1 | All Maps","name_short":"sfo-1","host":"sfo-1.us.uncletopia.com","port":27015,"enabled":true,"region":"us-west","cc":"us","latitude":37.77397,"longitude":-122.4313,"reserved":0,"last_update":"0001-01-01T00:00:00Z","name_a2s":"Uncletopia | San Francisco | 1 | All Maps","protocol":17,"map":"koth_viaduct","folder":"tf","game":"Team Fortress","app_id":440,"player_count":0,"max_players":24,"Bots":0,"server_type":"Dedicated","server_os":"Linux","password":true,"vac":true,"version":"7961495","steam_id":85568392924469999,"keywords":["cp","nocrits","nodmgspread","uncletopia"],"game_id":440,"stv_port":27016,"stv_name":"Uncletopia | San Francisco | 1 | All Maps | STV","players":null},{"server_id":18,"name":"Uncletopia | San Francisco | 2 | All Maps","name_short":"sfo-2","host":"sfo-1.us.uncletopia.com","port":27025,"enabled":true,"region":"us-west","cc":"us","latitude":37.77397,"longitude":-122.4313,"reserved":0,"last_update":"0001-01-01T00:00:00Z","name_a2s":"Uncletopia | San Francisco | 2 | All Maps","protocol":17,"map":"pl_frontier_final","folder":"tf","game":"Team Fortress","app_id":440,"player_count":24,"max_players":24,"Bots":0,"server_type":"Dedicated","server_os":"Linux","password":true,"vac":true,"version":"7961495","steam_id":85568392924470000,"keywords":["nocrits","nodmgspread","payload","uncletopia"],"game_id":440,"stv_port":27026,"stv_name":"Uncletopia | San Francisco | 2 | All Maps | STV","players":[{"user_id":511,"name":"SirGageXenon","steam_id":76561198354317942,"connected_time":1014000000000,"state":"active","ping":126},{"user_id":512,"name":"Humble Learner","steam_id":76561198066091050,"connected_time":1009000000000,"state":"active","ping":71},{"user_id":509,"name":"[‚òØ] randomshagz*","steam_id":76561197968666646,"connected_time":1046000000000,"state":"active","ping":83},{"user_id":525,"name":"VPratt","steam_id":76561198351195424,"connected_time":515000000000,"state":"active","ping":75},{"user_id":497,"name":"lordstinkdemon666","steam_id":76561198073914311,"connected_time":2763000000000,"state":"active","ping":51},{"user_id":494,"name":"FROYO cina_red","steam_id":76561198070266530,"connected_time":2930000000000,"state":"active","ping":46},{"user_id":515,"name":"tomiz","steam_id":76561198827013832,"connected_time":946000000000,"state":"active","ping":55},{"user_id":460,"name":"Igrium","steam_id":76561198119549811,"connected_time":5427000000000,"state":"active","ping":62},{"user_id":495,"name":"miguelrodriguez2013","steam_id":76561198269253587,"connected_time":2896000000000,"state":"active","ping":51},{"user_id":532,"name":"TallSexyHumble (He/Him/They/The","steam_id":76561198089046969,"connected_time":98000000000,"state":"active","ping":45},{"user_id":498,"name":"Provisons inc.","steam_id":76561198327014706,"connected_time":2751000000000,"state":"active","ping":68},{"user_id":457,"name":"lol","steam_id":76561198026491738,"connected_time":5972000000000,"state":"active","ping":71},{"user_id":505,"name":"de1deonlyvic","steam_id":76561199072005203,"connected_time":1729000000000,"state":"active","ping":66},{"user_id":503,"name":"dewey","steam_id":76561198132791511,"connected_time":1794000000000,"state":"active","ping":70},{"user_id":507,"name":"Yokogaijin Jr.","steam_id":76561199124647094,"connected_time":1539000000000,"state":"active","ping":45},{"user_id":522,"name":"Drapph","steam_id":76561199384213314,"connected_time":698000000000,"state":"active","ping":112},{"user_id":530,"name":"hart","steam_id":76561198046073848,"connected_time":357000000000,"state":"active","ping":63},{"user_id":528,"name":"Konnor","steam_id":76561199136300254,"connected_time":460000000000,"state":"active","ping":58},{"user_id":504,"name":"Just washed","steam_id":76561199030160932,"connected_time":1776000000000,"state":"active","ping":115},{"user_id":486,"name":"roach :3","steam_id":76561198354811369,"connected_time":3668000000000,"state":"active","ping":60},{"user_id":531,"name":"SoCal Kaizer","steam_id":76561198334361081,"connected_time":255000000000,"state":"active","ping":85},{"user_id":518,"name":"LACTAID","steam_id":76561198276585202,"connected_time":938000000000,"state":"active","ping":53},{"user_id":491,"name":"nella","steam_id":76561198079349621,"connected_time":3125000000000,"state":"active","ping":61},{"user_id":519,"name":"Ok then","steam_id":76561198891914787,"connected_time":926000000000,"state":"active","ping":75}]},{"server_id":19,"name":"Uncletopia | San Francisco | 3 | Stopwatch","name_short":"sfo-3","host":"sfo-1.us.uncletopia.com","port":27035,"enabled":true,"region":"us-west","cc":"us","latitude":37.77397,"longitude":-122.4313,"reserved":0,"last_update":"0001-01-01T00:00:00Z","name_a2s":"Uncletopia | San Francisco | 3 | Stopwatch","protocol":17,"map":"pl_pier","folder":"tf","game":"Team Fortress","app_id":440,"player_count":0,"max_players":24,"Bots":0,"server_type":"Dedicated","server_os":"Linux","password":true,"vac":true,"version":"7961495","steam_id":85568392924742824,"keywords":["nocrits","nodmgspread","payload","uncletopia"],"game_id":440,"stv_port":27036,"stv_name":"Uncletopia | San Francisco | 3 | Stopwatch | STV","players":null},{"server_id":20,"name":"Uncletopia | San Francisco | 4 | Community","name_short":"sfo-4","host":"sfo-1.us.uncletopia.com","port":27045,"enabled":true,"region":"us-west","cc":"us","latitude":37.77397,"longitude":-122.4313,"reserved":0,"last_update":"0001-01-01T00:00:00Z","name_a2s":"Uncletopia | San Francisco | 4 | Community","protocol":17,"map":"workshop/koth_slaughter_rc1.ugc1712845210","folder":"tf","game":"Team Fortress","app_id":440,"player_count":0,"max_players":24,"Bots":0,"server_type":"Dedicated","server_os":"Linux","password":true,"vac":true,"version":"7961495","steam_id":85568392924742826,"keywords":["cp","nocrits","nodmgspread","uncletopia"],"game_id":440,"stv_port":27046,"stv_name":"Uncletopia | San Francisco | 4 | Community | STV","players":null},{"server_id":141,"name":"Uncletopia | Sydney | 1 | All Maps","name_short":"syd-1","host":"syd-1.au.uncletopia.com","port":27015,"enabled":true,"region":"au","cc":"au","latitude":-33.865143,"longitude":151.2099,"reserved":0,"last_update":"0001-01-01T00:00:00Z","name_a2s":"Uncletopia | Sydney | 1 | All Maps","protocol":17,"map":"pl_upward","folder":"tf","game":"Team Fortress","app_id":440,"player_count":0,"max_players":24,"Bots":0,"server_type":"Dedicated","server_os":"Linux","password":true,"vac":true,"version":"7961495","steam_id":85568392924470001,"keywords":["nocrits","nodmgspread","payload","uncletopia"],"game_id":440,"stv_port":27016,"stv_name":"Uncletopia | Sydney | 1 | All Maps | STV","players":null},{"server_id":123,"name":"Uncletopia | Sydney | 2 | All Maps","name_short":"syd-2","host":"syd-1.au.uncletopia.com","port":27025,"enabled":true,"region":"au","cc":"au","latitude":-33.865143,"longitude":151.2099,"reserved":0,"last_update":"0001-01-01T00:00:00Z","name_a2s":"Uncletopia | Sydney | 2 | All Maps","protocol":17,"map":"koth_lakeside_final","folder":"tf","game":"Team Fortress","app_id":440,"player_count":0,"max_players":24,"Bots":0,"server_type":"Dedicated","server_os":"Linux","password":true,"vac":true,"version":"7961495","steam_id":85568392924470002,"keywords":["cp","nocrits","nodmgspread","uncletopia"],"game_id":440,"stv_port":27026,"stv_name":"Uncletopia | Sydney | 2 | All Maps | STV","players":null},{"server_id":395,"name":"Uncletopia | Sydney | 3 | All Maps","name_short":"syd-3","host":"syd-1.au.uncletopia.com","port":27035,"enabled":true,"region":"au","cc":"au","latitude":-33.865143,"longitude":151.2099,"reserved":0,"last_update":"0001-01-01T00:00:00Z","name_a2s":"Uncletopia | Sydney | 3 | All Maps","protocol":17,"map":"pl_frontier_final","folder":"tf","game":"Team Fortress","app_id":440,"player_count":0,"max_players":24,"Bots":0,"server_type":"Dedicated","server_os":"Linux","password":true,"vac":true,"version":"7961495","steam_id":85568392925194467,"keywords":["nocrits","nodmgspread","payload","uncletopia"],"game_id":440,"stv_port":27036,"stv_name":"Uncletopia | Sydney | 3 | All Maps | STV","players":null},{"server_id":396,"name":"Uncletopia | Sydney | 4 | All Maps","name_short":"syd-4","host":"syd-1.au.uncletopia.com","port":27045,"enabled":true,"region":"au","cc":"au","latitude":-33.865143,"longitude":151.2099,"reserved":0,"last_update":"0001-01-01T00:00:00Z","name_a2s":"Uncletopia | Sydney | 4 | All Maps","protocol":17,"map":"cp_process_final","folder":"tf","game":"Team Fortress","app_id":440,"player_count":0,"max_players":24,"Bots":0,"server_type":"Dedicated","server_os":"Linux","password":true,"vac":true,"version":"7961495","steam_id":85568392925397958,"keywords":["cp","nocrits","nodmgspread","uncletopia"],"game_id":440,"stv_port":27046,"stv_name":"Uncletopia | Sydney | 4 | All Maps | STV","players":null},{"server_id":58,"name":"Uncletopia | Sydney | 5 | Stopwatch","name_short":"syd-5","host":"syd-1.au.uncletopia.com","port":27055,"enabled":true,"region":"au","cc":"au","latitude":-33.865143,"longitude":151.2099,"reserved":0,"last_update":"0001-01-01T00:00:00Z","name_a2s":"Uncletopia | Sydney | 5 | Stopwatch","protocol":17,"map":"pl_frontier_final","folder":"tf","game":"Team Fortress","app_id":440,"player_count":0,"max_players":24,"Bots":0,"server_type":"Dedicated","server_os":"Linux","password":true,"vac":true,"version":"7961495","steam_id":85568392925397959,"keywords":["nocrits","nodmgspread","payload","uncletopia"],"game_id":440,"stv_port":27056,"stv_name":"Uncletopia | Sydney | 5 | Stopwatch | STV","players":null},{"server_id":59,"name":"Uncletopia | Sydney | 6 | Community","name_short":"syd-6","host":"syd-1.au.uncletopia.com","port":27065,"enabled":true,"region":"au","cc":"au","latitude":-33.865143,"longitude":151.2099,"reserved":0,"last_update":"0001-01-01T00:00:00Z","name_a2s":"Uncletopia | Sydney | 6 | Community","protocol":17,"map":"cp_sunshine","folder":"tf","game":"Team Fortress","app_id":440,"player_count":0,"max_players":24,"Bots":0,"server_type":"Dedicated","server_os":"Linux","password":true,"vac":true,"version":"7961495","steam_id":85568392925397960,"keywords":["cp","nocrits","nodmgspread","uncletopia"],"game_id":440,"stv_port":27066,"stv_name":"Uncletopia | Sydney | 6 | Community | STV","players":null},{"server_id":49,"name":"Uncletopia | Warsaw | 1 | One Thousand Uncles","name_short":"waw-1","host":"waw-1.pl.uncletopia.com","port":27015,"enabled":true,"region":"eu","cc":"pl","latitude":52.2297,"longitude":21.017532,"reserved":0,"last_update":"0001-01-01T00:00:00Z","name_a2s":"Uncletopia | Warsaw | 1 | One Thousand Uncles","protocol":17,"map":"cp_mercenarypark","folder":"tf","game":"Team Fortress","app_id":440,"player_count":23,"max_players":32,"Bots":16,"server_type":"Dedicated","server_os":"Linux","password":true,"vac":true,"version":"7961495","steam_id":85568392925397850,"keywords":["alltalk","bots","cp","danepve","increased_maxplayers","nocrits","norespawntime","uncletopia"],"game_id":440,"stv_port":0,"stv_name":"","players":[{"user_id":726,"name":"Its yah monke","steam_id":76561198323869587,"connected_time":4230000000000,"state":"active","ping":60},{"user_id":734,"name":"Black_Knight","steam_id":76561198350957192,"connected_time":577000000000,"state":"active","ping":60},{"user_id":727,"name":"Retro","steam_id":76561199181824842,"connected_time":3615000000000,"state":"active","ping":64},{"user_id":728,"name":"Dr. Circumsizer","steam_id":76561198864841966,"connected_time":2960000000000,"state":"active","ping":189},{"user_id":729,"name":"JMJGAMING971","steam_id":76561199465588292,"connected_time":1769000000000,"state":"active","ping":237},{"user_id":731,"name":"Professorstino","steam_id":76561199117907277,"connected_time":1204000000000,"state":"active","ping":155},{"user_id":733,"name":"d4efeb","steam_id":76561198148098761,"connected_time":885000000000,"state":"active","ping":164}]},{"server_id":50,"name":"Uncletopia | Warsaw | 2 | One Thousand Uncles","name_short":"waw-2","host":"waw-1.pl.uncletopia.com","port":27025,"enabled":true,"region":"eu","cc":"pl","latitude":52.2297,"longitude":21.017532,"reserved":0,"last_update":"0001-01-01T00:00:00Z","name_a2s":"Uncletopia | Warsaw | 2 | One Thousand Uncles","protocol":17,"map":"cp_egypt_final","folder":"tf","game":"Team Fortress","app_id":440,"player_count":0,"max_players":32,"Bots":0,"server_type":"Dedicated","server_os":"Linux","password":true,"vac":true,"version":"7961495","steam_id":85568392925397851,"keywords":["alltalk","cp","danepve","increased_maxplayers","nocrits","norespawntime","uncletopia"],"game_id":440,"stv_port":0,"stv_name":"","players":null},{"server_id":51,"name":"Uncletopia | Warsaw | 3 | All Maps","name_short":"waw-3","host":"waw-1.pl.uncletopia.com","port":27035,"enabled":true,"region":"eu","cc":"pl","latitude":52.2297,"longitude":21.017532,"reserved":0,"last_update":"0001-01-01T00:00:00Z","name_a2s":"Uncletopia | Warsaw | 3 | All Maps","protocol":17,"map":"pl_swiftwater_final1","folder":"tf","game":"Team Fortress","app_id":440,"player_count":0,"max_players":24,"Bots":0,"server_type":"Dedicated","server_os":"Linux","password":true,"vac":true,"version":"7961495","steam_id":85568392925397852,"keywords":["nocrits","nodmgspread","payload","uncletopia"],"game_id":440,"stv_port":27036,"stv_name":"Uncletopia | Warsaw | 3 | All Maps | STV","players":null},{"server_id":52,"name":"Uncletopia | Warsaw | 4 | All Maps","name_short":"waw-4","host":"waw-1.pl.uncletopia.com","port":27045,"enabled":true,"region":"eu","cc":"pl","latitude":52.2297,"longitude":21.017532,"reserved":0,"last_update":"0001-01-01T00:00:00Z","name_a2s":"Uncletopia | Warsaw | 4 | All Maps","protocol":17,"map":"koth_cascade","folder":"tf","game":"Team Fortress","app_id":440,"player_count":0,"max_players":24,"Bots":0,"server_type":"Dedicated","server_os":"Linux","password":true,"vac":true,"version":"7961495","steam_id":85568392925397853,"keywords":["cp","nocrits","nodmgspread","uncletopia"],"game_id":440,"stv_port":27046,"stv_name":"Uncletopia | Warsaw | 4 | All Maps | STV","players":null},{"server_id":53,"name":"Uncletopia | Warsaw | 5 | Stopwatch","name_short":"waw-5","host":"waw-1.pl.uncletopia.com","port":27055,"enabled":true,"region":"eu","cc":"pl","latitude":52.2297,"longitude":21.017532,"reserved":0,"last_update":"0001-01-01T00:00:00Z","name_a2s":"Uncletopia | Warsaw | 5 | Stopwatch","protocol":17,"map":"cp_sunshine","folder":"tf","game":"Team Fortress","app_id":440,"player_count":0,"max_players":24,"Bots":0,"server_type":"Dedicated","server_os":"Linux","password":true,"vac":true,"version":"7961495","steam_id":85568392925397854,"keywords":["cp","nocrits","nodmgspread","uncletopia"],"game_id":440,"stv_port":27056,"stv_name":"Uncletopia | Warsaw | 5 | Stopwatch | STV","players":null},{"server_id":54,"name":"Uncletopia | Warsaw | 6 | Community","name_short":"waw-6","host":"waw-1.pl.uncletopia.com","port":27065,"enabled":true,"region":"eu","cc":"pl","latitude":52.2297,"longitude":21.017532,"reserved":0,"last_update":"0001-01-01T00:00:00Z","name_a2s":"Uncletopia | Warsaw | 6 | Community","protocol":17,"map":"workshop/cp_indulge.ugc528106646","folder":"tf","game":"Team Fortress","app_id":440,"player_count":0,"max_players":24,"Bots":0,"server_type":"Dedicated","server_os":"Linux","password":true,"vac":true,"version":"7961495","steam_id":85568392925397856,"keywords":["cp","nocrits","nodmgspread","uncletopia"],"game_id":440,"stv_port":27066,"stv_name":"Uncletopia | Warsaw | 6 | Community | STV","players":null}]}