{"status":true,"message":"","result":[{"server_id":9,"name":"Uncletopia | Atlanta | 1 | All Maps","name_short":"atl-1","host":"atl-1.us.uncletopia.com","port":27015,"enabled":true,"region":"us-east","cc":"us","latitude":33.753746,"longitude":-84.38633,"reserved":0,"last_update":"0001-01-01T00:00:00Z","name_a2s":"Uncletopia | Atlanta | 1 | All Maps","protocol":17,"map":"cp_snakewater_final1","folder":"tf","game":"Team Fortress","app_id":440,"player_count":0,"max_players":24,"Bots":0,"server_type":"Dedicated","server_os":"Linux","password":false,"vac":true,"version":"7961495","steam_id":85568392924469982,"keywords":["cp","nocrits","nodmgspread","uncletopia"],"game_id":440,"stv_port":27016,"stv_name":"Uncletopia | Atlanta | 1 | All Maps | STV","players":null},{"server_id":104,"name":"Uncletopia | Atlanta | 2 | All Maps","name_short":"atl-2","host":"atl-1.us.uncletopia.com","port":27025,"enabled":true,"region":"us-east","cc":"us","latitude":33.753746,"longitude":-84.38633,"reserved":0,"last_update":"0001-01-01T00:00:00Z","name_a2s":"Uncletopia | Atlanta | 2 | All Maps","protocol":17,"map":"cp_mountainlab","folder":"tf","game":"Team Fortress","app_id":440,"player_count":0,"max_players":24,"Bots":0,"server_type":"Dedicated","server_os":"Linux","password":false,"vac":true,"version":"7961495","steam_id":85568392924469983,"keywords":["cp","nocrits","nodmgspread","uncletopia"],"game_id":440,"stv_port":27026,"stv_name":"Uncletopia | Atlanta | 2 | All Maps | STV","players":null},{"server_id":400,"name":"Uncletopia | Atlanta | 3 | All Maps","name_short":"atl-3","host":"atl-1.us.uncletopia.com","port":27035,"enabled":true,"region":"us-east","cc":"us","latitude":33.753746,"longitude":-84.38633,"reserved":0,"last_update":"0001-01-01T00:00:00Z","name_a2s":"Uncletopia | Atlanta | 3 | All Maps","protocol":17,"map":"cp_process_final","folder":"tf","game":"Team Fortress","app_id":440,"player_count":0,"max_players":24,"Bots":0,"server_type":"Dedicated","server_os":"Linux","password":false,"vac":true,"version":"7961495","steam_id":85568392924515187,"keywords":["cp","nocrits","nodmgspread","uncletopia"],"game_id":440,"stv_port":27036,"stv_name":"Uncletopia | Atlanta | 3 | All Maps | STV","players":null},{"server_id":401,"name":"Uncletopia | Atlanta | 4 | Community","name_short":"atl-4","host":"atl-1.us.uncletopia.com","port":27045,"enabled":true,"region":"us-east","cc":"us","latitude":33.753746,"longitude":-84.38633,"reserved":0,"last_update":"0001-01-01T00:00:00Z","name_a2s":"Uncletopia | Atlanta | 4 | Community","protocol":17,"map":"koth_lakeside_final","folder":"tf","game":"Team Fortress","app_id":440,"player_count":0,"max_players":24,"Bots":0,"server_type":"Dedicated","server_os":"Linux","password":false,"vac":true,"version":"7961495","steam_id":85568392924515188,"keywords":["cp","nocrits","nodmgspread","uncletopia"],"game_id":440,"stv_port":27046,"stv_name":"Uncletopia | Atlanta | 4 | Community | STV","players":null},{"server_id":2,"name":"Uncletopia | Chicago | 1 | All Maps","name_short":"chi-1","host":"chi-1.us.uncletopia.com","port":27015,"enabled":true,"region":"us-central","cc":"us","latitude":41.881832,"longitude":-87.62318,"reserved":0,"last_update":"0001-01-01T00:00:00Z","name_a2s":"Uncletopia | Chicago | 1 | All Maps","protocol":17,"map":"pl_barnblitz","folder":"tf","game":"Team Fortress","app_id":440,"player_count":24,"max_players":24,"Bots":0,"server_type":"Dedicated","server_os":"Linux","password":true,"vac":true,"version":"7961495","steam_id":85568392924469984,"keywords":["nocrits","nodmgspread","payload","uncletopia"],"game_id":440,"stv_port":27016,"stv_name":"Uncletopia | Chicago | 1 | All Maps | STV","players":[{"user_id":97,"name":"Bee","steam_id":76561198074681324,"connected_time":644000000000,"state":"active","ping":48},{"user_id":93,"name":"Sirmrmagoo","steam_id":76561198993190424,"connected_time":973000000000,"state":"active","ping":111},{"user_id":100,"name":"Suburban Wolf Dad","steam_id":76561198069234954,"connected_time":93000000000,"state":"active","ping":97},{"user_id":98,"name":"flaccid","steam_id":76561198299241777,"connected_time":132000000000,"state":"active","ping":78},{"user_id":89,"name":"BNT","steam_id":76561198044064831,"connected_time":1105000000000,"state":"active","ping":60},{"user_id":25,"name":"Bee_Pirate","steam_id":76561199000599111,"connected_time":4781000000000,"state":"active","ping":59},{"user_id":73,"name":"ËÉ∏Èíà","steam_id":76561198797398533,"connected_time":1972000000000,"state":"active","ping":45},{"user_id":54,"name":"PKBEAST_7","steam_id":76561198177136537,"connected_time":3444000000000,"state":"active","ping":85},{"user_id":94,"name":"IanFishooks","steam_id":76561199403427527,"connected_time":910000000000,"state":"active","ping":71},{"user_id":75,"name":"East","steam_id":76561197973050453,"connected_time":1918000000000,"state":"active","ping":87},{"user_id":76,"name":"[TSG] Turner's Chocolate Milk","steam_id":76561198058963288,"connected_time":1917000000000,"state":"active","ping":63},{"user_id":103,"name":"Grunkie_Chubs","steam_id":76561198272017187,"connected_time":82000000000,"state":"active","ping":69},{"user_id":63,"name":"Big Yoshi","steam_id":76561199160576376,"connected_time":3006000000000,"state":"active","ping":121},{"user_id":90,"name":"loot","steam_id":76561198069954956,"connected_time":1103000000000,"state":"active","ping":63},{"user_id":61,"name":"Maverick","steam_id":76561198322829814,"connected_time":3176000000000,"state":"active","ping":83},{"user_id":99,"name":"AndyRoo","steam_id":76561198126561317,"connected_time":118000000000,"state":"active","ping":67},{"user_id":65,"name":"JohnPlumber88","steam_id":76561198170203473,"connected_time":2667000000000,"state":"active","ping":68},{"user_id":58,"name":"Zamich","steam_id":76561198170659337,"connected_time":3303000000000,"state":"active","ping":71},{"user_id":70,"name":"e doctor","steam_id":76561198081851446,"connected_time":2325000000000,"state":"active","ping":48},{"user_id":101,"name":"Rich Melanin","steam_id":76561198053160625,"connected_time":88000000000,"state":"active","ping":133},{"user_id":102,"name":"Commander_Pepsi","steam_id":76561199211880037,"connected_time":86000000000,"state":"active","ping":76},{"user_id":92,"name":"Ripheart","steam_id":76561198089661561,"connected_time":1093000000000,"state":"active","ping":45},{"user_id":49,"name":"Generic Gibus Sniper","steam_id":76561199186496740,"connected_time":3799000000000,"state":"active","ping":84},{"user_id":96,"name":"Boomerish","steam_id":76561198083946878,"connected_time":672000000000,"state":"active","ping":74}]},{"server_id":106,"name":"Uncletopia | Chicago | 2 | All Maps","name_short":"chi-2","host":"chi-1.us.uncletopia.com","port":27025,"enabled":true,"region":"us-central","cc":"us","latitude":41.881832,"longitude":-87.62318,"reserved":0,"last_update":"0001-01-01T00:00:00Z","name_a2s":"Uncletopia | Chicago | 2 | All Maps","protocol":17,"map":"pl_pier","folder":"tf","game":"Team Fortress","app_id":440,"player_count":24,"max_players":24,"Bots":0,"server_type":"Dedicated","server_os":"Linux","password":true,"vac":true,"version":"7961495","steam_id":85568392924469985,"keywords":["nocrits","nodmgspread","payload","uncletopia"],"game_id":440,"stv_port":27026,"stv_name":"Uncletopia | Chicago | 2 | All Maps | STV","players":[{"user_id":247,"name":"Drachma","steam_id":76561198007310514,"connected_time":3410000000000,"state":"active","ping":53},{"user_id":207,"name":"kermitcreeper(ZAZA)","steam_id":76561199222829972,"connected_time":6847000000000,"state":"active","ping":53},{"user_id":276,"name":"Man too drunk to die","steam_id":76561198951183714,"connected_time":1019000000000,"state":"active","ping":173},{"user_id":254,"name":"Technomancer","steam_id":76561198137758683,"connected_time":2725000000000,"state":"active","ping":92},{"user_id":242,"name":"Acehay14","steam_id":76561198052373291,"connected_time":3995000000000,"state":"active","ping":63},{"user_id":283,"name":"TruffShuff","steam_id":76561198055869160,"connected_time":488000000000,"state":"active","ping":48},{"user_id":230,"name":"ADHD Perseveration","steam_id":76561198069735882,"connected_time":5203000000000,"state":"active","ping":75},{"user_id":273,"name":"Aimless S. (Caberace \u003e:3ing)","steam_id":76561198058382041,"connected_time":1321000000000,"state":"active","ping":84},{"user_id":265,"name":"Cuttle's Fish","steam_id":76561198280483257,"connected_time":2073000000000,"state":"active","ping":60},{"user_id":284,"name":"[Heavenly] Princess","steam_id":76561198321929487,"connected_time":462000000000,"state":"active","ping":115},{"user_id":278,"name":"2 Laserdisc Copies of Toy Story","steam_id":76561198088859649,"connected_time":759000000000,"state":"active","ping":88},{"user_id":266,"name":"CeLeb144","steam_id":76561199089907740,"connected_time":1809000000000,"state":"active","ping":92},{"user_id":267,"name":"Love","steam_id":76561199173445015,"connected_time":1497000000000,"state":"active","ping":59},{"user_id":238,"name":"0100101101100001011100100110110","steam_id":76561198034028769,"connected_time":4216000000000,"state":"active","ping":67},{"user_id":195,"name":"hi","steam_id":76561198809577048,"connected_time":8011000000000,"state":"active","ping":103},{"user_id":282,"name":"thigh highs aren't real","steam_id":76561198039188307,"connected_time":675000000000,"state":"active","ping":71},{"user_id":234,"name":"FamilyMan.Tech()","steam_id":76561198023126781,"connected_time":4419000000000,"state":"active","ping":73},{"user_id":249,"name":"AMU","steam_id":76561198092346231,"connected_time":2809000000000,"state":"active","ping":67},{"user_id":285,"name":"Moss","steam_id":76561199122200727,"connected_time":229000000000,"state":"active","ping":64},{"user_id":261,"name":"chaffy","steam_id":76561198021754567,"connected_time":2554000000000,"state":"active","ping":55},{"user_id":274,"name":"CyberZayne","steam_id":76561198002351356,"connected_time":1264000000000,"state":"active","ping":83},{"user_id":280,"name":"Starfruit66","steam_id":76561198069917277,"connected_time":756000000000,"state":"active","ping":98},{"user_id":269,"name":"yum.","steam_id":76561198343145607,"connected_time":1353000000000,"state":"active","ping":39},{"user_id":271,"name":"Bon Gripper","steam_id":76561198090074621,"connected_time":1334000000000,"state":"active","ping":44}]},{"server_id":402,"name":"Uncletopia | Chicago | 3 | All Maps","name_short":"chi-3","host":"chi-1.us.uncletopia.com","port":27035,"enabled":true,"region":"us-central","cc":"us","latitude":41.881832,"longitude":-87.62318,"reserved":0,"last_update":"0001-01-01T00:00:00Z","name_a2s":"Uncletopia | Chicago | 3 | All Maps","protocol":17,"map":"pl_barnblitz","folder":"tf","game":"Team Fortress","app_id":440,"player_count":24,"max_players":24,"Bots":0,"server_type":"Dedicated","server_os":"Linux","password":true,"vac":true,"version":"7961495","steam_id":85568392924515191,"keywords":["nocrits","nodmgspread","payload","uncletopia"],"game_id":440,"stv_port":27036,"stv_name":"Uncletopia | Chicago | 3 | All Maps | STV","players":[{"user_id":7,"name":"bucket","steam_id":76561199190895691,"connected_time":1464000000000,"state":"spawning","ping":179},{"user_id":13,"name":"Fishfriends","steam_id":76561199061152827,"connected_time":703000000000,"state":"spawning","ping":67},{"user_id":9,"name":"raspy","steam_id":76561198027298961,"connected_time":1149000000000,"state":"active","ping":55},{"user_id":29,"name":"Bush.exe","steam_id":76561198124385307,"connected_time":297000000000,"state":"spawning","ping":81},{"user_id":14,"name":"T12a55","steam_id":76561199228993903,"connected_time":690000000000,"state":"spawning","ping":221},{"user_id":19,"name":"Runny Eggs","steam_id":76561198006785882,"connected_time":516000000000,"state":"active","ping":120},{"user_id":20,"name":"imng","steam_id":76561198014988031,"connected_time":486000000000,"state":"active","ping":221},{"user_id":21,"name":"wally","steam_id":76561198027450079,"connected_time":460000000000,"state":"active","ping":65},{"user_id":22,"name":"WaggyLads","steam_id":76561198117825587,"connected_time":455000000000,"state":"active","ping":116},{"user_id":23,"name":"Keroro","steam_id":76561198075106705,"connected_time":446000000000,"state":"active","ping":94},{"user_id":24,"name":"cacos","steam_id":76561199130242847,"connected_time":429000000000,"state":"spawning","ping":107},{"user_id":25,"name":"In-N-Out Double Double","steam_id":76561198104086771,"connected_time":380000000000,"state":"active","ping":174},{"user_id":26,"name":"Shady Businessman","steam_id":76561198143855968,"connected_time":375000000000,"state":"spawning","ping":70},{"user_id":28,"name":"{SCG} Dave_s4","steam_id":76561197970539501,"connected_time":352000000000,"state":"active","ping":119},{"user_id":31,"name":"FLaGMuFFiN","steam_id":76561198047690114,"connected_time":261000000000,"state":"spawning","ping":141},{"user_id":32,"name":"InkyandKinky","steam_id":76561198044091278,"connected_time":255000000000,"state":"active","ping":85},{"user_id":34,"name":"NVM!!!","steam_id":76561198432721568,"connected_time":233000000000,"state":"active","ping":112},{"user_id":35,"name":"Tlaloc","steam_id":76561198375215983,"connected_time":228000000000,"state":"spawning","ping":122},{"user_id":36,"name":"Online","steam_id":76561198087472640,"connected_time":228000000000,"state":"active","ping":143},{"user_id":37,"name":"Skydoesstuff YT","steam_id":76561199243969448,"connected_time":220000000000,"state":"active","ping":213},{"user_id":38,"name":"sumo dumplings","steam_id":76561198115553314,"connected_time":207000000000,"state":"active","ping":271},{"user_id":39,"name":"ChickenStripper","steam_id":76561199139295421,"connected_time":182000000000,"state":"connecting","ping":120},{"user_id":40,"name":"Pheirynuts","steam_id":76561198115844174,"connected_time":148000000000,"state":"spawning","ping":98},{"user_id":41,"name":"Penis78956","steam_id":76561198878919020,"connected_time":104000000000,"state":"spawning","ping":152}]},{"server_id":403,"name":"Uncletopia | Chicago | 4 | All Maps","name_short":"chi-4","host":"chi-1.us.uncletopia.com","port":27045,"enabled":true,"region":"us-central","cc":"us","latitude":41.881832,"longitude":-87.62318,"reserved":0,"last_update":"0001-01-01T00:00:00Z","name_a2s":"Uncletopia | Chicago | 4 | All Maps","protocol":17,"map":"cp_sunshine","folder":"tf","game":"Team Fortress","app_id":440,"player_count":24,"max_players":24,"Bots":0,"server_type":"Dedicated","server_os":"Linux","password":true,"vac":true,"version":"7961495","steam_id":85568392924515193,"keywords":["cp","nocrits","nodmgspread","uncletopia"],"game_id":440,"stv_port":27046,"stv_name":"Uncletopia | Chicago | 4 | All Maps | STV","players":[{"user_id":211,"name":"Ritzy","steam_id":76561198381955342,"connected_time":459000000000,"state":"active","ping":139},{"user_id":216,"name":"violentmindpeacefulheart","steam_id":76561198194471251,"connected_time":312000000000,"state":"active","ping":56},{"user_id":160,"name":"Aeonspassed","steam_id":76561198014016451,"connected_time":2113000000000,"state":"active","ping":60},{"user_id":213,"name":"Norman","steam_id":76561198154715990,"connected_time":451000000000,"state":"active","ping":102},{"user_id":207,"name":"glitch","steam_id":76561197979495589,"connected_time":908000000000,"state":"active","ping":61},{"user_id":227,"name":"det lft","steam_id":76561198170859755,"connected_time":10000000000,"state":"spawning","ping":51},{"user_id":201,"name":"Jericho von Generico","steam_id":76561198206139559,"connected_time":1286000000000,"state":"active","ping":76},{"user_id":205,"name":"keffers","steam_id":76561198202338796,"connected_time":1131000000000,"state":"active","ping":70},{"user_id":206,"name":"gnome chompski (real)","steam_id":76561198150327877,"connected_time":1096000000000,"state":"active","ping":59},{"user_id":226,"name":"Goobatron maximus","steam_id":76561198802476057,"connected_time":62000000000,"state":"active","ping":87},{"user_id":220,"name":"thatguy_luigi","steam_id":76561198968055462,"connected_time":234000000000,"state":"active","ping":112},{"user_id":200,"name":"JSlayz","steam_id":76561198853768655,"connected_time":1302000000000,"state":"active","ping":42},{"user_id":215,"name":"Wan Shi Tong","steam_id":76561198076441225,"connected_time":433000000000,"state":"active","ping":64},{"user_id":208,"name":"gale","steam_id":76561198250068972,"connected_time":888000000000,"state":"active","ping":98},{"user_id":202,"name":"berserker_tf2 yt","steam_id":76561198303464488,"connected_time":1283000000000,"state":"active","ping":60},{"user_id":218,"name":"leer.","steam_id":76561198864458303,"connected_time":265000000000,"state":"active","ping":70},{"user_id":221,"name":"Eric Catman","steam_id":76561198802117294,"connected_time":224000000000,"state":"active","ping":156},{"user_id":222,"name":"Pango","steam_id":76561198069811545,"connected_time":217000000000,"state":"active","ping":61},{"user_id":209,"name":"Hadvar","steam_id":76561198081681234,"connected_time":864000000000,"state":"active","ping":57},{"user_id":223,"name":"sansa musa","steam_id":76561198163723555,"connected_time":150000000000,"state":"active","ping":60},{"user_id":228,"name":"Wigl","steam_id":76561198019324464,"connected_time":6000000000,"state":"spawning","ping":66},{"user_id":225,"name":"Yummy Kabobz","steam_id":76561198067661705,"connected_time":90000000000,"state":"active","ping":68},{"user_id":155,"name":"Grilled Jizo","steam_id":76561199250875340,"connected_time":2723000000000,"state":"active","ping":76},{"user_id":171,"name":"fluffytail309","steam_id":76561199491688974,"connected_time":1961000000000,"state":"active","ping":58}]},{"server_id":36,"name":"Uncletopia | Chicago | 5 | All Maps","name_short":"chi-5","host":"chi-2.us.uncletopia.com","port":27015,"enabled":true,"region":"us-central","cc":"us","latitude":41.881832,"longitude":-87.62318,"reserved":0,"last_update":"0001-01-01T00:00:00Z","name_a2s":"Uncletopia | Chicago | 5 | All Maps","protocol":17,"map":"cp_mountainlab","folder":"tf","game":"Team Fortress","app_id":440,"player_count":0,"max_players":24,"Bots":0,"server_type":"Dedicated","server_os":"Linux","password":true,"vac":true,"version":"7961495","steam_id":85568392924866362,"keywords":["cp","nocrits","nodmgspread","uncletopia"],"game_id":440,"stv_port":27016,"stv_name":"Uncletopia | Chicago | 5 | All Maps | STV","players":null},{"server_id":37,"name":"Uncletopia | Chicago | 6 | All Maps","name_short":"chi-6","host":"chi-2.us.uncletopia.com","port":27025,"enabled":true,"region":"us-central","cc":"us","latitude":41.881832,"longitude":-87.62318,"reserved":0,"last_update":"0001-01-01T00:00:00Z","name_a2s":"Uncletopia | Chicago | 6 | All Maps","protocol":17,"map":"pl_borneo","folder":"tf","game":"Team Fortress","app_id":440,"player_count":0,"max_players":24,"Bots":0,"server_type":"Dedicated","server_os":"Linux","password":true,"vac":true,"version":"7961495","steam_id":85568392924866363,"keywords":["nocrits","nodmgspread","payload","uncletopia"],"game_id":440,"stv_port":27026,"stv_name":"Uncletopia | Chicago | 6 | All Maps | STV","players":null},{"server_id":38,"name":"Uncletopia | Chicago | 7 | Stopwatch Beta","name_short":"chi-7","host":"chi-2.us.uncletopia.com","port":27035,"enabled":true,"region":"us-central","cc":"us","latitude":41.881832,"longitude":-87.62318,"reserved":0,"last_update":"0001-01-01T00:00:00Z","name_a2s":"Uncletopia | Chicago | 7 | Stopwatch Beta","protocol":17,"map":"pl_badwater","folder":"tf","game":"Team Fortress","app_id":440,"player_count":0,"max_players":24,"Bots":0,"server_type":"Dedicated","server_os":"Linux","password":true,"vac":true,"version":"7961495","steam_id":85568392924866364,"keywords":["nocrits","nodmgspread","payload","uncletopia"],"game_id":440,"stv_port":27036,"stv_name":"Uncletopia | Chicago | 7 | Stopwatch Beta | STV","players":null},{"server_id":39,"name":"Uncletopia | Chicago | 8 | Community","name_short":"chi-8","host":"chi-2.us.uncletopia.com","port":27045,"enabled":true,"region":"us-central","cc":"us","latitude":41.881832,"longitude":-87.62318,"reserved":0,"last_update":"0001-01-01T00:00:00Z","name_a2s":"Uncletopia | Chicago | 8 | Community","protocol":17,"map":"koth_cascade","folder":"tf","game":"Team Fortress","app_id":440,"player_count":0,"max_players":24,"Bots":0,"server_type":"Dedicated","server_os":"Linux","password":true,"vac":true,"version":"7961495","steam_id":85568392924866365,"keywords":["cp","nocrits","nodmgspread","uncletopia"],"game_id":440,"stv_port":27046,"stv_name":"Uncletopia | Chicago | 8 | Community | STV","players":null},{"server_id":8,"name":"Uncletopia | Dallas | 1 | All Maps","name_short":"dal-1","host":"dal-1.us.uncletopia.com","port":27015,"enabled":true,"region":"us-central","cc":"us","latitude":32.779167,"longitude":-96.80889,"reserved":0,"last_update":"0001-01-01T00:00:00Z","name_a2s":"Uncletopia | Dallas | 1 | All Maps","protocol":17,"map":"koth_highpass","folder":"tf","game":"Team Fortress","app_id":440,"player_count":0,"max_players":24,"Bots":0,"server_type":"Dedicated","server_os":"Linux","password":true,"vac":true,"version":"7961495","steam_id":85568392924469986,"keywords":["cp","nocrits","nodmgspread","uncletopia"],"game_id":440,"stv_port":27016,"stv_name":"Uncletopia | Dallas | 1 | All Maps | STV","players":null},{"server_id":108,"name":"Uncletopia | Dallas | 2 | All Maps","name_short":"dal-2","host":"dal-1.us.uncletopia.com","port":27025,"enabled":true,"region":"us-central","cc":"us","latitude":32.779167,"longitude":-96.80889,"reserved":0,"last_update":"0001-01-01T00:00:00Z","name_a2s":"Uncletopia | Dallas | 2 | All Maps","protocol":17,"map":"koth_highpass","folder":"tf","game":"Team Fortress","app_id":440,"player_count":0,"max_players":24,"Bots":0,"server_type":"Dedicated","server_os":"Linux","password":true,"vac":true,"version":"7961495","steam_id":85568392924469988,"keywords":["cp","nocrits","nodmgspread","uncletopia"],"game_id":440,"stv_port":27026,"stv_name":"Uncletopia | Dallas | 2 | All Maps | STV","players":null},{"server_id":404,"name":"Uncletopia | Dallas | 3 | All Maps","name_short":"dal-3","host":"dal-1.us.uncletopia.com","port":27035,"enabled":true,"region":"us-central","cc":"us","latitude":32.779167,"longitude":-96.80889,"reserved":0,"last_update":"0001-01-01T00:00:00Z","name_a2s":"Uncletopia | Dallas | 3 | All Maps","protocol":17,"map":"cp_sunshine","folder":"tf","game":"Team Fortress","app_id":440,"player_count":0,"max_players":24,"Bots":0,"server_type":"Dedicated","server_os":"Linux","password":true,"vac":true,"version":"7961495","steam_id":85568392924515219,"keywords":["cp","nocrits","nodmgspread","uncletopia"],"game_id":440,"stv_port":27036,"stv_name":"Uncletopia | Dallas | 3 | All Maps | STV","players":null},{"server_id":405,"name":"Uncletopia | Dallas | 4 | Community","name_short":"dal-4","host":"dal-1.us.uncletopia.com","port":27045,"enabled":true,"region":"us-central","cc":"us","latitude":32.779167,"longitude":-96.80889,"reserved":0,"last_update":"0001-01-01T00:00:00Z","name_a2s":"Uncletopia | Dallas | 4 | Community","protocol":17,"map":"workshop/pl_highwood_b13.ugc1769496557","folder":"tf","game":"Team Fortress","app_id":440,"player_count":0,"max_players":24,"Bots":0,"server_type":"Dedicated","server_os":"Linux","password":true,"vac":true,"version":"7961495","steam_id":85568392924515220,"keywords":["nocrits","nodmgspread","payload","uncletopia"],"game_id":440,"stv_port":27046,"stv_name":"Uncletopia | Dallas | 4 | Community | STV","players":null},{"server_id":5,"name":"Uncletopia | Frankfurt | 1 | All Maps","name_short":"frk-1","host":"frk-1.de.uncletopia.com","port":27015,"enabled":true,"region":"eu","cc":"de","latitude":50.110924,"longitude":8.682127,"reserved":0,"last_update":"0001-01-01T00:00:00Z","name_a2s":"Uncletopia | Frankfurt | 1 | All Maps","protocol":17,"map":"pl_barnblitz","folder":"tf","game":"Team Fortress","app_id":440,"player_count":24,"max_players":24,"Bots":0,"server_type":"Dedicated","server_os":"Linux","password":true,"vac":true,"version":"7961495","steam_id":85568392924469989,"keywords":["nocrits","nodmgspread","payload","uncletopia"],"game_id":440,"stv_port":27016,"stv_name":"Uncletopia | Frankfurt | 1 | All Maps | STV","players":[{"user_id":309,"name":":pleading_face:","steam_id":76561198311044984,"connected_time":2347000000000,"state":"active","ping":64},{"user_id":315,"name":"EagleDeath","steam_id":76561198282441198,"connected_time":1999000000000,"state":"active","ping":68},{"user_id":331,"name":"goga","steam_id":76561198280507478,"connected_time":1100000000000,"state":"active","ping":57},{"user_id":276,"name":"Optimist 50","steam_id":76561198039631442,"connected_time":4317000000000,"state":"active","ping":84},{"user_id":308,"name":"cpfitz","steam_id":76561198123461515,"connected_time":2389000000000,"state":"active","ping":78},{"user_id":323,"name":"LivEssense","steam_id":76561198052476979,"connected_time":1532000000000,"state":"active","ping":105},{"user_id":335,"name":"FranticLamp","steam_id":76561198339698995,"connected_time":778000000000,"state":"active","ping":81},{"user_id":325,"name":"Jinx","steam_id":76561197976310154,"connected_time":1214000000000,"state":"active","ping":84},{"user_id":256,"name":"kat","steam_id":76561198879664338,"connected_time":6129000000000,"state":"active","ping":57},{"user_id":337,"name":"realness","steam_id":76561199129226935,"connected_time":730000000000,"state":"active","ping":95},{"user_id":324,"name":"TheLawYGO","steam_id":76561198024347260,"connected_time":1473000000000,"state":"active","ping":149},{"user_id":328,"name":"YuraGreek","steam_id":76561198050182252,"connected_time":1105000000000,"state":"active","ping":104},{"user_id":329,"name":"Kamanie","steam_id":76561198135448255,"connected_time":1103000000000,"state":"active","ping":62},{"user_id":251,"name":"‚ôÇ Animan ‚ôÇ Studios ‚ôÇ","steam_id":76561198308302932,"connected_time":6285000000000,"state":"active","ping":102},{"user_id":317,"name":"HelwiiHill","steam_id":76561198066730552,"connected_time":1967000000000,"state":"active","ping":85},{"user_id":307,"name":"katten","steam_id":76561198163615254,"connected_time":2597000000000,"state":"active","ping":59},{"user_id":318,"name":"Jughead","steam_id":76561198000355410,"connected_time":1949000000000,"state":"active","ping":59},{"user_id":312,"name":"shy","steam_id":76561198127721841,"connected_time":2019000000000,"state":"active","ping":59},{"user_id":322,"name":"MoistMomMauler","steam_id":76561198069359049,"connected_time":1598000000000,"state":"active","ping":84},{"user_id":330,"name":"Ozzie","steam_id":76561197992915315,"connected_time":1101000000000,"state":"active","ping":75},{"user_id":313,"name":"bl√•haj","steam_id":76561198094268619,"connected_time":2017000000000,"state":"active","ping":60},{"user_id":305,"name":"Grym","steam_id":76561198119397460,"connected_time":2746000000000,"state":"active","ping":72},{"user_id":332,"name":"Mr.O #deletesniper","steam_id":76561198039567498,"connected_time":1086000000000,"state":"active","ping":67},{"user_id":336,"name":"Haleliasa","steam_id":76561198076687699,"connected_time":757000000000,"state":"active","ping":131}]},{"server_id":110,"name":"Uncletopia | Frankfurt | 2 | All Maps","name_short":"frk-2","host":"frk-1.de.uncletopia.com","port":27025,"enabled":true,"region":"eu","cc":"de","latitude":50.110924,"longitude":8.682127,"reserved":0,"last_update":"0001-01-01T00:00:00Z","name_a2s":"Uncletopia | Frankfurt | 2 | All Maps","protocol":17,"map":"pl_barnblitz","folder":"tf","game":"Team Fortress","app_id":440,"player_count":24,"max_players":24,"Bots":0,"server_type":"Dedicated","server_os":"Linux","password":true,"vac":true,"version":"7961495","steam_id":85568392924469990,"keywords":["nocrits","nodmgspread","payload","uncletopia"],"game_id":440,"stv_port":27026,"stv_name":"Uncletopia | Frankfurt | 2 | All Maps | STV","players":[{"user_id":546,"name":"I_Forgot_My_Name","steam_id":76561198173424578,"connected_time":1669000000000,"state":"active","ping":67},{"user_id":554,"name":"AWP Bodyshot :) ‚ù§","steam_id":76561198029928533,"connected_time":1181000000000,"state":"active","ping":45},{"user_id":555,"name":"EinManuel","steam_id":76561198354983840,"connected_time":1176000000000,"state":"active","ping":60},{"user_id":564,"name":"Diggity","steam_id":76561198297157085,"connected_time":987000000000,"state":"active","ping":58},{"user_id":556,"name":"Accident","steam_id":76561198115160396,"connected_time":1168000000000,"state":"active","ping":74},{"user_id":572,"name":"domek","steam_id":76561198048447632,"connected_time":325000000000,"state":"active","ping":63},{"user_id":571,"name":"wallbug waldo","steam_id":76561198088624259,"connected_time":394000000000,"state":"active","ping":66},{"user_id":541,"name":"Trevis","steam_id":76561198114516101,"connected_time":2027000000000,"state":"active","ping":53},{"user_id":574,"name":"emti","steam_id":76561198836233001,"connected_time":119000000000,"state":"active","ping":74},{"user_id":557,"name":"Zaka","steam_id":76561198148434957,"connected_time":1168000000000,"state":"active","ping":93},{"user_id":553,"name":"Ziemniaczki","steam_id":76561198061866742,"connected_time":1189000000000,"state":"active","ping":71},{"user_id":570,"name":"Cotton Eye Joe","steam_id":76561198080594207,"connected_time":484000000000,"state":"active","ping":66},{"user_id":565,"name":"Cat Ara","steam_id":76561198081014607,"connected_time":880000000000,"state":"active","ping":83},{"user_id":515,"name":"Toxic_Cicity","steam_id":76561198165753440,"connected_time":4397000000000,"state":"active","ping":103},{"user_id":569,"name":"Smoking problem","steam_id":76561198361351449,"connected_time":515000000000,"state":"active","ping":60},{"user_id":575,"name":"BD[PL]","steam_id":76561198115995871,"connected_time":103000000000,"state":"active","ping":77},{"user_id":535,"name":"S√§yu","steam_id":76561199275368237,"connected_time":2640000000000,"state":"active","ping":77},{"user_id":547,"name":"KajaStorm","steam_id":76561199215842872,"connected_time":1665000000000,"state":"active","ping":136},{"user_id":543,"name":"fernandobmwm355555","steam_id":76561198086609447,"connected_time":2018000000000,"state":"active","ping":60},{"user_id":492,"name":"hasansaeedifar","steam_id":76561198974563618,"connected_time":5928000000000,"state":"active","ping":162},{"user_id":548,"name":"Testicular torsion","steam_id":76561198119547399,"connected_time":1663000000000,"state":"active","ping":55},{"user_id":519,"name":"mixxxa_french","steam_id":76561198085098243,"connected_time":4310000000000,"state":"active","ping":116},{"user_id":544,"name":"Lilliputt","steam_id":76561198090146457,"connected_time":2010000000000,"state":"active","ping":55},{"user_id":568,"name":"family guy funny moments","steam_id":76561199009422023,"connected_time":551000000000,"state":"active","ping":71}]},{"server_id":308,"name":"Uncletopia | Frankfurt | 3 | All Maps","name_short":"frk-3","host":"frk-1.de.uncletopia.com","port":27035,"enabled":true,"region":"eu","cc":"de","latitude":50.110924,"longitude":8.682127,"reserved":0,"last_update":"0001-01-01T00:00:00Z","name_a2s":"Uncletopia | Frankfurt | 3 | All Maps","protocol":17,"map":"pl_borneo","folder":"tf","game":"Team Fortress","app_id":440,"player_count":23,"max_players":24,"Bots":0,"server_type":"Dedicated","server_os":"Linux","password":true,"vac":true,"version":"7961495","steam_id":85568392924504274,"keywords":["nocrits","nodmgspread","payload","uncletopia"],"game_id":440,"stv_port":27036,"stv_name":"Uncletopia | Frankfurt | 3 | All Maps | STV","players":[{"user_id":168,"name":"m909","steam_id":76561198279621400,"connected_time":1065000000000,"state":"active","ping":83},{"user_id":175,"name":"mark","steam_id":76561198309246388,"connected_time":899000000000,"state":"active","ping":45},{"user_id":118,"name":"soupalognionycrouton","steam_id":76561199021878433,"connected_time":4137000000000,"state":"active","ping":73},{"user_id":170,"name":"Strix","steam_id":76561198015322735,"connected_time":963000000000,"state":"active","ping":71},{"user_id":107,"name":"Zizman","steam_id":76561198446562910,"connected_time":5125000000000,"state":"active","ping":145},{"user_id":180,"name":"‚ò≠TheDevilsEye‚ò≠","steam_id":76561198017379398,"connected_time":9000000000,"state":"spawning","ping":58},{"user_id":135,"name":"BELADIT","steam_id":76561198011911501,"connected_time":3316000000000,"state":"active","ping":74},{"user_id":132,"name":"Soulman25 (FIN)","steam_id":76561198103611974,"connected_time":3337000000000,"state":"active","ping":98},{"user_id":78,"name":"FNF","steam_id":76561199151422826,"connected_time":7238000000000,"state":"active","ping":119},{"user_id":166,"name":"Castellan","steam_id":76561197994861142,"connected_time":1158000000000,"state":"active","ping":55},{"user_id":138,"name":"First_Legion","steam_id":76561198056848127,"connected_time":3223000000000,"state":"active","ping":114},{"user_id":148,"name":"Mangal_","steam_id":76561198076089589,"connected_time":3077000000000,"state":"active","ping":91},{"user_id":159,"name":"Brave","steam_id":76561198081721841,"connected_time":2010000000000,"state":"active","ping":88},{"user_id":155,"name":"CEO of Racism","steam_id":76561198042317958,"connected_time":2403000000000,"state":"active","ping":59},{"user_id":153,"name":"huutti","steam_id":76561198138304806,"connected_time":2895000000000,"state":"active","ping":88},{"user_id":113,"name":"PlebCord","steam_id":76561198120685803,"connected_time":4419000000000,"state":"active","ping":82},{"user_id":158,"name":"Mr. Mundy","steam_id":76561198132008918,"connected_time":2150000000000,"state":"active","ping":71},{"user_id":172,"name":"etc","steam_id":76561197998394797,"connected_time":949000000000,"state":"active","ping":50},{"user_id":177,"name":"–î–ë–õ –ë–õ–î","steam_id":76561198312158809,"connected_time":686000000000,"state":"active","ping":75},{"user_id":179,"name":"1couver","steam_id":76561198168553215,"connected_time":235000000000,"state":"active","ping":95},{"user_id":176,"name":"collin","steam_id":76561198067030681,"connected_time":879000000000,"state":"active","ping":61},{"user_id":165,"name":"FUKAYU","steam_id":76561198380484033,"connected_time":1304000000000,"state":"active","ping":55},{"user_id":150,"name":"Owlet","steam_id":76561198065613974,"connected_time":3060000000000,"state":"active","ping":74}]},{"server_id":309,"name":"Uncletopia | Frankfurt | 4 | All Maps","name_short":"frk-4","host":"frk-1.de.uncletopia.com","port":27045,"enabled":true,"region":"eu","cc":"de","latitude":50.110924,"longitude":8.682127,"reserved":0,"last_update":"0001-01-01T00:00:00Z","name_a2s":"Uncletopia | Frankfurt | 4 | All Maps","protocol":17,"map":"pl_badwater","folder":"tf","game":"Team Fortress","app_id":440,"player_count":24,"max_players":24,"Bots":0,"server_type":"Dedicated","server_os":"Linux","password":true,"vac":true,"version":"7961495","steam_id":85568392924504275,"keywords":["nocrits","nodmgspread","payload","uncletopia"],"game_id":440,"stv_port":27046,"stv_name":"Uncletopia | Frankfurt | 4 | All Maps | STV","players":[{"user_id":449,"name":"Lartsa","steam_id":76561198275690230,"connected_time":4570000000000,"state":"active","ping":110},{"user_id":439,"name":"nevim","steam_id":76561199120843402,"connected_time":4904000000000,"state":"active","ping":53},{"user_id":502,"name":"The Manager of Sex","steam_id":76561198385989487,"connected_time":412000000000,"state":"active","ping":107},{"user_id":464,"name":"GoatLord1","steam_id":76561198157964544,"connected_time":2603000000000,"state":"active","ping":61},{"user_id":486,"name":"Is actually pikachu","steam_id":76561198097350291,"connected_time":1548000000000,"state":"active","ping":70},{"user_id":472,"name":"The Big Bean","steam_id":76561198267696666,"connected_time":2147000000000,"state":"active","ping":45},{"user_id":258,"name":"After8","steam_id":76561198090750865,"connected_time":13885000000000,"state":"active","ping":63},{"user_id":509,"name":"peng","steam_id":76561198313672607,"connected_time":83000000000,"state":"active","ping":84},{"user_id":428,"name":"overpriced pitogyro","steam_id":76561199103991437,"connected_time":5921000000000,"state":"active","ping":99},{"user_id":450,"name":"Finkaksu","steam_id":76561198201389163,"connected_time":4424000000000,"state":"active","ping":70},{"user_id":490,"name":"elmstJP ‚Ç™ F4.exe","steam_id":76561197997909480,"connected_time":846000000000,"state":"active","ping":75},{"user_id":508,"name":"giorgio","steam_id":76561199151781840,"connected_time":321000000000,"state":"active","ping":56},{"user_id":317,"name":"Vratis","steam_id":76561198062957725,"connected_time":10333000000000,"state":"active","ping":69},{"user_id":362,"name":"sareena","steam_id":76561198810194062,"connected_time":7974000000000,"state":"active","ping":75},{"user_id":504,"name":"Vinexx","steam_id":76561198044024405,"connected_time":382000000000,"state":"active","ping":65},{"user_id":501,"name":"Lucky Seven","steam_id":76561198045222776,"connected_time":428000000000,"state":"active","ping":53},{"user_id":469,"name":"Zeitung-GER","steam_id":76561198049095266,"connected_time":2217000000000,"state":"active","ping":68},{"user_id":491,"name":"Nipa5000","steam_id":76561199027332005,"connected_time":828000000000,"state":"active","ping":83},{"user_id":492,"name":"Revenge of the Jews in 3D","steam_id":76561199381623663,"connected_time":824000000000,"state":"active","ping":103},{"user_id":390,"name":"Sneaky boi","steam_id":76561199195985387,"connected_time":7341000000000,"state":"active","ping":77},{"user_id":505,"name":"vurtun","steam_id":76561198857395274,"connected_time":366000000000,"state":"active","ping":56},{"user_id":478,"name":"Sebiromanes (Spookm√°ster)","steam_id":76561198112800408,"connected_time":2067000000000,"state":"active","ping":102},{"user_id":506,"name":"El_Kommadante","steam_id":76561198079551685,"connected_time":366000000000,"state":"active","ping":77},{"user_id":500,"name":"najed","steam_id":76561198107767664,"connected_time":477000000000,"state":"active","ping":70}]},{"server_id":310,"name":"Uncletopia | Frankfurt | 5 | All Maps","name_short":"frk-5","host":"frk-1.de.uncletopia.com","port":27055,"enabled":true,"region":"eu","cc":"de","latitude":50.110924,"longitude":8.682127,"reserved":0,"last_update":"0001-01-01T00:00:00Z","name_a2s":"Uncletopia | Frankfurt | 5 | All Maps","protocol":17,"map":"pl_upward","folder":"tf","game":"Team Fortress","app_id":440,"player_count":23,"max_players":24,"Bots":0,"server_type":"Dedicated","server_os":"Linux","password":true,"vac":true,"version":"7961495","steam_id":85568392924504277,"keywords":["nocrits","nodmgspread","payload","uncletopia"],"game_id":440,"stv_port":27056,"stv_name":"Uncletopia | Frankfurt | 5 | All Maps | STV","players":[{"user_id":212,"name":"Mong","steam_id":76561198254497427,"connected_time":230000000000,"state":"active","ping":52},{"user_id":207,"name":"j","steam_id":76561198299474630,"connected_time":334000000000,"state":"active","ping":43},{"user_id":193,"name":"slug","steam_id":76561198065902089,"connected_time":1198000000000,"state":"active","ping":58},{"user_id":205,"name":"Yuval","steam_id":76561198241802390,"connected_time":677000000000,"state":"active","ping":125},{"user_id":181,"name":"I.AM.THE.BOOP.WHICH.IS.APROACHI","steam_id":76561198049342507,"connected_time":2787000000000,"state":"active","ping":84},{"user_id":96,"name":"Arnas445","steam_id":76561198148377210,"connected_time":7865000000000,"state":"active","ping":73},{"user_id":175,"name":"TheEventGuy","steam_id":76561197972797744,"connected_time":3278000000000,"state":"active","ping":67},{"user_id":180,"name":"H2n9","steam_id":76561198055811259,"connected_time":2815000000000,"state":"active","ping":69},{"user_id":119,"name":"yush","steam_id":76561198121688934,"connected_time":6315000000000,"state":"active","ping":74},{"user_id":191,"name":"Vectillion","steam_id":76561198074292454,"connected_time":1272000000000,"state":"active","ping":77},{"user_id":196,"name":"Archive","steam_id":76561198071255385,"connected_time":1066000000000,"state":"active","ping":85},{"user_id":195,"name":"Watermelon","steam_id":76561198078349914,"connected_time":1182000000000,"state":"active","ping":65},{"user_id":177,"name":"Dandroid7","steam_id":76561198947673092,"connected_time":3004000000000,"state":"active","ping":50},{"user_id":200,"name":"i have no ass but i must shit","steam_id":76561198326382938,"connected_time":861000000000,"state":"active","ping":61},{"user_id":187,"name":"Urfangonultasadana","steam_id":76561199389286151,"connected_time":2444000000000,"state":"active","ping":99},{"user_id":182,"name":"chair 2.0","steam_id":76561199233470150,"connected_time":2786000000000,"state":"active","ping":62},{"user_id":208,"name":"Genesis","steam_id":76561198999652040,"connected_time":289000000000,"state":"active","ping":44},{"user_id":183,"name":"dylu","steam_id":76561199127788008,"connected_time":2760000000000,"state":"active","ping":72},{"user_id":189,"name":"Flared","steam_id":76561198018673136,"connected_time":1872000000000,"state":"active","ping":75},{"user_id":204,"name":"LemonLeCitron","steam_id":76561198215545267,"connected_time":777000000000,"state":"active","ping":86},{"user_id":185,"name":"d u k k i","steam_id":76561198071807437,"connected_time":2708000000000,"state":"active","ping":81},{"user_id":209,"name":"üóªüé¥Hadrian Maloneüé¥üóª","steam_id":76561198036151103,"connected_time":279000000000,"state":"active","ping":58},{"user_id":199,"name":"Cheese","steam_id":76561198146419076,"connected_time":1002000000000,"state":"active","ping":74}]},{"server_id":311,"name":"Uncletopia | Frankfurt | 6 | All Maps","name_short":"frk-6","host":"frk-1.de.uncletopia.com","port":27065,"enabled":true,"region":"eu","cc":"de","latitude":50.110924,"longitude":8.682127,"reserved":0,"last_update":"0001-01-01T00:00:00Z","name_a2s":"Uncletopia | Frankfurt | 6 | All Maps","protocol":17,"map":"pl_badwater","folder":"tf","game":"Team Fortress","app_id":440,"player_count":22,"max_players":24,"Bots":0,"server_type":"Dedicated","server_os":"Linux","password":true,"vac":true,"version":"7961495","steam_id":85568392924504278,"keywords":["nocrits","nodmgspread","payload","uncletopia"],"game_id":440,"stv_port":27066,"stv_name":"Uncletopia | Frankfurt | 6 | All Maps | STV","players":[{"user_id":387,"name":"oriano","steam_id":76561198099916327,"connected_time":16000000000,"state":"active","ping":62},{"user_id":309,"name":"–î–∂–µ–∫–µ—Ç","steam_id":76561198327897125,"connected_time":6367000000000,"state":"spawning","ping":90},{"user_id":383,"name":"cristian@shokaaru","steam_id":76561198384374872,"connected_time":496000000000,"state":"spawning","ping":76},{"user_id":364,"name":"ZerCroix","steam_id":76561198199523226,"connected_time":1634000000000,"state":"active","ping":68},{"user_id":388,"name":"Monkey Brain","steam_id":76561199098984554,"connected_time":10000000000,"state":"spawning","ping":62},{"user_id":355,"name":"concussion gaming","steam_id":76561198425494530,"connected_time":1834000000000,"state":"active","ping":121},{"user_id":297,"name":"Xeno","steam_id":76561198975556646,"connected_time":6768000000000,"state":"active","ping":62},{"user_id":367,"name":"Erection Man","steam_id":76561198021714542,"connected_time":1417000000000,"state":"active","ping":62},{"user_id":378,"name":"Jabussy","steam_id":76561198111148719,"connected_time":712000000000,"state":"active","ping":69},{"user_id":357,"name":"[SQ UA] MartianDill","steam_id":76561198405382822,"connected_time":1818000000000,"state":"active","ping":117},{"user_id":389,"name":"Mulle Meck","steam_id":76561198088124509,"connected_time":0,"state":"spawning","ping":52},{"user_id":377,"name":"Kocham Wode z Filtra","steam_id":76561198016042113,"connected_time":1086000000000,"state":"active","ping":79},{"user_id":359,"name":"Nobody","steam_id":76561198151116796,"connected_time":1785000000000,"state":"spawning","ping":77},{"user_id":361,"name":"Berdly","steam_id":76561199029872533,"connected_time":1728000000000,"state":"spawning","ping":72},{"user_id":326,"name":"aisu","steam_id":76561198043768507,"connected_time":4038000000000,"state":"active","ping":172},{"user_id":362,"name":"Pan Pan","steam_id":76561199074670515,"connected_time":1699000000000,"state":"spawning","ping":94},{"user_id":365,"name":"Uncle Moomin","steam_id":76561198011628656,"connected_time":1626000000000,"state":"active","ping":87},{"user_id":366,"name":"‚úôSt0rmC4st3r‚úô","steam_id":76561198079841728,"connected_time":1598000000000,"state":"active","ping":75},{"user_id":379,"name":"I pooped on the pope","steam_id":76561198388750592,"connected_time":689000000000,"state":"spawning","ping":65},{"user_id":374,"name":"Nanope","steam_id":76561198040056071,"connected_time":1229000000000,"state":"active","ping":65},{"user_id":371,"name":"RatJam","steam_id":76561199030279432,"connected_time":1357000000000,"state":"active","ping":102},{"user_id":372,"name":"gnarly business","steam_id":76561198832688767,"connected_time":1309000000000,"state":"active","ping":51}]},{"server_id":23,"name":"Uncletopia | Frankfurt | 7 | Stopwatch Beta","name_short":"frk-7","host":"frk-1.de.uncletopia.com","port":27075,"enabled":true,"region":"eu","cc":"de","latitude":50.110924,"longitude":8.682127,"reserved":0,"last_update":"0001-01-01T00:00:00Z","name_a2s":"Uncletopia | Frankfurt | 7 | Stopwatch Beta","protocol":17,"map":"workshop/koth_ramjam_rc1.ugc459778887","folder":"tf","game":"Team Fortress","app_id":440,"player_count":0,"max_players":24,"Bots":0,"server_type":"Dedicated","server_os":"Linux","password":true,"vac":true,"version":"7961495","steam_id":85568392924742827,"keywords":["cp","nocrits","nodmgspread","uncletopia"],"game_id":440,"stv_port":27076,"stv_name":"Uncletopia | Frankfurt | 7 | Stopwatch Beta | STV","players":null},{"server_id":24,"name":"Uncletopia | Frankfurt | 8 | Community","name_short":"frk-8","host":"frk-1.de.uncletopia.com","port":27085,"enabled":true,"region":"eu","cc":"de","latitude":50.110924,"longitude":8.682127,"reserved":0,"last_update":"0001-01-01T00:00:00Z","name_a2s":"Uncletopia | Frankfurt | 8 | Community","protocol":17,"map":"workshop/koth_kemptown_rc1.ugc767410655","folder":"tf","game":"Team Fortress","app_id":440,"player_count":0,"max_players":24,"Bots":0,"server_type":"Dedicated","server_os":"Linux","password":true,"vac":true,"version":"7961495","steam_id":85568392924742828,"keywords":["cp","nocrits","nodmgspread","uncletopia"],"game_id":440,"stv_port":27086,"stv_name":"Uncletopia | Frankfurt | 8 | Community | STV","players":null},{"server_id":202,"name":"Uncletopia | Hong Kong | 1 | All Maps","name_short":"hgk-1","host":"hgk-1.hk.uncletopia.com","port":27015,"enabled":true,"region":"asia","cc":"hk","latitude":22.302711,"longitude":114.177216,"reserved":0,"last_update":"0001-01-01T00:00:00Z","name_a2s":"Uncletopia | Hong Kong | 1 | All Maps","protocol":17,"map":"ctf_doublecross","folder":"tf","game":"Team Fortress","app_id":440,"player_count":7,"max_players":24,"Bots":0,"server_type":"Dedicated","server_os":"Linux","password":true,"vac":true,"version":"7961495","steam_id":85568392924494504,"keywords":["ctf","nocrits","nodmgspread","uncletopia"],"game_id":440,"stv_port":27016,"stv_name":"Uncletopia | Hong Kong | 1 | All Maps | STV","players":[{"user_id":508,"name":"transracial","steam_id":76561198404032043,"connected_time":521000000000,"state":"active","ping":79},{"user_id":484,"name":"coolguy71","steam_id":76561198367056944,"connected_time":3148000000000,"state":"active","ping":93},{"user_id":448,"name":"Kurtie","steam_id":76561198144737876,"connected_time":7473000000000,"state":"active","ping":61},{"user_id":507,"name":"Pineapple_Main‚Ñ¢ / trade.tf","steam_id":76561199221463323,"connected_time":737000000000,"state":"active","ping":65},{"user_id":493,"name":"infra","steam_id":76561198924576271,"connected_time":2458000000000,"state":"active","ping":88},{"user_id":479,"name":"Water Buffalo","steam_id":76561198200672038,"connected_time":3672000000000,"state":"active","ping":89},{"user_id":475,"name":"Duck Gaming","steam_id":76561199233387593,"connected_time":3910000000000,"state":"active","ping":83}]},{"server_id":1,"name":"Uncletopia | Los Angeles | 1 | All Maps","name_short":"lax-1","host":"lax-1.us.uncletopia.com","port":27015,"enabled":true,"region":"us-west","cc":"us","latitude":33.94279,"longitude":-118.41004,"reserved":0,"last_update":"0001-01-01T00:00:00Z","name_a2s":"Uncletopia | Los Angeles | 1 | All Maps","protocol":17,"map":"pl_pier","folder":"tf","game":"Team Fortress","app_id":440,"player_count":24,"max_players":24,"Bots":0,"server_type":"Dedicated","server_os":"Linux","password":true,"vac":true,"version":"7961495","steam_id":85568392924469991,"keywords":["nocrits","nodmgspread","payload","uncletopia"],"game_id":440,"stv_port":27016,"stv_name":"Uncletopia | Los Angeles | 1 | All Maps | STV","players":[{"user_id":140,"name":"dillpickle","steam_id":76561198156957191,"connected_time":5411000000000,"state":"active","ping":74},{"user_id":160,"name":"jacix3 [silly doggie :3]","steam_id":76561198205004165,"connected_time":3834000000000,"state":"active","ping":91},{"user_id":190,"name":"awesomebrololo","steam_id":76561198374283489,"connected_time":1575000000000,"state":"active","ping":105},{"user_id":174,"name":"Manx","steam_id":76561197977134062,"connected_time":3001000000000,"state":"active","ping":71},{"user_id":193,"name":"Rabblerouser","steam_id":76561198127930963,"connected_time":928000000000,"state":"active","ping":91},{"user_id":194,"name":"rapscallion :C","steam_id":76561198188722751,"connected_time":844000000000,"state":"active","ping":50},{"user_id":183,"name":"Cinnamon","steam_id":76561198801251513,"connected_time":2342000000000,"state":"active","ping":67},{"user_id":143,"name":"Buswolley","steam_id":76561197995205571,"connected_time":5323000000000,"state":"active","ping":58},{"user_id":163,"name":"Bree-chan","steam_id":76561198025193389,"connected_time":3784000000000,"state":"active","ping":120},{"user_id":189,"name":"damn pirates","steam_id":76561198131567365,"connected_time":1617000000000,"state":"active","ping":120},{"user_id":191,"name":"Vincent Van Bro","steam_id":76561197966919802,"connected_time":983000000000,"state":"active","ping":90},{"user_id":176,"name":"Jeffrey","steam_id":76561199003107869,"connected_time":2735000000000,"state":"active","ping":60},{"user_id":184,"name":"zinnk","steam_id":76561198092081825,"connected_time":2339000000000,"state":"active","ping":50},{"user_id":64,"name":"Jimmy","steam_id":76561198857959855,"connected_time":12817000000000,"state":"active","ping":41},{"user_id":172,"name":"Paprika","steam_id":76561198412628892,"connected_time":3301000000000,"state":"active","ping":112},{"user_id":195,"name":"Rappitor","steam_id":76561198105613110,"connected_time":839000000000,"state":"active","ping":111},{"user_id":196,"name":"supa mario irl","steam_id":76561198313364985,"connected_time":825000000000,"state":"active","ping":148},{"user_id":185,"name":"ShadowDragon0125","steam_id":76561198343849022,"connected_time":2337000000000,"state":"active","ping":85},{"user_id":158,"name":"BlazedBunny","steam_id":76561198243610560,"connected_time":4146000000000,"state":"active","ping":108},{"user_id":197,"name":"Keamy","steam_id":76561199471434875,"connected_time":823000000000,"state":"active","ping":74},{"user_id":192,"name":"Truffle","steam_id":76561198074327454,"connected_time":983000000000,"state":"active","ping":60},{"user_id":151,"name":"Cool Paunch","steam_id":76561198356308348,"connected_time":5010000000000,"state":"active","ping":62},{"user_id":199,"name":"Chaplin the grinch that stole c","steam_id":76561198160369788,"connected_time":631000000000,"state":"active","ping":74},{"user_id":47,"name":"ozbulu","steam_id":76561198067176829,"connected_time":14443000000000,"state":"active","ping":51}]},{"server_id":112,"name":"Uncletopia | Los Angeles | 2 | All Maps","name_short":"lax-2","host":"lax-1.us.uncletopia.com","port":27025,"enabled":true,"region":"us-west","cc":"us","latitude":33.94279,"longitude":-118.41004,"reserved":0,"last_update":"0001-01-01T00:00:00Z","name_a2s":"Uncletopia | Los Angeles | 2 | All Maps","protocol":17,"map":"pl_borneo","folder":"tf","game":"Team Fortress","app_id":440,"player_count":0,"max_players":24,"Bots":0,"server_type":"Dedicated","server_os":"Linux","password":true,"vac":true,"version":"7961495","steam_id":85568392924469992,"keywords":["nocrits","nodmgspread","payload","uncletopia"],"game_id":440,"stv_port":27026,"stv_name":"Uncletopia | Los Angeles | 2 | All Maps | STV","players":null},{"server_id":324,"name":"Uncletopia | Los Angeles | 3 | All Maps","name_short":"lax-3","host":"lax-1.us.uncletopia.com","port":27035,"enabled":true,"region":"us-west","cc":"us","latitude":33.94279,"longitude":-118.41004,"reserved":0,"last_update":"0001-01-01T00:00:00Z","name_a2s":"Uncletopia | Los Angeles | 3 | All Maps","protocol":17,"map":"cp_process_final","folder":"tf","game":"Team Fortress","app_id":440,"player_count":0,"max_players":24,"Bots":0,"server_type":"Dedicated","server_os":"Linux","password":true,"vac":true,"version":"7961495","steam_id":85568392924510198,"keywords":["cp","nocrits","nodmgspread","uncletopia"],"game_id":440,"stv_port":27036,"stv_name":"Uncletopia | Los Angeles | 3 | All Maps | STV","players":null},{"server_id":25,"name":"Uncletopia | Los Angeles | 4 | Stopwatch Beta","name_short":"lax-4","host":"lax-1.us.uncletopia.com","port":27045,"enabled":true,"region":"us-west","cc":"us","latitude":33.94279,"longitude":-118.41004,"reserved":0,"last_update":"0001-01-01T00:00:00Z","name_a2s":"Uncletopia | Los Angeles | 4 | Stopwatch Beta","protocol":17,"map":"pl_upward","folder":"tf","game":"Team Fortress","app_id":440,"player_count":0,"max_players":24,"Bots":0,"server_type":"Dedicated","server_os":"Linux","password":true,"vac":true,"version":"7961495","steam_id":85568392924510199,"keywords":["nocrits","nodmgspread","payload","uncletopia"],"game_id":440,"stv_port":27046,"stv_name":"Uncletopia | Los Angeles | 4 | Stopwatch Beta | STV","players":null},{"server_id":11,"name":"Uncletopia | London | 1 | All Maps","name_short":"lon-1","host":"lon-1.uk.uncletopia.com","port":27015,"enabled":true,"region":"eu","cc":"gb","latitude":51.509865,"longitude":-0.118092,"reserved":0,"last_update":"0001-01-01T00:00:00Z","name_a2s":"Uncletopia | London | 1 | All Maps","protocol":17,"map":"pl_barnblitz","folder":"tf","game":"Team Fortress","app_id":440,"player_count":24,"max_players":24,"Bots":0,"server_type":"Dedicated","server_os":"Linux","password":true,"vac":true,"version":"7961495","steam_id":85568392924367362,"keywords":["nocrits","nodmgspread","payload","uncletopia"],"game_id":440,"stv_port":27016,"stv_name":"Uncletopia | London | 1 | All Maps | STV","players":[{"user_id":402,"name":"T–Ωunde–≥Cu–ø—Ç","steam_id":76561198135091800,"connected_time":1020000000000,"state":"active","ping":47},{"user_id":366,"name":"Peakey The Bard","steam_id":76561198196607831,"connected_time":3670000000000,"state":"active","ping":55},{"user_id":378,"name":"Stan √Ålvarez (Satan)","steam_id":76561198045538223,"connected_time":2759000000000,"state":"active","ping":50},{"user_id":383,"name":"Blar","steam_id":76561198042438229,"connected_time":1942000000000,"state":"active","ping":57},{"user_id":389,"name":"WonderOfU","steam_id":76561199172036471,"connected_time":1440000000000,"state":"active","ping":67},{"user_id":384,"name":"john fortress","steam_id":76561198013237629,"connected_time":1897000000000,"state":"active","ping":92},{"user_id":351,"name":"SocialistBacon","steam_id":76561198055872267,"connected_time":4979000000000,"state":"active","ping":103},{"user_id":404,"name":"krayy (she/her)","steam_id":76561198035037830,"connected_time":990000000000,"state":"active","ping":49},{"user_id":408,"name":"‰∏ñÁïå‰∏äÊúÄÂèØÊÑõÁöÑË≤ì","steam_id":76561199042056825,"connected_time":336000000000,"state":"active","ping":72},{"user_id":353,"name":"MargoulGetron","steam_id":76561198020551698,"connected_time":4971000000000,"state":"active","ping":55},{"user_id":369,"name":"‚òÅ Lou1smeister ‚òÅ","steam_id":76561198004032968,"connected_time":3531000000000,"state":"active","ping":74},{"user_id":413,"name":"wormson","steam_id":76561198836754631,"connected_time":129000000000,"state":"active","ping":61},{"user_id":376,"name":"static","steam_id":76561198836825741,"connected_time":3047000000000,"state":"active","ping":61},{"user_id":406,"name":"breakfast burrito","steam_id":76561198148606969,"connected_time":602000000000,"state":"active","ping":72},{"user_id":403,"name":"Dr snuggles","steam_id":76561198151918102,"connected_time":1018000000000,"state":"active","ping":92},{"user_id":414,"name":"face beautiful lies","steam_id":76561198079277466,"connected_time":129000000000,"state":"active","ping":74},{"user_id":396,"name":"TheGreenDeity","steam_id":76561199160671312,"connected_time":1227000000000,"state":"active","ping":59},{"user_id":397,"name":"Atomiccorn","steam_id":76561198298316720,"connected_time":1223000000000,"state":"active","ping":65},{"user_id":398,"name":"JayD.VO","steam_id":76561198206148097,"connected_time":1208000000000,"state":"active","ping":56},{"user_id":370,"name":"Solus","steam_id":76561199486493777,"connected_time":3191000000000,"state":"active","ping":58},{"user_id":118,"name":"halow","steam_id":76561198061505163,"connected_time":23627000000000,"state":"active","ping":107},{"user_id":411,"name":"Lyra","steam_id":76561198043601838,"connected_time":284000000000,"state":"active","ping":70},{"user_id":372,"name":"Woman (Real)","steam_id":76561199151823932,"connected_time":3128000000000,"state":"active","ping":89}]},{"server_id":114,"name":"Uncletopia | London | 2 | All Maps","name_short":"lon-2","host":"lon-1.uk.uncletopia.com","port":27025,"enabled":true,"region":"eu","cc":"gb","latitude":51.509865,"longitude":-0.118092,"reserved":0,"last_update":"0001-01-01T00:00:00Z","name_a2s":"Uncletopia | London | 2 | All Maps","protocol":17,"map":"pl_badwater","folder":"tf","game":"Team Fortress","app_id":440,"player_count":24,"max_players":24,"Bots":0,"server_type":"Dedicated","server_os":"Linux","password":true,"vac":true,"version":"7961495","steam_id":85568392924470941,"keywords":["nocrits","nodmgspread","payload","uncletopia"],"game_id":440,"stv_port":27026,"stv_name":"Uncletopia | London | 2 | All Maps | STV","players":[{"user_id":280,"name":"crimson","steam_id":76561198208349835,"connected_time":147000000000,"state":"active","ping":75},{"user_id":250,"name":"yeldad","steam_id":76561198447264153,"connected_time":1393000000000,"state":"active","ping":118},{"user_id":265,"name":"Worm","steam_id":76561198296497176,"connected_time":893000000000,"state":"active","ping":56},{"user_id":273,"name":"stoneflower","steam_id":76561198046250873,"connected_time":520000000000,"state":"active","ping":77},{"user_id":279,"name":"mothra","steam_id":76561198028444359,"connected_time":349000000000,"state":"active","ping":46},{"user_id":249,"name":"mel","steam_id":76561198215559840,"connected_time":1424000000000,"state":"active","ping":141},{"user_id":285,"name":"SpleenEater","steam_id":76561198086062136,"connected_time":96000000000,"state":"active","ping":118},{"user_id":240,"name":"Twiggu","steam_id":76561198070853128,"connected_time":2169000000000,"state":"active","ping":82},{"user_id":258,"name":"Princess Peach","steam_id":76561198260272240,"connected_time":1115000000000,"state":"active","ping":46},{"user_id":241,"name":"Epexegeticus","steam_id":76561198164545360,"connected_time":2102000000000,"state":"active","ping":71},{"user_id":281,"name":"SaltyPig","steam_id":76561198213643013,"connected_time":111000000000,"state":"active","ping":57},{"user_id":260,"name":"Sorky","steam_id":76561198007502339,"connected_time":1026000000000,"state":"active","ping":74},{"user_id":268,"name":"tilgep","steam_id":76561198125585734,"connected_time":776000000000,"state":"active","ping":48},{"user_id":256,"name":"Kapitan Polska","steam_id":76561197968069413,"connected_time":1269000000000,"state":"active","ping":88},{"user_id":263,"name":"AlexioFanny","steam_id":76561198840918851,"connected_time":962000000000,"state":"active","ping":71},{"user_id":264,"name":"crosshair 0","steam_id":76561198002451113,"connected_time":948000000000,"state":"active","ping":105},{"user_id":282,"name":"sniper monkey bozo baby","steam_id":76561198107220903,"connected_time":109000000000,"state":"active","ping":62},{"user_id":283,"name":"electro","steam_id":76561198024536979,"connected_time":106000000000,"state":"active","ping":83},{"user_id":214,"name":"Aven","steam_id":76561198974343597,"connected_time":3985000000000,"state":"active","ping":89},{"user_id":278,"name":"Michael","steam_id":76561198003146906,"connected_time":369000000000,"state":"active","ping":47},{"user_id":284,"name":"buddy","steam_id":76561197988733568,"connected_time":105000000000,"state":"active","ping":62},{"user_id":218,"name":"Wario","steam_id":76561198356089255,"connected_time":3794000000000,"state":"active","ping":72},{"user_id":276,"name":"i love fent","steam_id":76561199444971686,"connected_time":487000000000,"state":"active","ping":49},{"user_id":272,"name":"Osqq :s","steam_id":76561198075465106,"connected_time":712000000000,"state":"active","ping":93}]},{"server_id":320,"name":"Uncletopia | London | 3 | All Maps","name_short":"lon-3","host":"lon-1.uk.uncletopia.com","port":27035,"enabled":true,"region":"eu","cc":"gb","latitude":51.509865,"longitude":-0.118092,"reserved":0,"last_update":"0001-01-01T00:00:00Z","name_a2s":"Uncletopia | London | 3 | All Maps","protocol":17,"map":"pl_badwater","folder":"tf","game":"Team Fortress","app_id":440,"player_count":24,"max_players":24,"Bots":0,"server_type":"Dedicated","server_os":"Linux","password":true,"vac":true,"version":"7961495","steam_id":85568392924510192,"keywords":["nocrits","nodmgspread","payload","uncletopia"],"game_id":440,"stv_port":27036,"stv_name":"Uncletopia | London | 3 | All Maps | STV","players":[{"user_id":23,"name":"ran is running","steam_id":76561199443185667,"connected_time":4577000000000,"state":"active","ping":126},{"user_id":30,"name":"RealManiHACK","steam_id":76561198408081068,"connected_time":2269000000000,"state":"active","ping":70},{"user_id":57,"name":"Eith__","steam_id":76561198164775785,"connected_time":1498000000000,"state":"active","ping":60},{"user_id":68,"name":"Sicko Mode (Chris Pratt Cover)","steam_id":76561198315786174,"connected_time":672000000000,"state":"active","ping":130},{"user_id":64,"name":"H-DOOM FAN","steam_id":76561198927046161,"connected_time":920000000000,"state":"active","ping":63},{"user_id":29,"name":"Barneeyy","steam_id":76561198252413532,"connected_time":2332000000000,"state":"active","ping":60},{"user_id":67,"name":"RazorsEdge","steam_id":76561198006549279,"connected_time":731000000000,"state":"active","ping":58},{"user_id":32,"name":"Tammrock","steam_id":76561198029322294,"connected_time":2253000000000,"state":"active","ping":74},{"user_id":33,"name":"Onion Drugs","steam_id":76561198441194331,"connected_time":2251000000000,"state":"active","ping":107},{"user_id":34,"name":"RistleyPristley","steam_id":76561198129583229,"connected_time":2174000000000,"state":"active","ping":85},{"user_id":48,"name":"Littleyoshifan","steam_id":76561198445491045,"connected_time":1811000000000,"state":"active","ping":41},{"user_id":71,"name":"GEP Gun","steam_id":76561197981821003,"connected_time":194000000000,"state":"active","ping":58},{"user_id":45,"name":"joni","steam_id":76561198048957139,"connected_time":1843000000000,"state":"active","ping":61},{"user_id":74,"name":"laza's boy","steam_id":76561199074095198,"connected_time":83000000000,"state":"active","ping":110},{"user_id":72,"name":"Wolframen","steam_id":76561198074103958,"connected_time":144000000000,"state":"active","ping":61},{"user_id":65,"name":"Nekard","steam_id":76561199055501351,"connected_time":829000000000,"state":"active","ping":74},{"user_id":73,"name":"--CPT-KIDD--","steam_id":76561199123908037,"connected_time":120000000000,"state":"active","ping":72},{"user_id":60,"name":"Vel0city","steam_id":76561198049687798,"connected_time":1318000000000,"state":"active","ping":58},{"user_id":47,"name":"Tampon Lollipop","steam_id":76561198042593027,"connected_time":1824000000000,"state":"active","ping":97},{"user_id":63,"name":"balanced diet","steam_id":76561198240320806,"connected_time":963000000000,"state":"active","ping":75},{"user_id":53,"name":"Mimpy","steam_id":76561198040422830,"connected_time":1586000000000,"state":"active","ping":45},{"user_id":75,"name":"Commander DM","steam_id":76561198059236770,"connected_time":83000000000,"state":"active","ping":87},{"user_id":56,"name":"logan.dykins09","steam_id":76561199143456682,"connected_time":1533000000000,"state":"active","ping":55},{"user_id":76,"name":"minitel","steam_id":76561198056336216,"connected_time":83000000000,"state":"active","ping":50}]},{"server_id":321,"name":"Uncletopia | London | 4 | All Maps","name_short":"lon-4","host":"lon-1.uk.uncletopia.com","port":27045,"enabled":true,"region":"eu","cc":"gb","latitude":51.509865,"longitude":-0.118092,"reserved":0,"last_update":"0001-01-01T00:00:00Z","name_a2s":"Uncletopia | London | 4 | All Maps","protocol":17,"map":"pl_badwater","folder":"tf","game":"Team Fortress","app_id":440,"player_count":24,"max_players":24,"Bots":0,"server_type":"Dedicated","server_os":"Linux","password":true,"vac":true,"version":"7961495","steam_id":85568392924510193,"keywords":["nocrits","nodmgspread","payload","uncletopia"],"game_id":440,"stv_port":27046,"stv_name":"Uncletopia | London | 4 | All Maps | STV","players":[{"user_id":458,"name":"alien","steam_id":76561197968892194,"connected_time":389000000000,"state":"active","ping":47},{"user_id":391,"name":"vladthelad","steam_id":76561199295290233,"connected_time":3016000000000,"state":"active","ping":41},{"user_id":423,"name":"TerminatorBg","steam_id":76561199025396620,"connected_time":2070000000000,"state":"active","ping":86},{"user_id":383,"name":"Remyie","steam_id":76561198131031404,"connected_time":3543000000000,"state":"active","ping":97},{"user_id":456,"name":"Mr.Schnittlauch","steam_id":76561198295868113,"connected_time":414000000000,"state":"active","ping":63},{"user_id":404,"name":"Ross from F.R.I.E.N.D.S.","steam_id":76561198008511665,"connected_time":2510000000000,"state":"active","ping":57},{"user_id":427,"name":"Chambersite","steam_id":76561198197022399,"connected_time":1513000000000,"state":"active","ping":73},{"user_id":424,"name":"Ivitheking","steam_id":76561199039001932,"connected_time":2052000000000,"state":"active","ping":72},{"user_id":446,"name":"Auragen","steam_id":76561198085801798,"connected_time":620000000000,"state":"active","ping":54},{"user_id":408,"name":"FamilyMan","steam_id":76561198064115286,"connected_time":2468000000000,"state":"active","ping":69},{"user_id":457,"name":"Lwyz016","steam_id":76561199164626058,"connected_time":413000000000,"state":"active","ping":83},{"user_id":447,"name":"ConnorShirt","steam_id":76561198426574365,"connected_time":530000000000,"state":"active","ping":161},{"user_id":406,"name":"Joe","steam_id":76561198061717026,"connected_time":2489000000000,"state":"active","ping":45},{"user_id":401,"name":"Surry Fex","steam_id":76561198090586031,"connected_time":2726000000000,"state":"active","ping":89},{"user_id":418,"name":"French Obama","steam_id":76561198043928185,"connected_time":2266000000000,"state":"active","ping":64},{"user_id":403,"name":"Homicidal Tendencies","steam_id":76561198828681043,"connected_time":2609000000000,"state":"active","ping":47},{"user_id":429,"name":"Sylvanas","steam_id":76561198154904165,"connected_time":1054000000000,"state":"active","ping":104},{"user_id":455,"name":"√áodar","steam_id":76561198235518444,"connected_time":435000000000,"state":"active","ping":42},{"user_id":460,"name":"Not Merasmus","steam_id":76561198070137469,"connected_time":1000000000,"state":"spawning","ping":55},{"user_id":412,"name":"Walle","steam_id":76561197995148937,"connected_time":2373000000000,"state":"active","ping":76},{"user_id":413,"name":"‚ù§G a n K","steam_id":76561199125995565,"connected_time":2335000000000,"state":"active","ping":73},{"user_id":425,"name":"Curls","steam_id":76561198079039937,"connected_time":1653000000000,"state":"active","ping":65},{"user_id":422,"name":"Pepe","steam_id":76561199029488326,"connected_time":2144000000000,"state":"active","ping":84},{"user_id":453,"name":"Dr ADHD MD","steam_id":76561198025252995,"connected_time":453000000000,"state":"active","ping":51}]},{"server_id":21,"name":"Uncletopia | London | 5 | All Maps","name_short":"lon-5","host":"lon-1.uk.uncletopia.com","port":27055,"enabled":true,"region":"eu","cc":"gb","latitude":51.509865,"longitude":-0.118092,"reserved":0,"last_update":"0001-01-01T00:00:00Z","name_a2s":"Uncletopia | London | 5 | All Maps","protocol":17,"map":"pl_borneo","folder":"tf","game":"Team Fortress","app_id":440,"player_count":5,"max_players":24,"Bots":0,"server_type":"Dedicated","server_os":"Linux","password":true,"vac":true,"version":"7961495","steam_id":85568392924742829,"keywords":["nocrits","nodmgspread","payload","uncletopia"],"game_id":440,"stv_port":27056,"stv_name":"Uncletopia | London | 5 | All Maps | STV","players":[{"user_id":15,"name":"josemanuel","steam_id":76561198356171214,"connected_time":1550000000000,"state":"active","ping":265},{"user_id":18,"name":"armadillo","steam_id":76561198324656652,"connected_time":184000000000,"state":"active","ping":49},{"user_id":14,"name":"Hayds Gaming","steam_id":76561199461851882,"connected_time":1640000000000,"state":"active","ping":55},{"user_id":17,"name":"MrNikeythor","steam_id":76561198210907841,"connected_time":1234000000000,"state":"active","ping":235},{"user_id":19,"name":"‚ô•‚ô•TGA‚ô•‚ô•","steam_id":76561198853016656,"connected_time":70000000000,"state":"active","ping":60}]},{"server_id":22,"name":"Uncletopia | London | 6 | All Maps","name_short":"lon-6","host":"lon-1.uk.uncletopia.com","port":27065,"enabled":true,"region":"eu","cc":"gb","latitude":51.509865,"longitude":-0.118092,"reserved":0,"last_update":"0001-01-01T00:00:00Z","name_a2s":"Uncletopia | London | 6 | All Maps","protocol":17,"map":"cp_process_final","folder":"tf","game":"Team Fortress","app_id":440,"player_count":21,"max_players":24,"Bots":0,"server_type":"Dedicated","server_os":"Linux","password":true,"vac":true,"version":"7961495","steam_id":85568392924742830,"keywords":["cp","nocrits","nodmgspread","uncletopia"],"game_id":440,"stv_port":27066,"stv_name":"Uncletopia | London | 6 | All Maps | STV","players":[{"user_id":342,"name":"MagusCubed","steam_id":76561198083973944,"connected_time":1313000000000,"state":"active","ping":46},{"user_id":330,"name":"MovingIsOverRated","steam_id":76561198385633292,"connected_time":2171000000000,"state":"active","ping":159},{"user_id":341,"name":"ABC555ABC666ABC555","steam_id":76561197995676953,"connected_time":1345000000000,"state":"active","ping":45},{"user_id":243,"name":"Podge","steam_id":76561199077425079,"connected_time":7017000000000,"state":"active","ping":55},{"user_id":363,"name":"Proud Jojo Fan #TF2SP","steam_id":76561198847327216,"connected_time":116000000000,"state":"active","ping":68},{"user_id":284,"name":"IndigoJones","steam_id":76561198050284262,"connected_time":5007000000000,"state":"active","ping":45},{"user_id":340,"name":"[T]aKer","steam_id":76561198001778013,"connected_time":1557000000000,"state":"active","ping":46},{"user_id":364,"name":"Inderland","steam_id":76561198109563740,"connected_time":91000000000,"state":"active","ping":67},{"user_id":329,"name":"Pantroglodytestherapy","steam_id":76561198236015392,"connected_time":2448000000000,"state":"active","ping":114},{"user_id":351,"name":"Bottle O' Scrumpy","steam_id":76561199244250562,"connected_time":848000000000,"state":"active","ping":82},{"user_id":365,"name":"Davey","steam_id":76561198256879107,"connected_time":35000000000,"state":"active","ping":80},{"user_id":357,"name":"Fran","steam_id":76561199070516960,"connected_time":635000000000,"state":"active","ping":76},{"user_id":366,"name":"Œ© Original Œ©","steam_id":76561198048038191,"connected_time":34000000000,"state":"active","ping":63},{"user_id":367,"name":"Purple Soup :D","steam_id":76561198985100366,"connected_time":34000000000,"state":"active","ping":95},{"user_id":324,"name":"Son Goku","steam_id":76561199383437138,"connected_time":3168000000000,"state":"active","ping":119},{"user_id":299,"name":"akakez","steam_id":76561198095432821,"connected_time":4389000000000,"state":"active","ping":114},{"user_id":368,"name":"ElTamagoshi","steam_id":76561198419143622,"connected_time":4000000000,"state":"spawning","ping":74},{"user_id":337,"name":"Ch4bby","steam_id":76561198058792875,"connected_time":1626000000000,"state":"active","ping":57},{"user_id":361,"name":"SuntanPikachu","steam_id":76561198121242476,"connected_time":427000000000,"state":"active","ping":61},{"user_id":353,"name":"shadow wizard money gang","steam_id":76561199062586342,"connected_time":769000000000,"state":"active","ping":56},{"user_id":362,"name":"Szeregowy LowiRyb","steam_id":76561198855967762,"connected_time":218000000000,"state":"active","ping":99}]},{"server_id":40,"name":"Uncletopia | London | 7 | No Payload","name_short":"lon-7","host":"lon-1.uk.uncletopia.com","port":27075,"enabled":true,"region":"eu","cc":"gb","latitude":51.509865,"longitude":-0.118092,"reserved":0,"last_update":"0001-01-01T00:00:00Z","name_a2s":"Uncletopia | London | 7 | No Payload","protocol":17,"map":"koth_brazil","folder":"tf","game":"Team Fortress","app_id":440,"player_count":0,"max_players":24,"Bots":0,"server_type":"Dedicated","server_os":"Linux","password":true,"vac":true,"version":"7961495","steam_id":85568392924964314,"keywords":["cp","nocrits","nodmgspread","uncletopia"],"game_id":440,"stv_port":27076,"stv_name":"Uncletopia | London | 7 | No Payload | STV","players":null},{"server_id":41,"name":"Uncletopia | London | 8 | Community","name_short":"lon-8","host":"lon-1.uk.uncletopia.com","port":27085,"enabled":true,"region":"eu","cc":"gb","latitude":51.509865,"longitude":-0.118092,"reserved":0,"last_update":"0001-01-01T00:00:00Z","name_a2s":"Uncletopia | London | 8 | Community","protocol":17,"map":"workshop/cp_glacier_rc6.ugc2905735376","folder":"tf","game":"Team Fortress","app_id":440,"player_count":0,"max_players":24,"Bots":0,"server_type":"Dedicated","server_os":"Linux","password":true,"vac":true,"version":"7961495","steam_id":85568392924964315,"keywords":["cp","nocrits","nodmgspread","uncletopia"],"game_id":440,"stv_port":27086,"stv_name":"Uncletopia | London | 8 | Community | STV","players":null},{"server_id":300,"name":"Uncletopia | Montr√©al | 1 | All Maps","name_short":"mtl-1","host":"mtl-1.ca.uncletopia.com","port":27015,"enabled":true,"region":"us-east","cc":"ca","latitude":45.50889,"longitude":-73.56167,"reserved":0,"last_update":"0001-01-01T00:00:00Z","name_a2s":"","protocol":0,"map":"","folder":"","game":"","app_id":0,"player_count":0,"max_players":0,"Bots":0,"server_type":"","server_os":"","password":false,"vac":false,"version":"","steam_id":0,"keywords":null,"game_id":0,"stv_port":0,"stv_name":"","players":null},{"server_id":301,"name":"Uncletopia | Montr√©al | 2 | All Maps","name_short":"mtl-2","host":"mtl-1.ca.uncletopia.com","port":27025,"enabled":true,"region":"us-east","cc":"ca","latitude":45.50889,"longitude":-73.56167,"reserved":0,"last_update":"0001-01-01T00:00:00Z","name_a2s":"","protocol":0,"map":"","folder":"","game":"","app_id":0,"player_count":0,"max_players":0,"Bots":0,"server_type":"","server_os":"","password":false,"vac":false,"version":"","steam_id":0,"keywords":null,"game_id":0,"stv_port":0,"stv_name":"","players":null},{"server_id":302,"name":"Uncletopia | Montr√©al | 3 | All Maps","name_short":"mtl-3","host":"mtl-1.ca.uncletopia.com","port":27035,"enabled":true,"region":"us-east","cc":"ca","latitude":45.50889,"longitude":-73.56167,"reserved":0,"last_update":"0001-01-01T00:00:00Z","name_a2s":"","protocol":0,"map":"","folder":"","game":"","app_id":0,"player_count":0,"max_players":0,"Bots":0,"server_type":"","server_os":"","password":false,"vac":false,"version":"","steam_id":0,"keywords":null,"game_id":0,"stv_port":0,"stv_name":"","players":null},{"server_id":303,"name":"Uncletopia | Montr√©al | 4 | No Payload","name_short":"mtl-4","host":"mtl-1.ca.uncletopia.com","port":27045,"enabled":true,"region":"us-east","cc":"ca","latitude":45.50889,"longitude":-73.56167,"reserved":0,"last_update":"0001-01-01T00:00:00Z","name_a2s":"","protocol":0,"map":"","folder":"","game":"","app_id":0,"player_count":0,"max_players":0,"Bots":0,"server_type":"","server_os":"","password":false,"vac":false,"version":"","steam_id":0,"keywords":null,"game_id":0,"stv_port":0,"stv_name":"","players":null},{"server_id":13,"name":"Uncletopia | New York City | 1 | All Maps","name_short":"nyc-1","host":"nyc-1.us.uncletopia.com","port":27015,"enabled":true,"region":"us-east","cc":"us","latitude":40.73061,"longitude":-73.93524,"reserved":0,"last_update":"0001-01-01T00:00:00Z","name_a2s":"Uncletopia | New York City | 1 | All Maps","protocol":17,"map":"koth_harvest_final","folder":"tf","game":"Team Fortress","app_id":440,"player_count":24,"max_players":24,"Bots":0,"server_type":"Dedicated","server_os":"Linux","password":true,"vac":true,"version":"7961495","steam_id":85568392924469993,"keywords":["cp","nocrits","nodmgspread","uncletopia"],"game_id":440,"stv_port":27016,"stv_name":"Uncletopia | New York City | 1 | All Maps | STV","players":[{"user_id":78,"name":"PackingPeanutt :]","steam_id":76561199053229413,"connected_time":6853000000000,"state":"active","ping":84},{"user_id":112,"name":"El Bondin","steam_id":76561198820792434,"connected_time":4056000000000,"state":"active","ping":104},{"user_id":152,"name":"Sire Salty","steam_id":76561198079639072,"connected_time":958000000000,"state":"active","ping":50},{"user_id":127,"name":"TATARA","steam_id":76561199098759517,"connected_time":2615000000000,"state":"active","ping":102},{"user_id":146,"name":"Daddy Topps","steam_id":76561198203594332,"connected_time":1710000000000,"state":"active","ping":105},{"user_id":138,"name":"flamingdorit0s","steam_id":76561198869206247,"connected_time":2505000000000,"state":"active","ping":149},{"user_id":147,"name":"meinsword","steam_id":76561198272653535,"connected_time":1516000000000,"state":"active","ping":53},{"user_id":133,"name":"john01k","steam_id":76561198059731548,"connected_time":2571000000000,"state":"active","ping":92},{"user_id":124,"name":"Snugboo","steam_id":76561198147970327,"connected_time":3289000000000,"state":"active","ping":45},{"user_id":126,"name":"Aaron","steam_id":76561198091157802,"connected_time":2955000000000,"state":"active","ping":50},{"user_id":153,"name":"cowboy","steam_id":76561199079124758,"connected_time":905000000000,"state":"active","ping":82},{"user_id":87,"name":"Hope","steam_id":76561199182558088,"connected_time":6087000000000,"state":"active","ping":89},{"user_id":131,"name":"frig","steam_id":76561198436177465,"connected_time":2599000000000,"state":"active","ping":42},{"user_id":154,"name":"Major Depression","steam_id":76561198018103878,"connected_time":862000000000,"state":"active","ping":55},{"user_id":120,"name":"1-800-GHOST-DANCE","steam_id":76561198835430429,"connected_time":3603000000000,"state":"active","ping":66},{"user_id":134,"name":"Cervid√©","steam_id":76561198098579497,"connected_time":2568000000000,"state":"active","ping":62},{"user_id":144,"name":"Hyperbolicj","steam_id":76561198037350954,"connected_time":1874000000000,"state":"active","ping":60},{"user_id":136,"name":"Lee-Ch","steam_id":76561198164980622,"connected_time":2552000000000,"state":"active","ping":71},{"user_id":158,"name":"Garfield","steam_id":76561198447358116,"connected_time":110000000000,"state":"active","ping":54},{"user_id":155,"name":"Quinton Beef","steam_id":76561198117825609,"connected_time":685000000000,"state":"active","ping":137},{"user_id":107,"name":"not a good idea","steam_id":76561198032259680,"connected_time":4490000000000,"state":"active","ping":60},{"user_id":156,"name":"Draco6257","steam_id":76561199147322448,"connected_time":589000000000,"state":"active","ping":41},{"user_id":157,"name":"Jessie Pinkman","steam_id":76561198067417196,"connected_time":447000000000,"state":"active","ping":52},{"user_id":150,"name":"Obama","steam_id":76561198194065283,"connected_time":1114000000000,"state":"active","ping":107}]},{"server_id":14,"name":"Uncletopia | New York City | 2 | All Maps","name_short":"nyc-2","host":"nyc-1.us.uncletopia.com","port":27025,"enabled":true,"region":"us-east","cc":"us","latitude":40.73061,"longitude":-73.93524,"reserved":0,"last_update":"0001-01-01T00:00:00Z","name_a2s":"Uncletopia | New York City | 2 | All Maps","protocol":17,"map":"pl_upward","folder":"tf","game":"Team Fortress","app_id":440,"player_count":24,"max_players":24,"Bots":0,"server_type":"Dedicated","server_os":"Linux","password":true,"vac":true,"version":"7961495","steam_id":85568392924469994,"keywords":["nocrits","nodmgspread","payload","uncletopia"],"game_id":440,"stv_port":27026,"stv_name":"Uncletopia | New York City | 2 | All Maps | STV","players":[{"user_id":194,"name":"Voodo133","steam_id":76561198042670351,"connected_time":3220000000000,"state":"active","ping":78},{"user_id":216,"name":"Popop","steam_id":76561198004793795,"connected_time":2053000000000,"state":"active","ping":111},{"user_id":227,"name":"Soul","steam_id":76561198111431087,"connected_time":308000000000,"state":"active","ping":81},{"user_id":228,"name":"innumerable gibbons","steam_id":76561198218384043,"connected_time":94000000000,"state":"active","ping":46},{"user_id":191,"name":"WhippedHook","steam_id":76561198069581138,"connected_time":4005000000000,"state":"active","ping":94},{"user_id":201,"name":"BiggFoot","steam_id":76561197998605599,"connected_time":3013000000000,"state":"active","ping":98},{"user_id":200,"name":"femtofarad‚Ñ¢","steam_id":76561198308583053,"connected_time":3091000000000,"state":"active","ping":68},{"user_id":213,"name":"Meth Goblin","steam_id":76561198086355221,"connected_time":2412000000000,"state":"active","ping":94},{"user_id":205,"name":"mytoyo2k2","steam_id":76561199486326945,"connected_time":2937000000000,"state":"active","ping":75},{"user_id":222,"name":"Xebbey","steam_id":76561198880415976,"connected_time":1488000000000,"state":"active","ping":64},{"user_id":219,"name":"SS. sheep","steam_id":76561198172943006,"connected_time":1965000000000,"state":"active","ping":60},{"user_id":202,"name":"MasterAmongRust","steam_id":76561198010160233,"connected_time":2963000000000,"state":"active","ping":98},{"user_id":198,"name":"StraySheep","steam_id":76561198256003811,"connected_time":3199000000000,"state":"active","ping":62},{"user_id":155,"name":"dr peppah chug!","steam_id":76561198068835693,"connected_time":7071000000000,"state":"active","ping":75},{"user_id":179,"name":"Yukon Cornelius","steam_id":76561198261512781,"connected_time":5170000000000,"state":"active","ping":69},{"user_id":207,"name":"Psychosis","steam_id":76561198078659070,"connected_time":2841000000000,"state":"active","ping":64},{"user_id":199,"name":"Gravity","steam_id":76561198066875223,"connected_time":3172000000000,"state":"active","ping":103},{"user_id":221,"name":"A_Plush","steam_id":76561198147582451,"connected_time":1787000000000,"state":"active","ping":45},{"user_id":163,"name":"Dr.BiohunterPHD","steam_id":76561198047023365,"connected_time":6482000000000,"state":"active","ping":131},{"user_id":218,"name":"Red","steam_id":76561198001939529,"connected_time":2026000000000,"state":"active","ping":97},{"user_id":94,"name":"coffee bagel","steam_id":76561198141198352,"connected_time":12044000000000,"state":"active","ping":61},{"user_id":214,"name":"Grendar","steam_id":76561198823384034,"connected_time":2412000000000,"state":"active","ping":67},{"user_id":226,"name":"Mephistopheles","steam_id":76561198253731826,"connected_time":548000000000,"state":"active","ping":108},{"user_id":193,"name":"GaiBerd","steam_id":76561198177100634,"connected_time":3724000000000,"state":"active","ping":57}]},{"server_id":15,"name":"Uncletopia | New York City | 3 | Stopwatch Beta","name_short":"nyc-3","host":"nyc-1.us.uncletopia.com","port":27035,"enabled":true,"region":"us-east","cc":"us","latitude":40.73061,"longitude":-73.93524,"reserved":0,"last_update":"0001-01-01T00:00:00Z","name_a2s":"Uncletopia | New York City | 3 | Stopwatch Beta","protocol":17,"map":"workshop/koth_ramjam_rc1.ugc459778887","folder":"tf","game":"Team Fortress","app_id":440,"player_count":0,"max_players":24,"Bots":0,"server_type":"Dedicated","server_os":"Linux","password":true,"vac":true,"version":"7961495","steam_id":85568392924742820,"keywords":["cp","nocrits","nodmgspread","uncletopia"],"game_id":440,"stv_port":27036,"stv_name":"Uncletopia | New York City | 3 | Stopwatch Beta | STV","players":null},{"server_id":16,"name":"Uncletopia | New York City | 4 | Community","name_short":"nyc-4","host":"nyc-1.us.uncletopia.com","port":27045,"enabled":true,"region":"us-east","cc":"us","latitude":40.73061,"longitude":-73.93524,"reserved":0,"last_update":"0001-01-01T00:00:00Z","name_a2s":"Uncletopia | New York City | 4 | Community","protocol":17,"map":"workshop/pl_corrode_rc2.ugc546577989","folder":"tf","game":"Team Fortress","app_id":440,"player_count":24,"max_players":24,"Bots":0,"server_type":"Dedicated","server_os":"Linux","password":true,"vac":true,"version":"7961495","steam_id":85568392924742821,"keywords":["nocrits","nodmgspread","payload","uncletopia"],"game_id":440,"stv_port":27046,"stv_name":"Uncletopia | New York City | 4 | Community | STV","players":[{"user_id":146,"name":"gonna take you to brazil","steam_id":76561198437736421,"connected_time":1701000000000,"state":"active","ping":45},{"user_id":165,"name":"ADRIEN BRODY","steam_id":76561198009299473,"connected_time":311000000000,"state":"active","ping":58},{"user_id":103,"name":"CreeperCatBengal","steam_id":76561198213193221,"connected_time":3946000000000,"state":"active","ping":70},{"user_id":163,"name":"„ÄêÔº∂ÔΩÅÔΩêÔΩèÔΩí„ÄëÈñãÁúº","steam_id":76561198399537250,"connected_time":365000000000,"state":"active","ping":84},{"user_id":81,"name":"SawyerSaur","steam_id":76561198872835142,"connected_time":4586000000000,"state":"active","ping":86},{"user_id":159,"name":"Ziggy Stardust","steam_id":76561198226531404,"connected_time":732000000000,"state":"active","ping":69},{"user_id":161,"name":"LennyGaggins","steam_id":76561198119768140,"connected_time":524000000000,"state":"active","ping":98},{"user_id":131,"name":"TJGSASQUATCH","steam_id":76561198077806921,"connected_time":2416000000000,"state":"active","ping":72},{"user_id":141,"name":"xochiquetzal","steam_id":76561199064278937,"connected_time":2137000000000,"state":"active","ping":70},{"user_id":121,"name":"FUNKY TOWN SLAYER","steam_id":76561198119489292,"connected_time":2813000000000,"state":"active","ping":71},{"user_id":160,"name":"vanta","steam_id":76561198084317504,"connected_time":632000000000,"state":"active","ping":64},{"user_id":164,"name":"MemeLord","steam_id":76561198135115524,"connected_time":333000000000,"state":"active","ping":118},{"user_id":133,"name":"WaWaSkittleTits","steam_id":76561198411234398,"connected_time":2379000000000,"state":"active","ping":122},{"user_id":153,"name":"ryce","steam_id":76561198114572309,"connected_time":1171000000000,"state":"active","ping":71},{"user_id":135,"name":"Pan Piotr","steam_id":76561198140016126,"connected_time":2309000000000,"state":"active","ping":140},{"user_id":137,"name":"Scuff1e","steam_id":76561198272995728,"connected_time":2299000000000,"state":"active","ping":99},{"user_id":145,"name":"Chilly Wintrz","steam_id":76561198137410740,"connected_time":1740000000000,"state":"active","ping":91},{"user_id":162,"name":"Kiers","steam_id":76561198834266801,"connected_time":414000000000,"state":"active","ping":139},{"user_id":154,"name":"cheeser","steam_id":76561198281772700,"connected_time":1161000000000,"state":"active","ping":45},{"user_id":158,"name":"adami","steam_id":76561198800334731,"connected_time":826000000000,"state":"active","ping":50},{"user_id":166,"name":"Clown","steam_id":76561199063268772,"connected_time":302000000000,"state":"active","ping":162},{"user_id":167,"name":"yin","steam_id":76561198450003554,"connected_time":252000000000,"state":"active","ping":62},{"user_id":152,"name":"D.Porter","steam_id":76561198396340174,"connected_time":1616000000000,"state":"active","ping":65},{"user_id":168,"name":"BirBinGo","steam_id":76561198356529600,"connected_time":249000000000,"state":"active","ping":99}]},{"server_id":142,"name":"Uncletopia | S√£o Paulo | 1 | All Maps","name_short":"sao-1","host":"sao-1.br.uncletopia.com","port":27015,"enabled":true,"region":"sa","cc":"br","latitude":-23.533773,"longitude":-46.62529,"reserved":0,"last_update":"0001-01-01T00:00:00Z","name_a2s":"Uncletopia | S√£o Paulo | 1 | All Maps","protocol":17,"map":"koth_viaduct","folder":"tf","game":"Team Fortress","app_id":440,"player_count":0,"max_players":24,"Bots":0,"server_type":"Dedicated","server_os":"Linux","password":true,"vac":true,"version":"7961495","steam_id":85568392924469996,"keywords":["cp","nocrits","nodmgspread","uncletopia"],"game_id":440,"stv_port":27016,"stv_name":"Uncletopia | S√£o Paulo | 1 | All Maps | STV","players":null},{"server_id":143,"name":"Uncletopia | S√£o Paulo | 2 | Community","name_short":"sao-2","host":"sao-2.br.uncletopia.com","port":27015,"enabled":true,"region":"sa","cc":"br","latitude":-23.533773,"longitude":-46.62529,"reserved":0,"last_update":"0001-01-01T00:00:00Z","name_a2s":"Uncletopia | S√£o Paulo | 2 | Community","protocol":17,"map":"workshop/cp_caldera_rc2.ugc2834196889","folder":"tf","game":"Team Fortress","app_id":440,"player_count":0,"max_players":24,"Bots":0,"server_type":"Dedicated","server_os":"Linux","password":true,"vac":true,"version":"7961495","steam_id":85568392924485349,"keywords":["cp","nocrits","nodmgspread","uncletopia"],"game_id":440,"stv_port":27016,"stv_name":"Uncletopia | S√£o Paulo | 2 | Community | STV","players":null},{"server_id":7,"name":"Uncletopia | Seattle | 1 | All Maps","name_short":"sea-1","host":"sea-1.us.uncletopia.com","port":27015,"enabled":true,"region":"us-west","cc":"us","latitude":47.608013,"longitude":-122.33517,"reserved":0,"last_update":"0001-01-01T00:00:00Z","name_a2s":"Uncletopia | Seattle | 1 | All Maps","protocol":17,"map":"koth_lakeside_final","folder":"tf","game":"Team Fortress","app_id":440,"player_count":0,"max_players":24,"Bots":0,"server_type":"Dedicated","server_os":"Linux","password":true,"vac":true,"version":"7961495","steam_id":85568392924469997,"keywords":["cp","nocrits","nodmgspread","uncletopia"],"game_id":440,"stv_port":27016,"stv_name":"Uncletopia | Seattle | 1 | All Maps | STV","players":null},{"server_id":119,"name":"Uncletopia | Seattle | 2 | All Maps","name_short":"sea-2","host":"sea-1.us.uncletopia.com","port":27025,"enabled":true,"region":"us-west","cc":"us","latitude":47.608013,"longitude":-122.33517,"reserved":0,"last_update":"0001-01-01T00:00:00Z","name_a2s":"Uncletopia | Seattle | 2 | All Maps","protocol":17,"map":"cp_process_final","folder":"tf","game":"Team Fortress","app_id":440,"player_count":0,"max_players":24,"Bots":0,"server_type":"Dedicated","server_os":"Linux","password":true,"vac":true,"version":"7961495","steam_id":85568392924469998,"keywords":["cp","nocrits","nodmgspread","uncletopia"],"game_id":440,"stv_port":27026,"stv_name":"Uncletopia | Seattle | 2 | All Maps | STV","players":null},{"server_id":406,"name":"Uncletopia | Seattle | 3 | Stopwatch Beta","name_short":"sea-3","host":"sea-1.us.uncletopia.com","port":27035,"enabled":true,"region":"us-west","cc":"us","latitude":47.608013,"longitude":-122.33517,"reserved":0,"last_update":"0001-01-01T00:00:00Z","name_a2s":"Uncletopia | Seattle | 3 | Stopwatch Beta","protocol":17,"map":"koth_lakeside_final","folder":"tf","game":"Team Fortress","app_id":440,"player_count":0,"max_players":24,"Bots":0,"server_type":"Dedicated","server_os":"Linux","password":true,"vac":true,"version":"7961495","steam_id":85568392924515217,"keywords":["cp","nocrits","nodmgspread","uncletopia"],"game_id":440,"stv_port":27036,"stv_name":"Uncletopia | Seattle | 3 | Stopwatch Beta | STV","players":null},{"server_id":17,"name":"Uncletopia | San Francisco | 1 | All Maps","name_short":"sfo-1","host":"sfo-1.us.uncletopia.com","port":27015,"enabled":true,"region":"us-west","cc":"us","latitude":37.77397,"longitude":-122.4313,"reserved":0,"last_update":"0001-01-01T00:00:00Z","name_a2s":"Uncletopia | San Francisco | 1 | All Maps","protocol":17,"map":"pl_upward","folder":"tf","game":"Team Fortress","app_id":440,"player_count":0,"max_players":24,"Bots":0,"server_type":"Dedicated","server_os":"Linux","password":true,"vac":true,"version":"7961495","steam_id":85568392924469999,"keywords":["nocrits","nodmgspread","payload","uncletopia"],"game_id":440,"stv_port":27016,"stv_name":"Uncletopia | San Francisco | 1 | All Maps | STV","players":null},{"server_id":18,"name":"Uncletopia | San Francisco | 2 | All Maps","name_short":"sfo-2","host":"sfo-1.us.uncletopia.com","port":27025,"enabled":true,"region":"us-west","cc":"us","latitude":37.77397,"longitude":-122.4313,"reserved":0,"last_update":"0001-01-01T00:00:00Z","name_a2s":"Uncletopia | San Francisco | 2 | All Maps","protocol":17,"map":"koth_cascade","folder":"tf","game":"Team Fortress","app_id":440,"player_count":0,"max_players":24,"Bots":0,"server_type":"Dedicated","server_os":"Linux","password":true,"vac":true,"version":"7961495","steam_id":85568392924470000,"keywords":["cp","nocrits","nodmgspread","uncletopia"],"game_id":440,"stv_port":27026,"stv_name":"Uncletopia | San Francisco | 2 | All Maps | STV","players":null},{"server_id":19,"name":"Uncletopia | San Francisco | 3 | Stopwatch Beta","name_short":"sfo-3","host":"sfo-1.us.uncletopia.com","port":27035,"enabled":true,"region":"us-west","cc":"us","latitude":37.77397,"longitude":-122.4313,"reserved":0,"last_update":"0001-01-01T00:00:00Z","name_a2s":"Uncletopia | San Francisco | 3 | Stopwatch Beta","protocol":17,"map":"pl_borneo","folder":"tf","game":"Team Fortress","app_id":440,"player_count":0,"max_players":24,"Bots":0,"server_type":"Dedicated","server_os":"Linux","password":true,"vac":true,"version":"7961495","steam_id":85568392924742824,"keywords":["nocrits","nodmgspread","payload","uncletopia"],"game_id":440,"stv_port":27036,"stv_name":"Uncletopia | San Francisco | 3 | Stopwatch Beta | STV","players":null},{"server_id":20,"name":"Uncletopia | San Francisco | 4 | Community","name_short":"sfo-4","host":"sfo-1.us.uncletopia.com","port":27045,"enabled":true,"region":"us-west","cc":"us","latitude":37.77397,"longitude":-122.4313,"reserved":0,"last_update":"0001-01-01T00:00:00Z","name_a2s":"Uncletopia | San Francisco | 4 | Community","protocol":17,"map":"koth_viaduct","folder":"tf","game":"Team Fortress","app_id":440,"player_count":0,"max_players":24,"Bots":0,"server_type":"Dedicated","server_os":"Linux","password":true,"vac":true,"version":"7961495","steam_id":85568392924742826,"keywords":["cp","nocrits","nodmgspread","uncletopia"],"game_id":440,"stv_port":27046,"stv_name":"Uncletopia | San Francisco | 4 | Community | STV","players":null},{"server_id":141,"name":"Uncletopia | Sydney | 1 | All Maps","name_short":"syd-1","host":"syd-1.au.uncletopia.com","port":27015,"enabled":true,"region":"au","cc":"au","latitude":-33.865143,"longitude":151.2099,"reserved":0,"last_update":"0001-01-01T00:00:00Z","name_a2s":"Uncletopia | Sydney | 1 | All Maps","protocol":17,"map":"koth_lakeside_final","folder":"tf","game":"Team Fortress","app_id":440,"player_count":0,"max_players":24,"Bots":0,"server_type":"Dedicated","server_os":"Linux","password":true,"vac":true,"version":"7961495","steam_id":85568392924470001,"keywords":["cp","nocrits","nodmgspread","uncletopia"],"game_id":440,"stv_port":27016,"stv_name":"Uncletopia | Sydney | 1 | All Maps | STV","players":null},{"server_id":123,"name":"Uncletopia | Sydney | 2 | All Maps","name_short":"syd-2","host":"syd-1.au.uncletopia.com","port":27025,"enabled":true,"region":"au","cc":"au","latitude":-33.865143,"longitude":151.2099,"reserved":0,"last_update":"0001-01-01T00:00:00Z","name_a2s":"Uncletopia | Sydney | 2 | All Maps","protocol":17,"map":"koth_lakeside_final","folder":"tf","game":"Team Fortress","app_id":440,"player_count":0,"max_players":24,"Bots":0,"server_type":"Dedicated","server_os":"Linux","password":true,"vac":true,"version":"7961495","steam_id":85568392924470002,"keywords":["cp","nocrits","nodmgspread","uncletopia"],"game_id":440,"stv_port":27026,"stv_name":"Uncletopia | Sydney | 2 | All Maps | STV","players":null},{"server_id":395,"name":"Uncletopia | Sydney | 3 | All Maps","name_short":"syd-3","host":"syd-1.au.uncletopia.com","port":27035,"enabled":true,"region":"au","cc":"au","latitude":-33.865143,"longitude":151.2099,"reserved":0,"last_update":"0001-01-01T00:00:00Z","name_a2s":"Uncletopia | Sydney | 3 | All Maps","protocol":17,"map":"cp_sunshine","folder":"tf","game":"Team Fortress","app_id":440,"player_count":0,"max_players":24,"Bots":0,"server_type":"Dedicated","server_os":"Linux","password":true,"vac":true,"version":"7961495","steam_id":85568392925194467,"keywords":["cp","nocrits","nodmgspread","uncletopia"],"game_id":440,"stv_port":27036,"stv_name":"Uncletopia | Sydney | 3 | All Maps | STV","players":null},{"server_id":396,"name":"Uncletopia | Sydney | 4 | All Maps","name_short":"syd-4","host":"syd-1.au.uncletopia.com","port":27045,"enabled":true,"region":"au","cc":"au","latitude":-33.865143,"longitude":151.2099,"reserved":0,"last_update":"0001-01-01T00:00:00Z","name_a2s":"Uncletopia | Sydney | 4 | All Maps","protocol":17,"map":"cp_mountainlab","folder":"tf","game":"Team Fortress","app_id":440,"player_count":0,"max_players":24,"Bots":0,"server_type":"Dedicated","server_os":"Linux","password":true,"vac":true,"version":"7961495","steam_id":85568392925397958,"keywords":["cp","nocrits","nodmgspread","uncletopia"],"game_id":440,"stv_port":27046,"stv_name":"Uncletopia | Sydney | 4 | All Maps | STV","players":null},{"server_id":58,"name":"Uncletopia | Sydney | 5 | Stopwatch Beta","name_short":"syd-5","host":"syd-1.au.uncletopia.com","port":27055,"enabled":true,"region":"au","cc":"au","latitude":-33.865143,"longitude":151.2099,"reserved":0,"last_update":"0001-01-01T00:00:00Z","name_a2s":"Uncletopia | Sydney | 5 | Stopwatch Beta","protocol":17,"map":"koth_viaduct","folder":"tf","game":"Team Fortress","app_id":440,"player_count":0,"max_players":24,"Bots":0,"server_type":"Dedicated","server_os":"Linux","password":true,"vac":true,"version":"7961495","steam_id":85568392925397959,"keywords":["cp","nocrits","nodmgspread","uncletopia"],"game_id":440,"stv_port":27056,"stv_name":"Uncletopia | Sydney | 5 | Stopwatch Beta | STV","players":null},{"server_id":59,"name":"Uncletopia | Sydney | 6 | Community","name_short":"syd-6","host":"syd-1.au.uncletopia.com","port":27065,"enabled":true,"region":"au","cc":"au","latitude":-33.865143,"longitude":151.2099,"reserved":0,"last_update":"0001-01-01T00:00:00Z","name_a2s":"Uncletopia | Sydney | 6 | Community","protocol":17,"map":"koth_cascade","folder":"tf","game":"Team Fortress","app_id":440,"player_count":0,"max_players":24,"Bots":0,"server_type":"Dedicated","server_os":"Linux","password":true,"vac":true,"version":"7961495","steam_id":85568392925397960,"keywords":["cp","nocrits","nodmgspread","uncletopia"],"game_id":440,"stv_port":27066,"stv_name":"Uncletopia | Sydney | 6 | Community | STV","players":null},{"server_id":49,"name":"Uncletopia | Warsaw | 1 | All Maps","name_short":"waw-1","host":"waw-1.pl.uncletopia.com","port":27015,"enabled":true,"region":"eu","cc":"pl","latitude":52.2297,"longitude":21.017532,"reserved":0,"last_update":"0001-01-01T00:00:00Z","name_a2s":"Uncletopia | Warsaw | 1 | All Maps","protocol":17,"map":"cp_snakewater_final1","folder":"tf","game":"Team Fortress","app_id":440,"player_count":0,"max_players":24,"Bots":0,"server_type":"Dedicated","server_os":"Linux","password":true,"vac":true,"version":"7961495","steam_id":85568392925397850,"keywords":["cp","nocrits","nodmgspread","uncletopia"],"game_id":440,"stv_port":27016,"stv_name":"Uncletopia | Warsaw | 1 | All Maps | STV","players":null},{"server_id":50,"name":"Uncletopia | Warsaw | 2 | All Maps","name_short":"waw-2","host":"waw-1.pl.uncletopia.com","port":27025,"enabled":true,"region":"eu","cc":"pl","latitude":52.2297,"longitude":21.017532,"reserved":0,"last_update":"0001-01-01T00:00:00Z","name_a2s":"Uncletopia | Warsaw | 2 | All Maps","protocol":17,"map":"cp_dustbowl","folder":"tf","game":"Team Fortress","app_id":440,"player_count":7,"max_players":24,"Bots":0,"server_type":"Dedicated","server_os":"Linux","password":true,"vac":true,"version":"7961495","steam_id":85568392925397851,"keywords":["cp","nocrits","nodmgspread","uncletopia"],"game_id":440,"stv_port":27026,"stv_name":"Uncletopia | Warsaw | 2 | All Maps | STV","players":[{"user_id":18,"name":"bogumilcie","steam_id":76561199033110188,"connected_time":10000000000,"state":"active","ping":50},{"user_id":6,"name":"Mabert","steam_id":76561198436058407,"connected_time":605000000000,"state":"active","ping":45},{"user_id":7,"name":"ashi","steam_id":76561198424646794,"connected_time":548000000000,"state":"active","ping":78},{"user_id":10,"name":"Jack Cable 3.5 mm","steam_id":76561198072998924,"connected_time":404000000000,"state":"active","ping":31},{"user_id":12,"name":"stefanbejenari","steam_id":76561199466718294,"connected_time":371000000000,"state":"active","ping":79},{"user_id":16,"name":"Douglas MacDrip The Second","steam_id":76561198865364180,"connected_time":209000000000,"state":"active","ping":37},{"user_id":17,"name":"skippy","steam_id":76561198171958773,"connected_time":208000000000,"state":"active","ping":73}]},{"server_id":51,"name":"Uncletopia | Warsaw | 3 | All Maps","name_short":"waw-3","host":"waw-1.pl.uncletopia.com","port":27035,"enabled":true,"region":"eu","cc":"pl","latitude":52.2297,"longitude":21.017532,"reserved":0,"last_update":"0001-01-01T00:00:00Z","name_a2s":"Uncletopia | Warsaw | 3 | All Maps","protocol":17,"map":"koth_highpass","folder":"tf","game":"Team Fortress","app_id":440,"player_count":0,"max_players":24,"Bots":0,"server_type":"Dedicated","server_os":"Linux","password":true,"vac":true,"version":"7961495","steam_id":85568392925397852,"keywords":["cp","nocrits","nodmgspread","uncletopia"],"game_id":440,"stv_port":27036,"stv_name":"Uncletopia | Warsaw | 3 | All Maps | STV","players":null},{"server_id":52,"name":"Uncletopia | Warsaw | 4 | All Maps","name_short":"waw-4","host":"waw-1.pl.uncletopia.com","port":27045,"enabled":true,"region":"eu","cc":"pl","latitude":52.2297,"longitude":21.017532,"reserved":0,"last_update":"0001-01-01T00:00:00Z","name_a2s":"Uncletopia | Warsaw | 4 | All Maps","protocol":17,"map":"koth_lakeside_final","folder":"tf","game":"Team Fortress","app_id":440,"player_count":0,"max_players":24,"Bots":0,"server_type":"Dedicated","server_os":"Linux","password":true,"vac":true,"version":"7961495","steam_id":85568392925397853,"keywords":["cp","nocrits","nodmgspread","uncletopia"],"game_id":440,"stv_port":27046,"stv_name":"Uncletopia | Warsaw | 4 | All Maps | STV","players":null},{"server_id":53,"name":"Uncletopia | Warsaw | 5 | Stopwatch Beta","name_short":"waw-5","host":"waw-1.pl.uncletopia.com","port":27055,"enabled":true,"region":"eu","cc":"pl","latitude":52.2297,"longitude":21.017532,"reserved":0,"last_update":"0001-01-01T00:00:00Z","name_a2s":"Uncletopia | Warsaw | 5 | Stopwatch Beta","protocol":17,"map":"workshop/koth_ashville_final.ugc2130459942","folder":"tf","game":"Team Fortress","app_id":440,"player_count":0,"max_players":24,"Bots":0,"server_type":"Dedicated","server_os":"Linux","password":true,"vac":true,"version":"7961495","steam_id":85568392925397854,"keywords":["cp","nocrits","nodmgspread","uncletopia"],"game_id":440,"stv_port":27056,"stv_name":"Uncletopia | Warsaw | 5 | Stopwatch Beta | STV","players":null},{"server_id":54,"name":"Uncletopia | Warsaw | 6 | Community","name_short":"waw-6","host":"waw-1.pl.uncletopia.com","port":27065,"enabled":true,"region":"eu","cc":"pl","latitude":52.2297,"longitude":21.017532,"reserved":0,"last_update":"0001-01-01T00:00:00Z","name_a2s":"Uncletopia | Warsaw | 6 | Community","protocol":17,"map":"workshop/koth_slaughter_rc1.ugc1712845210","folder":"tf","game":"Team Fortress","app_id":440,"player_count":0,"max_players":24,"Bots":0,"server_type":"Dedicated","server_os":"Linux","password":true,"vac":true,"version":"7961495","steam_id":85568392925397856,"keywords":["cp","nocrits","nodmgspread","uncletopia"],"game_id":440,"stv_port":27066,"stv_name":"Uncletopia | Warsaw | 6 | Community | STV","players":null}]}