{"status":true,"message":"","result":[{"server_id":9,"name":"Uncletopia | Atlanta | 1 | All Maps","name_short":"atl-1","host":"atl-1.us.uncletopia.com","port":27015,"enabled":true,"region":"us-east","cc":"us","latitude":33.753746,"longitude":-84.38633,"reserved":0,"last_update":"0001-01-01T00:00:00Z","name_a2s":"Uncletopia | Atlanta | 1 | All Maps","protocol":17,"map":"pl_snowycoast","folder":"tf","game":"Team Fortress","app_id":440,"player_count":0,"max_players":24,"Bots":0,"server_type":"Dedicated","server_os":"Linux","password":true,"vac":true,"version":"7882260","steam_id":85568392924469982,"keywords":["nocrits","nodmgspread","payload","uncletopia"],"game_id":440,"stv_port":27016,"stv_name":"Uncletopia | Atlanta | 1 | All Maps | STV","players":null},{"server_id":104,"name":"Uncletopia | Atlanta | 2 | All Maps","name_short":"atl-2","host":"atl-1.us.uncletopia.com","port":27025,"enabled":true,"region":"us-east","cc":"us","latitude":33.753746,"longitude":-84.38633,"reserved":0,"last_update":"0001-01-01T00:00:00Z","name_a2s":"Uncletopia | Atlanta | 2 | All Maps","protocol":17,"map":"pl_swiftwater_final1","folder":"tf","game":"Team Fortress","app_id":440,"player_count":0,"max_players":24,"Bots":0,"server_type":"Dedicated","server_os":"Linux","password":true,"vac":true,"version":"7882260","steam_id":85568392924469983,"keywords":["nocrits","nodmgspread","payload","uncletopia"],"game_id":440,"stv_port":27026,"stv_name":"Uncletopia | Atlanta | 2 | All Maps | STV","players":null},{"server_id":400,"name":"Uncletopia | Atlanta | 3 | Community","name_short":"atl-3","host":"atl-1.us.uncletopia.com","port":27035,"enabled":true,"region":"us-east","cc":"us","latitude":33.753746,"longitude":-84.38633,"reserved":0,"last_update":"0001-01-01T00:00:00Z","name_a2s":"Uncletopia | Atlanta | 3 | Community","protocol":17,"map":"workshop/koth_ramjam_rc1.ugc459778887","folder":"tf","game":"Team Fortress","app_id":440,"player_count":0,"max_players":24,"Bots":0,"server_type":"Dedicated","server_os":"Linux","password":true,"vac":true,"version":"7882260","steam_id":85568392924515187,"keywords":["cp","nocrits","nodmgspread","uncletopia"],"game_id":440,"stv_port":27036,"stv_name":"Uncletopia | Atlanta | 3 | Community | STV","players":null},{"server_id":401,"name":"Uncletopia | Atlanta | 4 | No Payload","name_short":"atl-4","host":"atl-1.us.uncletopia.com","port":27045,"enabled":true,"region":"us-east","cc":"us","latitude":33.753746,"longitude":-84.38633,"reserved":0,"last_update":"0001-01-01T00:00:00Z","name_a2s":"","protocol":0,"map":"","folder":"","game":"","app_id":0,"player_count":0,"max_players":0,"Bots":0,"server_type":"","server_os":"","password":false,"vac":false,"version":"","steam_id":0,"keywords":null,"game_id":0,"stv_port":0,"stv_name":"","players":null},{"server_id":2,"name":"Uncletopia | Chicago | 1 | All Maps","name_short":"chi-1","host":"chi-1.us.uncletopia.com","port":27015,"enabled":true,"region":"us-central","cc":"us","latitude":41.881832,"longitude":-87.62318,"reserved":0,"last_update":"0001-01-01T00:00:00Z","name_a2s":"Uncletopia | Chicago | 1 | All Maps","protocol":17,"map":"cp_process_final","folder":"tf","game":"Team Fortress","app_id":440,"player_count":24,"max_players":24,"Bots":0,"server_type":"Dedicated","server_os":"Linux","password":true,"vac":true,"version":"7882260","steam_id":85568392924469984,"keywords":["cp","nocrits","nodmgspread","uncletopia"],"game_id":440,"stv_port":27016,"stv_name":"Uncletopia | Chicago | 1 | All Maps | STV","players":[{"user_id":956,"name":"cc","steam_id":76561199215821942,"connected_time":6737000000000,"state":"active","ping":69},{"user_id":989,"name":"Urbanzpinapple","steam_id":76561198115426938,"connected_time":4492000000000,"state":"active","ping":82},{"user_id":1050,"name":"Freckles","steam_id":76561198045671386,"connected_time":377000000000,"state":"active","ping":59},{"user_id":1039,"name":"Shakey","steam_id":76561198012340821,"connected_time":1240000000000,"state":"active","ping":145},{"user_id":1032,"name":"Judge Dad (Proud)","steam_id":76561198071473697,"connected_time":1849000000000,"state":"active","ping":69},{"user_id":1049,"name":"coolbananas","steam_id":76561198164460801,"connected_time":440000000000,"state":"active","ping":75},{"user_id":993,"name":"Ermine","steam_id":76561198072831312,"connected_time":4241000000000,"state":"active","ping":57},{"user_id":1035,"name":"Yummy Kabobz","steam_id":76561198067661705,"connected_time":1818000000000,"state":"active","ping":59},{"user_id":1048,"name":"VBadcatt","steam_id":76561198146413536,"connected_time":477000000000,"state":"active","ping":69},{"user_id":1040,"name":"playguy carter","steam_id":76561198080679337,"connected_time":1191000000000,"state":"active","ping":59},{"user_id":1022,"name":"XxChocola20xX","steam_id":76561199108579557,"connected_time":2201000000000,"state":"active","ping":109},{"user_id":1011,"name":"LerN","steam_id":76561198083463877,"connected_time":2947000000000,"state":"active","ping":48},{"user_id":1036,"name":"Faefanger","steam_id":76561198201871002,"connected_time":1814000000000,"state":"active","ping":114},{"user_id":1007,"name":"Takyon","steam_id":76561198172075186,"connected_time":3322000000000,"state":"active","ping":168},{"user_id":1041,"name":"p4","steam_id":76561198078400787,"connected_time":1189000000000,"state":"active","ping":63},{"user_id":900,"name":"Mank","steam_id":76561198189421005,"connected_time":10864000000000,"state":"active","ping":45},{"user_id":1051,"name":"eat Pant","steam_id":76561197974965536,"connected_time":99000000000,"state":"active","ping":57},{"user_id":1044,"name":"Charaxx","steam_id":76561198982744071,"connected_time":860000000000,"state":"active","ping":65},{"user_id":960,"name":"Allegro","steam_id":76561198084599587,"connected_time":6284000000000,"state":"active","ping":70},{"user_id":1004,"name":"OPINION SILENCER (CANCEL GUY)","steam_id":76561198041017977,"connected_time":3803000000000,"state":"active","ping":74},{"user_id":1045,"name":"rose","steam_id":76561198048882285,"connected_time":836000000000,"state":"active","ping":60},{"user_id":1034,"name":"greenboy135","steam_id":76561198057146944,"connected_time":1836000000000,"state":"active","ping":71},{"user_id":1029,"name":"insane jester","steam_id":76561198079609974,"connected_time":2040000000000,"state":"active","ping":109}]},{"server_id":106,"name":"Uncletopia | Chicago | 2 | All Maps","name_short":"chi-2","host":"chi-1.us.uncletopia.com","port":27025,"enabled":true,"region":"us-central","cc":"us","latitude":41.881832,"longitude":-87.62318,"reserved":0,"last_update":"0001-01-01T00:00:00Z","name_a2s":"Uncletopia | Chicago | 2 | All Maps","protocol":17,"map":"koth_highpass","folder":"tf","game":"Team Fortress","app_id":440,"player_count":0,"max_players":24,"Bots":0,"server_type":"Dedicated","server_os":"Linux","password":true,"vac":true,"version":"7882260","steam_id":85568392924469985,"keywords":["cp","nocrits","nodmgspread","uncletopia"],"game_id":440,"stv_port":27026,"stv_name":"Uncletopia | Chicago | 2 | All Maps | STV","players":null},{"server_id":402,"name":"Uncletopia | Chicago | 3 | All Maps","name_short":"chi-3","host":"chi-1.us.uncletopia.com","port":27035,"enabled":true,"region":"us-central","cc":"us","latitude":41.881832,"longitude":-87.62318,"reserved":0,"last_update":"0001-01-01T00:00:00Z","name_a2s":"Uncletopia | Chicago | 3 | All Maps","protocol":17,"map":"cp_mountainlab","folder":"tf","game":"Team Fortress","app_id":440,"player_count":0,"max_players":24,"Bots":0,"server_type":"Dedicated","server_os":"Linux","password":true,"vac":true,"version":"7882260","steam_id":85568392924515191,"keywords":["cp","nocrits","nodmgspread","uncletopia"],"game_id":440,"stv_port":27036,"stv_name":"Uncletopia | Chicago | 3 | All Maps | STV","players":null},{"server_id":403,"name":"Uncletopia | Chicago | 4 | All Maps","name_short":"chi-4","host":"chi-1.us.uncletopia.com","port":27045,"enabled":true,"region":"us-central","cc":"us","latitude":41.881832,"longitude":-87.62318,"reserved":0,"last_update":"0001-01-01T00:00:00Z","name_a2s":"Uncletopia | Chicago | 4 | All Maps","protocol":17,"map":"cp_snakewater_final1","folder":"tf","game":"Team Fortress","app_id":440,"player_count":10,"max_players":24,"Bots":0,"server_type":"Dedicated","server_os":"Linux","password":true,"vac":true,"version":"7882260","steam_id":85568392924515193,"keywords":["cp","nocrits","nodmgspread","uncletopia"],"game_id":440,"stv_port":27046,"stv_name":"Uncletopia | Chicago | 4 | All Maps | STV","players":[{"user_id":501,"name":"freddy fazballs","steam_id":76561199219710978,"connected_time":878000000000,"state":"active","ping":83},{"user_id":504,"name":"!!","steam_id":76561199038370433,"connected_time":300000000000,"state":"active","ping":175},{"user_id":505,"name":"hud_saytext_time 0","steam_id":76561198010327228,"connected_time":224000000000,"state":"active","ping":154},{"user_id":451,"name":"IMYS","steam_id":76561198096223200,"connected_time":4832000000000,"state":"active","ping":44},{"user_id":495,"name":"Ludcmorais","steam_id":76561198359217809,"connected_time":1492000000000,"state":"active","ping":187},{"user_id":477,"name":"Neo Kojiro","steam_id":76561198000967076,"connected_time":3266000000000,"state":"active","ping":80},{"user_id":416,"name":"dahperson","steam_id":76561198067207467,"connected_time":6874000000000,"state":"active","ping":53},{"user_id":498,"name":"Draxion","steam_id":76561198132263393,"connected_time":1432000000000,"state":"active","ping":69},{"user_id":486,"name":"Missing Minus","steam_id":76561198120822928,"connected_time":2593000000000,"state":"active","ping":60},{"user_id":474,"name":"Dot.","steam_id":76561198149463984,"connected_time":3623000000000,"state":"active","ping":45}]},{"server_id":36,"name":"Uncletopia | Chicago | 5 | All Maps","name_short":"chi-5","host":"chi-2.us.uncletopia.com","port":27015,"enabled":true,"region":"us-central","cc":"us","latitude":41.881832,"longitude":-87.62318,"reserved":0,"last_update":"0001-01-01T00:00:00Z","name_a2s":"Uncletopia | Chicago | 5 | All Maps","protocol":17,"map":"cp_mountainlab","folder":"tf","game":"Team Fortress","app_id":440,"player_count":0,"max_players":24,"Bots":0,"server_type":"Dedicated","server_os":"Linux","password":true,"vac":true,"version":"7882260","steam_id":85568392924866362,"keywords":["cp","nocrits","nodmgspread","uncletopia"],"game_id":440,"stv_port":27016,"stv_name":"Uncletopia | Chicago | 5 | All Maps | STV","players":null},{"server_id":37,"name":"Uncletopia | Chicago | 6 | All Maps","name_short":"chi-6","host":"chi-2.us.uncletopia.com","port":27025,"enabled":true,"region":"us-central","cc":"us","latitude":41.881832,"longitude":-87.62318,"reserved":0,"last_update":"0001-01-01T00:00:00Z","name_a2s":"Uncletopia | Chicago | 6 | All Maps","protocol":17,"map":"koth_highpass","folder":"tf","game":"Team Fortress","app_id":440,"player_count":0,"max_players":24,"Bots":0,"server_type":"Dedicated","server_os":"Linux","password":true,"vac":true,"version":"7882260","steam_id":85568392924866363,"keywords":["cp","nocrits","nodmgspread","uncletopia"],"game_id":440,"stv_port":27026,"stv_name":"Uncletopia | Chicago | 6 | All Maps | STV","players":null},{"server_id":38,"name":"Uncletopia | Chicago | 7 | Stopwatch Beta","name_short":"chi-7","host":"chi-2.us.uncletopia.com","port":27035,"enabled":true,"region":"us-central","cc":"us","latitude":41.881832,"longitude":-87.62318,"reserved":0,"last_update":"0001-01-01T00:00:00Z","name_a2s":"Uncletopia | Chicago | 7 | Stopwatch Beta","protocol":17,"map":"workshop/koth_clearcut_b15.ugc2107050255","folder":"tf","game":"Team Fortress","app_id":440,"player_count":0,"max_players":24,"Bots":0,"server_type":"Dedicated","server_os":"Linux","password":true,"vac":true,"version":"7882260","steam_id":85568392924866364,"keywords":["cp","nocrits","nodmgspread","uncletopia"],"game_id":440,"stv_port":27036,"stv_name":"Uncletopia | Chicago | 7 | Stopwatch Beta | STV","players":null},{"server_id":39,"name":"Uncletopia | Chicago | 8 | Community","name_short":"chi-8","host":"chi-2.us.uncletopia.com","port":27045,"enabled":true,"region":"us-central","cc":"us","latitude":41.881832,"longitude":-87.62318,"reserved":0,"last_update":"0001-01-01T00:00:00Z","name_a2s":"Uncletopia | Chicago | 8 | Community","protocol":17,"map":"workshop/cp_bruhstbowl_b5.ugc2878604990","folder":"tf","game":"Team Fortress","app_id":440,"player_count":0,"max_players":24,"Bots":0,"server_type":"Dedicated","server_os":"Linux","password":true,"vac":true,"version":"7882260","steam_id":85568392924866365,"keywords":["cp","nocrits","nodmgspread","uncletopia"],"game_id":440,"stv_port":27046,"stv_name":"Uncletopia | Chicago | 8 | Community | STV","players":null},{"server_id":8,"name":"Uncletopia | Dallas | 1 | All Maps","name_short":"dal-1","host":"dal-1.us.uncletopia.com","port":27015,"enabled":true,"region":"us-central","cc":"us","latitude":32.779167,"longitude":-96.80889,"reserved":0,"last_update":"0001-01-01T00:00:00Z","name_a2s":"Uncletopia | Dallas | 1 | All Maps","protocol":17,"map":"cp_gorge","folder":"tf","game":"Team Fortress","app_id":440,"player_count":23,"max_players":24,"Bots":0,"server_type":"Dedicated","server_os":"Linux","password":true,"vac":true,"version":"7882260","steam_id":85568392924469986,"keywords":["cp","nocrits","nodmgspread","uncletopia"],"game_id":440,"stv_port":27016,"stv_name":"Uncletopia | Dallas | 1 | All Maps | STV","players":[{"user_id":818,"name":"whats an egg","steam_id":76561198991039398,"connected_time":1251000000000,"state":"active","ping":80},{"user_id":775,"name":"BENIS  BOI","steam_id":76561198813112341,"connected_time":4413000000000,"state":"active","ping":48},{"user_id":819,"name":"JamesBlakeFan11","steam_id":76561198440539769,"connected_time":1228000000000,"state":"active","ping":92},{"user_id":806,"name":"Bomberman6868","steam_id":76561198101086506,"connected_time":2215000000000,"state":"active","ping":65},{"user_id":828,"name":"Karma's Camera","steam_id":76561198059385185,"connected_time":270000000000,"state":"active","ping":81},{"user_id":813,"name":"highschool drop-out","steam_id":76561198366299848,"connected_time":1740000000000,"state":"active","ping":64},{"user_id":811,"name":"Team Fartpiss Poo","steam_id":76561199163591880,"connected_time":1870000000000,"state":"active","ping":86},{"user_id":820,"name":"Cringe","steam_id":76561199047045390,"connected_time":1212000000000,"state":"active","ping":92},{"user_id":796,"name":"Phosu","steam_id":76561198180162801,"connected_time":2544000000000,"state":"active","ping":64},{"user_id":829,"name":"Xeno808","steam_id":76561198103758081,"connected_time":34000000000,"state":"spawning","ping":36},{"user_id":830,"name":"*‧˚kitsu ʚ♥ɞ","steam_id":76561198091741658,"connected_time":31000000000,"state":"active","ping":60},{"user_id":810,"name":"WaterBottle","steam_id":76561199101357108,"connected_time":2103000000000,"state":"active","ping":62},{"user_id":821,"name":"basilberry","steam_id":76561198145275937,"connected_time":1203000000000,"state":"active","ping":61},{"user_id":822,"name":"★SuperBurgerBoy★","steam_id":76561198856387197,"connected_time":1179000000000,"state":"active","ping":76},{"user_id":781,"name":"I AM Malik","steam_id":76561198322021485,"connected_time":4028000000000,"state":"active","ping":82},{"user_id":824,"name":"90","steam_id":76561198150224930,"connected_time":1124000000000,"state":"active","ping":60},{"user_id":825,"name":"Yosh","steam_id":76561198027078899,"connected_time":1119000000000,"state":"active","ping":75},{"user_id":790,"name":"PILLO1_3","steam_id":76561199474911135,"connected_time":3789000000000,"state":"active","ping":92},{"user_id":815,"name":"ArnoldGamingﾠٴ","steam_id":76561198040140247,"connected_time":1615000000000,"state":"active","ping":93},{"user_id":814,"name":"V5 ▣","steam_id":76561198094469642,"connected_time":1719000000000,"state":"active","ping":52},{"user_id":808,"name":"malicious ball","steam_id":76561198010743348,"connected_time":2169000000000,"state":"active","ping":45},{"user_id":816,"name":"Lxst","steam_id":76561198849797797,"connected_time":1601000000000,"state":"active","ping":100},{"user_id":789,"name":"RIP_RUBEN","steam_id":76561199311833937,"connected_time":3829000000000,"state":"active","ping":92}]},{"server_id":108,"name":"Uncletopia | Dallas | 2 | All Maps","name_short":"dal-2","host":"dal-1.us.uncletopia.com","port":27025,"enabled":true,"region":"us-central","cc":"us","latitude":32.779167,"longitude":-96.80889,"reserved":0,"last_update":"0001-01-01T00:00:00Z","name_a2s":"Uncletopia | Dallas | 2 | All Maps","protocol":17,"map":"pl_swiftwater_final1","folder":"tf","game":"Team Fortress","app_id":440,"player_count":24,"max_players":24,"Bots":0,"server_type":"Dedicated","server_os":"Linux","password":true,"vac":true,"version":"7882260","steam_id":85568392924469988,"keywords":["nocrits","nodmgspread","payload","uncletopia"],"game_id":440,"stv_port":27026,"stv_name":"Uncletopia | Dallas | 2 | All Maps | STV","players":[{"user_id":1021,"name":"ShadowWasUhOh","steam_id":76561198400361935,"connected_time":939000000000,"state":"active","ping":76},{"user_id":1018,"name":"Pasión de Gavilanes 2","steam_id":76561198143926386,"connected_time":1201000000000,"state":"active","ping":140},{"user_id":949,"name":"Publo","steam_id":76561198161777140,"connected_time":6403000000000,"state":"active","ping":53},{"user_id":1022,"name":"white muslim dane cook","steam_id":76561198000979872,"connected_time":830000000000,"state":"active","ping":73},{"user_id":1016,"name":"homestuck","steam_id":76561198085042338,"connected_time":1282000000000,"state":"active","ping":86},{"user_id":1001,"name":"Dunce","steam_id":76561198421107500,"connected_time":2974000000000,"state":"active","ping":68},{"user_id":1011,"name":"mountain*✩‧₊˚","steam_id":76561198078395002,"connected_time":2060000000000,"state":"active","ping":85},{"user_id":1000,"name":"jumbi","steam_id":76561198353456379,"connected_time":2989000000000,"state":"active","ping":62},{"user_id":990,"name":"kira","steam_id":76561198277979851,"connected_time":3701000000000,"state":"active","ping":92},{"user_id":1031,"name":"Rockinbacon","steam_id":76561198047159811,"connected_time":532000000000,"state":"active","ping":46},{"user_id":1024,"name":"Juligay","steam_id":76561198204873136,"connected_time":816000000000,"state":"active","ping":96},{"user_id":1012,"name":"Big Cat","steam_id":76561198115695203,"connected_time":1833000000000,"state":"active","ping":54},{"user_id":1017,"name":"SAVECASEY","steam_id":76561198857896847,"connected_time":1280000000000,"state":"active","ping":80},{"user_id":1007,"name":"Kidjays","steam_id":76561198124941901,"connected_time":2837000000000,"state":"active","ping":85},{"user_id":989,"name":"MG.Z-Blitz","steam_id":76561198028577473,"connected_time":3920000000000,"state":"active","ping":79},{"user_id":1032,"name":"DargaribdusPersonOfLordlyCalibe","steam_id":76561198020876416,"connected_time":500000000000,"state":"active","ping":68},{"user_id":1014,"name":"Ping","steam_id":76561199206514106,"connected_time":1724000000000,"state":"active","ping":75},{"user_id":1005,"name":"souljaboytellem.com","steam_id":76561198095824426,"connected_time":2920000000000,"state":"active","ping":69},{"user_id":1026,"name":"Rigby","steam_id":76561198067108413,"connected_time":736000000000,"state":"active","ping":69},{"user_id":1033,"name":"poompis","steam_id":76561198160850933,"connected_time":380000000000,"state":"active","ping":78},{"user_id":1028,"name":"Scorpianswag","steam_id":76561198260651036,"connected_time":634000000000,"state":"active","ping":74},{"user_id":1034,"name":"SirGoldalot","steam_id":76561198171440151,"connected_time":334000000000,"state":"active","ping":67},{"user_id":987,"name":"it's peanut time","steam_id":76561198236028020,"connected_time":4512000000000,"state":"active","ping":155},{"user_id":1030,"name":"sweaterfan","steam_id":76561199389567214,"connected_time":608000000000,"state":"active","ping":65}]},{"server_id":5,"name":"Uncletopia | Frankfurt | 1 | All Maps","name_short":"frk-1","host":"frk-1.de.uncletopia.com","port":27015,"enabled":true,"region":"eu","cc":"de","latitude":50.110924,"longitude":8.682127,"reserved":0,"last_update":"0001-01-01T00:00:00Z","name_a2s":"Uncletopia | Frankfurt | 1 | All Maps","protocol":17,"map":"pl_pier","folder":"tf","game":"Team Fortress","app_id":440,"player_count":0,"max_players":24,"Bots":0,"server_type":"Dedicated","server_os":"Linux","password":true,"vac":true,"version":"7882260","steam_id":85568392924469989,"keywords":["nocrits","nodmgspread","payload","uncletopia"],"game_id":440,"stv_port":27016,"stv_name":"Uncletopia | Frankfurt | 1 | All Maps | STV","players":null},{"server_id":110,"name":"Uncletopia | Frankfurt | 2 | All Maps","name_short":"frk-2","host":"frk-1.de.uncletopia.com","port":27025,"enabled":true,"region":"eu","cc":"de","latitude":50.110924,"longitude":8.682127,"reserved":0,"last_update":"0001-01-01T00:00:00Z","name_a2s":"Uncletopia | Frankfurt | 2 | All Maps","protocol":17,"map":"pl_upward","folder":"tf","game":"Team Fortress","app_id":440,"player_count":0,"max_players":24,"Bots":0,"server_type":"Dedicated","server_os":"Linux","password":true,"vac":true,"version":"7882260","steam_id":85568392924469990,"keywords":["nocrits","nodmgspread","payload","uncletopia"],"game_id":440,"stv_port":27026,"stv_name":"Uncletopia | Frankfurt | 2 | All Maps | STV","players":null},{"server_id":308,"name":"Uncletopia | Frankfurt | 3 | All Maps","name_short":"frk-3","host":"frk-1.de.uncletopia.com","port":27035,"enabled":true,"region":"eu","cc":"de","latitude":50.110924,"longitude":8.682127,"reserved":0,"last_update":"0001-01-01T00:00:00Z","name_a2s":"Uncletopia | Frankfurt | 3 | All Maps","protocol":17,"map":"cp_process_final","folder":"tf","game":"Team Fortress","app_id":440,"player_count":0,"max_players":24,"Bots":0,"server_type":"Dedicated","server_os":"Linux","password":true,"vac":true,"version":"7882260","steam_id":85568392924504274,"keywords":["cp","nocrits","nodmgspread","uncletopia"],"game_id":440,"stv_port":27036,"stv_name":"Uncletopia | Frankfurt | 3 | All Maps | STV","players":null},{"server_id":309,"name":"Uncletopia | Frankfurt | 4 | All Maps","name_short":"frk-4","host":"frk-1.de.uncletopia.com","port":27045,"enabled":true,"region":"eu","cc":"de","latitude":50.110924,"longitude":8.682127,"reserved":0,"last_update":"0001-01-01T00:00:00Z","name_a2s":"Uncletopia | Frankfurt | 4 | All Maps","protocol":17,"map":"pl_swiftwater_final1","folder":"tf","game":"Team Fortress","app_id":440,"player_count":0,"max_players":24,"Bots":0,"server_type":"Dedicated","server_os":"Linux","password":true,"vac":true,"version":"7882260","steam_id":85568392924504275,"keywords":["nocrits","nodmgspread","payload","uncletopia"],"game_id":440,"stv_port":27046,"stv_name":"Uncletopia | Frankfurt | 4 | All Maps | STV","players":null},{"server_id":310,"name":"Uncletopia | Frankfurt | 5 | All Maps","name_short":"frk-5","host":"frk-1.de.uncletopia.com","port":27055,"enabled":true,"region":"eu","cc":"de","latitude":50.110924,"longitude":8.682127,"reserved":0,"last_update":"0001-01-01T00:00:00Z","name_a2s":"Uncletopia | Frankfurt | 5 | All Maps","protocol":17,"map":"pl_borneo","folder":"tf","game":"Team Fortress","app_id":440,"player_count":0,"max_players":24,"Bots":0,"server_type":"Dedicated","server_os":"Linux","password":true,"vac":true,"version":"7882260","steam_id":85568392924504277,"keywords":["nocrits","nodmgspread","payload","uncletopia"],"game_id":440,"stv_port":27056,"stv_name":"Uncletopia | Frankfurt | 5 | All Maps | STV","players":null},{"server_id":311,"name":"Uncletopia | Frankfurt | 6 | All Maps","name_short":"frk-6","host":"frk-1.de.uncletopia.com","port":27065,"enabled":true,"region":"eu","cc":"de","latitude":50.110924,"longitude":8.682127,"reserved":0,"last_update":"0001-01-01T00:00:00Z","name_a2s":"Uncletopia | Frankfurt | 6 | All Maps","protocol":17,"map":"cp_snakewater_final1","folder":"tf","game":"Team Fortress","app_id":440,"player_count":0,"max_players":24,"Bots":0,"server_type":"Dedicated","server_os":"Linux","password":true,"vac":true,"version":"7882260","steam_id":85568392924504278,"keywords":["cp","nocrits","nodmgspread","uncletopia"],"game_id":440,"stv_port":27066,"stv_name":"Uncletopia | Frankfurt | 6 | All Maps | STV","players":null},{"server_id":23,"name":"Uncletopia | Frankfurt | 7 | Stopwatch Beta","name_short":"frk-7","host":"frk-1.de.uncletopia.com","port":27075,"enabled":true,"region":"eu","cc":"de","latitude":50.110924,"longitude":8.682127,"reserved":0,"last_update":"0001-01-01T00:00:00Z","name_a2s":"Uncletopia | Frankfurt | 7 | Stopwatch Beta","protocol":17,"map":"cp_snakewater_final1","folder":"tf","game":"Team Fortress","app_id":440,"player_count":0,"max_players":24,"Bots":0,"server_type":"Dedicated","server_os":"Linux","password":true,"vac":true,"version":"7882260","steam_id":85568392924742827,"keywords":["cp","nocrits","nodmgspread","uncletopia"],"game_id":440,"stv_port":27076,"stv_name":"Uncletopia | Frankfurt | 7 | Stopwatch Beta | STV","players":null},{"server_id":24,"name":"Uncletopia | Frankfurt | 8 | Community","name_short":"frk-8","host":"frk-1.de.uncletopia.com","port":27085,"enabled":true,"region":"eu","cc":"de","latitude":50.110924,"longitude":8.682127,"reserved":0,"last_update":"0001-01-01T00:00:00Z","name_a2s":"Uncletopia | Frankfurt | 8 | Community","protocol":17,"map":"cp_mountainlab","folder":"tf","game":"Team Fortress","app_id":440,"player_count":0,"max_players":24,"Bots":0,"server_type":"Dedicated","server_os":"Linux","password":true,"vac":true,"version":"7882260","steam_id":85568392924742828,"keywords":["cp","nocrits","nodmgspread","uncletopia"],"game_id":440,"stv_port":27086,"stv_name":"Uncletopia | Frankfurt | 8 | Community | STV","players":null},{"server_id":202,"name":"Uncletopia | Hong Kong | 1 | All Maps","name_short":"hgk-1","host":"hgk-1.hk.uncletopia.com","port":27015,"enabled":true,"region":"asia","cc":"hk","latitude":22.302711,"longitude":114.177216,"reserved":0,"last_update":"0001-01-01T00:00:00Z","name_a2s":"Uncletopia | Hong Kong | 1 | All Maps","protocol":17,"map":"cp_egypt_final","folder":"tf","game":"Team Fortress","app_id":440,"player_count":24,"max_players":24,"Bots":0,"server_type":"Dedicated","server_os":"Linux","password":true,"vac":true,"version":"7882260","steam_id":85568392924494504,"keywords":["cp","nocrits","nodmgspread","uncletopia"],"game_id":440,"stv_port":27016,"stv_name":"Uncletopia | Hong Kong | 1 | All Maps | STV","players":[{"user_id":77,"name":"Seiko Shinohara.png","steam_id":76561198089493039,"connected_time":777000000000,"state":"active","ping":180},{"user_id":46,"name":"\"SKS\"","steam_id":76561198187995386,"connected_time":2983000000000,"state":"active","ping":88},{"user_id":59,"name":"Shienn__","steam_id":76561199174019837,"connected_time":1749000000000,"state":"active","ping":99},{"user_id":47,"name":"Chomer","steam_id":76561199034546642,"connected_time":2835000000000,"state":"active","ping":101},{"user_id":78,"name":"screw it","steam_id":76561198188905629,"connected_time":682000000000,"state":"active","ping":72},{"user_id":60,"name":"inverse_pie","steam_id":76561199135459870,"connected_time":1707000000000,"state":"active","ping":134},{"user_id":61,"name":"YonGG_","steam_id":76561198976488488,"connected_time":1694000000000,"state":"active","ping":105},{"user_id":22,"name":"water tastes good","steam_id":76561199375947670,"connected_time":5439000000000,"state":"active","ping":69},{"user_id":83,"name":"ふわふわ毛布","steam_id":76561198088403016,"connected_time":110000000000,"state":"active","ping":103},{"user_id":51,"name":"BAD PYRO PLAYER","steam_id":76561198074339034,"connected_time":2390000000000,"state":"active","ping":76},{"user_id":26,"name":"♱  I LuV Loona  ♱","steam_id":76561199020745258,"connected_time":4887000000000,"state":"active","ping":76},{"user_id":52,"name":"\u003c\u003cDunce](:-P)-|--\u003c","steam_id":76561199190321580,"connected_time":2387000000000,"state":"active","ping":62},{"user_id":30,"name":"Vortex Swagger","steam_id":76561198833527091,"connected_time":4522000000000,"state":"active","ping":95},{"user_id":63,"name":"蠢脸骑士脸不蠢","steam_id":76561198422372840,"connected_time":1538000000000,"state":"active","ping":53},{"user_id":64,"name":"changing names isnt funny","steam_id":76561199420453519,"connected_time":1466000000000,"state":"active","ping":91},{"user_id":67,"name":"daigennki","steam_id":76561198046328609,"connected_time":1267000000000,"state":"active","ping":98},{"user_id":82,"name":"CaptainBozo","steam_id":76561199151959977,"connected_time":366000000000,"state":"active","ping":55},{"user_id":69,"name":"Dr. Piss Rat","steam_id":76561199074809838,"connected_time":1218000000000,"state":"active","ping":70},{"user_id":70,"name":"ღJun.","steam_id":76561198275846469,"connected_time":1154000000000,"state":"active","ping":81},{"user_id":81,"name":"Male Detected!","steam_id":76561199082459598,"connected_time":391000000000,"state":"active","ping":80},{"user_id":73,"name":":weed:","steam_id":76561198386626651,"connected_time":1104000000000,"state":"active","ping":66},{"user_id":74,"name":"Erbium","steam_id":76561199046816328,"connected_time":1093000000000,"state":"active","ping":161},{"user_id":80,"name":"lalo","steam_id":76561198074020067,"connected_time":553000000000,"state":"active","ping":84},{"user_id":84,"name":"Archer's Heatmaker","steam_id":76561198928406571,"connected_time":79000000000,"state":"active","ping":402}]},{"server_id":1,"name":"Uncletopia | Los Angeles | 1 | All Maps","name_short":"lax-1","host":"lax-1.us.uncletopia.com","port":27015,"enabled":true,"region":"us-west","cc":"us","latitude":33.94279,"longitude":-118.41004,"reserved":0,"last_update":"0001-01-01T00:00:00Z","name_a2s":"Uncletopia | Los Angeles | 1 | All Maps","protocol":17,"map":"cp_granary","folder":"tf","game":"Team Fortress","app_id":440,"player_count":0,"max_players":24,"Bots":0,"server_type":"Dedicated","server_os":"Linux","password":true,"vac":true,"version":"7882260","steam_id":85568392924469991,"keywords":["cp","nocrits","nodmgspread","uncletopia"],"game_id":440,"stv_port":27016,"stv_name":"Uncletopia | Los Angeles | 1 | All Maps | STV","players":null},{"server_id":112,"name":"Uncletopia | Los Angeles | 2 | All Maps","name_short":"lax-2","host":"lax-1.us.uncletopia.com","port":27025,"enabled":true,"region":"us-west","cc":"us","latitude":33.94279,"longitude":-118.41004,"reserved":0,"last_update":"0001-01-01T00:00:00Z","name_a2s":"Uncletopia | Los Angeles | 2 | All Maps","protocol":17,"map":"pl_badwater","folder":"tf","game":"Team Fortress","app_id":440,"player_count":16,"max_players":24,"Bots":0,"server_type":"Dedicated","server_os":"Linux","password":true,"vac":true,"version":"7882260","steam_id":85568392924469992,"keywords":["nocrits","nodmgspread","payload","uncletopia"],"game_id":440,"stv_port":27026,"stv_name":"Uncletopia | Los Angeles | 2 | All Maps | STV","players":[{"user_id":420,"name":"Anon","steam_id":76561198109740776,"connected_time":1628000000000,"state":"active","ping":67},{"user_id":414,"name":"soldier number 2","steam_id":76561198163164053,"connected_time":1993000000000,"state":"active","ping":151},{"user_id":415,"name":"merasmus no naturals","steam_id":76561198037303531,"connected_time":1958000000000,"state":"active","ping":84},{"user_id":416,"name":"FI LO","steam_id":76561198976530881,"connected_time":1953000000000,"state":"active","ping":29},{"user_id":421,"name":"Logan likes to pee himself","steam_id":76561198029612812,"connected_time":1618000000000,"state":"active","ping":52},{"user_id":437,"name":"BABABOOEY","steam_id":76561198843892068,"connected_time":728000000000,"state":"active","ping":45},{"user_id":427,"name":"PROFILE NAME","steam_id":76561199438851854,"connected_time":1455000000000,"state":"active","ping":107},{"user_id":438,"name":"Tanuki in your walls","steam_id":76561198027487285,"connected_time":91000000000,"state":"active","ping":137},{"user_id":422,"name":"shittystripper","steam_id":76561198101012071,"connected_time":1616000000000,"state":"active","ping":68},{"user_id":368,"name":"Chicken","steam_id":76561199118530334,"connected_time":7228000000000,"state":"active","ping":131},{"user_id":424,"name":"Drac0c4t","steam_id":76561199073871583,"connected_time":1564000000000,"state":"active","ping":105},{"user_id":429,"name":"hotguy6pack","steam_id":76561198881665250,"connected_time":1442000000000,"state":"active","ping":74},{"user_id":426,"name":"C∅RVUS","steam_id":76561198100640019,"connected_time":1507000000000,"state":"active","ping":75},{"user_id":294,"name":"[ØWQJØ]chubacaalatake","steam_id":76561198136201697,"connected_time":12337000000000,"state":"active","ping":76},{"user_id":428,"name":"yuuko","steam_id":76561198097711389,"connected_time":1451000000000,"state":"active","ping":60},{"user_id":435,"name":"meow","steam_id":76561198298140571,"connected_time":1248000000000,"state":"active","ping":54}]},{"server_id":324,"name":"Uncletopia | Los Angeles | 3 | All Maps","name_short":"lax-3","host":"lax-1.us.uncletopia.com","port":27035,"enabled":true,"region":"us-west","cc":"us","latitude":33.94279,"longitude":-118.41004,"reserved":0,"last_update":"0001-01-01T00:00:00Z","name_a2s":"Uncletopia | Los Angeles | 3 | All Maps","protocol":17,"map":"koth_highpass","folder":"tf","game":"Team Fortress","app_id":440,"player_count":2,"max_players":24,"Bots":0,"server_type":"Dedicated","server_os":"Linux","password":true,"vac":true,"version":"7882260","steam_id":85568392924510198,"keywords":["cp","nocrits","nodmgspread","uncletopia"],"game_id":440,"stv_port":27036,"stv_name":"Uncletopia | Los Angeles | 3 | All Maps | STV","players":[{"user_id":55,"name":"SPACECOWBOY","steam_id":76561199093645953,"connected_time":1552000000000,"state":"active","ping":64},{"user_id":56,"name":"Drift Stick","steam_id":76561198847048304,"connected_time":1525000000000,"state":"active","ping":78}]},{"server_id":25,"name":"Uncletopia | Los Angeles | 4 | Stopwatch Beta","name_short":"lax-4","host":"lax-1.us.uncletopia.com","port":27045,"enabled":true,"region":"us-west","cc":"us","latitude":33.94279,"longitude":-118.41004,"reserved":0,"last_update":"0001-01-01T00:00:00Z","name_a2s":"Uncletopia | Los Angeles | 4 | Stopwatch Beta","protocol":17,"map":"koth_viaduct","folder":"tf","game":"Team Fortress","app_id":440,"player_count":0,"max_players":24,"Bots":0,"server_type":"Dedicated","server_os":"Linux","password":true,"vac":true,"version":"7882260","steam_id":85568392924510199,"keywords":["cp","nocrits","nodmgspread","uncletopia"],"game_id":440,"stv_port":27046,"stv_name":"Uncletopia | Los Angeles | 4 | Stopwatch Beta | STV","players":null},{"server_id":11,"name":"Uncletopia | London | 1 | All Maps","name_short":"lon-1","host":"lon-1.uk.uncletopia.com","port":27015,"enabled":true,"region":"eu","cc":"gb","latitude":51.509865,"longitude":-0.118092,"reserved":0,"last_update":"0001-01-01T00:00:00Z","name_a2s":"Uncletopia | London | 1 | All Maps","protocol":17,"map":"pl_snowycoast","folder":"tf","game":"Team Fortress","app_id":440,"player_count":0,"max_players":24,"Bots":0,"server_type":"Dedicated","server_os":"Linux","password":true,"vac":true,"version":"7882260","steam_id":85568392924367362,"keywords":["nocrits","nodmgspread","payload","uncletopia"],"game_id":440,"stv_port":27016,"stv_name":"Uncletopia | London | 1 | All Maps | STV","players":null},{"server_id":114,"name":"Uncletopia | London | 2 | All Maps","name_short":"lon-2","host":"lon-1.uk.uncletopia.com","port":27025,"enabled":true,"region":"eu","cc":"gb","latitude":51.509865,"longitude":-0.118092,"reserved":0,"last_update":"0001-01-01T00:00:00Z","name_a2s":"Uncletopia | London | 2 | All Maps","protocol":17,"map":"koth_highpass","folder":"tf","game":"Team Fortress","app_id":440,"player_count":0,"max_players":24,"Bots":0,"server_type":"Dedicated","server_os":"Linux","password":true,"vac":true,"version":"7882260","steam_id":85568392924470941,"keywords":["cp","nocrits","nodmgspread","uncletopia"],"game_id":440,"stv_port":27026,"stv_name":"Uncletopia | London | 2 | All Maps | STV","players":null},{"server_id":320,"name":"Uncletopia | London | 3 | All Maps","name_short":"lon-3","host":"lon-1.uk.uncletopia.com","port":27035,"enabled":true,"region":"eu","cc":"gb","latitude":51.509865,"longitude":-0.118092,"reserved":0,"last_update":"0001-01-01T00:00:00Z","name_a2s":"Uncletopia | London | 3 | All Maps","protocol":17,"map":"pl_borneo","folder":"tf","game":"Team Fortress","app_id":440,"player_count":0,"max_players":24,"Bots":0,"server_type":"Dedicated","server_os":"Linux","password":true,"vac":true,"version":"7882260","steam_id":85568392924510192,"keywords":["nocrits","nodmgspread","payload","uncletopia"],"game_id":440,"stv_port":27036,"stv_name":"Uncletopia | London | 3 | All Maps | STV","players":null},{"server_id":321,"name":"Uncletopia | London | 4 | All Maps","name_short":"lon-4","host":"lon-1.uk.uncletopia.com","port":27045,"enabled":true,"region":"eu","cc":"gb","latitude":51.509865,"longitude":-0.118092,"reserved":0,"last_update":"0001-01-01T00:00:00Z","name_a2s":"Uncletopia | London | 4 | All Maps","protocol":17,"map":"pl_upward","folder":"tf","game":"Team Fortress","app_id":440,"player_count":24,"max_players":24,"Bots":0,"server_type":"Dedicated","server_os":"Linux","password":true,"vac":true,"version":"7882260","steam_id":85568392924510193,"keywords":["nocrits","nodmgspread","payload","uncletopia"],"game_id":440,"stv_port":27046,"stv_name":"Uncletopia | London | 4 | All Maps | STV","players":[{"user_id":63,"name":"Alice","steam_id":76561198208927047,"connected_time":1176000000000,"state":"active","ping":72},{"user_id":54,"name":"Hedge Knight","steam_id":76561198989449047,"connected_time":1776000000000,"state":"active","ping":129},{"user_id":81,"name":"Charles Darwin","steam_id":76561197973496139,"connected_time":25000000000,"state":"spawning","ping":74},{"user_id":40,"name":"Neimon","steam_id":76561198343485710,"connected_time":3219000000000,"state":"active","ping":130},{"user_id":49,"name":"\"I feel très bon!\"","steam_id":76561198165732391,"connected_time":2143000000000,"state":"active","ping":86},{"user_id":78,"name":"GuSkand","steam_id":76561198043775605,"connected_time":279000000000,"state":"active","ping":77},{"user_id":82,"name":"Dr Alto Clef","steam_id":76561199208657627,"connected_time":10000000000,"state":"active","ping":159},{"user_id":71,"name":"DoDonPachi","steam_id":76561199085984801,"connected_time":838000000000,"state":"active","ping":52},{"user_id":45,"name":"Waltuh","steam_id":76561198079334270,"connected_time":2517000000000,"state":"active","ping":66},{"user_id":62,"name":"CINE191","steam_id":76561198182777486,"connected_time":1213000000000,"state":"active","ping":68},{"user_id":64,"name":"No | S | uS","steam_id":76561199195727551,"connected_time":1130000000000,"state":"active","ping":43},{"user_id":65,"name":"lemon pene","steam_id":76561198206954985,"connected_time":1127000000000,"state":"active","ping":119},{"user_id":80,"name":"'Poli","steam_id":76561198058710244,"connected_time":143000000000,"state":"active","ping":97},{"user_id":56,"name":"M2rtRa","steam_id":76561198111036466,"connected_time":1682000000000,"state":"active","ping":74},{"user_id":19,"name":"Enigmus","steam_id":76561197994063627,"connected_time":4489000000000,"state":"active","ping":90},{"user_id":57,"name":"Canis[Magnus]Pectus","steam_id":76561198363775072,"connected_time":1656000000000,"state":"active","ping":129},{"user_id":22,"name":"shits in urinals","steam_id":76561199480942903,"connected_time":4329000000000,"state":"active","ping":100},{"user_id":68,"name":"LASER_Bird","steam_id":76561199235132410,"connected_time":984000000000,"state":"active","ping":59},{"user_id":67,"name":"Loot Rat","steam_id":76561198154304193,"connected_time":1023000000000,"state":"active","ping":88},{"user_id":69,"name":"Jacket II #SaveTF2","steam_id":76561198297594947,"connected_time":957000000000,"state":"active","ping":130},{"user_id":70,"name":"medicinal man","steam_id":76561198202668788,"connected_time":880000000000,"state":"active","ping":71},{"user_id":72,"name":"Pawoss","steam_id":76561198050416391,"connected_time":821000000000,"state":"active","ping":92},{"user_id":73,"name":"Penis Contortionist","steam_id":76561198073663784,"connected_time":807000000000,"state":"active","ping":35},{"user_id":76,"name":"2007HYC","steam_id":76561198027033926,"connected_time":373000000000,"state":"active","ping":56}]},{"server_id":21,"name":"Uncletopia | London | 5 | All Maps","name_short":"lon-5","host":"lon-1.uk.uncletopia.com","port":27055,"enabled":true,"region":"eu","cc":"gb","latitude":51.509865,"longitude":-0.118092,"reserved":0,"last_update":"0001-01-01T00:00:00Z","name_a2s":"Uncletopia | London | 5 | All Maps","protocol":17,"map":"koth_viaduct","folder":"tf","game":"Team Fortress","app_id":440,"player_count":0,"max_players":24,"Bots":0,"server_type":"Dedicated","server_os":"Linux","password":true,"vac":true,"version":"7882260","steam_id":85568392924742829,"keywords":["cp","nocrits","nodmgspread","uncletopia"],"game_id":440,"stv_port":27056,"stv_name":"Uncletopia | London | 5 | All Maps | STV","players":null},{"server_id":22,"name":"Uncletopia | London | 6 | All Maps","name_short":"lon-6","host":"lon-1.uk.uncletopia.com","port":27065,"enabled":true,"region":"eu","cc":"gb","latitude":51.509865,"longitude":-0.118092,"reserved":0,"last_update":"0001-01-01T00:00:00Z","name_a2s":"Uncletopia | London | 6 | All Maps","protocol":17,"map":"koth_lakeside_final","folder":"tf","game":"Team Fortress","app_id":440,"player_count":0,"max_players":24,"Bots":0,"server_type":"Dedicated","server_os":"Linux","password":true,"vac":true,"version":"7882260","steam_id":85568392924742830,"keywords":["cp","nocrits","nodmgspread","uncletopia"],"game_id":440,"stv_port":27066,"stv_name":"Uncletopia | London | 6 | All Maps | STV","players":null},{"server_id":40,"name":"Uncletopia | London | 7 | No Payload","name_short":"lon-7","host":"lon-1.uk.uncletopia.com","port":27075,"enabled":true,"region":"eu","cc":"gb","latitude":51.509865,"longitude":-0.118092,"reserved":0,"last_update":"0001-01-01T00:00:00Z","name_a2s":"Uncletopia | London | 7 | No Payload","protocol":17,"map":"pl_upward","folder":"tf","game":"Team Fortress","app_id":440,"player_count":0,"max_players":24,"Bots":0,"server_type":"Dedicated","server_os":"Linux","password":true,"vac":true,"version":"7882260","steam_id":85568392924964314,"keywords":["nocrits","nodmgspread","payload","uncletopia"],"game_id":440,"stv_port":27076,"stv_name":"Uncletopia | London | 7 | No Payload | STV","players":null},{"server_id":41,"name":"Uncletopia | London | 8 | Community","name_short":"lon-8","host":"lon-1.uk.uncletopia.com","port":27085,"enabled":true,"region":"eu","cc":"gb","latitude":51.509865,"longitude":-0.118092,"reserved":0,"last_update":"0001-01-01T00:00:00Z","name_a2s":"Uncletopia | London | 8 | Community","protocol":17,"map":"pl_upward","folder":"tf","game":"Team Fortress","app_id":440,"player_count":0,"max_players":24,"Bots":0,"server_type":"Dedicated","server_os":"Linux","password":true,"vac":true,"version":"7882260","steam_id":85568392924964315,"keywords":["nocrits","nodmgspread","payload","uncletopia"],"game_id":440,"stv_port":27086,"stv_name":"Uncletopia | London | 8 | Community | STV","players":null},{"server_id":300,"name":"Uncletopia | Montréal | 1 | All Maps","name_short":"mtl-1","host":"mtl-1.ca.uncletopia.com","port":27015,"enabled":true,"region":"us-east","cc":"ca","latitude":45.50889,"longitude":-73.56167,"reserved":0,"last_update":"0001-01-01T00:00:00Z","name_a2s":"Uncletopia | Montréal | 1 | All Maps","protocol":17,"map":"koth_cascade","folder":"tf","game":"Team Fortress","app_id":440,"player_count":0,"max_players":24,"Bots":0,"server_type":"Dedicated","server_os":"Linux","password":true,"vac":true,"version":"7882260","steam_id":85568392924500087,"keywords":["cp","nocrits","nodmgspread","uncletopia"],"game_id":440,"stv_port":27016,"stv_name":"Uncletopia | Montréal | 1 | All Maps | STV","players":null},{"server_id":301,"name":"Uncletopia | Montréal | 2 | All Maps","name_short":"mtl-2","host":"mtl-1.ca.uncletopia.com","port":27025,"enabled":true,"region":"us-east","cc":"ca","latitude":45.50889,"longitude":-73.56167,"reserved":0,"last_update":"0001-01-01T00:00:00Z","name_a2s":"Uncletopia | Montréal | 2 | All Maps","protocol":17,"map":"pl_snowycoast","folder":"tf","game":"Team Fortress","app_id":440,"player_count":0,"max_players":24,"Bots":0,"server_type":"Dedicated","server_os":"Linux","password":true,"vac":true,"version":"7882260","steam_id":85568392924500088,"keywords":["nocrits","nodmgspread","payload","uncletopia"],"game_id":440,"stv_port":27026,"stv_name":"Uncletopia | Montréal | 2 | All Maps | STV","players":null},{"server_id":302,"name":"Uncletopia | Montréal | 3 | All Maps","name_short":"mtl-3","host":"mtl-1.ca.uncletopia.com","port":27035,"enabled":true,"region":"us-east","cc":"ca","latitude":45.50889,"longitude":-73.56167,"reserved":0,"last_update":"0001-01-01T00:00:00Z","name_a2s":"Uncletopia | Montréal | 3 | All Maps","protocol":17,"map":"koth_viaduct","folder":"tf","game":"Team Fortress","app_id":440,"player_count":0,"max_players":24,"Bots":0,"server_type":"Dedicated","server_os":"Linux","password":true,"vac":true,"version":"7882260","steam_id":85568392924500089,"keywords":["cp","nocrits","nodmgspread","uncletopia"],"game_id":440,"stv_port":27036,"stv_name":"Uncletopia | Montréal | 3 | All Maps | STV","players":null},{"server_id":303,"name":"Uncletopia | Montréal | 4 | No Payload","name_short":"mtl-4","host":"mtl-1.ca.uncletopia.com","port":27045,"enabled":true,"region":"us-east","cc":"ca","latitude":45.50889,"longitude":-73.56167,"reserved":0,"last_update":"0001-01-01T00:00:00Z","name_a2s":"Uncletopia | Montréal | 4 | No Payload","protocol":17,"map":"koth_highpass","folder":"tf","game":"Team Fortress","app_id":440,"player_count":0,"max_players":24,"Bots":0,"server_type":"Dedicated","server_os":"Linux","password":true,"vac":true,"version":"7882260","steam_id":85568392924500090,"keywords":["cp","nocrits","nodmgspread","uncletopia"],"game_id":440,"stv_port":27046,"stv_name":"Uncletopia | Montréal | 4 | No Payload | STV","players":null},{"server_id":13,"name":"Uncletopia | New York City | 1 | All Maps","name_short":"nyc-1","host":"nyc-1.us.uncletopia.com","port":27015,"enabled":true,"region":"us-east","cc":"us","latitude":40.73061,"longitude":-73.93524,"reserved":0,"last_update":"0001-01-01T00:00:00Z","name_a2s":"Uncletopia | New York City | 1 | All Maps","protocol":17,"map":"cp_altitude","folder":"tf","game":"Team Fortress","app_id":440,"player_count":0,"max_players":24,"Bots":0,"server_type":"Dedicated","server_os":"Linux","password":true,"vac":true,"version":"7882260","steam_id":85568392924469993,"keywords":["cp","nocrits","nodmgspread","uncletopia"],"game_id":440,"stv_port":27016,"stv_name":"Uncletopia | New York City | 1 | All Maps | STV","players":null},{"server_id":14,"name":"Uncletopia | New York City | 2 | All Maps","name_short":"nyc-2","host":"nyc-1.us.uncletopia.com","port":27025,"enabled":true,"region":"us-east","cc":"us","latitude":40.73061,"longitude":-73.93524,"reserved":0,"last_update":"0001-01-01T00:00:00Z","name_a2s":"Uncletopia | New York City | 2 | All Maps","protocol":17,"map":"koth_cascade","folder":"tf","game":"Team Fortress","app_id":440,"player_count":0,"max_players":24,"Bots":0,"server_type":"Dedicated","server_os":"Linux","password":true,"vac":true,"version":"7882260","steam_id":85568392924469994,"keywords":["cp","nocrits","nodmgspread","uncletopia"],"game_id":440,"stv_port":27026,"stv_name":"Uncletopia | New York City | 2 | All Maps | STV","players":null},{"server_id":15,"name":"Uncletopia | New York City | 3 | Stopwatch Beta","name_short":"nyc-3","host":"nyc-1.us.uncletopia.com","port":27035,"enabled":true,"region":"us-east","cc":"us","latitude":40.73061,"longitude":-73.93524,"reserved":0,"last_update":"0001-01-01T00:00:00Z","name_a2s":"Uncletopia | New York City | 3 | Stopwatch Beta","protocol":17,"map":"pl_borneo","folder":"tf","game":"Team Fortress","app_id":440,"player_count":0,"max_players":24,"Bots":0,"server_type":"Dedicated","server_os":"Linux","password":true,"vac":true,"version":"7882260","steam_id":85568392924742820,"keywords":["nocrits","nodmgspread","payload","uncletopia"],"game_id":440,"stv_port":27036,"stv_name":"Uncletopia | New York City | 3 | Stopwatch Beta | STV","players":null},{"server_id":16,"name":"Uncletopia | New York City | 4 | Community","name_short":"nyc-4","host":"nyc-1.us.uncletopia.com","port":27045,"enabled":true,"region":"us-east","cc":"us","latitude":40.73061,"longitude":-73.93524,"reserved":0,"last_update":"0001-01-01T00:00:00Z","name_a2s":"Uncletopia | New York City | 4 | Community","protocol":17,"map":"workshop/cp_propaganda_b18.ugc1603743849","folder":"tf","game":"Team Fortress","app_id":440,"player_count":0,"max_players":24,"Bots":0,"server_type":"Dedicated","server_os":"Linux","password":true,"vac":true,"version":"7882260","steam_id":85568392924742821,"keywords":["cp","nocrits","nodmgspread","uncletopia"],"game_id":440,"stv_port":27046,"stv_name":"Uncletopia | New York City | 4 | Community | STV","players":null},{"server_id":142,"name":"Uncletopia | São Paulo | 1 | All Maps","name_short":"sao-1","host":"sao-1.br.uncletopia.com","port":27015,"enabled":true,"region":"sa","cc":"br","latitude":-23.533773,"longitude":-46.62529,"reserved":0,"last_update":"0001-01-01T00:00:00Z","name_a2s":"Uncletopia | São Paulo | 1 | All Maps","protocol":17,"map":"pl_barnblitz","folder":"tf","game":"Team Fortress","app_id":440,"player_count":0,"max_players":24,"Bots":0,"server_type":"Dedicated","server_os":"Linux","password":true,"vac":true,"version":"7882260","steam_id":85568392924469996,"keywords":["nocrits","nodmgspread","payload","uncletopia"],"game_id":440,"stv_port":27016,"stv_name":"Uncletopia | São Paulo | 1 | All Maps | STV","players":null},{"server_id":143,"name":"Uncletopia | São Paulo | 2 | All Maps","name_short":"sao-2","host":"sao-2.br.uncletopia.com","port":27015,"enabled":true,"region":"sa","cc":"br","latitude":-23.533773,"longitude":-46.62529,"reserved":0,"last_update":"0001-01-01T00:00:00Z","name_a2s":"Uncletopia | São Paulo | 2 | All Maps","protocol":17,"map":"cp_sunshine","folder":"tf","game":"Team Fortress","app_id":440,"player_count":0,"max_players":24,"Bots":0,"server_type":"Dedicated","server_os":"Linux","password":true,"vac":true,"version":"7882260","steam_id":85568392924485349,"keywords":["cp","nocrits","nodmgspread","uncletopia"],"game_id":440,"stv_port":27016,"stv_name":"Uncletopia | São Paulo | 2 | All Maps | STV","players":null},{"server_id":7,"name":"Uncletopia | Seattle | 1 | All Maps","name_short":"sea-1","host":"sea-1.us.uncletopia.com","port":27015,"enabled":true,"region":"us-west","cc":"us","latitude":47.608013,"longitude":-122.33517,"reserved":0,"last_update":"0001-01-01T00:00:00Z","name_a2s":"Uncletopia | Seattle | 1 | All Maps","protocol":17,"map":"koth_highpass","folder":"tf","game":"Team Fortress","app_id":440,"player_count":24,"max_players":24,"Bots":0,"server_type":"Dedicated","server_os":"Linux","password":true,"vac":true,"version":"7882260","steam_id":85568392924469997,"keywords":["cp","nocrits","nodmgspread","uncletopia"],"game_id":440,"stv_port":27016,"stv_name":"Uncletopia | Seattle | 1 | All Maps | STV","players":[{"user_id":745,"name":"John Calibur","steam_id":76561197999986606,"connected_time":1161000000000,"state":"active","ping":65},{"user_id":758,"name":"Horsecat","steam_id":76561198061653283,"connected_time":217000000000,"state":"active","ping":175},{"user_id":757,"name":"brhm","steam_id":76561198199604767,"connected_time":369000000000,"state":"active","ping":48},{"user_id":744,"name":"Callahan","steam_id":76561197976928457,"connected_time":1170000000000,"state":"active","ping":48},{"user_id":661,"name":"Lord Hater","steam_id":76561199158148782,"connected_time":10837000000000,"state":"active","ping":50},{"user_id":759,"name":"ThorClock🧙","steam_id":76561197995210425,"connected_time":185000000000,"state":"active","ping":42},{"user_id":747,"name":"BlitzB@t","steam_id":76561198299318000,"connected_time":1113000000000,"state":"active","ping":58},{"user_id":712,"name":"squash","steam_id":76561198150281353,"connected_time":4427000000000,"state":"active","ping":52},{"user_id":675,"name":"delight","steam_id":76561197980280272,"connected_time":9387000000000,"state":"active","ping":45},{"user_id":735,"name":"koolamundo","steam_id":76561198101705890,"connected_time":2368000000000,"state":"active","ping":85},{"user_id":750,"name":"Shopkeeper","steam_id":76561198105888756,"connected_time":973000000000,"state":"active","ping":73},{"user_id":723,"name":"smeasly","steam_id":76561198028718812,"connected_time":3079000000000,"state":"active","ping":45},{"user_id":716,"name":"oil","steam_id":76561198099980149,"connected_time":4230000000000,"state":"active","ping":70},{"user_id":752,"name":"PBxJAY","steam_id":76561198402471788,"connected_time":732000000000,"state":"active","ping":100},{"user_id":725,"name":"Kc","steam_id":76561198210734407,"connected_time":3068000000000,"state":"active","ping":119},{"user_id":749,"name":"DesertFroggo","steam_id":76561198015607829,"connected_time":1060000000000,"state":"active","ping":85},{"user_id":760,"name":"Pah-Wraith Gul Dukat","steam_id":76561198033918106,"connected_time":114000000000,"state":"active","ping":61},{"user_id":722,"name":"hotdog every meal","steam_id":76561198392514273,"connected_time":3096000000000,"state":"active","ping":51},{"user_id":732,"name":"evil Alex \u003e:D","steam_id":76561198088131563,"connected_time":2511000000000,"state":"active","ping":84},{"user_id":729,"name":"NickoDeeBz","steam_id":76561198294657867,"connected_time":2756000000000,"state":"active","ping":91},{"user_id":754,"name":"hart","steam_id":76561198046073848,"connected_time":716000000000,"state":"active","ping":48},{"user_id":762,"name":"joe mama","steam_id":76561198044597012,"connected_time":18000000000,"state":"active","ping":45},{"user_id":718,"name":"rorywashere /ᐠ - ˕ -マ Ⳋ","steam_id":76561198065825165,"connected_time":4172000000000,"state":"active","ping":96},{"user_id":738,"name":"resh","steam_id":76561198239598834,"connected_time":1349000000000,"state":"active","ping":135}]},{"server_id":119,"name":"Uncletopia | Seattle | 2 | All Maps","name_short":"sea-2","host":"sea-1.us.uncletopia.com","port":27025,"enabled":true,"region":"us-west","cc":"us","latitude":47.608013,"longitude":-122.33517,"reserved":0,"last_update":"0001-01-01T00:00:00Z","name_a2s":"Uncletopia | Seattle | 2 | All Maps","protocol":17,"map":"pl_snowycoast","folder":"tf","game":"Team Fortress","app_id":440,"player_count":24,"max_players":24,"Bots":0,"server_type":"Dedicated","server_os":"Linux","password":true,"vac":true,"version":"7882260","steam_id":85568392924469998,"keywords":["nocrits","nodmgspread","payload","uncletopia"],"game_id":440,"stv_port":27026,"stv_name":"Uncletopia | Seattle | 2 | All Maps | STV","players":[{"user_id":576,"name":"Duck nut","steam_id":76561198355475831,"connected_time":1871000000000,"state":"active","ping":88},{"user_id":578,"name":"Disc0","steam_id":76561198067337267,"connected_time":1810000000000,"state":"active","ping":48},{"user_id":559,"name":"Zorlovo","steam_id":76561198006443283,"connected_time":3805000000000,"state":"active","ping":93},{"user_id":586,"name":"mike","steam_id":76561198163265338,"connected_time":611000000000,"state":"active","ping":52},{"user_id":573,"name":"jadeite","steam_id":76561198022298676,"connected_time":2223000000000,"state":"active","ping":39},{"user_id":584,"name":"00","steam_id":76561198041700636,"connected_time":1002000000000,"state":"active","ping":61},{"user_id":580,"name":"Jolly","steam_id":76561198116357972,"connected_time":1719000000000,"state":"active","ping":68},{"user_id":502,"name":"goldhed","steam_id":76561198051751133,"connected_time":7828000000000,"state":"active","ping":58},{"user_id":594,"name":"BuncusBeffer","steam_id":76561198285936616,"connected_time":376000000000,"state":"active","ping":77},{"user_id":526,"name":"gnomer","steam_id":76561198046926728,"connected_time":6066000000000,"state":"active","ping":45},{"user_id":588,"name":"NotThatGuyPal","steam_id":76561199127607812,"connected_time":543000000000,"state":"active","ping":78},{"user_id":533,"name":"charm quark","steam_id":76561198098770777,"connected_time":5839000000000,"state":"active","ping":57},{"user_id":589,"name":"Specter the Unchained","steam_id":76561198348354629,"connected_time":477000000000,"state":"active","ping":151},{"user_id":563,"name":"Botanics","steam_id":76561198137966109,"connected_time":3096000000000,"state":"active","ping":78},{"user_id":546,"name":"h","steam_id":76561198868164815,"connected_time":4887000000000,"state":"active","ping":55},{"user_id":554,"name":"iKickBabies","steam_id":76561199337400258,"connected_time":3981000000000,"state":"active","ping":84},{"user_id":577,"name":"Gustavo Fring","steam_id":76561198132807405,"connected_time":1864000000000,"state":"active","ping":140},{"user_id":596,"name":"the meat man","steam_id":76561198037921140,"connected_time":152000000000,"state":"active","ping":67},{"user_id":555,"name":"seats","steam_id":76561197998756039,"connected_time":3954000000000,"state":"active","ping":75},{"user_id":591,"name":"HФRSEPAIN","steam_id":76561198083658115,"connected_time":433000000000,"state":"active","ping":55},{"user_id":592,"name":"Elias","steam_id":76561198106431732,"connected_time":408000000000,"state":"active","ping":91},{"user_id":583,"name":"squart guy","steam_id":76561199411560141,"connected_time":1337000000000,"state":"active","ping":89},{"user_id":593,"name":"♡ ironterrortrain ♡","steam_id":76561198046460418,"connected_time":388000000000,"state":"active","ping":83},{"user_id":595,"name":"SCUD missile up your ass","steam_id":76561198066452726,"connected_time":306000000000,"state":"active","ping":79}]},{"server_id":406,"name":"Uncletopia | Seattle | 3 | Stopwatch Beta","name_short":"sea-3","host":"sea-1.us.uncletopia.com","port":27035,"enabled":true,"region":"us-west","cc":"us","latitude":47.608013,"longitude":-122.33517,"reserved":0,"last_update":"0001-01-01T00:00:00Z","name_a2s":"Uncletopia | Seattle | 3 | Stopwatch Beta","protocol":17,"map":"workshop/pl_barnblitz_pro7.ugc582280235","folder":"tf","game":"Team Fortress","app_id":440,"player_count":0,"max_players":24,"Bots":0,"server_type":"Dedicated","server_os":"Linux","password":true,"vac":true,"version":"7882260","steam_id":85568392924515217,"keywords":["nocrits","nodmgspread","payload","uncletopia"],"game_id":440,"stv_port":27036,"stv_name":"Uncletopia | Seattle | 3 | Stopwatch Beta | STV","players":null},{"server_id":17,"name":"Uncletopia | San Francisco | 1 | All Maps","name_short":"sfo-1","host":"sfo-1.us.uncletopia.com","port":27015,"enabled":true,"region":"us-west","cc":"us","latitude":37.77397,"longitude":-122.4313,"reserved":0,"last_update":"0001-01-01T00:00:00Z","name_a2s":"Uncletopia | San Francisco | 1 | All Maps","protocol":17,"map":"koth_king","folder":"tf","game":"Team Fortress","app_id":440,"player_count":18,"max_players":24,"Bots":0,"server_type":"Dedicated","server_os":"Linux","password":true,"vac":true,"version":"7882260","steam_id":85568392924469999,"keywords":["cp","nocrits","nodmgspread","uncletopia"],"game_id":440,"stv_port":27016,"stv_name":"Uncletopia | San Francisco | 1 | All Maps | STV","players":[{"user_id":324,"name":"Bandana Bullet","steam_id":76561198397347120,"connected_time":5304000000000,"state":"active","ping":69},{"user_id":374,"name":"Sleuth","steam_id":76561198418288939,"connected_time":2549000000000,"state":"active","ping":51},{"user_id":373,"name":"smiley","steam_id":76561198240116276,"connected_time":2584000000000,"state":"active","ping":93},{"user_id":387,"name":"Bocchi the Gock","steam_id":76561198152455316,"connected_time":572000000000,"state":"active","ping":160},{"user_id":392,"name":"xXScoutmainXx","steam_id":76561198868527872,"connected_time":203000000000,"state":"active","ping":138},{"user_id":375,"name":"Cheesed Burger","steam_id":76561198066425198,"connected_time":2543000000000,"state":"active","ping":68},{"user_id":339,"name":"NightCrow","steam_id":76561198083778418,"connected_time":4629000000000,"state":"active","ping":69},{"user_id":390,"name":"U ω U","steam_id":76561198118802562,"connected_time":306000000000,"state":"active","ping":65},{"user_id":393,"name":"imp","steam_id":76561198046951853,"connected_time":148000000000,"state":"active","ping":46},{"user_id":380,"name":"Nicknacklemore","steam_id":76561198060527551,"connected_time":1773000000000,"state":"active","ping":105},{"user_id":394,"name":"joy","steam_id":76561198072344194,"connected_time":94000000000,"state":"active","ping":73},{"user_id":385,"name":"MegaMatt","steam_id":76561198198900365,"connected_time":1304000000000,"state":"active","ping":59},{"user_id":367,"name":"♡ Little Eggrow ♡","steam_id":76561198881583027,"connected_time":3144000000000,"state":"active","ping":64},{"user_id":378,"name":"Taffy","steam_id":76561198276612538,"connected_time":1822000000000,"state":"active","ping":44},{"user_id":368,"name":"Nimro","steam_id":76561198049334200,"connected_time":3143000000000,"state":"active","ping":68},{"user_id":383,"name":"FaceLaces","steam_id":76561198194417725,"connected_time":1517000000000,"state":"active","ping":57},{"user_id":376,"name":"Darkspiral","steam_id":76561198080807559,"connected_time":2255000000000,"state":"active","ping":49},{"user_id":370,"name":"rock gaming","steam_id":76561199402868311,"connected_time":3004000000000,"state":"active","ping":68}]},{"server_id":18,"name":"Uncletopia | San Francisco | 2 | All Maps","name_short":"sfo-2","host":"sfo-1.us.uncletopia.com","port":27025,"enabled":true,"region":"us-west","cc":"us","latitude":37.77397,"longitude":-122.4313,"reserved":0,"last_update":"0001-01-01T00:00:00Z","name_a2s":"Uncletopia | San Francisco | 2 | All Maps","protocol":17,"map":"pl_snowycoast","folder":"tf","game":"Team Fortress","app_id":440,"player_count":0,"max_players":24,"Bots":0,"server_type":"Dedicated","server_os":"Linux","password":true,"vac":true,"version":"7882260","steam_id":85568392924470000,"keywords":["nocrits","nodmgspread","payload","uncletopia"],"game_id":440,"stv_port":27026,"stv_name":"Uncletopia | San Francisco | 2 | All Maps | STV","players":null},{"server_id":19,"name":"Uncletopia | San Francisco | 3 | Stopwatch Beta","name_short":"sfo-3","host":"sfo-1.us.uncletopia.com","port":27035,"enabled":true,"region":"us-west","cc":"us","latitude":37.77397,"longitude":-122.4313,"reserved":0,"last_update":"0001-01-01T00:00:00Z","name_a2s":"Uncletopia | San Francisco | 3 | Stopwatch Beta","protocol":17,"map":"workshop/pl_barnblitz_pro7.ugc582280235","folder":"tf","game":"Team Fortress","app_id":440,"player_count":0,"max_players":24,"Bots":0,"server_type":"Dedicated","server_os":"Linux","password":true,"vac":true,"version":"7882260","steam_id":85568392924742824,"keywords":["nocrits","nodmgspread","payload","uncletopia"],"game_id":440,"stv_port":27036,"stv_name":"Uncletopia | San Francisco | 3 | Stopwatch Beta | STV","players":null},{"server_id":20,"name":"Uncletopia | San Francisco | 4 | Community","name_short":"sfo-4","host":"sfo-1.us.uncletopia.com","port":27045,"enabled":true,"region":"us-west","cc":"us","latitude":37.77397,"longitude":-122.4313,"reserved":0,"last_update":"0001-01-01T00:00:00Z","name_a2s":"Uncletopia | San Francisco | 4 | Community","protocol":17,"map":"workshop/cp_caldera_rc2.ugc2834196889","folder":"tf","game":"Team Fortress","app_id":440,"player_count":0,"max_players":24,"Bots":0,"server_type":"Dedicated","server_os":"Linux","password":true,"vac":true,"version":"7882260","steam_id":85568392924742826,"keywords":["cp","nocrits","nodmgspread","uncletopia"],"game_id":440,"stv_port":27046,"stv_name":"Uncletopia | San Francisco | 4 | Community | STV","players":null},{"server_id":141,"name":"Uncletopia | Sydney | 1 | All Maps","name_short":"syd-1","host":"syd-1.au.uncletopia.com","port":27015,"enabled":true,"region":"au","cc":"au","latitude":-33.865143,"longitude":151.2099,"reserved":0,"last_update":"0001-01-01T00:00:00Z","name_a2s":"Uncletopia | Sydney | 1 | All Maps","protocol":17,"map":"pl_badwater","folder":"tf","game":"Team Fortress","app_id":440,"player_count":24,"max_players":24,"Bots":0,"server_type":"Dedicated","server_os":"Linux","password":true,"vac":true,"version":"7882260","steam_id":85568392924470001,"keywords":["nocrits","nodmgspread","payload","uncletopia"],"game_id":440,"stv_port":27016,"stv_name":"Uncletopia | Sydney | 1 | All Maps | STV","players":[{"user_id":344,"name":"♥ BILL!!! ♥","steam_id":76561198066726621,"connected_time":1204000000000,"state":"active","ping":46},{"user_id":322,"name":"Chooka","steam_id":76561197992307814,"connected_time":4074000000000,"state":"active","ping":67},{"user_id":312,"name":"BruceWillis235","steam_id":76561198884324029,"connected_time":4407000000000,"state":"active","ping":89},{"user_id":350,"name":"uso","steam_id":76561198028756598,"connected_time":238000000000,"state":"active","ping":86},{"user_id":351,"name":"RAZE","steam_id":76561198194871175,"connected_time":166000000000,"state":"active","ping":47},{"user_id":352,"name":"ThatMushroomGuy","steam_id":76561199086844378,"connected_time":87000000000,"state":"active","ping":85},{"user_id":348,"name":"local fella","steam_id":76561198000568803,"connected_time":700000000000,"state":"active","ping":45},{"user_id":324,"name":"real american patriot","steam_id":76561198133867907,"connected_time":3857000000000,"state":"active","ping":67},{"user_id":278,"name":"Kevin Parker","steam_id":76561198060677406,"connected_time":6897000000000,"state":"active","ping":90},{"user_id":340,"name":"Digital Wam","steam_id":76561198025584563,"connected_time":1706000000000,"state":"active","ping":100},{"user_id":321,"name":"William Ask Overture","steam_id":76561198031293430,"connected_time":4165000000000,"state":"active","ping":80},{"user_id":326,"name":"no teles 4 u","steam_id":76561198018478297,"connected_time":3180000000000,"state":"active","ping":71},{"user_id":318,"name":"zorbingus blurgorgus","steam_id":76561198063481761,"connected_time":4209000000000,"state":"active","ping":41},{"user_id":338,"name":"4004","steam_id":76561198025099660,"connected_time":1997000000000,"state":"active","ping":44},{"user_id":349,"name":"soupy","steam_id":76561198073734936,"connected_time":419000000000,"state":"active","ping":89},{"user_id":313,"name":"locust no.2","steam_id":76561198060024585,"connected_time":4404000000000,"state":"active","ping":42},{"user_id":345,"name":"Jodelkönig Franzl Lang","steam_id":76561198007667830,"connected_time":974000000000,"state":"active","ping":59},{"user_id":317,"name":"Tantei Rotana","steam_id":76561198041204323,"connected_time":4261000000000,"state":"active","ping":63},{"user_id":335,"name":"Arcueid Brunestud","steam_id":76561199016592990,"connected_time":2289000000000,"state":"active","ping":100},{"user_id":347,"name":"you've left me be Wilbur'd","steam_id":76561198301282416,"connected_time":761000000000,"state":"active","ping":46},{"user_id":320,"name":"ibus","steam_id":76561199026701614,"connected_time":4176000000000,"state":"active","ping":59},{"user_id":306,"name":"whiteshaq","steam_id":76561198131988811,"connected_time":5005000000000,"state":"active","ping":61},{"user_id":280,"name":"Happy Feet (A Tarantino Film)","steam_id":76561198055318716,"connected_time":6868000000000,"state":"active","ping":42},{"user_id":331,"name":"Bigrichard","steam_id":76561198032092945,"connected_time":2398000000000,"state":"active","ping":83}]},{"server_id":123,"name":"Uncletopia | Sydney | 2 | All Maps","name_short":"syd-2","host":"syd-1.au.uncletopia.com","port":27025,"enabled":true,"region":"au","cc":"au","latitude":-33.865143,"longitude":151.2099,"reserved":0,"last_update":"0001-01-01T00:00:00Z","name_a2s":"Uncletopia | Sydney | 2 | All Maps","protocol":17,"map":"pl_swiftwater_final1","folder":"tf","game":"Team Fortress","app_id":440,"player_count":24,"max_players":24,"Bots":0,"server_type":"Dedicated","server_os":"Linux","password":true,"vac":true,"version":"7882260","steam_id":85568392924470002,"keywords":["nocrits","nodmgspread","payload","uncletopia"],"game_id":440,"stv_port":27026,"stv_name":"Uncletopia | Sydney | 2 | All Maps | STV","players":[{"user_id":63,"name":"Asl:3x","steam_id":76561198972095766,"connected_time":1210000000000,"state":"active","ping":33},{"user_id":26,"name":"kat","steam_id":76561198253684645,"connected_time":3562000000000,"state":"active","ping":60},{"user_id":68,"name":"Squishy","steam_id":76561198985769205,"connected_time":694000000000,"state":"active","ping":49},{"user_id":28,"name":"Cardboard!!1! (no mic)","steam_id":76561199099769110,"connected_time":3147000000000,"state":"active","ping":63},{"user_id":70,"name":"The Big Sniffer MK.2","steam_id":76561198281156018,"connected_time":628000000000,"state":"active","ping":55},{"user_id":76,"name":"36 Frog tokens","steam_id":76561198090088613,"connected_time":91000000000,"state":"active","ping":97},{"user_id":77,"name":"Gnat","steam_id":76561198109747863,"connected_time":69000000000,"state":"active","ping":102},{"user_id":35,"name":"Local Femboy \u003c3 (No sound)","steam_id":76561198355333388,"connected_time":2232000000000,"state":"active","ping":67},{"user_id":34,"name":"little raw meat boy","steam_id":76561199248254676,"connected_time":2393000000000,"state":"active","ping":55},{"user_id":52,"name":"jono","steam_id":76561198059701670,"connected_time":1428000000000,"state":"active","ping":43},{"user_id":37,"name":"2Frames","steam_id":76561199233498351,"connected_time":2204000000000,"state":"active","ping":61},{"user_id":43,"name":"Motormouth","steam_id":76561197980851839,"connected_time":1904000000000,"state":"active","ping":88},{"user_id":54,"name":"Soru","steam_id":76561198010844786,"connected_time":1377000000000,"state":"active","ping":60},{"user_id":44,"name":"TheMrPancake","steam_id":76561198204422256,"connected_time":1878000000000,"state":"active","ping":44},{"user_id":45,"name":"dreamydoggy","steam_id":76561198448243169,"connected_time":1818000000000,"state":"active","ping":55},{"user_id":72,"name":"Y0shua3","steam_id":76561199381627916,"connected_time":484000000000,"state":"active","ping":112},{"user_id":78,"name":"dbx","steam_id":76561198034306834,"connected_time":61000000000,"state":"active","ping":41},{"user_id":56,"name":"dumbvent","steam_id":76561198190062810,"connected_time":1346000000000,"state":"active","ping":60},{"user_id":57,"name":"JP","steam_id":76561198026221737,"connected_time":1326000000000,"state":"active","ping":60},{"user_id":71,"name":"ALCHE","steam_id":76561198815730749,"connected_time":599000000000,"state":"active","ping":54},{"user_id":59,"name":"Steve","steam_id":76561198429235506,"connected_time":1279000000000,"state":"active","ping":52},{"user_id":65,"name":"Sentry Gun (EpicGuy4227)","steam_id":76561198094132328,"connected_time":1091000000000,"state":"active","ping":52},{"user_id":66,"name":"weezer","steam_id":76561199439508788,"connected_time":1051000000000,"state":"active","ping":65},{"user_id":67,"name":"midB","steam_id":76561198042803042,"connected_time":933000000000,"state":"active","ping":59}]},{"server_id":395,"name":"Uncletopia | Sydney | 3 | All Maps","name_short":"syd-3","host":"syd-1.au.uncletopia.com","port":27035,"enabled":true,"region":"au","cc":"au","latitude":-33.865143,"longitude":151.2099,"reserved":0,"last_update":"0001-01-01T00:00:00Z","name_a2s":"Uncletopia | Sydney | 3 | All Maps","protocol":17,"map":"koth_viaduct","folder":"tf","game":"Team Fortress","app_id":440,"player_count":0,"max_players":24,"Bots":0,"server_type":"Dedicated","server_os":"Linux","password":true,"vac":true,"version":"7882260","steam_id":85568392925194467,"keywords":["cp","nocrits","nodmgspread","uncletopia"],"game_id":440,"stv_port":27036,"stv_name":"Uncletopia | Sydney | 3 | All Maps | STV","players":null},{"server_id":396,"name":"Uncletopia | Sydney | 4 | All Maps","name_short":"syd-4","host":"syd-1.au.uncletopia.com","port":27045,"enabled":true,"region":"au","cc":"au","latitude":-33.865143,"longitude":151.2099,"reserved":0,"last_update":"0001-01-01T00:00:00Z","name_a2s":"Uncletopia | Sydney | 4 | All Maps","protocol":17,"map":"pl_swiftwater_final1","folder":"tf","game":"Team Fortress","app_id":440,"player_count":0,"max_players":24,"Bots":0,"server_type":"Dedicated","server_os":"Linux","password":true,"vac":true,"version":"7882260","steam_id":85568392925397958,"keywords":["nocrits","nodmgspread","payload","uncletopia"],"game_id":440,"stv_port":27046,"stv_name":"Uncletopia | Sydney | 4 | All Maps | STV","players":null},{"server_id":58,"name":"Uncletopia | Sydney | 5 | Stopwatch Beta","name_short":"syd-5","host":"syd-1.au.uncletopia.com","port":27055,"enabled":true,"region":"au","cc":"au","latitude":-33.865143,"longitude":151.2099,"reserved":0,"last_update":"0001-01-01T00:00:00Z","name_a2s":"Uncletopia | Sydney | 5 | Stopwatch Beta","protocol":17,"map":"koth_viaduct","folder":"tf","game":"Team Fortress","app_id":440,"player_count":0,"max_players":24,"Bots":0,"server_type":"Dedicated","server_os":"Linux","password":true,"vac":true,"version":"7882260","steam_id":85568392925397959,"keywords":["cp","nocrits","nodmgspread","uncletopia"],"game_id":440,"stv_port":27056,"stv_name":"Uncletopia | Sydney | 5 | Stopwatch Beta | STV","players":null},{"server_id":59,"name":"Uncletopia | Sydney | 6 | Community","name_short":"syd-6","host":"syd-1.au.uncletopia.com","port":27065,"enabled":true,"region":"au","cc":"au","latitude":-33.865143,"longitude":151.2099,"reserved":0,"last_update":"0001-01-01T00:00:00Z","name_a2s":"Uncletopia | Sydney | 6 | Community","protocol":17,"map":"workshop/koth_ashville_final.ugc2130459942","folder":"tf","game":"Team Fortress","app_id":440,"player_count":0,"max_players":24,"Bots":0,"server_type":"Dedicated","server_os":"Linux","password":true,"vac":true,"version":"7882260","steam_id":85568392925397960,"keywords":["cp","nocrits","nodmgspread","uncletopia"],"game_id":440,"stv_port":27066,"stv_name":"Uncletopia | Sydney | 6 | Community | STV","players":null},{"server_id":49,"name":"Uncletopia | Warsaw | 1 | All Maps","name_short":"waw-1","host":"waw-1.pl.uncletopia.com","port":27015,"enabled":true,"region":"eu","cc":"pl","latitude":52.2297,"longitude":21.017532,"reserved":0,"last_update":"0001-01-01T00:00:00Z","name_a2s":"","protocol":0,"map":"","folder":"","game":"","app_id":0,"player_count":0,"max_players":0,"Bots":0,"server_type":"","server_os":"","password":false,"vac":false,"version":"","steam_id":0,"keywords":null,"game_id":0,"stv_port":0,"stv_name":"","players":null},{"server_id":50,"name":"Uncletopia | Warsaw | 2 | All Maps","name_short":"waw-2","host":"waw-1.pl.uncletopia.com","port":27025,"enabled":true,"region":"eu","cc":"pl","latitude":52.2297,"longitude":21.017532,"reserved":0,"last_update":"0001-01-01T00:00:00Z","name_a2s":"Uncletopia | Warsaw | 2 | All Maps","protocol":17,"map":"koth_viaduct","folder":"tf","game":"Team Fortress","app_id":440,"player_count":0,"max_players":24,"Bots":0,"server_type":"Dedicated","server_os":"Linux","password":true,"vac":true,"version":"7882260","steam_id":85568392925397851,"keywords":["cp","nocrits","nodmgspread","uncletopia"],"game_id":440,"stv_port":27026,"stv_name":"Uncletopia | Warsaw | 2 | All Maps | STV","players":null},{"server_id":51,"name":"Uncletopia | Warsaw | 3 | All Maps","name_short":"waw-3","host":"waw-1.pl.uncletopia.com","port":27035,"enabled":true,"region":"eu","cc":"pl","latitude":52.2297,"longitude":21.017532,"reserved":0,"last_update":"0001-01-01T00:00:00Z","name_a2s":"Uncletopia | Warsaw | 3 | All Maps","protocol":17,"map":"pl_badwater","folder":"tf","game":"Team Fortress","app_id":440,"player_count":0,"max_players":24,"Bots":0,"server_type":"Dedicated","server_os":"Linux","password":true,"vac":true,"version":"7882260","steam_id":85568392925397852,"keywords":["nocrits","nodmgspread","payload","uncletopia"],"game_id":440,"stv_port":27036,"stv_name":"Uncletopia | Warsaw | 3 | All Maps | STV","players":null},{"server_id":52,"name":"Uncletopia | Warsaw | 4 | All Maps","name_short":"waw-4","host":"waw-1.pl.uncletopia.com","port":27045,"enabled":true,"region":"eu","cc":"pl","latitude":52.2297,"longitude":21.017532,"reserved":0,"last_update":"0001-01-01T00:00:00Z","name_a2s":"Uncletopia | Warsaw | 4 | All Maps","protocol":17,"map":"koth_cascade","folder":"tf","game":"Team Fortress","app_id":440,"player_count":0,"max_players":24,"Bots":0,"server_type":"Dedicated","server_os":"Linux","password":true,"vac":true,"version":"7882260","steam_id":85568392925397853,"keywords":["cp","nocrits","nodmgspread","uncletopia"],"game_id":440,"stv_port":27046,"stv_name":"Uncletopia | Warsaw | 4 | All Maps | STV","players":null},{"server_id":53,"name":"Uncletopia | Warsaw | 5 | Stopwatch Beta","name_short":"waw-5","host":"waw-1.pl.uncletopia.com","port":27055,"enabled":true,"region":"eu","cc":"pl","latitude":52.2297,"longitude":21.017532,"reserved":0,"last_update":"0001-01-01T00:00:00Z","name_a2s":"Uncletopia | Warsaw | 5 | Stopwatch Beta","protocol":17,"map":"cp_dustbowl","folder":"tf","game":"Team Fortress","app_id":440,"player_count":0,"max_players":24,"Bots":0,"server_type":"Dedicated","server_os":"Linux","password":true,"vac":true,"version":"7882260","steam_id":85568392925397854,"keywords":["cp","nocrits","nodmgspread","uncletopia"],"game_id":440,"stv_port":27056,"stv_name":"Uncletopia | Warsaw | 5 | Stopwatch Beta | STV","players":null},{"server_id":54,"name":"Uncletopia | Warsaw | 6 | Community","name_short":"waw-6","host":"waw-1.pl.uncletopia.com","port":27065,"enabled":true,"region":"eu","cc":"pl","latitude":52.2297,"longitude":21.017532,"reserved":0,"last_update":"0001-01-01T00:00:00Z","name_a2s":"Uncletopia | Warsaw | 6 | Community","protocol":17,"map":"cp_dustbowl","folder":"tf","game":"Team Fortress","app_id":440,"player_count":0,"max_players":24,"Bots":0,"server_type":"Dedicated","server_os":"Linux","password":true,"vac":true,"version":"7882260","steam_id":85568392925397856,"keywords":["cp","nocrits","nodmgspread","uncletopia"],"game_id":440,"stv_port":27066,"stv_name":"Uncletopia | Warsaw | 6 | Community | STV","players":null}]}