{"status":true,"message":"","result":[{"server_id":9,"name":"Uncletopia | Atlanta | 1 | All Maps","name_short":"atl-1","host":"atl-1.us.uncletopia.com","port":27015,"enabled":true,"region":"us-east","cc":"us","latitude":33.753746,"longitude":-84.38633,"reserved":0,"last_update":"0001-01-01T00:00:00Z","name_a2s":"Uncletopia | Atlanta | 1 | All Maps","protocol":17,"map":"cp_mountainlab","folder":"tf","game":"Team Fortress","app_id":440,"player_count":24,"max_players":24,"Bots":0,"server_type":"Dedicated","server_os":"Linux","password":true,"vac":true,"version":"7932396","steam_id":85568392924469982,"keywords":["cp","nocrits","nodmgspread","uncletopia"],"game_id":440,"stv_port":27016,"stv_name":"Uncletopia | Atlanta | 1 | All Maps | STV","players":[{"user_id":829,"name":"Johnny Testy westy","steam_id":76561198798616273,"connected_time":183000000000,"state":"active","ping":96},{"user_id":703,"name":"your neighbour's garden gnome","steam_id":76561199037050183,"connected_time":2335000000000,"state":"active","ping":108},{"user_id":839,"name":"truezyoungblood","steam_id":76561198044589114,"connected_time":22000000000,"state":"active","ping":120},{"user_id":643,"name":"clownBSBR","steam_id":76561199230246701,"connected_time":3254000000000,"state":"active","ping":120},{"user_id":831,"name":"tulpa","steam_id":76561198013253513,"connected_time":142000000000,"state":"active","ping":71},{"user_id":817,"name":"dark souls boss","steam_id":76561198316610724,"connected_time":422000000000,"state":"active","ping":119},{"user_id":808,"name":"Whoops!","steam_id":76561198151315898,"connected_time":619000000000,"state":"active","ping":114},{"user_id":801,"name":"☂","steam_id":76561198001263590,"connected_time":792000000000,"state":"active","ping":88},{"user_id":821,"name":"Goat","steam_id":76561198068447650,"connected_time":352000000000,"state":"active","ping":101},{"user_id":777,"name":"schteewpid rat","steam_id":76561199262600666,"connected_time":1237000000000,"state":"active","ping":89},{"user_id":660,"name":"SF | Shrigma Shrindset |HM|","steam_id":76561199135178332,"connected_time":2898000000000,"state":"active","ping":161},{"user_id":830,"name":"firstlastmcgee","steam_id":76561198170187989,"connected_time":160000000000,"state":"active","ping":87},{"user_id":805,"name":"Legit_Jaxer","steam_id":76561198172234053,"connected_time":646000000000,"state":"active","ping":130},{"user_id":807,"name":"ATL1 | Zillers","steam_id":76561198095248744,"connected_time":630000000000,"state":"active","ping":101},{"user_id":828,"name":"toastoboi","steam_id":76561199259799042,"connected_time":222000000000,"state":"active","ping":115},{"user_id":823,"name":"HARRY B HOLE","steam_id":76561198842067238,"connected_time":342000000000,"state":"active","ping":89},{"user_id":806,"name":"SwordoBlades23","steam_id":76561198891738013,"connected_time":645000000000,"state":"active","ping":90},{"user_id":620,"name":"emerge","steam_id":76561198186882891,"connected_time":3664000000000,"state":"active","ping":122},{"user_id":832,"name":"Lick it","steam_id":76561198314318912,"connected_time":132000000000,"state":"active","ping":93},{"user_id":838,"name":"soof","steam_id":76561198043762955,"connected_time":24000000000,"state":"active","ping":105},{"user_id":732,"name":"Clay Pot","steam_id":76561199030644557,"connected_time":1794000000000,"state":"active","ping":99},{"user_id":835,"name":"zen","steam_id":76561198066485047,"connected_time":112000000000,"state":"active","ping":85},{"user_id":836,"name":"Bee_Pirate","steam_id":76561199000599111,"connected_time":111000000000,"state":"active","ping":114},{"user_id":840,"name":"RedPandaSax","steam_id":76561198315553867,"connected_time":10000000000,"state":"spawning","ping":105}]},{"server_id":104,"name":"Uncletopia | Atlanta | 2 | All Maps","name_short":"atl-2","host":"atl-1.us.uncletopia.com","port":27025,"enabled":true,"region":"us-east","cc":"us","latitude":33.753746,"longitude":-84.38633,"reserved":0,"last_update":"0001-01-01T00:00:00Z","name_a2s":"Uncletopia | Atlanta | 2 | All Maps","protocol":17,"map":"cp_snakewater_final1","folder":"tf","game":"Team Fortress","app_id":440,"player_count":0,"max_players":24,"Bots":0,"server_type":"Dedicated","server_os":"Linux","password":true,"vac":true,"version":"7932396","steam_id":85568392924469983,"keywords":["cp","nocrits","nodmgspread","uncletopia"],"game_id":440,"stv_port":27026,"stv_name":"Uncletopia | Atlanta | 2 | All Maps | STV","players":null},{"server_id":400,"name":"Uncletopia | Atlanta | 3 | Community","name_short":"atl-3","host":"atl-1.us.uncletopia.com","port":27035,"enabled":true,"region":"us-east","cc":"us","latitude":33.753746,"longitude":-84.38633,"reserved":0,"last_update":"0001-01-01T00:00:00Z","name_a2s":"Uncletopia | Atlanta | 3 | Community","protocol":17,"map":"workshop/cp_glassworks_rc6a.ugc454118349","folder":"tf","game":"Team Fortress","app_id":440,"player_count":0,"max_players":24,"Bots":0,"server_type":"Dedicated","server_os":"Linux","password":true,"vac":true,"version":"7932396","steam_id":85568392924515187,"keywords":["cp","nocrits","nodmgspread","uncletopia"],"game_id":440,"stv_port":27036,"stv_name":"Uncletopia | Atlanta | 3 | Community | STV","players":null},{"server_id":401,"name":"Uncletopia | Atlanta | 4 | No Payload","name_short":"atl-4","host":"atl-1.us.uncletopia.com","port":27045,"enabled":true,"region":"us-east","cc":"us","latitude":33.753746,"longitude":-84.38633,"reserved":0,"last_update":"0001-01-01T00:00:00Z","name_a2s":"","protocol":0,"map":"","folder":"","game":"","app_id":0,"player_count":0,"max_players":0,"Bots":0,"server_type":"","server_os":"","password":false,"vac":false,"version":"","steam_id":0,"keywords":null,"game_id":0,"stv_port":0,"stv_name":"","players":null},{"server_id":2,"name":"Uncletopia | Chicago | 1 | All Maps","name_short":"chi-1","host":"chi-1.us.uncletopia.com","port":27015,"enabled":true,"region":"us-central","cc":"us","latitude":41.881832,"longitude":-87.62318,"reserved":0,"last_update":"0001-01-01T00:00:00Z","name_a2s":"Uncletopia | Chicago | 1 | All Maps","protocol":17,"map":"pl_badwater","folder":"tf","game":"Team Fortress","app_id":440,"player_count":24,"max_players":24,"Bots":0,"server_type":"Dedicated","server_os":"Linux","password":true,"vac":true,"version":"7932396","steam_id":85568392924469984,"keywords":["nocrits","nodmgspread","payload","uncletopia"],"game_id":440,"stv_port":27016,"stv_name":"Uncletopia | Chicago | 1 | All Maps | STV","players":[{"user_id":526,"name":"Gotta Move That Gear Up","steam_id":76561197993467034,"connected_time":279000000000,"state":"active","ping":47},{"user_id":476,"name":"Sysadmin Stress Release","steam_id":76561197997326384,"connected_time":4216000000000,"state":"active","ping":69},{"user_id":382,"name":"entityfromohio","steam_id":76561198031675881,"connected_time":12435000000000,"state":"active","ping":45},{"user_id":514,"name":"blob","steam_id":76561198122375328,"connected_time":1383000000000,"state":"active","ping":56},{"user_id":522,"name":"Im High","steam_id":76561198049954886,"connected_time":326000000000,"state":"active","ping":63},{"user_id":523,"name":"Owen","steam_id":76561198025446908,"connected_time":322000000000,"state":"active","ping":61},{"user_id":517,"name":"jerryassmonkey","steam_id":76561198046800827,"connected_time":524000000000,"state":"active","ping":45},{"user_id":474,"name":"LeadHickory","steam_id":76561198219756521,"connected_time":4307000000000,"state":"active","ping":83},{"user_id":521,"name":"uzi murder drones (real)","steam_id":76561198156799627,"connected_time":328000000000,"state":"active","ping":63},{"user_id":524,"name":"SmallShwarma","steam_id":76561198259380127,"connected_time":308000000000,"state":"active","ping":59},{"user_id":515,"name":"come to butthead","steam_id":76561198020322241,"connected_time":1065000000000,"state":"active","ping":69},{"user_id":516,"name":"richard clock","steam_id":76561198048455671,"connected_time":555000000000,"state":"active","ping":60},{"user_id":511,"name":"Root","steam_id":76561198051749255,"connected_time":1701000000000,"state":"active","ping":71},{"user_id":505,"name":"Dullahan","steam_id":76561198119668908,"connected_time":2081000000000,"state":"active","ping":92},{"user_id":512,"name":"JopsyJop","steam_id":76561198165542681,"connected_time":1665000000000,"state":"active","ping":49},{"user_id":525,"name":"Kindagoodplayer","steam_id":76561198814625843,"connected_time":308000000000,"state":"active","ping":83},{"user_id":487,"name":"AYAYA!!!","steam_id":76561198992102180,"connected_time":3823000000000,"state":"active","ping":46},{"user_id":506,"name":"dailydiamond","steam_id":76561199123582502,"connected_time":2072000000000,"state":"active","ping":140},{"user_id":507,"name":"sad boi","steam_id":76561198395577807,"connected_time":2071000000000,"state":"active","ping":68},{"user_id":445,"name":"lost in spaaaaace","steam_id":76561199085974120,"connected_time":7006000000000,"state":"active","ping":92},{"user_id":482,"name":"Adam (Cursed Confetti Creature)","steam_id":76561198317690197,"connected_time":3844000000000,"state":"active","ping":47},{"user_id":508,"name":"a baby","steam_id":76561198008662184,"connected_time":2070000000000,"state":"active","ping":74},{"user_id":520,"name":"jayzak24","steam_id":76561198354267509,"connected_time":491000000000,"state":"active","ping":89},{"user_id":484,"name":"Sneaky_Tank","steam_id":76561198078814793,"connected_time":3844000000000,"state":"active","ping":57}]},{"server_id":106,"name":"Uncletopia | Chicago | 2 | All Maps","name_short":"chi-2","host":"chi-1.us.uncletopia.com","port":27025,"enabled":true,"region":"us-central","cc":"us","latitude":41.881832,"longitude":-87.62318,"reserved":0,"last_update":"0001-01-01T00:00:00Z","name_a2s":"Uncletopia | Chicago | 2 | All Maps","protocol":17,"map":"pl_upward","folder":"tf","game":"Team Fortress","app_id":440,"player_count":24,"max_players":24,"Bots":0,"server_type":"Dedicated","server_os":"Linux","password":true,"vac":true,"version":"7932396","steam_id":85568392924469985,"keywords":["nocrits","nodmgspread","payload","uncletopia"],"game_id":440,"stv_port":27026,"stv_name":"Uncletopia | Chicago | 2 | All Maps | STV","players":[{"user_id":465,"name":"John","steam_id":76561198138105188,"connected_time":3424000000000,"state":"active","ping":128},{"user_id":487,"name":"2big2flush","steam_id":76561197983653850,"connected_time":1564000000000,"state":"active","ping":83},{"user_id":499,"name":"Copter_Boy","steam_id":76561198322921312,"connected_time":939000000000,"state":"active","ping":66},{"user_id":513,"name":"Hurricane Bady (Meth Head)","steam_id":76561198253539262,"connected_time":292000000000,"state":"active","ping":45},{"user_id":480,"name":"REAL Flare gun - Flare/them","steam_id":76561198182589975,"connected_time":2305000000000,"state":"active","ping":86},{"user_id":485,"name":"Orc_estrion","steam_id":76561198210943347,"connected_time":1680000000000,"state":"active","ping":78},{"user_id":507,"name":"steve","steam_id":76561198207881077,"connected_time":445000000000,"state":"active","ping":82},{"user_id":514,"name":"Heathcliff","steam_id":76561198044288534,"connected_time":199000000000,"state":"active","ping":85},{"user_id":478,"name":"Le Meilleur","steam_id":76561198054581325,"connected_time":2518000000000,"state":"active","ping":58},{"user_id":494,"name":"Nolan","steam_id":76561198169648081,"connected_time":1104000000000,"state":"active","ping":84},{"user_id":437,"name":"Mehman","steam_id":76561199020244051,"connected_time":6046000000000,"state":"active","ping":97},{"user_id":467,"name":"BargainBhin","steam_id":76561198028519689,"connected_time":3420000000000,"state":"active","ping":120},{"user_id":500,"name":"SteeredAxe","steam_id":76561198081309492,"connected_time":850000000000,"state":"active","ping":59},{"user_id":473,"name":"veteranof100psychicwars","steam_id":76561198070903458,"connected_time":3192000000000,"state":"active","ping":74},{"user_id":495,"name":"Fightin Cow","steam_id":76561198080941486,"connected_time":1076000000000,"state":"active","ping":79},{"user_id":476,"name":"Chuburn","steam_id":76561199078803862,"connected_time":2734000000000,"state":"active","ping":69},{"user_id":505,"name":"Kelpy G","steam_id":76561198105330587,"connected_time":473000000000,"state":"active","ping":69},{"user_id":509,"name":"thehookerslammer","steam_id":76561198050136796,"connected_time":416000000000,"state":"active","ping":85},{"user_id":504,"name":"GoofyAhGamingGuy","steam_id":76561199331315881,"connected_time":511000000000,"state":"active","ping":81},{"user_id":506,"name":"Toblerone","steam_id":76561198057374871,"connected_time":457000000000,"state":"active","ping":61},{"user_id":510,"name":"Shame","steam_id":76561198100490994,"connected_time":410000000000,"state":"active","ping":74},{"user_id":512,"name":"caption cool","steam_id":76561197990612056,"connected_time":366000000000,"state":"active","ping":46},{"user_id":489,"name":"Braspooky","steam_id":76561198275170070,"connected_time":1560000000000,"state":"active","ping":81},{"user_id":490,"name":"slep.py","steam_id":76561197988287144,"connected_time":1560000000000,"state":"active","ping":58}]},{"server_id":402,"name":"Uncletopia | Chicago | 3 | All Maps","name_short":"chi-3","host":"chi-1.us.uncletopia.com","port":27035,"enabled":true,"region":"us-central","cc":"us","latitude":41.881832,"longitude":-87.62318,"reserved":0,"last_update":"0001-01-01T00:00:00Z","name_a2s":"Uncletopia | Chicago | 3 | All Maps","protocol":17,"map":"cp_altitude","folder":"tf","game":"Team Fortress","app_id":440,"player_count":24,"max_players":24,"Bots":0,"server_type":"Dedicated","server_os":"Linux","password":true,"vac":true,"version":"7932396","steam_id":85568392924515191,"keywords":["cp","nocrits","nodmgspread","uncletopia"],"game_id":440,"stv_port":27036,"stv_name":"Uncletopia | Chicago | 3 | All Maps | STV","players":[{"user_id":21,"name":"Metbol","steam_id":76561198001362410,"connected_time":13658000000000,"state":"active","ping":81},{"user_id":283,"name":"NUt","steam_id":76561198031007966,"connected_time":581000000000,"state":"active","ping":74},{"user_id":284,"name":"lexi","steam_id":76561198176299759,"connected_time":567000000000,"state":"active","ping":79},{"user_id":230,"name":"Super Ghostbusters (Full Album)","steam_id":76561198057415490,"connected_time":5238000000000,"state":"active","ping":45},{"user_id":265,"name":"BarrowBaron","steam_id":76561198013633236,"connected_time":2422000000000,"state":"active","ping":69},{"user_id":278,"name":"TheGuyWhoPlays","steam_id":76561198277363002,"connected_time":1733000000000,"state":"active","ping":57},{"user_id":292,"name":"Sunvaar","steam_id":76561198852679851,"connected_time":151000000000,"state":"active","ping":67},{"user_id":276,"name":"cotton candy tyrant","steam_id":76561198058998371,"connected_time":1867000000000,"state":"active","ping":66},{"user_id":285,"name":"John Darksoul","steam_id":76561198999712284,"connected_time":551000000000,"state":"active","ping":74},{"user_id":259,"name":"Ashes!","steam_id":76561197998475441,"connected_time":2880000000000,"state":"active","ping":91},{"user_id":286,"name":"Zixzs","steam_id":76561198055504126,"connected_time":550000000000,"state":"active","ping":69},{"user_id":241,"name":"B.","steam_id":76561198040445907,"connected_time":3260000000000,"state":"active","ping":74},{"user_id":225,"name":"le batteur","steam_id":76561199078138661,"connected_time":5382000000000,"state":"active","ping":70},{"user_id":246,"name":"The Devious Donker","steam_id":76561198180975139,"connected_time":3224000000000,"state":"active","ping":83},{"user_id":232,"name":"Edgy McEdgeison","steam_id":76561198047845399,"connected_time":5067000000000,"state":"active","ping":102},{"user_id":280,"name":"Ghost","steam_id":76561198110914180,"connected_time":648000000000,"state":"active","ping":194},{"user_id":274,"name":"troll","steam_id":76561198040890252,"connected_time":2012000000000,"state":"active","ping":62},{"user_id":242,"name":"ohio experiment #301","steam_id":76561199100342013,"connected_time":3259000000000,"state":"active","ping":102},{"user_id":270,"name":"TheWhiskeyMan","steam_id":76561198125180961,"connected_time":2135000000000,"state":"active","ping":115},{"user_id":287,"name":"PageBoiSkull","steam_id":76561198237353578,"connected_time":540000000000,"state":"active","ping":112},{"user_id":289,"name":"FitzyBear","steam_id":76561198409189585,"connected_time":352000000000,"state":"active","ping":65},{"user_id":288,"name":"Robert","steam_id":76561198133200895,"connected_time":523000000000,"state":"active","ping":60},{"user_id":272,"name":"SMINO","steam_id":76561198937717599,"connected_time":2127000000000,"state":"active","ping":69},{"user_id":279,"name":"ChozoChorizo","steam_id":76561198272609196,"connected_time":1564000000000,"state":"active","ping":67}]},{"server_id":403,"name":"Uncletopia | Chicago | 4 | All Maps","name_short":"chi-4","host":"chi-1.us.uncletopia.com","port":27045,"enabled":true,"region":"us-central","cc":"us","latitude":41.881832,"longitude":-87.62318,"reserved":0,"last_update":"0001-01-01T00:00:00Z","name_a2s":"Uncletopia | Chicago | 4 | All Maps","protocol":17,"map":"cp_mountainlab","folder":"tf","game":"Team Fortress","app_id":440,"player_count":24,"max_players":24,"Bots":0,"server_type":"Dedicated","server_os":"Linux","password":true,"vac":true,"version":"7932396","steam_id":85568392924515193,"keywords":["cp","nocrits","nodmgspread","uncletopia"],"game_id":440,"stv_port":27046,"stv_name":"Uncletopia | Chicago | 4 | All Maps | STV","players":[{"user_id":262,"name":"alba","steam_id":76561198053658535,"connected_time":1985000000000,"state":"active","ping":96},{"user_id":291,"name":"GreemBeans","steam_id":76561198069648014,"connected_time":366000000000,"state":"active","ping":74},{"user_id":258,"name":"Dead_Stranger","steam_id":76561198120804563,"connected_time":2173000000000,"state":"active","ping":87},{"user_id":281,"name":"Zeno","steam_id":76561197984901291,"connected_time":1087000000000,"state":"active","ping":85},{"user_id":283,"name":"vortexgamer","steam_id":76561197999435527,"connected_time":763000000000,"state":"active","ping":82},{"user_id":264,"name":"Fobby #Savetf2","steam_id":76561198047681469,"connected_time":1965000000000,"state":"active","ping":62},{"user_id":271,"name":"Waddlehi","steam_id":76561198072553840,"connected_time":1492000000000,"state":"active","ping":59},{"user_id":292,"name":"Kid named download","steam_id":76561199192074448,"connected_time":285000000000,"state":"active","ping":75},{"user_id":249,"name":"GameboyAdvancedSPMobileHotspot","steam_id":76561198413739460,"connected_time":2425000000000,"state":"active","ping":123},{"user_id":287,"name":"Mikael_01","steam_id":76561199080253129,"connected_time":585000000000,"state":"active","ping":185},{"user_id":279,"name":"Jeong Jeong","steam_id":76561198125063586,"connected_time":1252000000000,"state":"active","ping":45},{"user_id":288,"name":"Cassius","steam_id":76561198146163328,"connected_time":551000000000,"state":"active","ping":79},{"user_id":275,"name":"LWebb","steam_id":76561199162936929,"connected_time":1419000000000,"state":"active","ping":101},{"user_id":289,"name":"I. C. Wiener","steam_id":76561198062777610,"connected_time":498000000000,"state":"active","ping":98},{"user_id":265,"name":"ivan.","steam_id":76561198086587715,"connected_time":1956000000000,"state":"active","ping":92},{"user_id":284,"name":"BowlOfSoup","steam_id":76561198000849668,"connected_time":755000000000,"state":"active","ping":79},{"user_id":293,"name":"Elusion","steam_id":76561197998672043,"connected_time":60000000000,"state":"active","ping":57},{"user_id":254,"name":"gorf?","steam_id":76561198142286417,"connected_time":2314000000000,"state":"active","ping":58},{"user_id":274,"name":"totoro","steam_id":76561198210420871,"connected_time":1432000000000,"state":"active","ping":46},{"user_id":253,"name":"Dr Oshawott","steam_id":76561198042021629,"connected_time":2334000000000,"state":"active","ping":61},{"user_id":276,"name":"Halcyon","steam_id":76561197999409268,"connected_time":1403000000000,"state":"active","ping":70},{"user_id":205,"name":"Jared","steam_id":76561198132598549,"connected_time":5545000000000,"state":"active","ping":87},{"user_id":273,"name":"Polly Geist","steam_id":76561198271964253,"connected_time":1460000000000,"state":"active","ping":76},{"user_id":224,"name":"HundchenTanque","steam_id":76561198122692754,"connected_time":4638000000000,"state":"active","ping":49}]},{"server_id":36,"name":"Uncletopia | Chicago | 5 | All Maps","name_short":"chi-5","host":"chi-2.us.uncletopia.com","port":27015,"enabled":true,"region":"us-central","cc":"us","latitude":41.881832,"longitude":-87.62318,"reserved":0,"last_update":"0001-01-01T00:00:00Z","name_a2s":"Uncletopia | Chicago | 5 | All Maps","protocol":17,"map":"koth_highpass","folder":"tf","game":"Team Fortress","app_id":440,"player_count":0,"max_players":24,"Bots":0,"server_type":"Dedicated","server_os":"Linux","password":true,"vac":true,"version":"7932396","steam_id":85568392924866362,"keywords":["cp","nocrits","nodmgspread","uncletopia"],"game_id":440,"stv_port":27016,"stv_name":"Uncletopia | Chicago | 5 | All Maps | STV","players":null},{"server_id":37,"name":"Uncletopia | Chicago | 6 | All Maps","name_short":"chi-6","host":"chi-2.us.uncletopia.com","port":27025,"enabled":true,"region":"us-central","cc":"us","latitude":41.881832,"longitude":-87.62318,"reserved":0,"last_update":"0001-01-01T00:00:00Z","name_a2s":"Uncletopia | Chicago | 6 | All Maps","protocol":17,"map":"koth_viaduct","folder":"tf","game":"Team Fortress","app_id":440,"player_count":23,"max_players":24,"Bots":0,"server_type":"Dedicated","server_os":"Linux","password":true,"vac":true,"version":"7932396","steam_id":85568392924866363,"keywords":["cp","nocrits","nodmgspread","uncletopia"],"game_id":440,"stv_port":27026,"stv_name":"Uncletopia | Chicago | 6 | All Maps | STV","players":[{"user_id":21,"name":"HIGS","steam_id":76561198035670162,"connected_time":1218000000000,"state":"active","ping":98},{"user_id":55,"name":"Quansen","steam_id":76561198151594550,"connected_time":306000000000,"state":"active","ping":54},{"user_id":23,"name":"TheMightyGunman","steam_id":76561198089062897,"connected_time":1154000000000,"state":"active","ping":72},{"user_id":24,"name":"Huey","steam_id":76561198972816386,"connected_time":1021000000000,"state":"active","ping":89},{"user_id":25,"name":"Stolas \u003c3","steam_id":76561198835430280,"connected_time":1001000000000,"state":"active","ping":56},{"user_id":26,"name":"SuperFresh","steam_id":76561198200723198,"connected_time":982000000000,"state":"active","ping":44},{"user_id":59,"name":"mexicano mexico","steam_id":76561199404642432,"connected_time":9000000000,"state":"spawning","ping":147},{"user_id":28,"name":"rice","steam_id":76561198037565441,"connected_time":945000000000,"state":"active","ping":66},{"user_id":29,"name":"Sup m8","steam_id":76561198081659121,"connected_time":905000000000,"state":"active","ping":60},{"user_id":30,"name":"Bad@Sniper","steam_id":76561199013705323,"connected_time":901000000000,"state":"active","ping":60},{"user_id":31,"name":"Trotsky Gaming","steam_id":76561199101638460,"connected_time":900000000000,"state":"active","ping":128},{"user_id":48,"name":"dyyd7706","steam_id":76561199230461523,"connected_time":668000000000,"state":"active","ping":78},{"user_id":52,"name":"Dive(z)","steam_id":76561198140843225,"connected_time":426000000000,"state":"active","ping":106},{"user_id":46,"name":"tasty","steam_id":76561198083839061,"connected_time":710000000000,"state":"active","ping":59},{"user_id":57,"name":"FHC | Nyle","steam_id":76561198045652639,"connected_time":146000000000,"state":"active","ping":122},{"user_id":37,"name":"DiscoTraveler","steam_id":76561199240168088,"connected_time":861000000000,"state":"active","ping":59},{"user_id":38,"name":"straight femboy","steam_id":76561198850611875,"connected_time":850000000000,"state":"active","ping":75},{"user_id":58,"name":"his largeness","steam_id":76561197977182378,"connected_time":57000000000,"state":"active","ping":46},{"user_id":49,"name":"jooby","steam_id":76561198131065492,"connected_time":593000000000,"state":"active","ping":58},{"user_id":42,"name":"sheep","steam_id":76561198172943006,"connected_time":818000000000,"state":"active","ping":45},{"user_id":43,"name":"we're so back","steam_id":76561198058485742,"connected_time":798000000000,"state":"active","ping":62},{"user_id":47,"name":"countlesschromosome","steam_id":76561197972601902,"connected_time":683000000000,"state":"active","ping":89},{"user_id":53,"name":"cosmic ambiance","steam_id":76561198042788986,"connected_time":422000000000,"state":"active","ping":80}]},{"server_id":38,"name":"Uncletopia | Chicago | 7 | Stopwatch Beta","name_short":"chi-7","host":"chi-2.us.uncletopia.com","port":27035,"enabled":true,"region":"us-central","cc":"us","latitude":41.881832,"longitude":-87.62318,"reserved":0,"last_update":"0001-01-01T00:00:00Z","name_a2s":"Uncletopia | Chicago | 7 | Stopwatch Beta","protocol":17,"map":"pl_borneo","folder":"tf","game":"Team Fortress","app_id":440,"player_count":0,"max_players":24,"Bots":0,"server_type":"Dedicated","server_os":"Linux","password":true,"vac":true,"version":"7932396","steam_id":85568392924866364,"keywords":["nocrits","nodmgspread","payload","uncletopia"],"game_id":440,"stv_port":27036,"stv_name":"Uncletopia | Chicago | 7 | Stopwatch Beta | STV","players":null},{"server_id":39,"name":"Uncletopia | Chicago | 8 | Community","name_short":"chi-8","host":"chi-2.us.uncletopia.com","port":27045,"enabled":true,"region":"us-central","cc":"us","latitude":41.881832,"longitude":-87.62318,"reserved":0,"last_update":"0001-01-01T00:00:00Z","name_a2s":"Uncletopia | Chicago | 8 | Community","protocol":17,"map":"workshop/koth_product_final.ugc454272353","folder":"tf","game":"Team Fortress","app_id":440,"player_count":0,"max_players":24,"Bots":0,"server_type":"Dedicated","server_os":"Linux","password":true,"vac":true,"version":"7932396","steam_id":85568392924866365,"keywords":["cp","nocrits","nodmgspread","uncletopia"],"game_id":440,"stv_port":27046,"stv_name":"Uncletopia | Chicago | 8 | Community | STV","players":null},{"server_id":8,"name":"Uncletopia | Dallas | 1 | All Maps","name_short":"dal-1","host":"dal-1.us.uncletopia.com","port":27015,"enabled":true,"region":"us-central","cc":"us","latitude":32.779167,"longitude":-96.80889,"reserved":0,"last_update":"0001-01-01T00:00:00Z","name_a2s":"Uncletopia | Dallas | 1 | All Maps","protocol":17,"map":"pl_goldrush","folder":"tf","game":"Team Fortress","app_id":440,"player_count":24,"max_players":24,"Bots":0,"server_type":"Dedicated","server_os":"Linux","password":true,"vac":true,"version":"7932396","steam_id":85568392924469986,"keywords":["nocrits","nodmgspread","payload","uncletopia"],"game_id":440,"stv_port":27016,"stv_name":"Uncletopia | Dallas | 1 | All Maps | STV","players":[{"user_id":430,"name":"Polar","steam_id":76561198043108060,"connected_time":1433000000000,"state":"active","ping":100},{"user_id":397,"name":"Mellou","steam_id":76561198212048740,"connected_time":3820000000000,"state":"active","ping":39},{"user_id":439,"name":"w3bd3v","steam_id":76561198077982525,"connected_time":584000000000,"state":"active","ping":102},{"user_id":443,"name":"Unreliable Narrator","steam_id":76561198021303959,"connected_time":386000000000,"state":"active","ping":79},{"user_id":435,"name":"skipper","steam_id":76561198395965181,"connected_time":952000000000,"state":"active","ping":78},{"user_id":448,"name":"Zerman","steam_id":76561198094846729,"connected_time":149000000000,"state":"active","ping":85},{"user_id":440,"name":"HAAAAAH","steam_id":76561198398918486,"connected_time":575000000000,"state":"active","ping":99},{"user_id":408,"name":"OHGODBEES!","steam_id":76561198000653374,"connected_time":3182000000000,"state":"active","ping":100},{"user_id":441,"name":"aVO","steam_id":76561198161429389,"connected_time":439000000000,"state":"active","ping":59},{"user_id":377,"name":"RandyPickleshoes","steam_id":76561198064139260,"connected_time":5531000000000,"state":"active","ping":98},{"user_id":370,"name":"SСАТТЕR","steam_id":76561198405168492,"connected_time":5925000000000,"state":"active","ping":110},{"user_id":425,"name":"Pal","steam_id":76561198079657093,"connected_time":1571000000000,"state":"active","ping":43},{"user_id":373,"name":"UneditedAndy","steam_id":76561198982544947,"connected_time":5904000000000,"state":"active","ping":88},{"user_id":423,"name":"Squash","steam_id":76561198376453255,"connected_time":1592000000000,"state":"active","ping":83},{"user_id":419,"name":"Walrusto","steam_id":76561198829644616,"connected_time":1638000000000,"state":"active","ping":70},{"user_id":411,"name":"ElZeto","steam_id":76561198252322622,"connected_time":2987000000000,"state":"active","ping":90},{"user_id":445,"name":"jack","steam_id":76561198314104415,"connected_time":279000000000,"state":"active","ping":82},{"user_id":436,"name":"Takumi Fujiwara","steam_id":76561198146281101,"connected_time":815000000000,"state":"active","ping":91},{"user_id":417,"name":"V!CT!M","steam_id":76561198962721502,"connected_time":2018000000000,"state":"active","ping":89},{"user_id":401,"name":"Quick-Fix","steam_id":76561198295501978,"connected_time":3586000000000,"state":"active","ping":72},{"user_id":426,"name":"Columbus","steam_id":76561198079473478,"connected_time":1558000000000,"state":"active","ping":61},{"user_id":361,"name":"mutedx10","steam_id":76561198253556858,"connected_time":6686000000000,"state":"active","ping":43},{"user_id":428,"name":"fernando","steam_id":76561198142586591,"connected_time":1503000000000,"state":"active","ping":69},{"user_id":447,"name":"Not Giga Chad","steam_id":76561198059785363,"connected_time":247000000000,"state":"active","ping":60}]},{"server_id":108,"name":"Uncletopia | Dallas | 2 | All Maps","name_short":"dal-2","host":"dal-1.us.uncletopia.com","port":27025,"enabled":true,"region":"us-central","cc":"us","latitude":32.779167,"longitude":-96.80889,"reserved":0,"last_update":"0001-01-01T00:00:00Z","name_a2s":"Uncletopia | Dallas | 2 | All Maps","protocol":17,"map":"cp_sunshine","folder":"tf","game":"Team Fortress","app_id":440,"player_count":19,"max_players":24,"Bots":0,"server_type":"Dedicated","server_os":"Linux","password":true,"vac":true,"version":"7932396","steam_id":85568392924469988,"keywords":["cp","nocrits","nodmgspread","uncletopia"],"game_id":440,"stv_port":27026,"stv_name":"Uncletopia | Dallas | 2 | All Maps | STV","players":[{"user_id":120,"name":"MeatwadMeatwad","steam_id":76561198202194160,"connected_time":23000000000,"state":"active","ping":60},{"user_id":68,"name":"how to fly?","steam_id":76561198064255155,"connected_time":3775000000000,"state":"active","ping":54},{"user_id":111,"name":"Phosu","steam_id":76561198180162801,"connected_time":491000000000,"state":"active","ping":65},{"user_id":30,"name":"gundog","steam_id":76561198063240044,"connected_time":5044000000000,"state":"active","ping":56},{"user_id":119,"name":"Strangelove","steam_id":76561198353773611,"connected_time":24000000000,"state":"spawning","ping":105},{"user_id":107,"name":"Eitior","steam_id":76561198082189916,"connected_time":815000000000,"state":"active","ping":94},{"user_id":118,"name":"Evenaris","steam_id":76561198087544319,"connected_time":63000000000,"state":"active","ping":75},{"user_id":112,"name":"Onyx","steam_id":76561198275349640,"connected_time":485000000000,"state":"active","ping":61},{"user_id":86,"name":"Caboose","steam_id":76561198215451935,"connected_time":2410000000000,"state":"active","ping":50},{"user_id":121,"name":"mini vegas stan","steam_id":76561198126029630,"connected_time":12000000000,"state":"spawning","ping":88},{"user_id":113,"name":"specter","steam_id":76561198408747483,"connected_time":451000000000,"state":"active","ping":44},{"user_id":87,"name":"Soviet Potato","steam_id":76561198068546113,"connected_time":2407000000000,"state":"active","ping":58},{"user_id":90,"name":"Woah..","steam_id":76561199019647814,"connected_time":2229000000000,"state":"active","ping":41},{"user_id":109,"name":"ramirez.09","steam_id":76561198328618417,"connected_time":782000000000,"state":"active","ping":78},{"user_id":110,"name":"Scroobles","steam_id":76561199197646696,"connected_time":493000000000,"state":"active","ping":45},{"user_id":98,"name":"cc","steam_id":76561199215821942,"connected_time":1642000000000,"state":"active","ping":48},{"user_id":56,"name":"crumbles","steam_id":76561198168707036,"connected_time":4637000000000,"state":"active","ping":84},{"user_id":117,"name":"croissantcrusader","steam_id":76561198813533235,"connected_time":298000000000,"state":"active","ping":65},{"user_id":100,"name":"Four","steam_id":76561198413077658,"connected_time":1634000000000,"state":"active","ping":60}]},{"server_id":5,"name":"Uncletopia | Frankfurt | 1 | All Maps","name_short":"frk-1","host":"frk-1.de.uncletopia.com","port":27015,"enabled":true,"region":"eu","cc":"de","latitude":50.110924,"longitude":8.682127,"reserved":0,"last_update":"0001-01-01T00:00:00Z","name_a2s":"Uncletopia | Frankfurt | 1 | All Maps","protocol":17,"map":"pl_barnblitz","folder":"tf","game":"Team Fortress","app_id":440,"player_count":24,"max_players":24,"Bots":0,"server_type":"Dedicated","server_os":"Linux","password":true,"vac":true,"version":"7932396","steam_id":85568392924469989,"keywords":["nocrits","nodmgspread","payload","uncletopia"],"game_id":440,"stv_port":27016,"stv_name":"Uncletopia | Frankfurt | 1 | All Maps | STV","players":[{"user_id":781,"name":"Selfish","steam_id":76561198014759487,"connected_time":910000000000,"state":"active","ping":55},{"user_id":756,"name":"Bobirulez","steam_id":76561198009125458,"connected_time":2431000000000,"state":"active","ping":73},{"user_id":783,"name":"Goro Majima","steam_id":76561198003040222,"connected_time":750000000000,"state":"active","ping":56},{"user_id":748,"name":"Я ЛЮБЛЮ ЕЁ","steam_id":76561198383453597,"connected_time":3384000000000,"state":"active","ping":79},{"user_id":784,"name":"sumo dumplings","steam_id":76561198115553314,"connected_time":725000000000,"state":"active","ping":173},{"user_id":774,"name":"www.earnGBP.online","steam_id":76561198005777437,"connected_time":1491000000000,"state":"active","ping":46},{"user_id":785,"name":"etc","steam_id":76561197998394797,"connected_time":605000000000,"state":"active","ping":59},{"user_id":760,"name":"Zdl","steam_id":76561198066015557,"connected_time":2357000000000,"state":"active","ping":53},{"user_id":786,"name":"ricky pee pee","steam_id":76561198152620745,"connected_time":591000000000,"state":"active","ping":73},{"user_id":777,"name":"Ziemniaczki","steam_id":76561198061866742,"connected_time":1340000000000,"state":"active","ping":70},{"user_id":775,"name":"willus212","steam_id":76561199182615246,"connected_time":1460000000000,"state":"active","ping":95},{"user_id":768,"name":"flashender","steam_id":76561198961039086,"connected_time":2125000000000,"state":"active","ping":66},{"user_id":787,"name":"Economic crisis","steam_id":76561198063562843,"connected_time":547000000000,"state":"active","ping":68},{"user_id":780,"name":"Saber0X1","steam_id":76561198090226093,"connected_time":1094000000000,"state":"active","ping":144},{"user_id":788,"name":"crazycalumrock","steam_id":76561198049890080,"connected_time":528000000000,"state":"active","ping":50},{"user_id":793,"name":"CashCow","steam_id":76561197961951450,"connected_time":263000000000,"state":"active","ping":59},{"user_id":749,"name":"KittyKate ❤","steam_id":76561198116340817,"connected_time":3378000000000,"state":"active","ping":60},{"user_id":790,"name":"puck_panzer","steam_id":76561198121260981,"connected_time":485000000000,"state":"active","ping":59},{"user_id":791,"name":"Engie's best friend","steam_id":76561197961707932,"connected_time":478000000000,"state":"active","ping":51},{"user_id":751,"name":"leminsc8","steam_id":76561198825084995,"connected_time":3349000000000,"state":"active","ping":39},{"user_id":795,"name":"He's Back and He's Black","steam_id":76561198105443986,"connected_time":145000000000,"state":"active","ping":86},{"user_id":792,"name":"Abro","steam_id":76561198349783352,"connected_time":299000000000,"state":"active","ping":104},{"user_id":655,"name":"gagalak","steam_id":76561198089979108,"connected_time":11074000000000,"state":"active","ping":89},{"user_id":773,"name":"Lykos","steam_id":76561198074827880,"connected_time":1594000000000,"state":"active","ping":113}]},{"server_id":110,"name":"Uncletopia | Frankfurt | 2 | All Maps","name_short":"frk-2","host":"frk-1.de.uncletopia.com","port":27025,"enabled":true,"region":"eu","cc":"de","latitude":50.110924,"longitude":8.682127,"reserved":0,"last_update":"0001-01-01T00:00:00Z","name_a2s":"Uncletopia | Frankfurt | 2 | All Maps","protocol":17,"map":"pl_badwater","folder":"tf","game":"Team Fortress","app_id":440,"player_count":13,"max_players":24,"Bots":0,"server_type":"Dedicated","server_os":"Linux","password":true,"vac":true,"version":"7932396","steam_id":85568392924469990,"keywords":["nocrits","nodmgspread","payload","uncletopia"],"game_id":440,"stv_port":27026,"stv_name":"Uncletopia | Frankfurt | 2 | All Maps | STV","players":[{"user_id":408,"name":"Frank Prankenstein","steam_id":76561198299407915,"connected_time":1971000000000,"state":"active","ping":77},{"user_id":427,"name":"meriones","steam_id":76561198034234373,"connected_time":713000000000,"state":"active","ping":51},{"user_id":399,"name":"GroGroudonDu31","steam_id":76561198155106297,"connected_time":3101000000000,"state":"active","ping":62},{"user_id":400,"name":"TheFox.tf","steam_id":76561197996851702,"connected_time":2987000000000,"state":"active","ping":61},{"user_id":431,"name":"jlsimon911","steam_id":76561199404849068,"connected_time":312000000000,"state":"active","ping":222},{"user_id":421,"name":"Cataleptic","steam_id":76561197997966949,"connected_time":1210000000000,"state":"active","ping":73},{"user_id":430,"name":"63756d","steam_id":76561198808699024,"connected_time":517000000000,"state":"active","ping":54},{"user_id":432,"name":"Bucket","steam_id":76561199165494885,"connected_time":285000000000,"state":"active","ping":112},{"user_id":410,"name":"1","steam_id":76561199085984801,"connected_time":1679000000000,"state":"active","ping":77},{"user_id":433,"name":"Everness","steam_id":76561197994803883,"connected_time":90000000000,"state":"active","ping":75},{"user_id":412,"name":"Bounty","steam_id":76561198032698137,"connected_time":1655000000000,"state":"active","ping":57},{"user_id":377,"name":"It's time","steam_id":76561198061197114,"connected_time":6226000000000,"state":"active","ping":65},{"user_id":434,"name":"LuckLuster","steam_id":76561198092986647,"connected_time":11000000000,"state":"active","ping":115}]},{"server_id":308,"name":"Uncletopia | Frankfurt | 3 | All Maps","name_short":"frk-3","host":"frk-1.de.uncletopia.com","port":27035,"enabled":true,"region":"eu","cc":"de","latitude":50.110924,"longitude":8.682127,"reserved":0,"last_update":"0001-01-01T00:00:00Z","name_a2s":"Uncletopia | Frankfurt | 3 | All Maps","protocol":17,"map":"cp_dustbowl","folder":"tf","game":"Team Fortress","app_id":440,"player_count":1,"max_players":24,"Bots":0,"server_type":"Dedicated","server_os":"Linux","password":true,"vac":true,"version":"7932396","steam_id":85568392924504274,"keywords":["cp","nocrits","nodmgspread","uncletopia"],"game_id":440,"stv_port":27036,"stv_name":"Uncletopia | Frankfurt | 3 | All Maps | STV","players":[{"user_id":236,"name":"Sorry","steam_id":76561198040722720,"connected_time":1000000000000,"state":"active","ping":154}]},{"server_id":309,"name":"Uncletopia | Frankfurt | 4 | All Maps","name_short":"frk-4","host":"frk-1.de.uncletopia.com","port":27045,"enabled":true,"region":"eu","cc":"de","latitude":50.110924,"longitude":8.682127,"reserved":0,"last_update":"0001-01-01T00:00:00Z","name_a2s":"Uncletopia | Frankfurt | 4 | All Maps","protocol":17,"map":"cp_mountainlab","folder":"tf","game":"Team Fortress","app_id":440,"player_count":0,"max_players":24,"Bots":0,"server_type":"Dedicated","server_os":"Linux","password":true,"vac":true,"version":"7932396","steam_id":85568392924504275,"keywords":["cp","nocrits","nodmgspread","uncletopia"],"game_id":440,"stv_port":27046,"stv_name":"Uncletopia | Frankfurt | 4 | All Maps | STV","players":null},{"server_id":310,"name":"Uncletopia | Frankfurt | 5 | All Maps","name_short":"frk-5","host":"frk-1.de.uncletopia.com","port":27055,"enabled":true,"region":"eu","cc":"de","latitude":50.110924,"longitude":8.682127,"reserved":0,"last_update":"0001-01-01T00:00:00Z","name_a2s":"Uncletopia | Frankfurt | 5 | All Maps","protocol":17,"map":"koth_viaduct","folder":"tf","game":"Team Fortress","app_id":440,"player_count":0,"max_players":24,"Bots":0,"server_type":"Dedicated","server_os":"Linux","password":true,"vac":true,"version":"7932396","steam_id":85568392924504277,"keywords":["cp","nocrits","nodmgspread","uncletopia"],"game_id":440,"stv_port":27056,"stv_name":"Uncletopia | Frankfurt | 5 | All Maps | STV","players":null},{"server_id":311,"name":"Uncletopia | Frankfurt | 6 | All Maps","name_short":"frk-6","host":"frk-1.de.uncletopia.com","port":27065,"enabled":true,"region":"eu","cc":"de","latitude":50.110924,"longitude":8.682127,"reserved":0,"last_update":"0001-01-01T00:00:00Z","name_a2s":"Uncletopia | Frankfurt | 6 | All Maps","protocol":17,"map":"cp_dustbowl","folder":"tf","game":"Team Fortress","app_id":440,"player_count":0,"max_players":24,"Bots":0,"server_type":"Dedicated","server_os":"Linux","password":true,"vac":true,"version":"7932396","steam_id":85568392924504278,"keywords":["cp","nocrits","nodmgspread","uncletopia"],"game_id":440,"stv_port":27066,"stv_name":"Uncletopia | Frankfurt | 6 | All Maps | STV","players":null},{"server_id":23,"name":"Uncletopia | Frankfurt | 7 | Stopwatch Beta","name_short":"frk-7","host":"frk-1.de.uncletopia.com","port":27075,"enabled":true,"region":"eu","cc":"de","latitude":50.110924,"longitude":8.682127,"reserved":0,"last_update":"0001-01-01T00:00:00Z","name_a2s":"Uncletopia | Frankfurt | 7 | Stopwatch Beta","protocol":17,"map":"pl_snowycoast","folder":"tf","game":"Team Fortress","app_id":440,"player_count":0,"max_players":24,"Bots":0,"server_type":"Dedicated","server_os":"Linux","password":true,"vac":true,"version":"7932396","steam_id":85568392924742827,"keywords":["nocrits","nodmgspread","payload","uncletopia"],"game_id":440,"stv_port":27076,"stv_name":"Uncletopia | Frankfurt | 7 | Stopwatch Beta | STV","players":null},{"server_id":24,"name":"Uncletopia | Frankfurt | 8 | Community","name_short":"frk-8","host":"frk-1.de.uncletopia.com","port":27085,"enabled":true,"region":"eu","cc":"de","latitude":50.110924,"longitude":8.682127,"reserved":0,"last_update":"0001-01-01T00:00:00Z","name_a2s":"Uncletopia | Frankfurt | 8 | Community","protocol":17,"map":"workshop/pl_highwood_b13.ugc1769496557","folder":"tf","game":"Team Fortress","app_id":440,"player_count":0,"max_players":24,"Bots":0,"server_type":"Dedicated","server_os":"Linux","password":true,"vac":true,"version":"7932396","steam_id":85568392924742828,"keywords":["nocrits","nodmgspread","payload","uncletopia"],"game_id":440,"stv_port":27086,"stv_name":"Uncletopia | Frankfurt | 8 | Community | STV","players":null},{"server_id":202,"name":"Uncletopia | Hong Kong | 1 | All Maps","name_short":"hgk-1","host":"hgk-1.hk.uncletopia.com","port":27015,"enabled":true,"region":"asia","cc":"hk","latitude":22.302711,"longitude":114.177216,"reserved":0,"last_update":"0001-01-01T00:00:00Z","name_a2s":"Uncletopia | Hong Kong | 1 | All Maps","protocol":17,"map":"cp_altitude","folder":"tf","game":"Team Fortress","app_id":440,"player_count":0,"max_players":24,"Bots":0,"server_type":"Dedicated","server_os":"Linux","password":true,"vac":true,"version":"7932396","steam_id":85568392924494504,"keywords":["cp","nocrits","nodmgspread","uncletopia"],"game_id":440,"stv_port":27016,"stv_name":"Uncletopia | Hong Kong | 1 | All Maps | STV","players":null},{"server_id":1,"name":"Uncletopia | Los Angeles | 1 | All Maps","name_short":"lax-1","host":"lax-1.us.uncletopia.com","port":27015,"enabled":true,"region":"us-west","cc":"us","latitude":33.94279,"longitude":-118.41004,"reserved":0,"last_update":"0001-01-01T00:00:00Z","name_a2s":"Uncletopia | Los Angeles | 1 | All Maps","protocol":17,"map":"pl_snowycoast","folder":"tf","game":"Team Fortress","app_id":440,"player_count":11,"max_players":24,"Bots":0,"server_type":"Dedicated","server_os":"Linux","password":true,"vac":true,"version":"7932396","steam_id":85568392924469991,"keywords":["nocrits","nodmgspread","payload","uncletopia"],"game_id":440,"stv_port":27016,"stv_name":"Uncletopia | Los Angeles | 1 | All Maps | STV","players":[{"user_id":10,"name":"Mark","steam_id":76561199092079229,"connected_time":1349000000000,"state":"active","ping":69},{"user_id":11,"name":"Delirium","steam_id":76561199096697141,"connected_time":1341000000000,"state":"active","ping":99},{"user_id":12,"name":"Pillagon","steam_id":76561198183894834,"connected_time":1330000000000,"state":"active","ping":47},{"user_id":13,"name":"manekiperson15","steam_id":76561199487837141,"connected_time":1326000000000,"state":"active","ping":63},{"user_id":16,"name":"cat2600","steam_id":76561199123635888,"connected_time":829000000000,"state":"active","ping":76},{"user_id":18,"name":"Brain damage squirrel","steam_id":76561198846344452,"connected_time":455000000000,"state":"active","ping":45},{"user_id":20,"name":"[Pudding Jesus] Tapioca","steam_id":76561198287013827,"connected_time":337000000000,"state":"active","ping":107},{"user_id":21,"name":"kab789","steam_id":76561198069842202,"connected_time":265000000000,"state":"active","ping":104},{"user_id":22,"name":"elephant thumb","steam_id":76561198118859752,"connected_time":248000000000,"state":"active","ping":42},{"user_id":24,"name":"mao zedong","steam_id":76561199060687332,"connected_time":219000000000,"state":"active","ping":45},{"user_id":25,"name":"plz talk about dogs","steam_id":76561198062924973,"connected_time":212000000000,"state":"active","ping":60}]},{"server_id":112,"name":"Uncletopia | Los Angeles | 2 | All Maps","name_short":"lax-2","host":"lax-1.us.uncletopia.com","port":27025,"enabled":true,"region":"us-west","cc":"us","latitude":33.94279,"longitude":-118.41004,"reserved":0,"last_update":"0001-01-01T00:00:00Z","name_a2s":"Uncletopia | Los Angeles | 2 | All Maps","protocol":17,"map":"cp_mountainlab","folder":"tf","game":"Team Fortress","app_id":440,"player_count":0,"max_players":24,"Bots":0,"server_type":"Dedicated","server_os":"Linux","password":true,"vac":true,"version":"7932396","steam_id":85568392924469992,"keywords":["cp","nocrits","nodmgspread","uncletopia"],"game_id":440,"stv_port":27026,"stv_name":"Uncletopia | Los Angeles | 2 | All Maps | STV","players":null},{"server_id":324,"name":"Uncletopia | Los Angeles | 3 | All Maps","name_short":"lax-3","host":"lax-1.us.uncletopia.com","port":27035,"enabled":true,"region":"us-west","cc":"us","latitude":33.94279,"longitude":-118.41004,"reserved":0,"last_update":"0001-01-01T00:00:00Z","name_a2s":"Uncletopia | Los Angeles | 3 | All Maps","protocol":17,"map":"pl_frontier_final","folder":"tf","game":"Team Fortress","app_id":440,"player_count":21,"max_players":24,"Bots":0,"server_type":"Dedicated","server_os":"Linux","password":true,"vac":true,"version":"7932396","steam_id":85568392924510198,"keywords":["nocrits","nodmgspread","payload","uncletopia"],"game_id":440,"stv_port":27036,"stv_name":"Uncletopia | Los Angeles | 3 | All Maps | STV","players":[{"user_id":361,"name":"dAiLyGrInD","steam_id":76561198163531915,"connected_time":384000000000,"state":"active","ping":91},{"user_id":362,"name":"Kuwait Grips","steam_id":76561198292689973,"connected_time":363000000000,"state":"active","ping":91},{"user_id":365,"name":"Teleporter  (Entrance, Level 3)","steam_id":76561198316927664,"connected_time":344000000000,"state":"active","ping":109},{"user_id":366,"name":"listerine","steam_id":76561198041104084,"connected_time":301000000000,"state":"active","ping":105},{"user_id":320,"name":"RainboomCrash","steam_id":76561198065612273,"connected_time":2211000000000,"state":"active","ping":72},{"user_id":367,"name":"catnap","steam_id":76561199128135362,"connected_time":235000000000,"state":"active","ping":76},{"user_id":351,"name":"SCUD missile up your ass","steam_id":76561198066452726,"connected_time":1043000000000,"state":"active","ping":51},{"user_id":368,"name":"Stoopnagle","steam_id":76561198011942560,"connected_time":41000000000,"state":"active","ping":75},{"user_id":354,"name":"Stick","steam_id":76561198001509374,"connected_time":981000000000,"state":"active","ping":74},{"user_id":346,"name":"Theory-Y","steam_id":76561198116419931,"connected_time":1467000000000,"state":"active","ping":132},{"user_id":337,"name":"rad killl raccoon","steam_id":76561198980975595,"connected_time":1791000000000,"state":"active","ping":90},{"user_id":248,"name":"spork","steam_id":76561198217269687,"connected_time":4954000000000,"state":"active","ping":62},{"user_id":369,"name":"coolbust carti","steam_id":76561198065384345,"connected_time":24000000000,"state":"spawning","ping":45},{"user_id":357,"name":"VicLoL","steam_id":76561198045580784,"connected_time":763000000000,"state":"active","ping":59},{"user_id":347,"name":"Stranger in a Strange Land","steam_id":76561198049843671,"connected_time":1437000000000,"state":"active","ping":111},{"user_id":236,"name":"..flop","steam_id":76561197989058876,"connected_time":5751000000000,"state":"active","ping":68},{"user_id":353,"name":"CFGU || RAWRWAFL","steam_id":76561198032118386,"connected_time":1015000000000,"state":"active","ping":102},{"user_id":226,"name":"whimsical little creature","steam_id":76561198271710504,"connected_time":6826000000000,"state":"active","ping":110},{"user_id":356,"name":"Donkski","steam_id":76561198406895347,"connected_time":810000000000,"state":"active","ping":82},{"user_id":290,"name":"bonk","steam_id":76561198922763623,"connected_time":3000000000000,"state":"active","ping":50},{"user_id":364,"name":"Conjurer","steam_id":76561198316256275,"connected_time":362000000000,"state":"active","ping":91}]},{"server_id":25,"name":"Uncletopia | Los Angeles | 4 | Stopwatch Beta","name_short":"lax-4","host":"lax-1.us.uncletopia.com","port":27045,"enabled":true,"region":"us-west","cc":"us","latitude":33.94279,"longitude":-118.41004,"reserved":0,"last_update":"0001-01-01T00:00:00Z","name_a2s":"Uncletopia | Los Angeles | 4 | Stopwatch Beta","protocol":17,"map":"workshop/pl_summercoast_rc8e.ugc1761528829","folder":"tf","game":"Team Fortress","app_id":440,"player_count":0,"max_players":24,"Bots":0,"server_type":"Dedicated","server_os":"Linux","password":true,"vac":true,"version":"7932396","steam_id":85568392924510199,"keywords":["nocrits","nodmgspread","payload","uncletopia"],"game_id":440,"stv_port":27046,"stv_name":"Uncletopia | Los Angeles | 4 | Stopwatch Beta | STV","players":null},{"server_id":11,"name":"Uncletopia | London | 1 | All Maps","name_short":"lon-1","host":"lon-1.uk.uncletopia.com","port":27015,"enabled":true,"region":"eu","cc":"gb","latitude":51.509865,"longitude":-0.118092,"reserved":0,"last_update":"0001-01-01T00:00:00Z","name_a2s":"Uncletopia | London | 1 | All Maps","protocol":17,"map":"pl_frontier_final","folder":"tf","game":"Team Fortress","app_id":440,"player_count":25,"max_players":24,"Bots":0,"server_type":"Dedicated","server_os":"Linux","password":true,"vac":true,"version":"7932396","steam_id":85568392924367362,"keywords":["nocrits","nodmgspread","payload","uncletopia"],"game_id":440,"stv_port":27016,"stv_name":"Uncletopia | London | 1 | All Maps | STV","players":[{"user_id":844,"name":"Owenter","steam_id":76561198083201886,"connected_time":1258000000000,"state":"active","ping":33},{"user_id":851,"name":"Xeno","steam_id":76561198975556646,"connected_time":654000000000,"state":"active","ping":54},{"user_id":843,"name":"Neiro👽ᗩYY ᒪᗰᗩO","steam_id":76561198046743985,"connected_time":1268000000000,"state":"active","ping":61},{"user_id":854,"name":"pepa","steam_id":76561199110497395,"connected_time":82000000000,"state":"active","ping":39},{"user_id":710,"name":"Pestdoktor","steam_id":76561198058159271,"connected_time":10011000000000,"state":"active","ping":70},{"user_id":860,"name":"Bob","steam_id":76561197993252315,"connected_time":25000000000,"state":"active","ping":60},{"user_id":838,"name":"RawNuggs","steam_id":76561198880104540,"connected_time":1310000000000,"state":"active","ping":54},{"user_id":784,"name":"Pronton","steam_id":76561198082502910,"connected_time":4066000000000,"state":"active","ping":61},{"user_id":829,"name":"Neco-arc Astolfo","steam_id":76561198989682540,"connected_time":2405000000000,"state":"active","ping":46},{"user_id":845,"name":"Infineable","steam_id":76561198358100698,"connected_time":1254000000000,"state":"active","ping":148},{"user_id":821,"name":"sus guy","steam_id":76561198170395639,"connected_time":2787000000000,"state":"active","ping":54},{"user_id":835,"name":"Purps","steam_id":76561198053886680,"connected_time":1732000000000,"state":"active","ping":45},{"user_id":855,"name":"nappo","steam_id":76561198060105180,"connected_time":57000000000,"state":"active","ping":73},{"user_id":735,"name":"cuddles \u003c3","steam_id":76561198805181599,"connected_time":8390000000000,"state":"active","ping":58},{"user_id":801,"name":"retard","steam_id":76561198342570528,"connected_time":3560000000000,"state":"active","ping":71},{"user_id":858,"name":"Fish 'n' Chips","steam_id":76561198033476886,"connected_time":27000000000,"state":"active","ping":59},{"user_id":781,"name":"rez777ka","steam_id":76561198107605938,"connected_time":4213000000000,"state":"active","ping":92},{"user_id":839,"name":"VideoJames","steam_id":76561197970114051,"connected_time":1306000000000,"state":"active","ping":44},{"user_id":846,"name":"SnazzyCelestial","steam_id":76561198328763813,"connected_time":1239000000000,"state":"active","ping":148},{"user_id":857,"name":"Lilliputt","steam_id":76561198090146457,"connected_time":31000000000,"state":"active","ping":41},{"user_id":850,"name":"Gryoss","steam_id":76561197999837111,"connected_time":896000000000,"state":"active","ping":109},{"user_id":852,"name":"Puss in Boots","steam_id":76561198211599767,"connected_time":90000000000,"state":"active","ping":43},{"user_id":862,"name":"Drengr05","steam_id":76561198104749840,"connected_time":5000000000,"state":"spawning","ping":62},{"user_id":861,"name":"THIS IS NOT AN EXPEDITION","steam_id":76561198798803845,"connected_time":22000000000,"state":"active","ping":49},{"user_id":818,"name":"hmscole09","steam_id":76561198811362788,"connected_time":2939000000000,"state":"active","ping":54}]},{"server_id":114,"name":"Uncletopia | London | 2 | All Maps","name_short":"lon-2","host":"lon-1.uk.uncletopia.com","port":27025,"enabled":true,"region":"eu","cc":"gb","latitude":51.509865,"longitude":-0.118092,"reserved":0,"last_update":"0001-01-01T00:00:00Z","name_a2s":"Uncletopia | London | 2 | All Maps","protocol":17,"map":"cp_altitude","folder":"tf","game":"Team Fortress","app_id":440,"player_count":23,"max_players":24,"Bots":0,"server_type":"Dedicated","server_os":"Linux","password":true,"vac":true,"version":"7932396","steam_id":85568392924470941,"keywords":["cp","nocrits","nodmgspread","uncletopia"],"game_id":440,"stv_port":27026,"stv_name":"Uncletopia | London | 2 | All Maps | STV","players":[{"user_id":658,"name":"Le Femboy","steam_id":76561198977142246,"connected_time":2295000000000,"state":"active","ping":168},{"user_id":657,"name":"lh970","steam_id":76561199488384327,"connected_time":2328000000000,"state":"active","ping":55},{"user_id":685,"name":"♥ Emma ♥","steam_id":76561198046796406,"connected_time":32000000000,"state":"active","ping":44},{"user_id":672,"name":"Milca, One eye'd Drunkard","steam_id":76561198848650365,"connected_time":643000000000,"state":"active","ping":88},{"user_id":664,"name":"NeonNewt","steam_id":76561198066699212,"connected_time":2066000000000,"state":"active","ping":54},{"user_id":654,"name":"Miiukade","steam_id":76561198089157860,"connected_time":3449000000000,"state":"active","ping":118},{"user_id":675,"name":"Gamemaster3198","steam_id":76561199010562678,"connected_time":406000000000,"state":"active","ping":122},{"user_id":624,"name":"tïger","steam_id":76561198260483157,"connected_time":4512000000000,"state":"active","ping":77},{"user_id":669,"name":"V.Kelvin","steam_id":76561198128186089,"connected_time":1310000000000,"state":"active","ping":97},{"user_id":681,"name":"Boner Von Rimjob","steam_id":76561198182293751,"connected_time":233000000000,"state":"active","ping":54},{"user_id":684,"name":"Sand Dune Collector (real)","steam_id":76561198274438729,"connected_time":73000000000,"state":"active","ping":70},{"user_id":674,"name":"Turtle","steam_id":76561198053254139,"connected_time":564000000000,"state":"active","ping":47},{"user_id":686,"name":"Peat","steam_id":76561197992168067,"connected_time":14000000000,"state":"active","ping":67},{"user_id":676,"name":"PinkKong","steam_id":76561197993950694,"connected_time":400000000000,"state":"active","ping":82},{"user_id":670,"name":"Oki (Bon)","steam_id":76561199047748534,"connected_time":1298000000000,"state":"active","ping":52},{"user_id":666,"name":"R0mulone","steam_id":76561198352513792,"connected_time":1981000000000,"state":"active","ping":67},{"user_id":636,"name":"nalezinik","steam_id":76561198030026119,"connected_time":4035000000000,"state":"active","ping":135},{"user_id":677,"name":"Perpetual Pub Push","steam_id":76561198256714846,"connected_time":360000000000,"state":"active","ping":43},{"user_id":667,"name":"akakez","steam_id":76561198095432821,"connected_time":1914000000000,"state":"active","ping":111},{"user_id":643,"name":"slorp","steam_id":76561198239927434,"connected_time":3796000000000,"state":"active","ping":88},{"user_id":644,"name":"OutOfDucks","steam_id":76561198166376227,"connected_time":3792000000000,"state":"active","ping":56},{"user_id":668,"name":"froglids","steam_id":76561198045466919,"connected_time":1876000000000,"state":"active","ping":73},{"user_id":682,"name":"mer5277","steam_id":76561198192171041,"connected_time":213000000000,"state":"active","ping":185}]},{"server_id":320,"name":"Uncletopia | London | 3 | All Maps","name_short":"lon-3","host":"lon-1.uk.uncletopia.com","port":27035,"enabled":true,"region":"eu","cc":"gb","latitude":51.509865,"longitude":-0.118092,"reserved":0,"last_update":"0001-01-01T00:00:00Z","name_a2s":"Uncletopia | London | 3 | All Maps","protocol":17,"map":"plr_pipeline","folder":"tf","game":"Team Fortress","app_id":440,"player_count":8,"max_players":24,"Bots":0,"server_type":"Dedicated","server_os":"Linux","password":true,"vac":true,"version":"7932396","steam_id":85568392924510192,"keywords":["nocrits","nodmgspread","payload","uncletopia"],"game_id":440,"stv_port":27036,"stv_name":"Uncletopia | London | 3 | All Maps | STV","players":[{"user_id":622,"name":"DarthMurloc_OW","steam_id":76561198075577711,"connected_time":1466000000000,"state":"active","ping":77},{"user_id":634,"name":"murf","steam_id":76561199184831395,"connected_time":497000000000,"state":"active","ping":42},{"user_id":592,"name":"gabehemmelgarn","steam_id":76561199089671432,"connected_time":3445000000000,"state":"active","ping":149},{"user_id":623,"name":"Phalcon","steam_id":76561197987051394,"connected_time":1456000000000,"state":"active","ping":77},{"user_id":594,"name":"the honey monster","steam_id":76561198012351808,"connected_time":3409000000000,"state":"active","ping":42},{"user_id":626,"name":"pezza","steam_id":76561197995173247,"connected_time":1232000000000,"state":"active","ping":55},{"user_id":577,"name":"threesystem","steam_id":76561198092435877,"connected_time":4526000000000,"state":"active","ping":45},{"user_id":578,"name":"Auro","steam_id":76561198224421624,"connected_time":4521000000000,"state":"active","ping":39}]},{"server_id":321,"name":"Uncletopia | London | 4 | All Maps","name_short":"lon-4","host":"lon-1.uk.uncletopia.com","port":27045,"enabled":true,"region":"eu","cc":"gb","latitude":51.509865,"longitude":-0.118092,"reserved":0,"last_update":"0001-01-01T00:00:00Z","name_a2s":"Uncletopia | London | 4 | All Maps","protocol":17,"map":"pl_borneo","folder":"tf","game":"Team Fortress","app_id":440,"player_count":0,"max_players":24,"Bots":0,"server_type":"Dedicated","server_os":"Linux","password":true,"vac":true,"version":"7932396","steam_id":85568392924510193,"keywords":["nocrits","nodmgspread","payload","uncletopia"],"game_id":440,"stv_port":27046,"stv_name":"Uncletopia | London | 4 | All Maps | STV","players":null},{"server_id":21,"name":"Uncletopia | London | 5 | All Maps","name_short":"lon-5","host":"lon-1.uk.uncletopia.com","port":27055,"enabled":true,"region":"eu","cc":"gb","latitude":51.509865,"longitude":-0.118092,"reserved":0,"last_update":"0001-01-01T00:00:00Z","name_a2s":"Uncletopia | London | 5 | All Maps","protocol":17,"map":"pl_pier","folder":"tf","game":"Team Fortress","app_id":440,"player_count":23,"max_players":24,"Bots":0,"server_type":"Dedicated","server_os":"Linux","password":true,"vac":true,"version":"7932396","steam_id":85568392924742829,"keywords":["nocrits","nodmgspread","payload","uncletopia"],"game_id":440,"stv_port":27056,"stv_name":"Uncletopia | London | 5 | All Maps | STV","players":[{"user_id":475,"name":"schmick h_stt 0","steam_id":76561198039537958,"connected_time":325000000000,"state":"active","ping":40},{"user_id":455,"name":"Suspicious Cabin","steam_id":76561198083261198,"connected_time":971000000000,"state":"active","ping":115},{"user_id":476,"name":"MØNSTER TSM MANDE BLACK","steam_id":76561198261795972,"connected_time":316000000000,"state":"active","ping":66},{"user_id":456,"name":"Male_07","steam_id":76561198079411460,"connected_time":966000000000,"state":"active","ping":46},{"user_id":477,"name":"Ran33","steam_id":76561197991474499,"connected_time":299000000000,"state":"active","ping":90},{"user_id":478,"name":".·:*¨༺Blu༻¨*:·.","steam_id":76561198825460454,"connected_time":287000000000,"state":"active","ping":32},{"user_id":453,"name":"Jinxie","steam_id":76561198008762303,"connected_time":1227000000000,"state":"active","ping":64},{"user_id":479,"name":"Mike","steam_id":76561198228455736,"connected_time":282000000000,"state":"active","ping":46},{"user_id":457,"name":"cmjgamingOHHH YEA","steam_id":76561199124037552,"connected_time":921000000000,"state":"active","ping":108},{"user_id":480,"name":"Famous Collector","steam_id":76561198097693666,"connected_time":263000000000,"state":"active","ping":44},{"user_id":461,"name":"Splarvis","steam_id":76561198007792525,"connected_time":676000000000,"state":"active","ping":40},{"user_id":464,"name":"Plonker","steam_id":76561198062894516,"connected_time":612000000000,"state":"active","ping":54},{"user_id":481,"name":"Štěpán","steam_id":76561198275742101,"connected_time":248000000000,"state":"active","ping":70},{"user_id":465,"name":"jonbob","steam_id":76561197963506620,"connected_time":591000000000,"state":"active","ping":61},{"user_id":466,"name":"Dinner","steam_id":76561198093689301,"connected_time":504000000000,"state":"active","ping":50},{"user_id":468,"name":"NotChloe","steam_id":76561198080658092,"connected_time":483000000000,"state":"active","ping":55},{"user_id":469,"name":"Proto-arc","steam_id":76561198012776747,"connected_time":480000000000,"state":"active","ping":46},{"user_id":471,"name":"Worm","steam_id":76561198296497176,"connected_time":435000000000,"state":"active","ping":55},{"user_id":483,"name":"Dr.Disrespect","steam_id":76561198043820228,"connected_time":208000000000,"state":"active","ping":60},{"user_id":473,"name":"Piellino","steam_id":76561198156873276,"connected_time":400000000000,"state":"active","ping":101},{"user_id":484,"name":"Umby","steam_id":76561198166584580,"connected_time":196000000000,"state":"active","ping":41},{"user_id":485,"name":"ARTICLE 5","steam_id":76561198026058098,"connected_time":164000000000,"state":"active","ping":76},{"user_id":486,"name":"Danube501","steam_id":76561198143222686,"connected_time":162000000000,"state":"active","ping":97}]},{"server_id":22,"name":"Uncletopia | London | 6 | All Maps","name_short":"lon-6","host":"lon-1.uk.uncletopia.com","port":27065,"enabled":true,"region":"eu","cc":"gb","latitude":51.509865,"longitude":-0.118092,"reserved":0,"last_update":"0001-01-01T00:00:00Z","name_a2s":"Uncletopia | London | 6 | All Maps","protocol":17,"map":"koth_viaduct","folder":"tf","game":"Team Fortress","app_id":440,"player_count":0,"max_players":24,"Bots":0,"server_type":"Dedicated","server_os":"Linux","password":true,"vac":true,"version":"7932396","steam_id":85568392924742830,"keywords":["cp","nocrits","nodmgspread","uncletopia"],"game_id":440,"stv_port":27066,"stv_name":"Uncletopia | London | 6 | All Maps | STV","players":null},{"server_id":40,"name":"Uncletopia | London | 7 | No Payload","name_short":"lon-7","host":"lon-1.uk.uncletopia.com","port":27075,"enabled":true,"region":"eu","cc":"gb","latitude":51.509865,"longitude":-0.118092,"reserved":0,"last_update":"0001-01-01T00:00:00Z","name_a2s":"Uncletopia | London | 7 | No Payload","protocol":17,"map":"cp_egypt_final","folder":"tf","game":"Team Fortress","app_id":440,"player_count":0,"max_players":24,"Bots":0,"server_type":"Dedicated","server_os":"Linux","password":true,"vac":true,"version":"7932396","steam_id":85568392924964314,"keywords":["cp","nocrits","nodmgspread","uncletopia"],"game_id":440,"stv_port":27076,"stv_name":"Uncletopia | London | 7 | No Payload | STV","players":null},{"server_id":41,"name":"Uncletopia | London | 8 | Community","name_short":"lon-8","host":"lon-1.uk.uncletopia.com","port":27085,"enabled":true,"region":"eu","cc":"gb","latitude":51.509865,"longitude":-0.118092,"reserved":0,"last_update":"0001-01-01T00:00:00Z","name_a2s":"Uncletopia | London | 8 | Community","protocol":17,"map":"workshop/pl_divulgence_b4b.ugc2884808746","folder":"tf","game":"Team Fortress","app_id":440,"player_count":0,"max_players":24,"Bots":0,"server_type":"Dedicated","server_os":"Linux","password":true,"vac":true,"version":"7932396","steam_id":85568392924964315,"keywords":["nocrits","nodmgspread","payload","uncletopia"],"game_id":440,"stv_port":27086,"stv_name":"Uncletopia | London | 8 | Community | STV","players":null},{"server_id":300,"name":"Uncletopia | Montréal | 1 | All Maps","name_short":"mtl-1","host":"mtl-1.ca.uncletopia.com","port":27015,"enabled":true,"region":"us-east","cc":"ca","latitude":45.50889,"longitude":-73.56167,"reserved":0,"last_update":"0001-01-01T00:00:00Z","name_a2s":"Uncletopia | Montréal | 1 | All Maps","protocol":17,"map":"cp_mountainlab","folder":"tf","game":"Team Fortress","app_id":440,"player_count":0,"max_players":24,"Bots":0,"server_type":"Dedicated","server_os":"Linux","password":true,"vac":true,"version":"7932396","steam_id":85568392924500087,"keywords":["cp","nocrits","nodmgspread","uncletopia"],"game_id":440,"stv_port":27016,"stv_name":"Uncletopia | Montréal | 1 | All Maps | STV","players":null},{"server_id":301,"name":"Uncletopia | Montréal | 2 | All Maps","name_short":"mtl-2","host":"mtl-1.ca.uncletopia.com","port":27025,"enabled":true,"region":"us-east","cc":"ca","latitude":45.50889,"longitude":-73.56167,"reserved":0,"last_update":"0001-01-01T00:00:00Z","name_a2s":"Uncletopia | Montréal | 2 | All Maps","protocol":17,"map":"koth_lakeside_final","folder":"tf","game":"Team Fortress","app_id":440,"player_count":0,"max_players":24,"Bots":0,"server_type":"Dedicated","server_os":"Linux","password":true,"vac":true,"version":"7932396","steam_id":85568392924500088,"keywords":["cp","nocrits","nodmgspread","uncletopia"],"game_id":440,"stv_port":27026,"stv_name":"Uncletopia | Montréal | 2 | All Maps | STV","players":null},{"server_id":302,"name":"Uncletopia | Montréal | 3 | All Maps","name_short":"mtl-3","host":"mtl-1.ca.uncletopia.com","port":27035,"enabled":true,"region":"us-east","cc":"ca","latitude":45.50889,"longitude":-73.56167,"reserved":0,"last_update":"0001-01-01T00:00:00Z","name_a2s":"Uncletopia | Montréal | 3 | All Maps","protocol":17,"map":"cp_mountainlab","folder":"tf","game":"Team Fortress","app_id":440,"player_count":0,"max_players":24,"Bots":0,"server_type":"Dedicated","server_os":"Linux","password":true,"vac":true,"version":"7932396","steam_id":85568392924500089,"keywords":["cp","nocrits","nodmgspread","uncletopia"],"game_id":440,"stv_port":27036,"stv_name":"Uncletopia | Montréal | 3 | All Maps | STV","players":null},{"server_id":303,"name":"Uncletopia | Montréal | 4 | No Payload","name_short":"mtl-4","host":"mtl-1.ca.uncletopia.com","port":27045,"enabled":true,"region":"us-east","cc":"ca","latitude":45.50889,"longitude":-73.56167,"reserved":0,"last_update":"0001-01-01T00:00:00Z","name_a2s":"Uncletopia | Montréal | 4 | No Payload","protocol":17,"map":"cp_snakewater_final1","folder":"tf","game":"Team Fortress","app_id":440,"player_count":0,"max_players":24,"Bots":0,"server_type":"Dedicated","server_os":"Linux","password":true,"vac":true,"version":"7932396","steam_id":85568392924500090,"keywords":["cp","nocrits","nodmgspread","uncletopia"],"game_id":440,"stv_port":27046,"stv_name":"Uncletopia | Montréal | 4 | No Payload | STV","players":null},{"server_id":13,"name":"Uncletopia | New York City | 1 | All Maps","name_short":"nyc-1","host":"nyc-1.us.uncletopia.com","port":27015,"enabled":true,"region":"us-east","cc":"us","latitude":40.73061,"longitude":-73.93524,"reserved":0,"last_update":"0001-01-01T00:00:00Z","name_a2s":"Uncletopia | New York City | 1 | All Maps","protocol":17,"map":"pl_borneo","folder":"tf","game":"Team Fortress","app_id":440,"player_count":24,"max_players":24,"Bots":0,"server_type":"Dedicated","server_os":"Linux","password":true,"vac":true,"version":"7932396","steam_id":85568392924469993,"keywords":["nocrits","nodmgspread","payload","uncletopia"],"game_id":440,"stv_port":27016,"stv_name":"Uncletopia | New York City | 1 | All Maps | STV","players":[{"user_id":114,"name":"Draco6257","steam_id":76561199147322448,"connected_time":646000000000,"state":"active","ping":30},{"user_id":110,"name":"Daniel Craig Fan","steam_id":76561198053467923,"connected_time":1393000000000,"state":"active","ping":82},{"user_id":117,"name":"vv","steam_id":76561198134813102,"connected_time":607000000000,"state":"active","ping":61},{"user_id":118,"name":"SublunarFox","steam_id":76561198886387474,"connected_time":594000000000,"state":"active","ping":60},{"user_id":90,"name":"Stryder","steam_id":76561199387418697,"connected_time":3678000000000,"state":"active","ping":97},{"user_id":127,"name":"sirsmit1","steam_id":76561199129778001,"connected_time":4000000000,"state":"spawning","ping":49},{"user_id":108,"name":"Corpse01","steam_id":76561198153671643,"connected_time":1557000000000,"state":"active","ping":73},{"user_id":109,"name":"Lucille_Bluth","steam_id":76561198206133916,"connected_time":1437000000000,"state":"active","ping":69},{"user_id":115,"name":"yellowcat","steam_id":76561198346054736,"connected_time":642000000000,"state":"active","ping":60},{"user_id":74,"name":"nori_420","steam_id":76561199117134203,"connected_time":4998000000000,"state":"active","ping":127},{"user_id":101,"name":"MILKY","steam_id":76561198073114061,"connected_time":1890000000000,"state":"active","ping":81},{"user_id":119,"name":"Irregulars","steam_id":76561198048498230,"connected_time":551000000000,"state":"active","ping":32},{"user_id":116,"name":"chainsaw chains for teeth.","steam_id":76561198294013916,"connected_time":640000000000,"state":"active","ping":46},{"user_id":120,"name":"Not Guztaf","steam_id":76561198334924763,"connected_time":545000000000,"state":"active","ping":76},{"user_id":65,"name":"Killroy NQP ❤","steam_id":76561198006983771,"connected_time":5761000000000,"state":"active","ping":65},{"user_id":103,"name":"bulbasaur890","steam_id":76561198093443639,"connected_time":1867000000000,"state":"active","ping":105},{"user_id":123,"name":"austinsmith","steam_id":76561198167838540,"connected_time":468000000000,"state":"active","ping":80},{"user_id":122,"name":"me","steam_id":76561198026281887,"connected_time":504000000000,"state":"active","ping":73},{"user_id":106,"name":"Banks","steam_id":76561198276505537,"connected_time":1771000000000,"state":"active","ping":60},{"user_id":50,"name":"Mumbls","steam_id":76561198272735875,"connected_time":6294000000000,"state":"active","ping":61},{"user_id":126,"name":"Kalhoun","steam_id":76561197999648122,"connected_time":197000000000,"state":"active","ping":69},{"user_id":83,"name":"nhbiker","steam_id":76561198081277675,"connected_time":3924000000000,"state":"active","ping":45},{"user_id":125,"name":"Flubby","steam_id":76561198069171252,"connected_time":437000000000,"state":"active","ping":55},{"user_id":113,"name":"Dakota Sutcliffe","steam_id":76561198170660959,"connected_time":1251000000000,"state":"active","ping":61}]},{"server_id":14,"name":"Uncletopia | New York City | 2 | All Maps","name_short":"nyc-2","host":"nyc-1.us.uncletopia.com","port":27025,"enabled":true,"region":"us-east","cc":"us","latitude":40.73061,"longitude":-73.93524,"reserved":0,"last_update":"0001-01-01T00:00:00Z","name_a2s":"Uncletopia | New York City | 2 | All Maps","protocol":17,"map":"koth_lakeside_final","folder":"tf","game":"Team Fortress","app_id":440,"player_count":24,"max_players":24,"Bots":0,"server_type":"Dedicated","server_os":"Linux","password":true,"vac":true,"version":"7932396","steam_id":85568392924469994,"keywords":["cp","nocrits","nodmgspread","uncletopia"],"game_id":440,"stv_port":27026,"stv_name":"Uncletopia | New York City | 2 | All Maps | STV","players":[{"user_id":333,"name":"gus","steam_id":76561199221202455,"connected_time":269000000000,"state":"active","ping":76},{"user_id":274,"name":"Crisp","steam_id":76561198132644084,"connected_time":4597000000000,"state":"active","ping":46},{"user_id":176,"name":"aisu","steam_id":76561198043768507,"connected_time":12694000000000,"state":"active","ping":84},{"user_id":288,"name":"theconqueror","steam_id":76561199229806456,"connected_time":3450000000000,"state":"active","ping":69},{"user_id":334,"name":"Bee","steam_id":76561198074681324,"connected_time":269000000000,"state":"active","ping":46},{"user_id":289,"name":"Meme Foreskin II","steam_id":76561198028157625,"connected_time":3440000000000,"state":"active","ping":87},{"user_id":319,"name":"StormyBoyo","steam_id":76561198273482774,"connected_time":1476000000000,"state":"active","ping":82},{"user_id":329,"name":"donut dan","steam_id":76561198132222035,"connected_time":716000000000,"state":"active","ping":61},{"user_id":302,"name":"A_Malebolgia","steam_id":76561198097722818,"connected_time":2829000000000,"state":"active","ping":85},{"user_id":325,"name":"sagekiss","steam_id":76561198038831240,"connected_time":1029000000000,"state":"active","ping":116},{"user_id":335,"name":"PluffyWuffy","steam_id":76561199386885244,"connected_time":258000000000,"state":"active","ping":73},{"user_id":330,"name":"WALL-E","steam_id":76561198154701370,"connected_time":677000000000,"state":"active","ping":59},{"user_id":299,"name":"Lindir","steam_id":76561198330755050,"connected_time":2975000000000,"state":"active","ping":62},{"user_id":265,"name":"Ata","steam_id":76561198349085545,"connected_time":5752000000000,"state":"active","ping":79},{"user_id":312,"name":"Tree45","steam_id":76561198143698408,"connected_time":1974000000000,"state":"active","ping":77},{"user_id":313,"name":"Yayifications","steam_id":76561198066227208,"connected_time":1970000000000,"state":"active","ping":45},{"user_id":320,"name":"Mr. Durian","steam_id":76561198093813212,"connected_time":1224000000000,"state":"active","ping":67},{"user_id":309,"name":"MonotoneMerc","steam_id":76561198022309851,"connected_time":2181000000000,"state":"active","ping":107},{"user_id":327,"name":"Bymo","steam_id":76561199037626505,"connected_time":844000000000,"state":"active","ping":56},{"user_id":331,"name":"JoCaleb02","steam_id":76561198272389829,"connected_time":560000000000,"state":"active","ping":50},{"user_id":336,"name":"blood is power","steam_id":76561198016826181,"connected_time":251000000000,"state":"active","ping":59},{"user_id":337,"name":"neet","steam_id":76561197968115168,"connected_time":238000000000,"state":"active","ping":48},{"user_id":338,"name":"6t26j","steam_id":76561198278282836,"connected_time":209000000000,"state":"active","ping":58},{"user_id":276,"name":"LordOfTheNoobs","steam_id":76561197962697523,"connected_time":4589000000000,"state":"active","ping":74}]},{"server_id":15,"name":"Uncletopia | New York City | 3 | Stopwatch Beta","name_short":"nyc-3","host":"nyc-1.us.uncletopia.com","port":27035,"enabled":true,"region":"us-east","cc":"us","latitude":40.73061,"longitude":-73.93524,"reserved":0,"last_update":"0001-01-01T00:00:00Z","name_a2s":"Uncletopia | New York City | 3 | Stopwatch Beta","protocol":17,"map":"cp_sunshine","folder":"tf","game":"Team Fortress","app_id":440,"player_count":0,"max_players":24,"Bots":0,"server_type":"Dedicated","server_os":"Linux","password":true,"vac":true,"version":"7932396","steam_id":85568392924742820,"keywords":["cp","nocrits","nodmgspread","uncletopia"],"game_id":440,"stv_port":27036,"stv_name":"Uncletopia | New York City | 3 | Stopwatch Beta | STV","players":null},{"server_id":16,"name":"Uncletopia | New York City | 4 | Community","name_short":"nyc-4","host":"nyc-1.us.uncletopia.com","port":27045,"enabled":true,"region":"us-east","cc":"us","latitude":40.73061,"longitude":-73.93524,"reserved":0,"last_update":"0001-01-01T00:00:00Z","name_a2s":"Uncletopia | New York City | 4 | Community","protocol":17,"map":"workshop/koth_bagel_rc6.ugc2514036946","folder":"tf","game":"Team Fortress","app_id":440,"player_count":0,"max_players":24,"Bots":0,"server_type":"Dedicated","server_os":"Linux","password":true,"vac":true,"version":"7932396","steam_id":85568392924742821,"keywords":["cp","nocrits","nodmgspread","uncletopia"],"game_id":440,"stv_port":27046,"stv_name":"Uncletopia | New York City | 4 | Community | STV","players":null},{"server_id":142,"name":"Uncletopia | São Paulo | 1 | All Maps","name_short":"sao-1","host":"sao-1.br.uncletopia.com","port":27015,"enabled":true,"region":"sa","cc":"br","latitude":-23.533773,"longitude":-46.62529,"reserved":0,"last_update":"0001-01-01T00:00:00Z","name_a2s":"Uncletopia | São Paulo | 1 | All Maps","protocol":17,"map":"pl_pier","folder":"tf","game":"Team Fortress","app_id":440,"player_count":0,"max_players":24,"Bots":0,"server_type":"Dedicated","server_os":"Linux","password":true,"vac":true,"version":"7932396","steam_id":85568392924469996,"keywords":["nocrits","nodmgspread","payload","uncletopia"],"game_id":440,"stv_port":27016,"stv_name":"Uncletopia | São Paulo | 1 | All Maps | STV","players":null},{"server_id":143,"name":"Uncletopia | São Paulo | 2 | All Maps","name_short":"sao-2","host":"sao-2.br.uncletopia.com","port":27015,"enabled":true,"region":"sa","cc":"br","latitude":-23.533773,"longitude":-46.62529,"reserved":0,"last_update":"0001-01-01T00:00:00Z","name_a2s":"Uncletopia | São Paulo | 2 | All Maps","protocol":17,"map":"pl_snowycoast","folder":"tf","game":"Team Fortress","app_id":440,"player_count":7,"max_players":24,"Bots":0,"server_type":"Dedicated","server_os":"Linux","password":true,"vac":true,"version":"7932396","steam_id":85568392924485349,"keywords":["nocrits","nodmgspread","payload","uncletopia"],"game_id":440,"stv_port":27016,"stv_name":"Uncletopia | São Paulo | 2 | All Maps | STV","players":[{"user_id":89,"name":"elpapumisterioso59","steam_id":76561199487095005,"connected_time":3428000000000,"state":"active","ping":90},{"user_id":114,"name":"marado","steam_id":76561198102394172,"connected_time":367000000000,"state":"active","ping":82},{"user_id":106,"name":"pad6z23h8s","steam_id":76561198880756741,"connected_time":1672000000000,"state":"active","ping":272},{"user_id":87,"name":"avim ♥","steam_id":76561198141961540,"connected_time":3944000000000,"state":"active","ping":58},{"user_id":112,"name":"♥.♥","steam_id":76561198971749651,"connected_time":656000000000,"state":"active","ping":80},{"user_id":115,"name":"matheus_lanches","steam_id":76561199359501901,"connected_time":302000000000,"state":"active","ping":32},{"user_id":99,"name":"starm0nster","steam_id":76561199016975635,"connected_time":2664000000000,"state":"active","ping":34}]},{"server_id":7,"name":"Uncletopia | Seattle | 1 | All Maps","name_short":"sea-1","host":"sea-1.us.uncletopia.com","port":27015,"enabled":true,"region":"us-west","cc":"us","latitude":47.608013,"longitude":-122.33517,"reserved":0,"last_update":"0001-01-01T00:00:00Z","name_a2s":"Uncletopia | Seattle | 1 | All Maps","protocol":17,"map":"pl_borneo","folder":"tf","game":"Team Fortress","app_id":440,"player_count":24,"max_players":24,"Bots":0,"server_type":"Dedicated","server_os":"Linux","password":true,"vac":true,"version":"7932396","steam_id":85568392924469997,"keywords":["nocrits","nodmgspread","payload","uncletopia"],"game_id":440,"stv_port":27016,"stv_name":"Uncletopia | Seattle | 1 | All Maps | STV","players":[{"user_id":469,"name":"E4Estrogen","steam_id":76561198085813708,"connected_time":413000000000,"state":"active","ping":116},{"user_id":467,"name":"Officer Earl","steam_id":76561199019675078,"connected_time":561000000000,"state":"active","ping":100},{"user_id":434,"name":"HaphazardHazel","steam_id":76561198316812693,"connected_time":4870000000000,"state":"active","ping":135},{"user_id":423,"name":"lili","steam_id":76561199391478575,"connected_time":6197000000000,"state":"active","ping":70},{"user_id":426,"name":"Aeris","steam_id":76561198287271028,"connected_time":5833000000000,"state":"active","ping":101},{"user_id":468,"name":"What are you doing?!","steam_id":76561198405248691,"connected_time":560000000000,"state":"active","ping":78},{"user_id":472,"name":"bass mongrel","steam_id":76561198081123470,"connected_time":34000000000,"state":"active","ping":115},{"user_id":441,"name":"Juuichi11","steam_id":76561198141955085,"connected_time":4001000000000,"state":"active","ping":47},{"user_id":459,"name":"GasNarr","steam_id":76561198027807933,"connected_time":2143000000000,"state":"active","ping":54},{"user_id":437,"name":"Coowil","steam_id":76561198070985437,"connected_time":4133000000000,"state":"active","ping":43},{"user_id":444,"name":"♥ kiss me! ♥","steam_id":76561198014557455,"connected_time":3453000000000,"state":"active","ping":111},{"user_id":449,"name":"Ayayayayayahuasca","steam_id":76561199002906056,"connected_time":2802000000000,"state":"active","ping":48},{"user_id":462,"name":"krootonitron","steam_id":76561198114113037,"connected_time":1753000000000,"state":"active","ping":58},{"user_id":447,"name":"26O3 極光面紗","steam_id":76561198964074985,"connected_time":2970000000000,"state":"active","ping":60},{"user_id":336,"name":"jayeskae","steam_id":76561198144220801,"connected_time":12490000000000,"state":"active","ping":52},{"user_id":461,"name":"Apetometrist","steam_id":76561198045391635,"connected_time":2037000000000,"state":"active","ping":113},{"user_id":416,"name":"Trueno","steam_id":76561199080515661,"connected_time":6788000000000,"state":"active","ping":70},{"user_id":458,"name":"womenobtainer39","steam_id":76561199236568388,"connected_time":2154000000000,"state":"active","ping":82},{"user_id":452,"name":"Ash Of Ruins","steam_id":76561198017744507,"connected_time":2415000000000,"state":"active","ping":57},{"user_id":435,"name":"ORANGE","steam_id":76561198000401769,"connected_time":4387000000000,"state":"active","ping":46},{"user_id":463,"name":"Neptune˖⁺｡˚⋆˙♥","steam_id":76561199054203198,"connected_time":1490000000000,"state":"active","ping":130},{"user_id":466,"name":"D34dR4bbit","steam_id":76561198167411455,"connected_time":613000000000,"state":"active","ping":60},{"user_id":422,"name":"evilOlive","steam_id":76561198106222025,"connected_time":6206000000000,"state":"active","ping":77},{"user_id":440,"name":"SibilantSerpent","steam_id":76561198154488754,"connected_time":4058000000000,"state":"active","ping":57}]},{"server_id":119,"name":"Uncletopia | Seattle | 2 | All Maps","name_short":"sea-2","host":"sea-1.us.uncletopia.com","port":27025,"enabled":true,"region":"us-west","cc":"us","latitude":47.608013,"longitude":-122.33517,"reserved":0,"last_update":"0001-01-01T00:00:00Z","name_a2s":"Uncletopia | Seattle | 2 | All Maps","protocol":17,"map":"koth_cascade","folder":"tf","game":"Team Fortress","app_id":440,"player_count":0,"max_players":24,"Bots":0,"server_type":"Dedicated","server_os":"Linux","password":true,"vac":true,"version":"7932396","steam_id":85568392924469998,"keywords":["cp","nocrits","nodmgspread","uncletopia"],"game_id":440,"stv_port":27026,"stv_name":"Uncletopia | Seattle | 2 | All Maps | STV","players":null},{"server_id":406,"name":"Uncletopia | Seattle | 3 | Stopwatch Beta","name_short":"sea-3","host":"sea-1.us.uncletopia.com","port":27035,"enabled":true,"region":"us-west","cc":"us","latitude":47.608013,"longitude":-122.33517,"reserved":0,"last_update":"0001-01-01T00:00:00Z","name_a2s":"Uncletopia | Seattle | 3 | Stopwatch Beta","protocol":17,"map":"workshop/koth_product_final.ugc454272353","folder":"tf","game":"Team Fortress","app_id":440,"player_count":0,"max_players":24,"Bots":0,"server_type":"Dedicated","server_os":"Linux","password":true,"vac":true,"version":"7932396","steam_id":85568392924515217,"keywords":["cp","nocrits","nodmgspread","uncletopia"],"game_id":440,"stv_port":27036,"stv_name":"Uncletopia | Seattle | 3 | Stopwatch Beta | STV","players":null},{"server_id":17,"name":"Uncletopia | San Francisco | 1 | All Maps","name_short":"sfo-1","host":"sfo-1.us.uncletopia.com","port":27015,"enabled":true,"region":"us-west","cc":"us","latitude":37.77397,"longitude":-122.4313,"reserved":0,"last_update":"0001-01-01T00:00:00Z","name_a2s":"Uncletopia | San Francisco | 1 | All Maps","protocol":17,"map":"pl_badwater","folder":"tf","game":"Team Fortress","app_id":440,"player_count":22,"max_players":24,"Bots":0,"server_type":"Dedicated","server_os":"Linux","password":true,"vac":true,"version":"7932396","steam_id":85568392924469999,"keywords":["nocrits","nodmgspread","payload","uncletopia"],"game_id":440,"stv_port":27016,"stv_name":"Uncletopia | San Francisco | 1 | All Maps | STV","players":[{"user_id":567,"name":"Arcane Flame","steam_id":76561198360024422,"connected_time":3131000000000,"state":"active","ping":67},{"user_id":590,"name":"Arche234","steam_id":76561198302695001,"connected_time":1571000000000,"state":"active","ping":123},{"user_id":552,"name":"LogicalFurret","steam_id":76561198350604657,"connected_time":4155000000000,"state":"active","ping":59},{"user_id":617,"name":"Drake from State Farm","steam_id":76561199069029812,"connected_time":225000000000,"state":"active","ping":58},{"user_id":550,"name":"ThatGamingKiwi","steam_id":76561199170522237,"connected_time":4411000000000,"state":"active","ping":128},{"user_id":610,"name":"Arctic","steam_id":76561199134893517,"connected_time":672000000000,"state":"active","ping":118},{"user_id":594,"name":"Alan","steam_id":76561198977083959,"connected_time":1535000000000,"state":"active","ping":72},{"user_id":597,"name":"Camohno","steam_id":76561198283519918,"connected_time":1451000000000,"state":"active","ping":54},{"user_id":602,"name":"HTML","steam_id":76561198099061153,"connected_time":1344000000000,"state":"active","ping":45},{"user_id":612,"name":"Dr. PP","steam_id":76561199018184096,"connected_time":399000000000,"state":"active","ping":88},{"user_id":599,"name":"a_hooman","steam_id":76561198888917114,"connected_time":1377000000000,"state":"active","ping":48},{"user_id":619,"name":"Dcoyotzi","steam_id":76561199124707627,"connected_time":15000000000,"state":"active","ping":60},{"user_id":576,"name":"luigiclub","steam_id":76561198180548194,"connected_time":2555000000000,"state":"active","ping":82},{"user_id":615,"name":"UnusualTofu","steam_id":76561198060103750,"connected_time":369000000000,"state":"active","ping":63},{"user_id":558,"name":"greenpeace","steam_id":76561197983221708,"connected_time":3265000000000,"state":"active","ping":54},{"user_id":563,"name":"Grizzakk","steam_id":76561198115821923,"connected_time":3213000000000,"state":"active","ping":73},{"user_id":616,"name":"Kitt〜","steam_id":76561198108685037,"connected_time":260000000000,"state":"active","ping":70},{"user_id":613,"name":"reymundo","steam_id":76561197989412830,"connected_time":390000000000,"state":"active","ping":73},{"user_id":565,"name":"Oh No! It's Twister!","steam_id":76561198016791916,"connected_time":3203000000000,"state":"active","ping":93},{"user_id":573,"name":"Oktayey","steam_id":76561198143213426,"connected_time":2774000000000,"state":"active","ping":46},{"user_id":600,"name":"Da Bird","steam_id":76561198215677985,"connected_time":1374000000000,"state":"active","ping":70},{"user_id":608,"name":"CampinCarl","steam_id":76561197997373624,"connected_time":821000000000,"state":"active","ping":51}]},{"server_id":18,"name":"Uncletopia | San Francisco | 2 | All Maps","name_short":"sfo-2","host":"sfo-1.us.uncletopia.com","port":27025,"enabled":true,"region":"us-west","cc":"us","latitude":37.77397,"longitude":-122.4313,"reserved":0,"last_update":"0001-01-01T00:00:00Z","name_a2s":"Uncletopia | San Francisco | 2 | All Maps","protocol":17,"map":"pl_pier","folder":"tf","game":"Team Fortress","app_id":440,"player_count":22,"max_players":24,"Bots":0,"server_type":"Dedicated","server_os":"Linux","password":true,"vac":true,"version":"7932396","steam_id":85568392924470000,"keywords":["nocrits","nodmgspread","payload","uncletopia"],"game_id":440,"stv_port":27026,"stv_name":"Uncletopia | San Francisco | 2 | All Maps | STV","players":[{"user_id":288,"name":"komedy","steam_id":76561199122273505,"connected_time":295000000000,"state":"active","ping":93},{"user_id":272,"name":"caRat","steam_id":76561198859267372,"connected_time":774000000000,"state":"active","ping":111},{"user_id":275,"name":"deerb","steam_id":76561198110369487,"connected_time":584000000000,"state":"active","ping":49},{"user_id":192,"name":"ShredMaan","steam_id":76561198429982138,"connected_time":2577000000000,"state":"active","ping":62},{"user_id":294,"name":"Riley ♥","steam_id":76561198128417958,"connected_time":10000000000,"state":"spawning","ping":90},{"user_id":273,"name":"i have a tiny feeble mind","steam_id":76561199476816590,"connected_time":674000000000,"state":"active","ping":92},{"user_id":274,"name":"ColdChillyWilly","steam_id":76561199238046186,"connected_time":673000000000,"state":"active","ping":118},{"user_id":276,"name":"smingus","steam_id":76561198347660282,"connected_time":583000000000,"state":"active","ping":94},{"user_id":292,"name":"VannNotSmart8","steam_id":76561198958732029,"connected_time":75000000000,"state":"active","ping":107},{"user_id":182,"name":"5GUY","steam_id":76561198971354161,"connected_time":3852000000000,"state":"active","ping":101},{"user_id":189,"name":"Genius Meme","steam_id":76561198162911254,"connected_time":2857000000000,"state":"active","ping":76},{"user_id":205,"name":"SleepyCanary","steam_id":76561198071770434,"connected_time":2262000000000,"state":"active","ping":71},{"user_id":169,"name":"SanitysEdge","steam_id":76561198130732813,"connected_time":4460000000000,"state":"active","ping":59},{"user_id":277,"name":"Drive-By-Fish-Guy","steam_id":76561198105513652,"connected_time":534000000000,"state":"active","ping":60},{"user_id":278,"name":"MOONSHINE SIPPA","steam_id":76561198361326855,"connected_time":533000000000,"state":"active","ping":105},{"user_id":225,"name":"the1silentninja","steam_id":76561198387601885,"connected_time":1663000000000,"state":"active","ping":65},{"user_id":284,"name":"Buswolley","steam_id":76561197995205571,"connected_time":429000000000,"state":"active","ping":39},{"user_id":221,"name":"Sammy!","steam_id":76561198184171743,"connected_time":1726000000000,"state":"active","ping":55},{"user_id":290,"name":"Haloman","steam_id":76561198119610371,"connected_time":215000000000,"state":"active","ping":77},{"user_id":281,"name":"Archie","steam_id":76561198137112917,"connected_time":469000000000,"state":"active","ping":44},{"user_id":286,"name":"MayKaye","steam_id":76561199016092265,"connected_time":352000000000,"state":"active","ping":71},{"user_id":242,"name":"Underwear Monster","steam_id":76561198175742775,"connected_time":1343000000000,"state":"active","ping":105}]},{"server_id":19,"name":"Uncletopia | San Francisco | 3 | Stopwatch Beta","name_short":"sfo-3","host":"sfo-1.us.uncletopia.com","port":27035,"enabled":true,"region":"us-west","cc":"us","latitude":37.77397,"longitude":-122.4313,"reserved":0,"last_update":"0001-01-01T00:00:00Z","name_a2s":"Uncletopia | San Francisco | 3 | Stopwatch Beta","protocol":17,"map":"koth_lakeside_final","folder":"tf","game":"Team Fortress","app_id":440,"player_count":0,"max_players":24,"Bots":0,"server_type":"Dedicated","server_os":"Linux","password":true,"vac":true,"version":"7932396","steam_id":85568392924742824,"keywords":["cp","nocrits","nodmgspread","uncletopia"],"game_id":440,"stv_port":27036,"stv_name":"Uncletopia | San Francisco | 3 | Stopwatch Beta | STV","players":null},{"server_id":20,"name":"Uncletopia | San Francisco | 4 | Community","name_short":"sfo-4","host":"sfo-1.us.uncletopia.com","port":27045,"enabled":true,"region":"us-west","cc":"us","latitude":37.77397,"longitude":-122.4313,"reserved":0,"last_update":"0001-01-01T00:00:00Z","name_a2s":"Uncletopia | San Francisco | 4 | Community","protocol":17,"map":"pl_borneo","folder":"tf","game":"Team Fortress","app_id":440,"player_count":1,"max_players":24,"Bots":0,"server_type":"Dedicated","server_os":"Linux","password":true,"vac":true,"version":"7932396","steam_id":85568392924742826,"keywords":["nocrits","nodmgspread","payload","uncletopia"],"game_id":440,"stv_port":27046,"stv_name":"Uncletopia | San Francisco | 4 | Community | STV","players":[{"user_id":3,"name":"Moist Quota","steam_id":76561198237975064,"connected_time":166000000000,"state":"active","ping":84}]},{"server_id":141,"name":"Uncletopia | Sydney | 1 | All Maps","name_short":"syd-1","host":"syd-1.au.uncletopia.com","port":27015,"enabled":true,"region":"au","cc":"au","latitude":-33.865143,"longitude":151.2099,"reserved":0,"last_update":"0001-01-01T00:00:00Z","name_a2s":"Uncletopia | Sydney | 1 | All Maps","protocol":17,"map":"koth_lakeside_final","folder":"tf","game":"Team Fortress","app_id":440,"player_count":0,"max_players":24,"Bots":0,"server_type":"Dedicated","server_os":"Linux","password":true,"vac":true,"version":"7932396","steam_id":85568392924470001,"keywords":["cp","nocrits","nodmgspread","uncletopia"],"game_id":440,"stv_port":27016,"stv_name":"Uncletopia | Sydney | 1 | All Maps | STV","players":null},{"server_id":123,"name":"Uncletopia | Sydney | 2 | All Maps","name_short":"syd-2","host":"syd-1.au.uncletopia.com","port":27025,"enabled":true,"region":"au","cc":"au","latitude":-33.865143,"longitude":151.2099,"reserved":0,"last_update":"0001-01-01T00:00:00Z","name_a2s":"Uncletopia | Sydney | 2 | All Maps","protocol":17,"map":"pl_snowycoast","folder":"tf","game":"Team Fortress","app_id":440,"player_count":0,"max_players":24,"Bots":0,"server_type":"Dedicated","server_os":"Linux","password":true,"vac":true,"version":"7932396","steam_id":85568392924470002,"keywords":["nocrits","nodmgspread","payload","uncletopia"],"game_id":440,"stv_port":27026,"stv_name":"Uncletopia | Sydney | 2 | All Maps | STV","players":null},{"server_id":395,"name":"Uncletopia | Sydney | 3 | All Maps","name_short":"syd-3","host":"syd-1.au.uncletopia.com","port":27035,"enabled":true,"region":"au","cc":"au","latitude":-33.865143,"longitude":151.2099,"reserved":0,"last_update":"0001-01-01T00:00:00Z","name_a2s":"Uncletopia | Sydney | 3 | All Maps","protocol":17,"map":"pl_pier","folder":"tf","game":"Team Fortress","app_id":440,"player_count":3,"max_players":24,"Bots":0,"server_type":"Dedicated","server_os":"Linux","password":true,"vac":true,"version":"7932396","steam_id":85568392925194467,"keywords":["nocrits","nodmgspread","payload","uncletopia"],"game_id":440,"stv_port":27036,"stv_name":"Uncletopia | Sydney | 3 | All Maps | STV","players":[{"user_id":15,"name":"first to die","steam_id":76561198023646585,"connected_time":476000000000,"state":"active","ping":55},{"user_id":17,"name":"Skidallion","steam_id":76561198083922206,"connected_time":139000000000,"state":"active","ping":57},{"user_id":14,"name":"Trex988","steam_id":76561198147725676,"connected_time":699000000000,"state":"active","ping":69}]},{"server_id":396,"name":"Uncletopia | Sydney | 4 | All Maps","name_short":"syd-4","host":"syd-1.au.uncletopia.com","port":27045,"enabled":true,"region":"au","cc":"au","latitude":-33.865143,"longitude":151.2099,"reserved":0,"last_update":"0001-01-01T00:00:00Z","name_a2s":"Uncletopia | Sydney | 4 | All Maps","protocol":17,"map":"pl_pier","folder":"tf","game":"Team Fortress","app_id":440,"player_count":0,"max_players":24,"Bots":0,"server_type":"Dedicated","server_os":"Linux","password":true,"vac":true,"version":"7932396","steam_id":85568392925397958,"keywords":["nocrits","nodmgspread","payload","uncletopia"],"game_id":440,"stv_port":27046,"stv_name":"Uncletopia | Sydney | 4 | All Maps | STV","players":null},{"server_id":58,"name":"Uncletopia | Sydney | 5 | Stopwatch Beta","name_short":"syd-5","host":"syd-1.au.uncletopia.com","port":27055,"enabled":true,"region":"au","cc":"au","latitude":-33.865143,"longitude":151.2099,"reserved":0,"last_update":"0001-01-01T00:00:00Z","name_a2s":"Uncletopia | Sydney | 5 | Stopwatch Beta","protocol":17,"map":"pl_borneo","folder":"tf","game":"Team Fortress","app_id":440,"player_count":0,"max_players":24,"Bots":0,"server_type":"Dedicated","server_os":"Linux","password":true,"vac":true,"version":"7932396","steam_id":85568392925397959,"keywords":["nocrits","nodmgspread","payload","uncletopia"],"game_id":440,"stv_port":27056,"stv_name":"Uncletopia | Sydney | 5 | Stopwatch Beta | STV","players":null},{"server_id":59,"name":"Uncletopia | Sydney | 6 | Community","name_short":"syd-6","host":"syd-1.au.uncletopia.com","port":27065,"enabled":true,"region":"au","cc":"au","latitude":-33.865143,"longitude":151.2099,"reserved":0,"last_update":"0001-01-01T00:00:00Z","name_a2s":"Uncletopia | Sydney | 6 | Community","protocol":17,"map":"pl_badwater","folder":"tf","game":"Team Fortress","app_id":440,"player_count":0,"max_players":24,"Bots":0,"server_type":"Dedicated","server_os":"Linux","password":true,"vac":true,"version":"7932396","steam_id":85568392925397960,"keywords":["nocrits","nodmgspread","payload","uncletopia"],"game_id":440,"stv_port":27066,"stv_name":"Uncletopia | Sydney | 6 | Community | STV","players":null},{"server_id":49,"name":"Uncletopia | Warsaw | 1 | All Maps","name_short":"waw-1","host":"waw-1.pl.uncletopia.com","port":27015,"enabled":true,"region":"eu","cc":"pl","latitude":52.2297,"longitude":21.017532,"reserved":0,"last_update":"0001-01-01T00:00:00Z","name_a2s":"","protocol":0,"map":"","folder":"","game":"","app_id":0,"player_count":0,"max_players":0,"Bots":0,"server_type":"","server_os":"","password":false,"vac":false,"version":"","steam_id":0,"keywords":null,"game_id":0,"stv_port":0,"stv_name":"","players":null},{"server_id":50,"name":"Uncletopia | Warsaw | 2 | All Maps","name_short":"waw-2","host":"waw-1.pl.uncletopia.com","port":27025,"enabled":true,"region":"eu","cc":"pl","latitude":52.2297,"longitude":21.017532,"reserved":0,"last_update":"0001-01-01T00:00:00Z","name_a2s":"Uncletopia | Warsaw | 2 | All Maps","protocol":17,"map":"cp_process_final","folder":"tf","game":"Team Fortress","app_id":440,"player_count":0,"max_players":24,"Bots":0,"server_type":"Dedicated","server_os":"Linux","password":true,"vac":true,"version":"7932396","steam_id":85568392925397851,"keywords":["cp","nocrits","nodmgspread","uncletopia"],"game_id":440,"stv_port":27026,"stv_name":"Uncletopia | Warsaw | 2 | All Maps | STV","players":null},{"server_id":51,"name":"Uncletopia | Warsaw | 3 | All Maps","name_short":"waw-3","host":"waw-1.pl.uncletopia.com","port":27035,"enabled":true,"region":"eu","cc":"pl","latitude":52.2297,"longitude":21.017532,"reserved":0,"last_update":"0001-01-01T00:00:00Z","name_a2s":"Uncletopia | Warsaw | 3 | All Maps","protocol":17,"map":"koth_lakeside_final","folder":"tf","game":"Team Fortress","app_id":440,"player_count":0,"max_players":24,"Bots":0,"server_type":"Dedicated","server_os":"Linux","password":true,"vac":true,"version":"7932396","steam_id":85568392925397852,"keywords":["cp","nocrits","nodmgspread","uncletopia"],"game_id":440,"stv_port":27036,"stv_name":"Uncletopia | Warsaw | 3 | All Maps | STV","players":null},{"server_id":52,"name":"Uncletopia | Warsaw | 4 | All Maps","name_short":"waw-4","host":"waw-1.pl.uncletopia.com","port":27045,"enabled":true,"region":"eu","cc":"pl","latitude":52.2297,"longitude":21.017532,"reserved":0,"last_update":"0001-01-01T00:00:00Z","name_a2s":"Uncletopia | Warsaw | 4 | All Maps","protocol":17,"map":"koth_lakeside_final","folder":"tf","game":"Team Fortress","app_id":440,"player_count":0,"max_players":24,"Bots":0,"server_type":"Dedicated","server_os":"Linux","password":true,"vac":true,"version":"7932396","steam_id":85568392925397853,"keywords":["cp","nocrits","nodmgspread","uncletopia"],"game_id":440,"stv_port":27046,"stv_name":"Uncletopia | Warsaw | 4 | All Maps | STV","players":null},{"server_id":53,"name":"Uncletopia | Warsaw | 5 | Stopwatch Beta","name_short":"waw-5","host":"waw-1.pl.uncletopia.com","port":27055,"enabled":true,"region":"eu","cc":"pl","latitude":52.2297,"longitude":21.017532,"reserved":0,"last_update":"0001-01-01T00:00:00Z","name_a2s":"Uncletopia | Warsaw | 5 | Stopwatch Beta","protocol":17,"map":"koth_highpass","folder":"tf","game":"Team Fortress","app_id":440,"player_count":0,"max_players":24,"Bots":0,"server_type":"Dedicated","server_os":"Linux","password":true,"vac":true,"version":"7932396","steam_id":85568392925397854,"keywords":["cp","nocrits","nodmgspread","uncletopia"],"game_id":440,"stv_port":27056,"stv_name":"Uncletopia | Warsaw | 5 | Stopwatch Beta | STV","players":null},{"server_id":54,"name":"Uncletopia | Warsaw | 6 | Community","name_short":"waw-6","host":"waw-1.pl.uncletopia.com","port":27065,"enabled":true,"region":"eu","cc":"pl","latitude":52.2297,"longitude":21.017532,"reserved":0,"last_update":"0001-01-01T00:00:00Z","name_a2s":"Uncletopia | Warsaw | 6 | Community","protocol":17,"map":"workshop/koth_trenchfoot_b1a.ugc731436616","folder":"tf","game":"Team Fortress","app_id":440,"player_count":0,"max_players":24,"Bots":0,"server_type":"Dedicated","server_os":"Linux","password":true,"vac":true,"version":"7932396","steam_id":85568392925397856,"keywords":["cp","nocrits","nodmgspread","uncletopia"],"game_id":440,"stv_port":27066,"stv_name":"Uncletopia | Warsaw | 6 | Community | STV","players":null}]}