{"status":true,"message":"","result":[{"server_id":9,"name":"Uncletopia | Atlanta | 1 | All Maps","name_short":"atl-1","host":"atl-1.us.uncletopia.com","port":27015,"enabled":true,"region":"us-east","cc":"us","latitude":33.753746,"longitude":-84.38633,"reserved":0,"last_update":"0001-01-01T00:00:00Z","name_a2s":"Uncletopia | Atlanta | 1 | All Maps","protocol":17,"map":"pl_swiftwater_final1","folder":"tf","game":"Team Fortress","app_id":440,"player_count":24,"max_players":24,"Bots":0,"server_type":"Dedicated","server_os":"Linux","password":true,"vac":true,"version":"7882260","steam_id":85568392924469982,"keywords":["nocrits","nodmgspread","payload","uncletopia"],"game_id":440,"stv_port":27016,"stv_name":"Uncletopia | Atlanta | 1 | All Maps | STV","players":[{"user_id":903,"name":"Sophie","steam_id":76561198170408057,"connected_time":1529000000000,"state":"active","ping":53},{"user_id":904,"name":"rose","steam_id":76561198048882285,"connected_time":1498000000000,"state":"active","ping":60},{"user_id":901,"name":"Br1 AV","steam_id":76561198802433117,"connected_time":1737000000000,"state":"active","ping":132},{"user_id":929,"name":"LUKS.tar.gz","steam_id":76561199178556785,"connected_time":56000000000,"state":"active","ping":100},{"user_id":906,"name":"Toonice","steam_id":76561198402994885,"connected_time":1486000000000,"state":"active","ping":82},{"user_id":876,"name":"paetho YT","steam_id":76561198152690003,"connected_time":3332000000000,"state":"active","ping":43},{"user_id":864,"name":"sithreis","steam_id":76561198000564263,"connected_time":3844000000000,"state":"active","ping":51},{"user_id":891,"name":"kree","steam_id":76561197979960008,"connected_time":1991000000000,"state":"active","ping":75},{"user_id":905,"name":"eish","steam_id":76561198089463603,"connected_time":1491000000000,"state":"active","ping":118},{"user_id":926,"name":"Ludcmorais","steam_id":76561198359217809,"connected_time":197000000000,"state":"active","ping":180},{"user_id":866,"name":"java","steam_id":76561198030276792,"connected_time":3820000000000,"state":"active","ping":54},{"user_id":907,"name":"nomad","steam_id":76561197998740399,"connected_time":1484000000000,"state":"active","ping":70},{"user_id":925,"name":"Le4n!!!","steam_id":76561198045522596,"connected_time":454000000000,"state":"active","ping":69},{"user_id":894,"name":"4903726023","steam_id":76561199384861214,"connected_time":1946000000000,"state":"active","ping":63},{"user_id":928,"name":"Moon the Boom","steam_id":76561198100625361,"connected_time":73000000000,"state":"active","ping":79},{"user_id":847,"name":"THE KILLER","steam_id":76561198042444734,"connected_time":4370000000000,"state":"active","ping":48},{"user_id":879,"name":"[R–Ø] ShibesGoneWow","steam_id":76561198036090516,"connected_time":3171000000000,"state":"active","ping":45},{"user_id":897,"name":"lanoc","steam_id":76561198055415367,"connected_time":1914000000000,"state":"active","ping":44},{"user_id":912,"name":"sdschildberg","steam_id":76561198119699413,"connected_time":1322000000000,"state":"active","ping":57},{"user_id":909,"name":"Am da Best","steam_id":76561198163825955,"connected_time":1456000000000,"state":"active","ping":105},{"user_id":914,"name":"plasmaofthedawn","steam_id":76561198287916194,"connected_time":1240000000000,"state":"active","ping":57},{"user_id":927,"name":"harlowng","steam_id":76561198060542928,"connected_time":184000000000,"state":"active","ping":119},{"user_id":915,"name":"eepy kitty","steam_id":76561198106313563,"connected_time":1187000000000,"state":"active","ping":77},{"user_id":924,"name":"|AG| Level","steam_id":76561198063633592,"connected_time":481000000000,"state":"active","ping":101}]},{"server_id":104,"name":"Uncletopia | Atlanta | 2 | All Maps","name_short":"atl-2","host":"atl-1.us.uncletopia.com","port":27025,"enabled":true,"region":"us-east","cc":"us","latitude":33.753746,"longitude":-84.38633,"reserved":0,"last_update":"0001-01-01T00:00:00Z","name_a2s":"Uncletopia | Atlanta | 2 | All Maps","protocol":17,"map":"pl_frontier_final","folder":"tf","game":"Team Fortress","app_id":440,"player_count":24,"max_players":24,"Bots":0,"server_type":"Dedicated","server_os":"Linux","password":true,"vac":true,"version":"7882260","steam_id":85568392924469983,"keywords":["nocrits","nodmgspread","payload","uncletopia"],"game_id":440,"stv_port":27026,"stv_name":"Uncletopia | Atlanta | 2 | All Maps | STV","players":[{"user_id":574,"name":"cirno","steam_id":76561198166081596,"connected_time":610000000000,"state":"active","ping":93},{"user_id":556,"name":"SubZeroDestruction","steam_id":76561198145082209,"connected_time":2332000000000,"state":"active","ping":61},{"user_id":580,"name":"Doggo.exe","steam_id":76561197979080610,"connected_time":45000000000,"state":"active","ping":82},{"user_id":534,"name":"General Of Kicking Your Ass.","steam_id":76561198879929343,"connected_time":3052000000000,"state":"active","ping":57},{"user_id":483,"name":"lol.. nevar.. naur! ! !","steam_id":76561198103496593,"connected_time":5946000000000,"state":"active","ping":45},{"user_id":532,"name":"Argon","steam_id":76561199254804349,"connected_time":3215000000000,"state":"active","ping":116},{"user_id":579,"name":"Racoon.zip","steam_id":76561199023759321,"connected_time":256000000000,"state":"active","ping":94},{"user_id":496,"name":"MontellWilliams","steam_id":76561198172143015,"connected_time":5390000000000,"state":"active","ping":74},{"user_id":562,"name":"Grand Wizard Autismo","steam_id":76561198069834979,"connected_time":1834000000000,"state":"active","ping":50},{"user_id":573,"name":"pigswill","steam_id":76561197999081865,"connected_time":667000000000,"state":"active","ping":75},{"user_id":535,"name":"SleepingBrim","steam_id":76561198067650229,"connected_time":3032000000000,"state":"active","ping":118},{"user_id":569,"name":"G.Flewit","steam_id":76561199214365392,"connected_time":1204000000000,"state":"active","ping":83},{"user_id":575,"name":"Noble","steam_id":76561199013705323,"connected_time":519000000000,"state":"active","ping":69},{"user_id":555,"name":"mos","steam_id":76561197995777973,"connected_time":2376000000000,"state":"active","ping":83},{"user_id":487,"name":"lost fox","steam_id":76561198406252824,"connected_time":5937000000000,"state":"active","ping":119},{"user_id":538,"name":"KritzKow","steam_id":76561198086164003,"connected_time":2901000000000,"state":"active","ping":90},{"user_id":540,"name":"Sham Cow","steam_id":76561198064556977,"connected_time":2898000000000,"state":"active","ping":106},{"user_id":542,"name":"Bob the Minion","steam_id":76561197972389354,"connected_time":2871000000000,"state":"active","ping":85},{"user_id":563,"name":"Handle On The Fridge","steam_id":76561198881228117,"connected_time":1798000000000,"state":"active","ping":92},{"user_id":567,"name":"Timmy Riggs","steam_id":76561198040743777,"connected_time":1385000000000,"state":"active","ping":86},{"user_id":570,"name":"highschool drop-out","steam_id":76561198366299848,"connected_time":1111000000000,"state":"active","ping":52},{"user_id":576,"name":"(TPT) Ghost","steam_id":76561198123262873,"connected_time":508000000000,"state":"active","ping":123},{"user_id":577,"name":"VexT","steam_id":76561199471734115,"connected_time":493000000000,"state":"active","ping":83},{"user_id":578,"name":"DarkLink909","steam_id":76561198084139172,"connected_time":456000000000,"state":"active","ping":74}]},{"server_id":400,"name":"Uncletopia | Atlanta | 3 | Community","name_short":"atl-3","host":"atl-1.us.uncletopia.com","port":27035,"enabled":true,"region":"us-east","cc":"us","latitude":33.753746,"longitude":-84.38633,"reserved":0,"last_update":"0001-01-01T00:00:00Z","name_a2s":"Uncletopia | Atlanta | 3 | Community","protocol":17,"map":"workshop/koth_synthetic_rc6a.ugc1549817316","folder":"tf","game":"Team Fortress","app_id":440,"player_count":0,"max_players":24,"Bots":0,"server_type":"Dedicated","server_os":"Linux","password":true,"vac":true,"version":"7882260","steam_id":85568392924515187,"keywords":["cp","nocrits","nodmgspread","uncletopia"],"game_id":440,"stv_port":27036,"stv_name":"Uncletopia | Atlanta | 3 | Community | STV","players":null},{"server_id":401,"name":"Uncletopia | Atlanta | 4 | No Payload","name_short":"atl-4","host":"atl-1.us.uncletopia.com","port":27045,"enabled":true,"region":"us-east","cc":"us","latitude":33.753746,"longitude":-84.38633,"reserved":0,"last_update":"0001-01-01T00:00:00Z","name_a2s":"","protocol":0,"map":"","folder":"","game":"","app_id":0,"player_count":0,"max_players":0,"Bots":0,"server_type":"","server_os":"","password":false,"vac":false,"version":"","steam_id":0,"keywords":null,"game_id":0,"stv_port":0,"stv_name":"","players":null},{"server_id":2,"name":"Uncletopia | Chicago | 1 | All Maps","name_short":"chi-1","host":"chi-1.us.uncletopia.com","port":27015,"enabled":true,"region":"us-central","cc":"us","latitude":41.881832,"longitude":-87.62318,"reserved":0,"last_update":"0001-01-01T00:00:00Z","name_a2s":"Uncletopia | Chicago | 1 | All Maps","protocol":17,"map":"pl_upward","folder":"tf","game":"Team Fortress","app_id":440,"player_count":24,"max_players":24,"Bots":0,"server_type":"Dedicated","server_os":"Linux","password":true,"vac":true,"version":"7882260","steam_id":85568392924469984,"keywords":["nocrits","nodmgspread","payload","uncletopia"],"game_id":440,"stv_port":27016,"stv_name":"Uncletopia | Chicago | 1 | All Maps | STV","players":[{"user_id":752,"name":"c9","steam_id":76561198136642793,"connected_time":6470000000000,"state":"active","ping":67},{"user_id":807,"name":"quirked up white girl","steam_id":76561198069407799,"connected_time":22000000000,"state":"active","ping":63},{"user_id":781,"name":"Dr Smeggman","steam_id":76561197966614845,"connected_time":3153000000000,"state":"active","ping":132},{"user_id":793,"name":"Tree","steam_id":76561198195445331,"connected_time":1798000000000,"state":"active","ping":116},{"user_id":779,"name":"CheeseLikeSubstance","steam_id":76561197977170646,"connected_time":3411000000000,"state":"active","ping":45},{"user_id":784,"name":"Starkiller","steam_id":76561198101643120,"connected_time":2425000000000,"state":"active","ping":59},{"user_id":718,"name":"Makina","steam_id":76561198057475567,"connected_time":10695000000000,"state":"active","ping":69},{"user_id":804,"name":"Simmy","steam_id":76561198419501006,"connected_time":726000000000,"state":"active","ping":90},{"user_id":787,"name":"Jaydyn","steam_id":76561198140326797,"connected_time":2318000000000,"state":"active","ping":81},{"user_id":797,"name":"AJ","steam_id":76561198115726121,"connected_time":1626000000000,"state":"active","ping":63},{"user_id":729,"name":"tidal47","steam_id":76561198219084819,"connected_time":8498000000000,"state":"active","ping":99},{"user_id":805,"name":"*","steam_id":76561198173047169,"connected_time":565000000000,"state":"active","ping":54},{"user_id":802,"name":"Buncake","steam_id":76561198072541212,"connected_time":1228000000000,"state":"active","ping":92},{"user_id":796,"name":"Ademar","steam_id":76561199391802581,"connected_time":1637000000000,"state":"active","ping":56},{"user_id":754,"name":"SLICK PAPI #IMDADDYASF","steam_id":76561198144766439,"connected_time":6441000000000,"state":"active","ping":44},{"user_id":755,"name":"Swiftmend","steam_id":76561197995595692,"connected_time":6440000000000,"state":"active","ping":77},{"user_id":748,"name":"Melody","steam_id":76561198407789232,"connected_time":6560000000000,"state":"active","ping":113},{"user_id":651,"name":"Iceman10a","steam_id":76561198171922098,"connected_time":14836000000000,"state":"active","ping":112},{"user_id":800,"name":"frank","steam_id":76561198137777483,"connected_time":1277000000000,"state":"active","ping":69},{"user_id":602,"name":"Takyon","steam_id":76561198172075186,"connected_time":17055000000000,"state":"active","ping":171},{"user_id":806,"name":"Doctobob","steam_id":76561198095283669,"connected_time":39000000000,"state":"active","ping":77},{"user_id":801,"name":"ARegularJohnDoe","steam_id":76561198015020139,"connected_time":1249000000000,"state":"active","ping":57},{"user_id":670,"name":"Shakey","steam_id":76561198012340821,"connected_time":12737000000000,"state":"active","ping":142},{"user_id":728,"name":"Dinty","steam_id":76561198147607809,"connected_time":8915000000000,"state":"active","ping":75}]},{"server_id":106,"name":"Uncletopia | Chicago | 2 | All Maps","name_short":"chi-2","host":"chi-1.us.uncletopia.com","port":27025,"enabled":true,"region":"us-central","cc":"us","latitude":41.881832,"longitude":-87.62318,"reserved":0,"last_update":"0001-01-01T00:00:00Z","name_a2s":"Uncletopia | Chicago | 2 | All Maps","protocol":17,"map":"pl_borneo","folder":"tf","game":"Team Fortress","app_id":440,"player_count":10,"max_players":24,"Bots":0,"server_type":"Dedicated","server_os":"Linux","password":true,"vac":true,"version":"7882260","steam_id":85568392924469985,"keywords":["nocrits","nodmgspread","payload","uncletopia"],"game_id":440,"stv_port":27026,"stv_name":"Uncletopia | Chicago | 2 | All Maps | STV","players":[{"user_id":914,"name":"BigFloppa","steam_id":76561199011056745,"connected_time":333000000000,"state":"active","ping":71},{"user_id":895,"name":"ultra lox","steam_id":76561199427318825,"connected_time":1292000000000,"state":"active","ping":768},{"user_id":916,"name":"untan","steam_id":76561198060145549,"connected_time":187000000000,"state":"active","ping":47},{"user_id":924,"name":"Kaywan","steam_id":76561198068271015,"connected_time":47000000000,"state":"active","ping":73},{"user_id":896,"name":"Malcor","steam_id":76561198017594953,"connected_time":1263000000000,"state":"active","ping":69},{"user_id":925,"name":"‚ô• kiss me ‚ô•","steam_id":76561198014557455,"connected_time":27000000000,"state":"active","ping":46},{"user_id":923,"name":"Mighty","steam_id":76561198096569755,"connected_time":143000000000,"state":"active","ping":94},{"user_id":926,"name":"Female Gamer","steam_id":76561199366482682,"connected_time":17000000000,"state":"spawning","ping":88},{"user_id":913,"name":"Alkahest","steam_id":76561199112346658,"connected_time":420000000000,"state":"active","ping":74},{"user_id":902,"name":"The Pan Man From Slavic Land","steam_id":76561198401875841,"connected_time":1044000000000,"state":"active","ping":46}]},{"server_id":402,"name":"Uncletopia | Chicago | 3 | All Maps","name_short":"chi-3","host":"chi-1.us.uncletopia.com","port":27035,"enabled":true,"region":"us-central","cc":"us","latitude":41.881832,"longitude":-87.62318,"reserved":0,"last_update":"0001-01-01T00:00:00Z","name_a2s":"Uncletopia | Chicago | 3 | All Maps","protocol":17,"map":"cp_dustbowl","folder":"tf","game":"Team Fortress","app_id":440,"player_count":23,"max_players":24,"Bots":0,"server_type":"Dedicated","server_os":"Linux","password":true,"vac":true,"version":"7882260","steam_id":85568392924515191,"keywords":["cp","nocrits","nodmgspread","uncletopia"],"game_id":440,"stv_port":27036,"stv_name":"Uncletopia | Chicago | 3 | All Maps | STV","players":[{"user_id":991,"name":"Elias","steam_id":76561198106431732,"connected_time":7927000000000,"state":"active","ping":39},{"user_id":984,"name":"seldom","steam_id":76561198166193756,"connected_time":8181000000000,"state":"active","ping":57},{"user_id":1075,"name":"basmati jarate","steam_id":76561198319442494,"connected_time":815000000000,"state":"active","ping":106},{"user_id":1056,"name":"the unstoppable tide of islam","steam_id":76561198027183394,"connected_time":3054000000000,"state":"active","ping":89},{"user_id":1077,"name":"skaska4","steam_id":76561198080606141,"connected_time":530000000000,"state":"active","ping":66},{"user_id":1040,"name":"HolyHitbox","steam_id":76561198071723763,"connected_time":5164000000000,"state":"active","ping":52},{"user_id":1062,"name":"VidzCMC","steam_id":76561198848142973,"connected_time":2183000000000,"state":"active","ping":50},{"user_id":1068,"name":"TF2 Drip Designer","steam_id":76561198069735882,"connected_time":1752000000000,"state":"active","ping":65},{"user_id":1080,"name":"Bill","steam_id":76561198079860855,"connected_time":226000000000,"state":"active","ping":64},{"user_id":1027,"name":"Sean Bae","steam_id":76561198036909521,"connected_time":5430000000000,"state":"active","ping":84},{"user_id":1070,"name":"Jeugh","steam_id":76561198073498865,"connected_time":1614000000000,"state":"active","ping":99},{"user_id":1081,"name":"jpuzza","steam_id":76561198035535731,"connected_time":223000000000,"state":"active","ping":70},{"user_id":1048,"name":"ShadowDragon0125","steam_id":76561198343849022,"connected_time":4161000000000,"state":"active","ping":80},{"user_id":1064,"name":"minish","steam_id":76561198086618284,"connected_time":2083000000000,"state":"active","ping":95},{"user_id":1036,"name":"kbsfnk","steam_id":76561198036884600,"connected_time":5249000000000,"state":"active","ping":61},{"user_id":1065,"name":"Grand","steam_id":76561198290143399,"connected_time":2066000000000,"state":"active","ping":61},{"user_id":1073,"name":"Michaelpc1","steam_id":76561198088365519,"connected_time":1290000000000,"state":"active","ping":85},{"user_id":996,"name":"Terror-Billy #SaveTF2","steam_id":76561198328141870,"connected_time":7392000000000,"state":"active","ping":65},{"user_id":1042,"name":"Calamity","steam_id":76561198287505512,"connected_time":5055000000000,"state":"active","ping":147},{"user_id":1060,"name":"Scrux","steam_id":76561198129763115,"connected_time":2385000000000,"state":"active","ping":104},{"user_id":1043,"name":"EULA JoJoJo","steam_id":76561198067153390,"connected_time":5041000000000,"state":"active","ping":56},{"user_id":1066,"name":"Truffles","steam_id":76561198095868800,"connected_time":2027000000000,"state":"active","ping":83},{"user_id":1026,"name":"Aedaxe","steam_id":76561198036555143,"connected_time":5636000000000,"state":"active","ping":74}]},{"server_id":403,"name":"Uncletopia | Chicago | 4 | All Maps","name_short":"chi-4","host":"chi-1.us.uncletopia.com","port":27045,"enabled":true,"region":"us-central","cc":"us","latitude":41.881832,"longitude":-87.62318,"reserved":0,"last_update":"0001-01-01T00:00:00Z","name_a2s":"Uncletopia | Chicago | 4 | All Maps","protocol":17,"map":"pl_barnblitz","folder":"tf","game":"Team Fortress","app_id":440,"player_count":0,"max_players":24,"Bots":0,"server_type":"Dedicated","server_os":"Linux","password":true,"vac":true,"version":"7882260","steam_id":85568392924515193,"keywords":["nocrits","nodmgspread","payload","uncletopia"],"game_id":440,"stv_port":27046,"stv_name":"Uncletopia | Chicago | 4 | All Maps | STV","players":null},{"server_id":36,"name":"Uncletopia | Chicago | 5 | All Maps","name_short":"chi-5","host":"chi-2.us.uncletopia.com","port":27015,"enabled":true,"region":"us-central","cc":"us","latitude":41.881832,"longitude":-87.62318,"reserved":0,"last_update":"0001-01-01T00:00:00Z","name_a2s":"Uncletopia | Chicago | 5 | All Maps","protocol":17,"map":"cp_mountainlab","folder":"tf","game":"Team Fortress","app_id":440,"player_count":0,"max_players":24,"Bots":0,"server_type":"Dedicated","server_os":"Linux","password":true,"vac":true,"version":"7882260","steam_id":85568392924866362,"keywords":["cp","nocrits","nodmgspread","uncletopia"],"game_id":440,"stv_port":27016,"stv_name":"Uncletopia | Chicago | 5 | All Maps | STV","players":null},{"server_id":37,"name":"Uncletopia | Chicago | 6 | All Maps","name_short":"chi-6","host":"chi-2.us.uncletopia.com","port":27025,"enabled":true,"region":"us-central","cc":"us","latitude":41.881832,"longitude":-87.62318,"reserved":0,"last_update":"0001-01-01T00:00:00Z","name_a2s":"Uncletopia | Chicago | 6 | All Maps","protocol":17,"map":"ctf_2fort","folder":"tf","game":"Team Fortress","app_id":440,"player_count":4,"max_players":24,"Bots":0,"server_type":"Dedicated","server_os":"Linux","password":true,"vac":true,"version":"7882260","steam_id":85568392924866363,"keywords":["ctf","nocrits","nodmgspread","uncletopia"],"game_id":440,"stv_port":27026,"stv_name":"Uncletopia | Chicago | 6 | All Maps | STV","players":[{"user_id":413,"name":"Fumpo","steam_id":76561198206873365,"connected_time":4610000000000,"state":"active","ping":60},{"user_id":456,"name":"Dude guy","steam_id":76561199422959034,"connected_time":641000000000,"state":"active","ping":177},{"user_id":452,"name":"Idiotden","steam_id":76561199340950135,"connected_time":938000000000,"state":"active","ping":96},{"user_id":453,"name":"nori_420 (mute)","steam_id":76561199117134203,"connected_time":851000000000,"state":"active","ping":105}]},{"server_id":38,"name":"Uncletopia | Chicago | 7 | Stopwatch Beta","name_short":"chi-7","host":"chi-2.us.uncletopia.com","port":27035,"enabled":true,"region":"us-central","cc":"us","latitude":41.881832,"longitude":-87.62318,"reserved":0,"last_update":"0001-01-01T00:00:00Z","name_a2s":"Uncletopia | Chicago | 7 | Stopwatch Beta","protocol":17,"map":"pl_swiftwater_final1","folder":"tf","game":"Team Fortress","app_id":440,"player_count":0,"max_players":24,"Bots":0,"server_type":"Dedicated","server_os":"Linux","password":true,"vac":true,"version":"7882260","steam_id":85568392924866364,"keywords":["nocrits","nodmgspread","payload","uncletopia"],"game_id":440,"stv_port":27036,"stv_name":"Uncletopia | Chicago | 7 | Stopwatch Beta | STV","players":null},{"server_id":39,"name":"Uncletopia | Chicago | 8 | Community","name_short":"chi-8","host":"chi-2.us.uncletopia.com","port":27045,"enabled":true,"region":"us-central","cc":"us","latitude":41.881832,"longitude":-87.62318,"reserved":0,"last_update":"0001-01-01T00:00:00Z","name_a2s":"Uncletopia | Chicago | 8 | Community","protocol":17,"map":"workshop/pl_badwater_pro_v12.ugc2142942074","folder":"tf","game":"Team Fortress","app_id":440,"player_count":0,"max_players":24,"Bots":0,"server_type":"Dedicated","server_os":"Linux","password":true,"vac":true,"version":"7882260","steam_id":85568392924866365,"keywords":["nocrits","nodmgspread","payload","uncletopia"],"game_id":440,"stv_port":27046,"stv_name":"Uncletopia | Chicago | 8 | Community | STV","players":null},{"server_id":8,"name":"Uncletopia | Dallas | 1 | All Maps","name_short":"dal-1","host":"dal-1.us.uncletopia.com","port":27015,"enabled":true,"region":"us-central","cc":"us","latitude":32.779167,"longitude":-96.80889,"reserved":0,"last_update":"0001-01-01T00:00:00Z","name_a2s":"Uncletopia | Dallas | 1 | All Maps","protocol":17,"map":"koth_lakeside_final","folder":"tf","game":"Team Fortress","app_id":440,"player_count":15,"max_players":24,"Bots":0,"server_type":"Dedicated","server_os":"Linux","password":true,"vac":true,"version":"7882260","steam_id":85568392924469986,"keywords":["cp","nocrits","nodmgspread","uncletopia"],"game_id":440,"stv_port":27016,"stv_name":"Uncletopia | Dallas | 1 | All Maps | STV","players":[{"user_id":568,"name":"Drozz Misses Shots","steam_id":76561198072555204,"connected_time":2028000000000,"state":"active","ping":66},{"user_id":577,"name":"al","steam_id":76561198331647216,"connected_time":215000000000,"state":"active","ping":80},{"user_id":578,"name":"üÖúüÖîüÖîüÖöüÖ¢üÖ£üÖî\ufffd\ufffd\ufffd","steam_id":76561197999748343,"connected_time":143000000000,"state":"active","ping":32},{"user_id":575,"name":"FearTheJynx","steam_id":76561198136487957,"connected_time":345000000000,"state":"active","ping":63},{"user_id":576,"name":"Aribari (She/Her)","steam_id":76561198117327938,"connected_time":336000000000,"state":"active","ping":80},{"user_id":579,"name":"Blitzy","steam_id":76561198149472890,"connected_time":116000000000,"state":"active","ping":92},{"user_id":571,"name":"the man","steam_id":76561198389268114,"connected_time":1948000000000,"state":"active","ping":115},{"user_id":563,"name":"The 28th Wafful","steam_id":76561198072242170,"connected_time":2084000000000,"state":"active","ping":62},{"user_id":580,"name":"Burny Sanders","steam_id":76561197961879048,"connected_time":114000000000,"state":"active","ping":31},{"user_id":581,"name":"Professionally Braindead „ÉÑ","steam_id":76561198276714220,"connected_time":26000000000,"state":"active","ping":67},{"user_id":562,"name":"skin ≥·µç","steam_id":76561198268689844,"connected_time":2235000000000,"state":"active","ping":50},{"user_id":570,"name":"Tateki","steam_id":76561198062283395,"connected_time":1999000000000,"state":"active","ping":60},{"user_id":541,"name":"Manic","steam_id":76561198128149670,"connected_time":4350000000000,"state":"active","ping":40},{"user_id":553,"name":"PotatoLegs","steam_id":76561198842472208,"connected_time":2933000000000,"state":"active","ping":86},{"user_id":558,"name":"Salda√±a","steam_id":76561198214473001,"connected_time":2646000000000,"state":"active","ping":68}]},{"server_id":108,"name":"Uncletopia | Dallas | 2 | All Maps","name_short":"dal-2","host":"dal-1.us.uncletopia.com","port":27025,"enabled":true,"region":"us-central","cc":"us","latitude":32.779167,"longitude":-96.80889,"reserved":0,"last_update":"0001-01-01T00:00:00Z","name_a2s":"Uncletopia | Dallas | 2 | All Maps","protocol":17,"map":"pl_swiftwater_final1","folder":"tf","game":"Team Fortress","app_id":440,"player_count":24,"max_players":24,"Bots":0,"server_type":"Dedicated","server_os":"Linux","password":true,"vac":true,"version":"7882260","steam_id":85568392924469988,"keywords":["nocrits","nodmgspread","payload","uncletopia"],"game_id":440,"stv_port":27026,"stv_name":"Uncletopia | Dallas | 2 | All Maps | STV","players":[{"user_id":478,"name":"Empty","steam_id":76561198289696924,"connected_time":489000000000,"state":"active","ping":75},{"user_id":433,"name":"Ann Ziegler (No Sound)","steam_id":76561198052249401,"connected_time":3960000000000,"state":"active","ping":72},{"user_id":470,"name":"Frank Fortain","steam_id":76561198953613972,"connected_time":1044000000000,"state":"active","ping":40},{"user_id":438,"name":"the smiling zombie","steam_id":76561199246231090,"connected_time":3723000000000,"state":"active","ping":72},{"user_id":481,"name":"None of that $9.99 bullshit","steam_id":76561198116169903,"connected_time":398000000000,"state":"active","ping":75},{"user_id":464,"name":"Clumsy","steam_id":76561198056345245,"connected_time":1500000000000,"state":"active","ping":69},{"user_id":461,"name":"Julimark","steam_id":76561198060434171,"connected_time":1662000000000,"state":"active","ping":82},{"user_id":475,"name":"Jebediah Kerman","steam_id":76561199215798445,"connected_time":689000000000,"state":"active","ping":99},{"user_id":471,"name":"Villain","steam_id":76561199063907319,"connected_time":896000000000,"state":"active","ping":55},{"user_id":441,"name":"Ryan","steam_id":76561198046600383,"connected_time":3620000000000,"state":"active","ping":66},{"user_id":452,"name":"Shabzoo","steam_id":76561198037638775,"connected_time":2582000000000,"state":"active","ping":80},{"user_id":480,"name":"‚ñ≤ Weevils | Al-Muttaqin ‚ñ≤","steam_id":76561197974847428,"connected_time":421000000000,"state":"active","ping":77},{"user_id":477,"name":"Tummy Ache","steam_id":76561198015153137,"connected_time":544000000000,"state":"active","ping":67},{"user_id":448,"name":"ClosetBotany","steam_id":76561198088324821,"connected_time":3009000000000,"state":"active","ping":70},{"user_id":472,"name":"TheAsianMeatball","steam_id":76561198336926133,"connected_time":865000000000,"state":"active","ping":64},{"user_id":419,"name":"my piss is neon yellow","steam_id":76561198257023512,"connected_time":4856000000000,"state":"active","ping":53},{"user_id":482,"name":"{ST} Oxythemoron","steam_id":76561198060089965,"connected_time":335000000000,"state":"active","ping":46},{"user_id":463,"name":"Patinaz","steam_id":76561198096920230,"connected_time":1642000000000,"state":"active","ping":84},{"user_id":459,"name":"mr.edderkopper","steam_id":76561198152614478,"connected_time":1830000000000,"state":"active","ping":61},{"user_id":473,"name":"hi im","steam_id":76561198058456094,"connected_time":802000000000,"state":"active","ping":43},{"user_id":455,"name":"zpalmtree","steam_id":76561198134307620,"connected_time":2510000000000,"state":"active","ping":90},{"user_id":474,"name":"hermaeus","steam_id":76561198076524103,"connected_time":766000000000,"state":"active","ping":54},{"user_id":449,"name":"DragonHeart","steam_id":76561198013245625,"connected_time":2930000000000,"state":"active","ping":74},{"user_id":486,"name":"porz","steam_id":76561198195711453,"connected_time":2000000000,"state":"spawning","ping":41}]},{"server_id":5,"name":"Uncletopia | Frankfurt | 1 | All Maps","name_short":"frk-1","host":"frk-1.de.uncletopia.com","port":27015,"enabled":true,"region":"eu","cc":"de","latitude":50.110924,"longitude":8.682127,"reserved":0,"last_update":"0001-01-01T00:00:00Z","name_a2s":"Uncletopia | Frankfurt | 1 | All Maps","protocol":17,"map":"cp_process_final","folder":"tf","game":"Team Fortress","app_id":440,"player_count":0,"max_players":24,"Bots":0,"server_type":"Dedicated","server_os":"Linux","password":true,"vac":true,"version":"7882260","steam_id":85568392924469989,"keywords":["cp","nocrits","nodmgspread","uncletopia"],"game_id":440,"stv_port":27016,"stv_name":"Uncletopia | Frankfurt | 1 | All Maps | STV","players":null},{"server_id":110,"name":"Uncletopia | Frankfurt | 2 | All Maps","name_short":"frk-2","host":"frk-1.de.uncletopia.com","port":27025,"enabled":true,"region":"eu","cc":"de","latitude":50.110924,"longitude":8.682127,"reserved":0,"last_update":"0001-01-01T00:00:00Z","name_a2s":"Uncletopia | Frankfurt | 2 | All Maps","protocol":17,"map":"pl_swiftwater_final1","folder":"tf","game":"Team Fortress","app_id":440,"player_count":0,"max_players":24,"Bots":0,"server_type":"Dedicated","server_os":"Linux","password":true,"vac":true,"version":"7882260","steam_id":85568392924469990,"keywords":["nocrits","nodmgspread","payload","uncletopia"],"game_id":440,"stv_port":27026,"stv_name":"Uncletopia | Frankfurt | 2 | All Maps | STV","players":null},{"server_id":308,"name":"Uncletopia | Frankfurt | 3 | All Maps","name_short":"frk-3","host":"frk-1.de.uncletopia.com","port":27035,"enabled":true,"region":"eu","cc":"de","latitude":50.110924,"longitude":8.682127,"reserved":0,"last_update":"0001-01-01T00:00:00Z","name_a2s":"Uncletopia | Frankfurt | 3 | All Maps","protocol":17,"map":"pl_snowycoast","folder":"tf","game":"Team Fortress","app_id":440,"player_count":0,"max_players":24,"Bots":0,"server_type":"Dedicated","server_os":"Linux","password":true,"vac":true,"version":"7882260","steam_id":85568392924504274,"keywords":["nocrits","nodmgspread","payload","uncletopia"],"game_id":440,"stv_port":27036,"stv_name":"Uncletopia | Frankfurt | 3 | All Maps | STV","players":null},{"server_id":309,"name":"Uncletopia | Frankfurt | 4 | All Maps","name_short":"frk-4","host":"frk-1.de.uncletopia.com","port":27045,"enabled":true,"region":"eu","cc":"de","latitude":50.110924,"longitude":8.682127,"reserved":0,"last_update":"0001-01-01T00:00:00Z","name_a2s":"Uncletopia | Frankfurt | 4 | All Maps","protocol":17,"map":"cp_sunshine","folder":"tf","game":"Team Fortress","app_id":440,"player_count":0,"max_players":24,"Bots":0,"server_type":"Dedicated","server_os":"Linux","password":true,"vac":true,"version":"7882260","steam_id":85568392924504275,"keywords":["cp","nocrits","nodmgspread","uncletopia"],"game_id":440,"stv_port":27046,"stv_name":"Uncletopia | Frankfurt | 4 | All Maps | STV","players":null},{"server_id":310,"name":"Uncletopia | Frankfurt | 5 | All Maps","name_short":"frk-5","host":"frk-1.de.uncletopia.com","port":27055,"enabled":true,"region":"eu","cc":"de","latitude":50.110924,"longitude":8.682127,"reserved":0,"last_update":"0001-01-01T00:00:00Z","name_a2s":"Uncletopia | Frankfurt | 5 | All Maps","protocol":17,"map":"cp_mountainlab","folder":"tf","game":"Team Fortress","app_id":440,"player_count":0,"max_players":24,"Bots":0,"server_type":"Dedicated","server_os":"Linux","password":true,"vac":true,"version":"7882260","steam_id":85568392924504277,"keywords":["cp","nocrits","nodmgspread","uncletopia"],"game_id":440,"stv_port":27056,"stv_name":"Uncletopia | Frankfurt | 5 | All Maps | STV","players":null},{"server_id":311,"name":"Uncletopia | Frankfurt | 6 | All Maps","name_short":"frk-6","host":"frk-1.de.uncletopia.com","port":27065,"enabled":true,"region":"eu","cc":"de","latitude":50.110924,"longitude":8.682127,"reserved":0,"last_update":"0001-01-01T00:00:00Z","name_a2s":"Uncletopia | Frankfurt | 6 | All Maps","protocol":17,"map":"pl_badwater","folder":"tf","game":"Team Fortress","app_id":440,"player_count":0,"max_players":24,"Bots":0,"server_type":"Dedicated","server_os":"Linux","password":true,"vac":true,"version":"7882260","steam_id":85568392924504278,"keywords":["nocrits","nodmgspread","payload","uncletopia"],"game_id":440,"stv_port":27066,"stv_name":"Uncletopia | Frankfurt | 6 | All Maps | STV","players":null},{"server_id":23,"name":"Uncletopia | Frankfurt | 7 | Stopwatch Beta","name_short":"frk-7","host":"frk-1.de.uncletopia.com","port":27075,"enabled":true,"region":"eu","cc":"de","latitude":50.110924,"longitude":8.682127,"reserved":0,"last_update":"0001-01-01T00:00:00Z","name_a2s":"Uncletopia | Frankfurt | 7 | Stopwatch Beta","protocol":17,"map":"cp_dustbowl","folder":"tf","game":"Team Fortress","app_id":440,"player_count":0,"max_players":24,"Bots":0,"server_type":"Dedicated","server_os":"Linux","password":true,"vac":true,"version":"7882260","steam_id":85568392924742827,"keywords":["cp","nocrits","nodmgspread","uncletopia"],"game_id":440,"stv_port":27076,"stv_name":"Uncletopia | Frankfurt | 7 | Stopwatch Beta | STV","players":null},{"server_id":24,"name":"Uncletopia | Frankfurt | 8 | Community","name_short":"frk-8","host":"frk-1.de.uncletopia.com","port":27085,"enabled":true,"region":"eu","cc":"de","latitude":50.110924,"longitude":8.682127,"reserved":0,"last_update":"0001-01-01T00:00:00Z","name_a2s":"Uncletopia | Frankfurt | 8 | Community","protocol":17,"map":"koth_cascade","folder":"tf","game":"Team Fortress","app_id":440,"player_count":0,"max_players":24,"Bots":0,"server_type":"Dedicated","server_os":"Linux","password":true,"vac":true,"version":"7882260","steam_id":85568392924742828,"keywords":["cp","nocrits","nodmgspread","uncletopia"],"game_id":440,"stv_port":27086,"stv_name":"Uncletopia | Frankfurt | 8 | Community | STV","players":null},{"server_id":202,"name":"Uncletopia | Hong Kong | 1 | All Maps","name_short":"hgk-1","host":"hgk-1.hk.uncletopia.com","port":27015,"enabled":true,"region":"asia","cc":"hk","latitude":22.302711,"longitude":114.177216,"reserved":0,"last_update":"0001-01-01T00:00:00Z","name_a2s":"Uncletopia | Hong Kong | 1 | All Maps","protocol":17,"map":"pl_pier","folder":"tf","game":"Team Fortress","app_id":440,"player_count":24,"max_players":24,"Bots":0,"server_type":"Dedicated","server_os":"Linux","password":true,"vac":true,"version":"7882260","steam_id":85568392924494504,"keywords":["nocrits","nodmgspread","payload","uncletopia"],"game_id":440,"stv_port":27016,"stv_name":"Uncletopia | Hong Kong | 1 | All Maps | STV","players":[{"user_id":153,"name":"Momoxhien","steam_id":76561198414997429,"connected_time":3510000000000,"state":"active","ping":59},{"user_id":99,"name":"MeetTeMedic99","steam_id":76561199208706868,"connected_time":7334000000000,"state":"active","ping":71},{"user_id":132,"name":"vintage","steam_id":76561198230213828,"connected_time":4824000000000,"state":"active","ping":117},{"user_id":194,"name":"1TOP_","steam_id":76561198123717811,"connected_time":29000000000,"state":"active","ping":66},{"user_id":192,"name":"NoWay","steam_id":76561198223517060,"connected_time":95000000000,"state":"active","ping":126},{"user_id":157,"name":"spinach (old mouse)","steam_id":76561198042539541,"connected_time":3198000000000,"state":"active","ping":79},{"user_id":158,"name":"bodacious bogey","steam_id":76561198055553140,"connected_time":3021000000000,"state":"active","ping":85},{"user_id":145,"name":"7853","steam_id":76561199390507975,"connected_time":3829000000000,"state":"active","ping":50},{"user_id":185,"name":"justify","steam_id":76561199227541378,"connected_time":639000000000,"state":"active","ping":145},{"user_id":186,"name":"Pizza_Jammies1345","steam_id":76561199228950246,"connected_time":622000000000,"state":"active","ping":145},{"user_id":182,"name":"Corey","steam_id":76561198055202938,"connected_time":916000000000,"state":"active","ping":106},{"user_id":174,"name":"Stupid B","steam_id":76561198131423270,"connected_time":1175000000000,"state":"active","ping":120},{"user_id":173,"name":"daigennki","steam_id":76561198046328609,"connected_time":1300000000000,"state":"active","ping":100},{"user_id":187,"name":"ksvk","steam_id":76561198152588681,"connected_time":567000000000,"state":"active","ping":78},{"user_id":193,"name":"Incompertent mercenaries","steam_id":76561198386626651,"connected_time":91000000000,"state":"active","ping":98},{"user_id":163,"name":"embr","steam_id":76561198048065303,"connected_time":2148000000000,"state":"active","ping":135},{"user_id":178,"name":"17","steam_id":76561198241530712,"connected_time":1149000000000,"state":"active","ping":60},{"user_id":188,"name":"urotsuki with da doobie","steam_id":76561198074339034,"connected_time":299000000000,"state":"active","ping":75},{"user_id":181,"name":"j_rex","steam_id":76561198132473926,"connected_time":1061000000000,"state":"active","ping":54},{"user_id":165,"name":"KARLA HOMOLKA","steam_id":76561199108354298,"connected_time":2131000000000,"state":"active","ping":131},{"user_id":133,"name":"Leroy","steam_id":76561199137927625,"connected_time":4539000000000,"state":"active","ping":92},{"user_id":141,"name":"NootNoot","steam_id":76561199122109977,"connected_time":3986000000000,"state":"active","ping":109},{"user_id":180,"name":"corpse_cadaver","steam_id":76561199225360457,"connected_time":1132000000000,"state":"active","ping":70},{"user_id":160,"name":"Mega 00F","steam_id":76561198962485791,"connected_time":3019000000000,"state":"active","ping":128}]},{"server_id":1,"name":"Uncletopia | Los Angeles | 1 | All Maps","name_short":"lax-1","host":"lax-1.us.uncletopia.com","port":27015,"enabled":true,"region":"us-west","cc":"us","latitude":33.94279,"longitude":-118.41004,"reserved":0,"last_update":"0001-01-01T00:00:00Z","name_a2s":"Uncletopia | Los Angeles | 1 | All Maps","protocol":17,"map":"pl_swiftwater_final1","folder":"tf","game":"Team Fortress","app_id":440,"player_count":20,"max_players":24,"Bots":0,"server_type":"Dedicated","server_os":"Linux","password":true,"vac":true,"version":"7882260","steam_id":85568392924469991,"keywords":["nocrits","nodmgspread","payload","uncletopia"],"game_id":440,"stv_port":27016,"stv_name":"Uncletopia | Los Angeles | 1 | All Maps | STV","players":[{"user_id":513,"name":"Taekwondeshia OnlyFans","steam_id":76561198236109724,"connected_time":1798000000000,"state":"active","ping":51},{"user_id":511,"name":"sneer","steam_id":76561199483226748,"connected_time":2323000000000,"state":"active","ping":109},{"user_id":485,"name":"vuldrin","steam_id":76561198383695069,"connected_time":4765000000000,"state":"active","ping":61},{"user_id":495,"name":"JonBoy","steam_id":76561198082052480,"connected_time":3815000000000,"state":"active","ping":94},{"user_id":515,"name":"Polly Geist","steam_id":76561198271964253,"connected_time":1664000000000,"state":"active","ping":83},{"user_id":526,"name":"Monochrome | Cashmoney","steam_id":76561198377320040,"connected_time":339000000000,"state":"active","ping":105},{"user_id":480,"name":"blood bath","steam_id":76561199001918194,"connected_time":4959000000000,"state":"active","ping":46},{"user_id":488,"name":"big ol' buford","steam_id":76561198290675957,"connected_time":4474000000000,"state":"active","ping":73},{"user_id":522,"name":"Gentle Opp 3","steam_id":76561198150406851,"connected_time":1190000000000,"state":"active","ping":61},{"user_id":519,"name":"orio","steam_id":76561198116550170,"connected_time":1636000000000,"state":"active","ping":60},{"user_id":472,"name":"Fred","steam_id":76561197983870604,"connected_time":5317000000000,"state":"active","ping":50},{"user_id":525,"name":"EggPencil","steam_id":76561198043633284,"connected_time":815000000000,"state":"active","ping":86},{"user_id":521,"name":"drank baby","steam_id":76561199483723843,"connected_time":1431000000000,"state":"active","ping":58},{"user_id":523,"name":"DRFEELGOOD","steam_id":76561198114603745,"connected_time":1181000000000,"state":"active","ping":45},{"user_id":482,"name":"veryscaryreaper","steam_id":76561198380018244,"connected_time":4909000000000,"state":"active","ping":81},{"user_id":520,"name":"Tech Deck","steam_id":76561199070437675,"connected_time":1501000000000,"state":"active","ping":54},{"user_id":383,"name":"big car","steam_id":76561198067082350,"connected_time":15503000000000,"state":"active","ping":59},{"user_id":450,"name":"stboncho","steam_id":76561198172275301,"connected_time":7153000000000,"state":"active","ping":61},{"user_id":516,"name":"SneekiCheekiQbone","steam_id":76561198045077980,"connected_time":1654000000000,"state":"active","ping":41},{"user_id":506,"name":"FROYO b4nny","steam_id":76561197970669109,"connected_time":3413000000000,"state":"active","ping":49}]},{"server_id":112,"name":"Uncletopia | Los Angeles | 2 | All Maps","name_short":"lax-2","host":"lax-1.us.uncletopia.com","port":27025,"enabled":true,"region":"us-west","cc":"us","latitude":33.94279,"longitude":-118.41004,"reserved":0,"last_update":"0001-01-01T00:00:00Z","name_a2s":"Uncletopia | Los Angeles | 2 | All Maps","protocol":17,"map":"pl_swiftwater_final1","folder":"tf","game":"Team Fortress","app_id":440,"player_count":24,"max_players":24,"Bots":0,"server_type":"Dedicated","server_os":"Linux","password":true,"vac":true,"version":"7882260","steam_id":85568392924469992,"keywords":["nocrits","nodmgspread","payload","uncletopia"],"game_id":440,"stv_port":27026,"stv_name":"Uncletopia | Los Angeles | 2 | All Maps | STV","players":[{"user_id":360,"name":"oddmanoutparisien","steam_id":76561199225591834,"connected_time":485000000000,"state":"active","ping":120},{"user_id":364,"name":"Orion","steam_id":76561198000418837,"connected_time":27000000000,"state":"active","ping":85},{"user_id":351,"name":"NexFrost","steam_id":76561197985774837,"connected_time":1701000000000,"state":"active","ping":71},{"user_id":322,"name":"sockgobblin","steam_id":76561198853494675,"connected_time":3772000000000,"state":"active","ping":75},{"user_id":310,"name":"DungeonKeeper","steam_id":76561199475507686,"connected_time":5127000000000,"state":"active","ping":104},{"user_id":338,"name":"Feel the bern","steam_id":76561198078824519,"connected_time":1994000000000,"state":"active","ping":47},{"user_id":363,"name":"Honestbawb","steam_id":76561197997006010,"connected_time":235000000000,"state":"active","ping":75},{"user_id":362,"name":"riSygneD","steam_id":76561198331618687,"connected_time":377000000000,"state":"active","ping":33},{"user_id":342,"name":"pull up in that wtf","steam_id":76561198143132686,"connected_time":1840000000000,"state":"active","ping":79},{"user_id":343,"name":"-L","steam_id":76561198046074220,"connected_time":1807000000000,"state":"active","ping":45},{"user_id":326,"name":"Nez","steam_id":76561197963109059,"connected_time":2957000000000,"state":"active","ping":67},{"user_id":335,"name":"June","steam_id":76561198141803658,"connected_time":2124000000000,"state":"active","ping":47},{"user_id":359,"name":"I throw a lot","steam_id":76561198209650964,"connected_time":509000000000,"state":"active","ping":62},{"user_id":344,"name":"shittystripper","steam_id":76561198101012071,"connected_time":1806000000000,"state":"active","ping":75},{"user_id":356,"name":"compass","steam_id":76561197991223433,"connected_time":1173000000000,"state":"active","ping":68},{"user_id":346,"name":"ThatEmoEmu","steam_id":76561198272304706,"connected_time":1785000000000,"state":"active","ping":103},{"user_id":348,"name":"Artic_Ryuu","steam_id":76561198182194918,"connected_time":1768000000000,"state":"active","ping":43},{"user_id":357,"name":"Slim Charles","steam_id":76561197981687895,"connected_time":1142000000000,"state":"active","ping":65},{"user_id":334,"name":"Chin, Bruce Lee's Relative","steam_id":76561198240105522,"connected_time":2182000000000,"state":"active","ping":111},{"user_id":352,"name":"sopmod","steam_id":76561198453203619,"connected_time":1631000000000,"state":"active","ping":46},{"user_id":270,"name":"15inchcamboy","steam_id":76561199136651289,"connected_time":8151000000000,"state":"active","ping":84},{"user_id":358,"name":"Charlie Mops","steam_id":76561198028550499,"connected_time":833000000000,"state":"active","ping":120},{"user_id":350,"name":"raya","steam_id":76561198051504581,"connected_time":1741000000000,"state":"active","ping":76},{"user_id":354,"name":"Bald Rice","steam_id":76561199019142767,"connected_time":1597000000000,"state":"active","ping":70}]},{"server_id":324,"name":"Uncletopia | Los Angeles | 3 | All Maps","name_short":"lax-3","host":"lax-1.us.uncletopia.com","port":27035,"enabled":true,"region":"us-west","cc":"us","latitude":33.94279,"longitude":-118.41004,"reserved":0,"last_update":"0001-01-01T00:00:00Z","name_a2s":"Uncletopia | Los Angeles | 3 | All Maps","protocol":17,"map":"koth_lakeside_final","folder":"tf","game":"Team Fortress","app_id":440,"player_count":24,"max_players":24,"Bots":0,"server_type":"Dedicated","server_os":"Linux","password":true,"vac":true,"version":"7882260","steam_id":85568392924510198,"keywords":["cp","nocrits","nodmgspread","uncletopia"],"game_id":440,"stv_port":27036,"stv_name":"Uncletopia | Los Angeles | 3 | All Maps | STV","players":[{"user_id":444,"name":"Jones","steam_id":76561198046037216,"connected_time":1124000000000,"state":"active","ping":108},{"user_id":460,"name":"comet","steam_id":76561198149217841,"connected_time":211000000000,"state":"active","ping":87},{"user_id":443,"name":"bob_2_","steam_id":76561198103511119,"connected_time":1161000000000,"state":"active","ping":63},{"user_id":385,"name":"c a c t u s","steam_id":76561199273395913,"connected_time":5747000000000,"state":"active","ping":86},{"user_id":461,"name":"noellehound","steam_id":76561198108844158,"connected_time":199000000000,"state":"active","ping":55},{"user_id":433,"name":"PinguEnjoyer6","steam_id":76561199186723516,"connected_time":1548000000000,"state":"active","ping":32},{"user_id":334,"name":"Bandana Bullet","steam_id":76561198397347120,"connected_time":9599000000000,"state":"active","ping":91},{"user_id":463,"name":"hatsune miku‚ô°","steam_id":76561199445009981,"connected_time":62000000000,"state":"active","ping":73},{"user_id":450,"name":"Dr. Bubs","steam_id":76561198011696595,"connected_time":774000000000,"state":"active","ping":50},{"user_id":429,"name":"cringy","steam_id":76561198323000455,"connected_time":2012000000000,"state":"active","ping":61},{"user_id":447,"name":"Nr","steam_id":76561198156798850,"connected_time":807000000000,"state":"active","ping":116},{"user_id":445,"name":"Flunk","steam_id":76561198012070780,"connected_time":1066000000000,"state":"active","ping":91},{"user_id":451,"name":"Profile Name","steam_id":76561198083985586,"connected_time":738000000000,"state":"active","ping":52},{"user_id":431,"name":"Smellbow McArmpit","steam_id":76561198109445099,"connected_time":1810000000000,"state":"active","ping":75},{"user_id":314,"name":"H-keyLF","steam_id":76561198376014891,"connected_time":10856000000000,"state":"active","ping":53},{"user_id":453,"name":"dsmagic","steam_id":76561198038601542,"connected_time":664000000000,"state":"active","ping":57},{"user_id":428,"name":"1738 gecs","steam_id":76561198058617608,"connected_time":2120000000000,"state":"active","ping":52},{"user_id":454,"name":"krib0","steam_id":76561198093353303,"connected_time":653000000000,"state":"active","ping":30},{"user_id":456,"name":"Diet Dr. Diabetes","steam_id":76561198050541565,"connected_time":607000000000,"state":"active","ping":110},{"user_id":395,"name":"MonkeyNobody","steam_id":76561199451266605,"connected_time":4759000000000,"state":"active","ping":55},{"user_id":457,"name":"Tibrochief","steam_id":76561198311897153,"connected_time":584000000000,"state":"active","ping":56},{"user_id":458,"name":"!","steam_id":76561199189013920,"connected_time":512000000000,"state":"active","ping":45},{"user_id":459,"name":"Andy the Hoff","steam_id":76561198043115724,"connected_time":512000000000,"state":"active","ping":95},{"user_id":465,"name":"Level 9001 Mudkip","steam_id":76561198043609805,"connected_time":59000000000,"state":"active","ping":46}]},{"server_id":25,"name":"Uncletopia | Los Angeles | 4 | Stopwatch Beta","name_short":"lax-4","host":"lax-1.us.uncletopia.com","port":27045,"enabled":true,"region":"us-west","cc":"us","latitude":33.94279,"longitude":-118.41004,"reserved":0,"last_update":"0001-01-01T00:00:00Z","name_a2s":"Uncletopia | Los Angeles | 4 | Stopwatch Beta","protocol":17,"map":"workshop/pl_badwater_pro_v12.ugc2142942074","folder":"tf","game":"Team Fortress","app_id":440,"player_count":0,"max_players":24,"Bots":0,"server_type":"Dedicated","server_os":"Linux","password":true,"vac":true,"version":"7882260","steam_id":85568392924510199,"keywords":["nocrits","nodmgspread","payload","uncletopia"],"game_id":440,"stv_port":27046,"stv_name":"Uncletopia | Los Angeles | 4 | Stopwatch Beta | STV","players":null},{"server_id":11,"name":"Uncletopia | London | 1 | All Maps","name_short":"lon-1","host":"lon-1.uk.uncletopia.com","port":27015,"enabled":true,"region":"eu","cc":"gb","latitude":51.509865,"longitude":-0.118092,"reserved":0,"last_update":"0001-01-01T00:00:00Z","name_a2s":"Uncletopia | London | 1 | All Maps","protocol":17,"map":"cp_process_final","folder":"tf","game":"Team Fortress","app_id":440,"player_count":0,"max_players":24,"Bots":0,"server_type":"Dedicated","server_os":"Linux","password":true,"vac":true,"version":"7882260","steam_id":85568392924367362,"keywords":["cp","nocrits","nodmgspread","uncletopia"],"game_id":440,"stv_port":27016,"stv_name":"Uncletopia | London | 1 | All Maps | STV","players":null},{"server_id":114,"name":"Uncletopia | London | 2 | All Maps","name_short":"lon-2","host":"lon-1.uk.uncletopia.com","port":27025,"enabled":true,"region":"eu","cc":"gb","latitude":51.509865,"longitude":-0.118092,"reserved":0,"last_update":"0001-01-01T00:00:00Z","name_a2s":"Uncletopia | London | 2 | All Maps","protocol":17,"map":"pl_swiftwater_final1","folder":"tf","game":"Team Fortress","app_id":440,"player_count":0,"max_players":24,"Bots":0,"server_type":"Dedicated","server_os":"Linux","password":true,"vac":true,"version":"7882260","steam_id":85568392924470941,"keywords":["nocrits","nodmgspread","payload","uncletopia"],"game_id":440,"stv_port":27026,"stv_name":"Uncletopia | London | 2 | All Maps | STV","players":null},{"server_id":320,"name":"Uncletopia | London | 3 | All Maps","name_short":"lon-3","host":"lon-1.uk.uncletopia.com","port":27035,"enabled":true,"region":"eu","cc":"gb","latitude":51.509865,"longitude":-0.118092,"reserved":0,"last_update":"0001-01-01T00:00:00Z","name_a2s":"Uncletopia | London | 3 | All Maps","protocol":17,"map":"koth_highpass","folder":"tf","game":"Team Fortress","app_id":440,"player_count":0,"max_players":24,"Bots":0,"server_type":"Dedicated","server_os":"Linux","password":true,"vac":true,"version":"7882260","steam_id":85568392924510192,"keywords":["cp","nocrits","nodmgspread","uncletopia"],"game_id":440,"stv_port":27036,"stv_name":"Uncletopia | London | 3 | All Maps | STV","players":null},{"server_id":321,"name":"Uncletopia | London | 4 | All Maps","name_short":"lon-4","host":"lon-1.uk.uncletopia.com","port":27045,"enabled":true,"region":"eu","cc":"gb","latitude":51.509865,"longitude":-0.118092,"reserved":0,"last_update":"0001-01-01T00:00:00Z","name_a2s":"Uncletopia | London | 4 | All Maps","protocol":17,"map":"pl_upward","folder":"tf","game":"Team Fortress","app_id":440,"player_count":0,"max_players":24,"Bots":0,"server_type":"Dedicated","server_os":"Linux","password":true,"vac":true,"version":"7882260","steam_id":85568392924510193,"keywords":["nocrits","nodmgspread","payload","uncletopia"],"game_id":440,"stv_port":27046,"stv_name":"Uncletopia | London | 4 | All Maps | STV","players":null},{"server_id":21,"name":"Uncletopia | London | 5 | All Maps","name_short":"lon-5","host":"lon-1.uk.uncletopia.com","port":27055,"enabled":true,"region":"eu","cc":"gb","latitude":51.509865,"longitude":-0.118092,"reserved":0,"last_update":"0001-01-01T00:00:00Z","name_a2s":"Uncletopia | London | 5 | All Maps","protocol":17,"map":"pl_frontier_final","folder":"tf","game":"Team Fortress","app_id":440,"player_count":0,"max_players":24,"Bots":0,"server_type":"Dedicated","server_os":"Linux","password":true,"vac":true,"version":"7882260","steam_id":85568392924742829,"keywords":["nocrits","nodmgspread","payload","uncletopia"],"game_id":440,"stv_port":27056,"stv_name":"Uncletopia | London | 5 | All Maps | STV","players":null},{"server_id":22,"name":"Uncletopia | London | 6 | All Maps","name_short":"lon-6","host":"lon-1.uk.uncletopia.com","port":27065,"enabled":true,"region":"eu","cc":"gb","latitude":51.509865,"longitude":-0.118092,"reserved":0,"last_update":"0001-01-01T00:00:00Z","name_a2s":"Uncletopia | London | 6 | All Maps","protocol":17,"map":"pl_pier","folder":"tf","game":"Team Fortress","app_id":440,"player_count":16,"max_players":24,"Bots":0,"server_type":"Dedicated","server_os":"Linux","password":true,"vac":true,"version":"7882260","steam_id":85568392924742830,"keywords":["nocrits","nodmgspread","payload","uncletopia"],"game_id":440,"stv_port":27066,"stv_name":"Uncletopia | London | 6 | All Maps | STV","players":[{"user_id":42,"name":"[nJd]bU_Jsem--503","steam_id":76561198175834065,"connected_time":357000000000,"state":"active","ping":164},{"user_id":32,"name":"night.s","steam_id":76561198326287823,"connected_time":1480000000000,"state":"active","ping":74},{"user_id":5,"name":"Neimon","steam_id":76561198343485710,"connected_time":4335000000000,"state":"active","ping":126},{"user_id":7,"name":"Kokos","steam_id":76561198085501501,"connected_time":4300000000000,"state":"active","ping":87},{"user_id":43,"name":"KEKTUS","steam_id":76561198134191195,"connected_time":28000000000,"state":"active","ping":130},{"user_id":44,"name":"WiLD","steam_id":76561198345622161,"connected_time":4000000000,"state":"spawning","ping":85},{"user_id":37,"name":"vadim_kotler","steam_id":76561199016634369,"connected_time":1186000000000,"state":"active","ping":114},{"user_id":30,"name":"Genuine","steam_id":76561197966295765,"connected_time":1735000000000,"state":"active","ping":48},{"user_id":21,"name":"B.batt","steam_id":76561198998684199,"connected_time":2721000000000,"state":"active","ping":131},{"user_id":16,"name":"boom","steam_id":76561199004664917,"connected_time":3265000000000,"state":"active","ping":91},{"user_id":31,"name":"Zygocact","steam_id":76561197990776598,"connected_time":1722000000000,"state":"active","ping":136},{"user_id":41,"name":"MuffinMat","steam_id":76561198963850297,"connected_time":736000000000,"state":"active","ping":72},{"user_id":34,"name":"Zama","steam_id":76561199121691104,"connected_time":1284000000000,"state":"active","ping":45},{"user_id":35,"name":"christoph","steam_id":76561198862617811,"connected_time":1283000000000,"state":"active","ping":77},{"user_id":36,"name":"Zeyo","steam_id":76561198110198881,"connected_time":1279000000000,"state":"active","ping":72},{"user_id":40,"name":"PP_master69420","steam_id":76561199019913910,"connected_time":859000000000,"state":"active","ping":84}]},{"server_id":40,"name":"Uncletopia | London | 7 | No Payload","name_short":"lon-7","host":"lon-1.uk.uncletopia.com","port":27075,"enabled":true,"region":"eu","cc":"gb","latitude":51.509865,"longitude":-0.118092,"reserved":0,"last_update":"0001-01-01T00:00:00Z","name_a2s":"Uncletopia | London | 7 | No Payload","protocol":17,"map":"pl_pier","folder":"tf","game":"Team Fortress","app_id":440,"player_count":0,"max_players":24,"Bots":0,"server_type":"Dedicated","server_os":"Linux","password":true,"vac":true,"version":"7882260","steam_id":85568392924964314,"keywords":["nocrits","nodmgspread","payload","uncletopia"],"game_id":440,"stv_port":27076,"stv_name":"Uncletopia | London | 7 | No Payload | STV","players":null},{"server_id":41,"name":"Uncletopia | London | 8 | Community","name_short":"lon-8","host":"lon-1.uk.uncletopia.com","port":27085,"enabled":true,"region":"eu","cc":"gb","latitude":51.509865,"longitude":-0.118092,"reserved":0,"last_update":"0001-01-01T00:00:00Z","name_a2s":"Uncletopia | London | 8 | Community","protocol":17,"map":"pl_swiftwater_final1","folder":"tf","game":"Team Fortress","app_id":440,"player_count":0,"max_players":24,"Bots":0,"server_type":"Dedicated","server_os":"Linux","password":true,"vac":true,"version":"7882260","steam_id":85568392924964315,"keywords":["nocrits","nodmgspread","payload","uncletopia"],"game_id":440,"stv_port":27086,"stv_name":"Uncletopia | London | 8 | Community | STV","players":null},{"server_id":300,"name":"Uncletopia | Montr√©al | 1 | All Maps","name_short":"mtl-1","host":"mtl-1.ca.uncletopia.com","port":27015,"enabled":true,"region":"us-east","cc":"ca","latitude":45.50889,"longitude":-73.56167,"reserved":0,"last_update":"0001-01-01T00:00:00Z","name_a2s":"Uncletopia | Montr√©al | 1 | All Maps","protocol":17,"map":"pl_barnblitz","folder":"tf","game":"Team Fortress","app_id":440,"player_count":0,"max_players":24,"Bots":0,"server_type":"Dedicated","server_os":"Linux","password":true,"vac":true,"version":"7882260","steam_id":85568392924500087,"keywords":["nocrits","nodmgspread","payload","uncletopia"],"game_id":440,"stv_port":27016,"stv_name":"Uncletopia | Montr√©al | 1 | All Maps | STV","players":null},{"server_id":301,"name":"Uncletopia | Montr√©al | 2 | All Maps","name_short":"mtl-2","host":"mtl-1.ca.uncletopia.com","port":27025,"enabled":true,"region":"us-east","cc":"ca","latitude":45.50889,"longitude":-73.56167,"reserved":0,"last_update":"0001-01-01T00:00:00Z","name_a2s":"Uncletopia | Montr√©al | 2 | All Maps","protocol":17,"map":"koth_highpass","folder":"tf","game":"Team Fortress","app_id":440,"player_count":0,"max_players":24,"Bots":0,"server_type":"Dedicated","server_os":"Linux","password":true,"vac":true,"version":"7882260","steam_id":85568392924500088,"keywords":["cp","nocrits","nodmgspread","uncletopia"],"game_id":440,"stv_port":27026,"stv_name":"Uncletopia | Montr√©al | 2 | All Maps | STV","players":null},{"server_id":302,"name":"Uncletopia | Montr√©al | 3 | All Maps","name_short":"mtl-3","host":"mtl-1.ca.uncletopia.com","port":27035,"enabled":true,"region":"us-east","cc":"ca","latitude":45.50889,"longitude":-73.56167,"reserved":0,"last_update":"0001-01-01T00:00:00Z","name_a2s":"Uncletopia | Montr√©al | 3 | All Maps","protocol":17,"map":"koth_cascade","folder":"tf","game":"Team Fortress","app_id":440,"player_count":0,"max_players":24,"Bots":0,"server_type":"Dedicated","server_os":"Linux","password":true,"vac":true,"version":"7882260","steam_id":85568392924500089,"keywords":["cp","nocrits","nodmgspread","uncletopia"],"game_id":440,"stv_port":27036,"stv_name":"Uncletopia | Montr√©al | 3 | All Maps | STV","players":null},{"server_id":303,"name":"Uncletopia | Montr√©al | 4 | No Payload","name_short":"mtl-4","host":"mtl-1.ca.uncletopia.com","port":27045,"enabled":true,"region":"us-east","cc":"ca","latitude":45.50889,"longitude":-73.56167,"reserved":0,"last_update":"0001-01-01T00:00:00Z","name_a2s":"Uncletopia | Montr√©al | 4 | No Payload","protocol":17,"map":"koth_nucleus","folder":"tf","game":"Team Fortress","app_id":440,"player_count":0,"max_players":24,"Bots":0,"server_type":"Dedicated","server_os":"Linux","password":true,"vac":true,"version":"7882260","steam_id":85568392924500090,"keywords":["cp","nocrits","nodmgspread","uncletopia"],"game_id":440,"stv_port":27046,"stv_name":"Uncletopia | Montr√©al | 4 | No Payload | STV","players":null},{"server_id":13,"name":"Uncletopia | New York City | 1 | All Maps","name_short":"nyc-1","host":"nyc-1.us.uncletopia.com","port":27015,"enabled":true,"region":"us-east","cc":"us","latitude":40.73061,"longitude":-73.93524,"reserved":0,"last_update":"0001-01-01T00:00:00Z","name_a2s":"Uncletopia | New York City | 1 | All Maps","protocol":17,"map":"cp_dustbowl","folder":"tf","game":"Team Fortress","app_id":440,"player_count":24,"max_players":24,"Bots":0,"server_type":"Dedicated","server_os":"Linux","password":true,"vac":true,"version":"7882260","steam_id":85568392924469993,"keywords":["cp","nocrits","nodmgspread","uncletopia"],"game_id":440,"stv_port":27016,"stv_name":"Uncletopia | New York City | 1 | All Maps | STV","players":[{"user_id":710,"name":"Khaiden","steam_id":76561198104454754,"connected_time":5868000000000,"state":"active","ping":162},{"user_id":754,"name":"BigOrca54","steam_id":76561198181360271,"connected_time":3348000000000,"state":"active","ping":71},{"user_id":749,"name":"Kdash","steam_id":76561198043829155,"connected_time":3528000000000,"state":"active","ping":99},{"user_id":780,"name":"noah","steam_id":76561198173310157,"connected_time":1917000000000,"state":"active","ping":69},{"user_id":699,"name":"Snoogs","steam_id":76561198444880931,"connected_time":7088000000000,"state":"active","ping":63},{"user_id":738,"name":"Ypuoi","steam_id":76561198170203261,"connected_time":4088000000000,"state":"active","ping":114},{"user_id":784,"name":"Joel the Green Wizard","steam_id":76561198097800277,"connected_time":1234000000000,"state":"active","ping":56},{"user_id":736,"name":"Aristotle Voulton","steam_id":76561198100174923,"connected_time":4180000000000,"state":"active","ping":76},{"user_id":781,"name":"BigDeac","steam_id":76561198091237274,"connected_time":1818000000000,"state":"active","ping":69},{"user_id":764,"name":"Anthoneeee","steam_id":76561199209220671,"connected_time":2494000000000,"state":"active","ping":116},{"user_id":795,"name":"Mops","steam_id":76561198058213741,"connected_time":164000000000,"state":"active","ping":45},{"user_id":796,"name":"Kazuta Neko","steam_id":76561198070470653,"connected_time":130000000000,"state":"active","ping":74},{"user_id":760,"name":"Tony hawks pro skater 2 dlc","steam_id":76561198243387974,"connected_time":3007000000000,"state":"active","ping":56},{"user_id":790,"name":"peee pee man","steam_id":76561198044979205,"connected_time":854000000000,"state":"active","ping":55},{"user_id":793,"name":"Deterrent","steam_id":76561198256763734,"connected_time":187000000000,"state":"active","ping":60},{"user_id":799,"name":"most normal man","steam_id":76561199197435876,"connected_time":41000000000,"state":"active","ping":71},{"user_id":786,"name":"thixon","steam_id":76561198046655575,"connected_time":1131000000000,"state":"active","ping":44},{"user_id":770,"name":"Spring Beans","steam_id":76561197978546259,"connected_time":2346000000000,"state":"active","ping":74},{"user_id":788,"name":"sapphrodite","steam_id":76561198279341789,"connected_time":927000000000,"state":"active","ping":72},{"user_id":742,"name":"BeanBandito","steam_id":76561198147970778,"connected_time":4011000000000,"state":"active","ping":47},{"user_id":743,"name":"The Pill","steam_id":76561198164782423,"connected_time":4008000000000,"state":"active","ping":53},{"user_id":792,"name":"armando godbody","steam_id":76561197996819313,"connected_time":479000000000,"state":"active","ping":71},{"user_id":794,"name":"monke","steam_id":76561198071296091,"connected_time":179000000000,"state":"active","ping":80},{"user_id":800,"name":"Madrox Who?","steam_id":76561197988859134,"connected_time":5000000000,"state":"spawning","ping":85}]},{"server_id":14,"name":"Uncletopia | New York City | 2 | All Maps","name_short":"nyc-2","host":"nyc-1.us.uncletopia.com","port":27025,"enabled":true,"region":"us-east","cc":"us","latitude":40.73061,"longitude":-73.93524,"reserved":0,"last_update":"0001-01-01T00:00:00Z","name_a2s":"Uncletopia | New York City | 2 | All Maps","protocol":17,"map":"koth_lakeside_final","folder":"tf","game":"Team Fortress","app_id":440,"player_count":0,"max_players":24,"Bots":0,"server_type":"Dedicated","server_os":"Linux","password":true,"vac":true,"version":"7882260","steam_id":85568392924469994,"keywords":["cp","nocrits","nodmgspread","uncletopia"],"game_id":440,"stv_port":27026,"stv_name":"Uncletopia | New York City | 2 | All Maps | STV","players":null},{"server_id":15,"name":"Uncletopia | New York City | 3 | Stopwatch Beta","name_short":"nyc-3","host":"nyc-1.us.uncletopia.com","port":27035,"enabled":true,"region":"us-east","cc":"us","latitude":40.73061,"longitude":-73.93524,"reserved":0,"last_update":"0001-01-01T00:00:00Z","name_a2s":"Uncletopia | New York City | 3 | Stopwatch Beta","protocol":17,"map":"pl_borneo","folder":"tf","game":"Team Fortress","app_id":440,"player_count":0,"max_players":24,"Bots":0,"server_type":"Dedicated","server_os":"Linux","password":true,"vac":true,"version":"7882260","steam_id":85568392924742820,"keywords":["nocrits","nodmgspread","payload","uncletopia"],"game_id":440,"stv_port":27036,"stv_name":"Uncletopia | New York City | 3 | Stopwatch Beta | STV","players":null},{"server_id":16,"name":"Uncletopia | New York City | 4 | Community","name_short":"nyc-4","host":"nyc-1.us.uncletopia.com","port":27045,"enabled":true,"region":"us-east","cc":"us","latitude":40.73061,"longitude":-73.93524,"reserved":0,"last_update":"0001-01-01T00:00:00Z","name_a2s":"Uncletopia | New York City | 4 | Community","protocol":17,"map":"workshop/pl_fifthcurve_rc1.ugc648227046","folder":"tf","game":"Team Fortress","app_id":440,"player_count":24,"max_players":24,"Bots":0,"server_type":"Dedicated","server_os":"Linux","password":true,"vac":true,"version":"7882260","steam_id":85568392924742821,"keywords":["nocrits","nodmgspread","payload","uncletopia"],"game_id":440,"stv_port":27046,"stv_name":"Uncletopia | New York City | 4 | Community | STV","players":[{"user_id":404,"name":"Cluwn","steam_id":76561198001336085,"connected_time":1208000000000,"state":"active","ping":95},{"user_id":406,"name":"Big Booty Backshots :)","steam_id":76561198083229340,"connected_time":1017000000000,"state":"active","ping":57},{"user_id":376,"name":"olifur","steam_id":76561198045607732,"connected_time":3471000000000,"state":"active","ping":51},{"user_id":389,"name":"Hook, Line, and Sphincter","steam_id":76561198078207743,"connected_time":1957000000000,"state":"active","ping":42},{"user_id":351,"name":"skosgo -eg","steam_id":76561197996403345,"connected_time":5478000000000,"state":"active","ping":134},{"user_id":390,"name":"erf","steam_id":76561198078203677,"connected_time":1956000000000,"state":"active","ping":54},{"user_id":398,"name":"xxXStealthSuppositoriesXxx","steam_id":76561198075235541,"connected_time":1346000000000,"state":"active","ping":137},{"user_id":309,"name":"Engiqueer","steam_id":76561198214080773,"connected_time":9561000000000,"state":"active","ping":68},{"user_id":411,"name":"Yongle","steam_id":76561198068591156,"connected_time":333000000000,"state":"active","ping":73},{"user_id":350,"name":"Dovy","steam_id":76561198308973032,"connected_time":5487000000000,"state":"active","ping":81},{"user_id":408,"name":"Thundeer","steam_id":76561198353425202,"connected_time":883000000000,"state":"active","ping":75},{"user_id":355,"name":"trobort","steam_id":76561198027150357,"connected_time":5420000000000,"state":"active","ping":89},{"user_id":352,"name":"arryuriru","steam_id":76561198043491837,"connected_time":5476000000000,"state":"active","ping":73},{"user_id":394,"name":"james.massey.2007","steam_id":76561198113716047,"connected_time":1551000000000,"state":"active","ping":59},{"user_id":353,"name":"rockstar like pink floyd","steam_id":76561198099463706,"connected_time":5463000000000,"state":"active","ping":84},{"user_id":362,"name":"Misty Blu ‚úø","steam_id":76561198011442255,"connected_time":4719000000000,"state":"active","ping":105},{"user_id":356,"name":"Mr.Bady","steam_id":76561199094651706,"connected_time":5351000000000,"state":"active","ping":64},{"user_id":400,"name":"Drew","steam_id":76561198042864345,"connected_time":1279000000000,"state":"active","ping":81},{"user_id":401,"name":"ianErick","steam_id":76561198000739125,"connected_time":1275000000000,"state":"active","ping":63},{"user_id":402,"name":"DOOMBRINGER_","steam_id":76561198038523571,"connected_time":1248000000000,"state":"active","ping":102},{"user_id":403,"name":"RailRunner66","steam_id":76561198053779091,"connected_time":1247000000000,"state":"active","ping":104},{"user_id":405,"name":"Sam","steam_id":76561198043918040,"connected_time":1203000000000,"state":"active","ping":85},{"user_id":340,"name":"Unlicensed Therapist","steam_id":76561199207814518,"connected_time":6990000000000,"state":"active","ping":109},{"user_id":409,"name":"Lex","steam_id":76561198069948353,"connected_time":836000000000,"state":"active","ping":97}]},{"server_id":142,"name":"Uncletopia | S√£o Paulo | 1 | All Maps","name_short":"sao-1","host":"sao-1.br.uncletopia.com","port":27015,"enabled":true,"region":"sa","cc":"br","latitude":-23.533773,"longitude":-46.62529,"reserved":0,"last_update":"0001-01-01T00:00:00Z","name_a2s":"Uncletopia | S√£o Paulo | 1 | All Maps","protocol":17,"map":"koth_highpass","folder":"tf","game":"Team Fortress","app_id":440,"player_count":0,"max_players":24,"Bots":0,"server_type":"Dedicated","server_os":"Linux","password":true,"vac":true,"version":"7882260","steam_id":85568392924469996,"keywords":["cp","nocrits","nodmgspread","uncletopia"],"game_id":440,"stv_port":27016,"stv_name":"Uncletopia | S√£o Paulo | 1 | All Maps | STV","players":null},{"server_id":143,"name":"Uncletopia | S√£o Paulo | 2 | All Maps","name_short":"sao-2","host":"sao-2.br.uncletopia.com","port":27015,"enabled":true,"region":"sa","cc":"br","latitude":-23.533773,"longitude":-46.62529,"reserved":0,"last_update":"0001-01-01T00:00:00Z","name_a2s":"Uncletopia | S√£o Paulo | 2 | All Maps","protocol":17,"map":"koth_viaduct","folder":"tf","game":"Team Fortress","app_id":440,"player_count":0,"max_players":24,"Bots":0,"server_type":"Dedicated","server_os":"Linux","password":true,"vac":true,"version":"7882260","steam_id":85568392924485349,"keywords":["cp","nocrits","nodmgspread","uncletopia"],"game_id":440,"stv_port":27016,"stv_name":"Uncletopia | S√£o Paulo | 2 | All Maps | STV","players":null},{"server_id":7,"name":"Uncletopia | Seattle | 1 | All Maps","name_short":"sea-1","host":"sea-1.us.uncletopia.com","port":27015,"enabled":true,"region":"us-west","cc":"us","latitude":47.608013,"longitude":-122.33517,"reserved":0,"last_update":"0001-01-01T00:00:00Z","name_a2s":"Uncletopia | Seattle | 1 | All Maps","protocol":17,"map":"pl_pier","folder":"tf","game":"Team Fortress","app_id":440,"player_count":24,"max_players":24,"Bots":0,"server_type":"Dedicated","server_os":"Linux","password":true,"vac":true,"version":"7882260","steam_id":85568392924469997,"keywords":["nocrits","nodmgspread","payload","uncletopia"],"game_id":440,"stv_port":27016,"stv_name":"Uncletopia | Seattle | 1 | All Maps | STV","players":[{"user_id":673,"name":"Shmoggledyne","steam_id":76561198130038345,"connected_time":2294000000000,"state":"active","ping":62},{"user_id":665,"name":"oil","steam_id":76561198099980149,"connected_time":3670000000000,"state":"active","ping":84},{"user_id":646,"name":"Thanks Ants","steam_id":76561197966221018,"connected_time":5323000000000,"state":"active","ping":53},{"user_id":666,"name":"mega","steam_id":76561198089520959,"connected_time":3662000000000,"state":"active","ping":94},{"user_id":684,"name":"profile name","steam_id":76561198032625036,"connected_time":898000000000,"state":"active","ping":59},{"user_id":696,"name":"Squigzy_","steam_id":76561198061696667,"connected_time":130000000000,"state":"active","ping":78},{"user_id":660,"name":"pyrotechnic","steam_id":76561198043558709,"connected_time":3686000000000,"state":"active","ping":46},{"user_id":663,"name":"Ayayayayayahuasca","steam_id":76561199002906056,"connected_time":3676000000000,"state":"active","ping":45},{"user_id":638,"name":"ORANGE","steam_id":76561198000401769,"connected_time":6233000000000,"state":"active","ping":46},{"user_id":597,"name":"roryisonamobilehotspot","steam_id":76561198065825165,"connected_time":10024000000000,"state":"active","ping":95},{"user_id":664,"name":"Sweets","steam_id":76561198998446307,"connected_time":3674000000000,"state":"active","ping":68},{"user_id":611,"name":"dougrocks421","steam_id":76561198165063918,"connected_time":9459000000000,"state":"active","ping":30},{"user_id":681,"name":"h","steam_id":76561198868164815,"connected_time":1559000000000,"state":"active","ping":55},{"user_id":637,"name":"El Gato Paranoico","steam_id":76561198116567116,"connected_time":6239000000000,"state":"active","ping":126},{"user_id":692,"name":"ubiquitous man","steam_id":76561198073782350,"connected_time":341000000000,"state":"active","ping":130},{"user_id":670,"name":"smeasly got the dab pen","steam_id":76561198028718812,"connected_time":3348000000000,"state":"active","ping":44},{"user_id":674,"name":"Arsonist Goose","steam_id":76561198147441830,"connected_time":2287000000000,"state":"active","ping":73},{"user_id":685,"name":"‚ô•haunti","steam_id":76561199235580556,"connected_time":892000000000,"state":"active","ping":48},{"user_id":679,"name":"Stick Drift","steam_id":76561199019675078,"connected_time":2117000000000,"state":"active","ping":113},{"user_id":689,"name":"Tom Skirrett","steam_id":76561198014600788,"connected_time":547000000000,"state":"active","ping":75},{"user_id":687,"name":"lycoris","steam_id":76561199113965768,"connected_time":863000000000,"state":"active","ping":134},{"user_id":662,"name":"fartstreaks active","steam_id":76561198046073848,"connected_time":3686000000000,"state":"active","ping":48},{"user_id":688,"name":"Xenagos","steam_id":76561198045678290,"connected_time":728000000000,"state":"active","ping":54},{"user_id":555,"name":"Battery Acid Slurper","steam_id":76561198439793697,"connected_time":14040000000000,"state":"active","ping":106}]},{"server_id":119,"name":"Uncletopia | Seattle | 2 | All Maps","name_short":"sea-2","host":"sea-1.us.uncletopia.com","port":27025,"enabled":true,"region":"us-west","cc":"us","latitude":47.608013,"longitude":-122.33517,"reserved":0,"last_update":"0001-01-01T00:00:00Z","name_a2s":"Uncletopia | Seattle | 2 | All Maps","protocol":17,"map":"pl_goldrush","folder":"tf","game":"Team Fortress","app_id":440,"player_count":20,"max_players":24,"Bots":0,"server_type":"Dedicated","server_os":"Linux","password":true,"vac":true,"version":"7882260","steam_id":85568392924469998,"keywords":["nocrits","nodmgspread","payload","uncletopia"],"game_id":440,"stv_port":27026,"stv_name":"Uncletopia | Seattle | 2 | All Maps | STV","players":[{"user_id":713,"name":"Bagoool","steam_id":76561198065368286,"connected_time":47000000000,"state":"active","ping":70},{"user_id":698,"name":"American Dad Funny Moments #32","steam_id":76561198254874328,"connected_time":1690000000000,"state":"active","ping":57},{"user_id":683,"name":"Dongus","steam_id":76561197979056451,"connected_time":3104000000000,"state":"active","ping":45},{"user_id":696,"name":"SmallErection","steam_id":76561198071770147,"connected_time":2127000000000,"state":"active","ping":60},{"user_id":674,"name":"lite","steam_id":76561198041535914,"connected_time":4471000000000,"state":"active","ping":76},{"user_id":714,"name":"JaidenVII","steam_id":76561198004894172,"connected_time":36000000000,"state":"active","ping":84},{"user_id":686,"name":"HideOnTate","steam_id":76561198209880837,"connected_time":3084000000000,"state":"active","ping":45},{"user_id":706,"name":"io_est","steam_id":76561198079538952,"connected_time":870000000000,"state":"active","ping":55},{"user_id":695,"name":"super smash2josh","steam_id":76561198140864125,"connected_time":2536000000000,"state":"active","ping":58},{"user_id":699,"name":"BuysideElitist","steam_id":76561198068672882,"connected_time":1639000000000,"state":"active","ping":64},{"user_id":656,"name":"Seriously Bruh","steam_id":76561198070408485,"connected_time":6834000000000,"state":"active","ping":59},{"user_id":709,"name":"kodynotcody","steam_id":76561198340685758,"connected_time":633000000000,"state":"active","ping":65},{"user_id":654,"name":"T√ºCold","steam_id":76561198111278197,"connected_time":6980000000000,"state":"active","ping":59},{"user_id":690,"name":"Faefanger","steam_id":76561198201871002,"connected_time":2995000000000,"state":"active","ping":87},{"user_id":655,"name":"PillCosby","steam_id":76561199396184696,"connected_time":6962000000000,"state":"active","ping":53},{"user_id":710,"name":"Quarters","steam_id":76561198173233445,"connected_time":470000000000,"state":"active","ping":55},{"user_id":694,"name":"Samvich","steam_id":76561198263319227,"connected_time":2640000000000,"state":"active","ping":61},{"user_id":704,"name":"hosewater","steam_id":76561198023383126,"connected_time":1150000000000,"state":"active","ping":51},{"user_id":691,"name":"Tea","steam_id":76561198004133638,"connected_time":2962000000000,"state":"spawning","ping":307},{"user_id":708,"name":"Midnuimx","steam_id":76561198920070702,"connected_time":664000000000,"state":"active","ping":56}]},{"server_id":406,"name":"Uncletopia | Seattle | 3 | Stopwatch Beta","name_short":"sea-3","host":"sea-1.us.uncletopia.com","port":27035,"enabled":true,"region":"us-west","cc":"us","latitude":47.608013,"longitude":-122.33517,"reserved":0,"last_update":"0001-01-01T00:00:00Z","name_a2s":"Uncletopia | Seattle | 3 | Stopwatch Beta","protocol":17,"map":"pl_swiftwater_final1","folder":"tf","game":"Team Fortress","app_id":440,"player_count":0,"max_players":24,"Bots":0,"server_type":"Dedicated","server_os":"Linux","password":true,"vac":true,"version":"7882260","steam_id":85568392924515217,"keywords":["nocrits","nodmgspread","payload","uncletopia"],"game_id":440,"stv_port":27036,"stv_name":"Uncletopia | Seattle | 3 | Stopwatch Beta | STV","players":null},{"server_id":17,"name":"Uncletopia | San Francisco | 1 | All Maps","name_short":"sfo-1","host":"sfo-1.us.uncletopia.com","port":27015,"enabled":true,"region":"us-west","cc":"us","latitude":37.77397,"longitude":-122.4313,"reserved":0,"last_update":"0001-01-01T00:00:00Z","name_a2s":"Uncletopia | San Francisco | 1 | All Maps","protocol":17,"map":"koth_suijin","folder":"tf","game":"Team Fortress","app_id":440,"player_count":24,"max_players":24,"Bots":0,"server_type":"Dedicated","server_os":"Linux","password":true,"vac":true,"version":"7882260","steam_id":85568392924469999,"keywords":["cp","nocrits","nodmgspread","uncletopia"],"game_id":440,"stv_port":27016,"stv_name":"Uncletopia | San Francisco | 1 | All Maps | STV","players":[{"user_id":161,"name":"Benis Gonzalez","steam_id":76561198799391259,"connected_time":503000000000,"state":"active","ping":65},{"user_id":146,"name":"Tockbird","steam_id":76561199437964594,"connected_time":1811000000000,"state":"active","ping":67},{"user_id":147,"name":"FOOL","steam_id":76561198370866973,"connected_time":1775000000000,"state":"active","ping":57},{"user_id":148,"name":"oh god i'm gonna CHUM","steam_id":76561198019210187,"connected_time":1698000000000,"state":"active","ping":90},{"user_id":162,"name":"Heamed Stams","steam_id":76561198163644842,"connected_time":193000000000,"state":"active","ping":105},{"user_id":119,"name":"Deflated Horse","steam_id":76561199260931005,"connected_time":3681000000000,"state":"active","ping":70},{"user_id":120,"name":"Mihy","steam_id":76561199042677419,"connected_time":3678000000000,"state":"active","ping":55},{"user_id":121,"name":"Dogg wader","steam_id":76561199090314340,"connected_time":3596000000000,"state":"active","ping":84},{"user_id":128,"name":"Birdman743","steam_id":76561198799636748,"connected_time":2528000000000,"state":"active","ping":81},{"user_id":141,"name":"The Supreme Leader Kim Jong Un","steam_id":76561198067272391,"connected_time":2124000000000,"state":"active","ping":41},{"user_id":130,"name":"Bizz_Bot2000","steam_id":76561199205574389,"connected_time":2346000000000,"state":"active","ping":78},{"user_id":150,"name":"emaudispiegl13","steam_id":76561199374065051,"connected_time":1626000000000,"state":"active","ping":75},{"user_id":152,"name":"jBracko","steam_id":76561198019261602,"connected_time":1282000000000,"state":"active","ping":45},{"user_id":163,"name":"Jeffery","steam_id":76561199226711716,"connected_time":166000000000,"state":"active","ping":40},{"user_id":134,"name":"dabi","steam_id":76561198057179683,"connected_time":2282000000000,"state":"active","ping":86},{"user_id":164,"name":"Your pocket medic","steam_id":76561198243527636,"connected_time":123000000000,"state":"active","ping":50},{"user_id":165,"name":"DonutKillMe","steam_id":76561198160221212,"connected_time":108000000000,"state":"active","ping":132},{"user_id":136,"name":"PitBitchDeadite","steam_id":76561199016145897,"connected_time":2241000000000,"state":"active","ping":59},{"user_id":155,"name":"Sgt. Satire","steam_id":76561198104193483,"connected_time":1059000000000,"state":"active","ping":69},{"user_id":160,"name":"epicgameslauncherplaer878","steam_id":76561198360279519,"connected_time":742000000000,"state":"active","ping":96},{"user_id":140,"name":"BucketofIce","steam_id":76561199108563726,"connected_time":2141000000000,"state":"active","ping":60},{"user_id":142,"name":"The Collective","steam_id":76561198170423483,"connected_time":2117000000000,"state":"active","ping":121},{"user_id":157,"name":"TheRealChizz","steam_id":76561198016055769,"connected_time":1033000000000,"state":"active","ping":56},{"user_id":144,"name":"[Colorbomb]","steam_id":76561198006316527,"connected_time":2089000000000,"state":"active","ping":71}]},{"server_id":18,"name":"Uncletopia | San Francisco | 2 | All Maps","name_short":"sfo-2","host":"sfo-1.us.uncletopia.com","port":27025,"enabled":true,"region":"us-west","cc":"us","latitude":37.77397,"longitude":-122.4313,"reserved":0,"last_update":"0001-01-01T00:00:00Z","name_a2s":"Uncletopia | San Francisco | 2 | All Maps","protocol":17,"map":"pl_frontier_final","folder":"tf","game":"Team Fortress","app_id":440,"player_count":24,"max_players":24,"Bots":0,"server_type":"Dedicated","server_os":"Linux","password":true,"vac":true,"version":"7882260","steam_id":85568392924470000,"keywords":["nocrits","nodmgspread","payload","uncletopia"],"game_id":440,"stv_port":27026,"stv_name":"Uncletopia | San Francisco | 2 | All Maps | STV","players":[{"user_id":132,"name":"‚ù§ Ashley ‚ù§","steam_id":76561198056428303,"connected_time":2258000000000,"state":"active","ping":59},{"user_id":110,"name":"Chicken Soup","steam_id":76561197989268948,"connected_time":4934000000000,"state":"active","ping":99},{"user_id":131,"name":"SvicidalBug","steam_id":76561198221390504,"connected_time":2577000000000,"state":"active","ping":81},{"user_id":22,"name":"OminousNoises","steam_id":76561198263320321,"connected_time":11910000000000,"state":"active","ping":101},{"user_id":140,"name":"Aqua Tofana","steam_id":76561198351183381,"connected_time":1328000000000,"state":"active","ping":71},{"user_id":135,"name":"Ringo","steam_id":76561198066595010,"connected_time":1806000000000,"state":"active","ping":59},{"user_id":142,"name":"shido","steam_id":76561198198194599,"connected_time":1266000000000,"state":"active","ping":53},{"user_id":101,"name":"SadVeggie","steam_id":76561198163430099,"connected_time":5399000000000,"state":"active","ping":154},{"user_id":147,"name":"Diclonius","steam_id":76561198075646647,"connected_time":607000000000,"state":"active","ping":49},{"user_id":118,"name":"Jezzus","steam_id":76561199289676387,"connected_time":4603000000000,"state":"active","ping":105},{"user_id":133,"name":"self sufficient kitten","steam_id":76561197960592612,"connected_time":2147000000000,"state":"active","ping":61},{"user_id":145,"name":"RiverMoot","steam_id":76561198081530179,"connected_time":690000000000,"state":"active","ping":131},{"user_id":150,"name":"Tuba","steam_id":76561198209166329,"connected_time":472000000000,"state":"active","ping":62},{"user_id":52,"name":"perc 10","steam_id":76561198116471653,"connected_time":11298000000000,"state":"active","ping":50},{"user_id":146,"name":"KitKats","steam_id":76561198201069328,"connected_time":662000000000,"state":"active","ping":66},{"user_id":113,"name":"Suez","steam_id":76561198034642980,"connected_time":4888000000000,"state":"active","ping":50},{"user_id":149,"name":"supcupman","steam_id":76561198051513866,"connected_time":500000000000,"state":"active","ping":61},{"user_id":122,"name":"Dodobirdthe3rd","steam_id":76561199119848224,"connected_time":4373000000000,"state":"active","ping":52},{"user_id":114,"name":"xxa","steam_id":76561197984735021,"connected_time":4863000000000,"state":"active","ping":46},{"user_id":144,"name":"mewtek","steam_id":76561198138599995,"connected_time":788000000000,"state":"active","ping":73},{"user_id":115,"name":"FRANKY!!!","steam_id":76561199211305343,"connected_time":4826000000000,"state":"active","ping":49},{"user_id":136,"name":"ElectronX","steam_id":76561198116034988,"connected_time":1802000000000,"state":"active","ping":57},{"user_id":148,"name":"Shmoopul","steam_id":76561197983517634,"connected_time":565000000000,"state":"active","ping":107},{"user_id":104,"name":"parallax","steam_id":76561198004438881,"connected_time":5348000000000,"state":"active","ping":67}]},{"server_id":19,"name":"Uncletopia | San Francisco | 3 | Stopwatch Beta","name_short":"sfo-3","host":"sfo-1.us.uncletopia.com","port":27035,"enabled":true,"region":"us-west","cc":"us","latitude":37.77397,"longitude":-122.4313,"reserved":0,"last_update":"0001-01-01T00:00:00Z","name_a2s":"Uncletopia | San Francisco | 3 | Stopwatch Beta","protocol":17,"map":"pl_frontier_final","folder":"tf","game":"Team Fortress","app_id":440,"player_count":0,"max_players":24,"Bots":0,"server_type":"Dedicated","server_os":"Linux","password":true,"vac":true,"version":"7882260","steam_id":85568392924742824,"keywords":["nocrits","nodmgspread","payload","uncletopia"],"game_id":440,"stv_port":27036,"stv_name":"Uncletopia | San Francisco | 3 | Stopwatch Beta | STV","players":null},{"server_id":20,"name":"Uncletopia | San Francisco | 4 | Community","name_short":"sfo-4","host":"sfo-1.us.uncletopia.com","port":27045,"enabled":true,"region":"us-west","cc":"us","latitude":37.77397,"longitude":-122.4313,"reserved":0,"last_update":"0001-01-01T00:00:00Z","name_a2s":"Uncletopia | San Francisco | 4 | Community","protocol":17,"map":"workshop/koth_synthetic_rc6a.ugc1549817316","folder":"tf","game":"Team Fortress","app_id":440,"player_count":22,"max_players":24,"Bots":0,"server_type":"Dedicated","server_os":"Linux","password":true,"vac":true,"version":"7882260","steam_id":85568392924742826,"keywords":["cp","nocrits","nodmgspread","uncletopia"],"game_id":440,"stv_port":27046,"stv_name":"Uncletopia | San Francisco | 4 | Community | STV","players":[{"user_id":356,"name":"Animator","steam_id":76561199021232504,"connected_time":638000000000,"state":"active","ping":94},{"user_id":366,"name":"Quietsharp","steam_id":76561198277968438,"connected_time":97000000000,"state":"active","ping":63},{"user_id":357,"name":".T.A.G.","steam_id":76561198191045987,"connected_time":611000000000,"state":"active","ping":70},{"user_id":358,"name":"johnman gooberguy","steam_id":76561199014859764,"connected_time":583000000000,"state":"active","ping":58},{"user_id":359,"name":"Eadguy","steam_id":76561198029852831,"connected_time":504000000000,"state":"active","ping":77},{"user_id":342,"name":"Uncle Scruncle (real)","steam_id":76561198083414610,"connected_time":2046000000000,"state":"active","ping":60},{"user_id":365,"name":"THEQUIRKA (ALL CAPS ARC)","steam_id":76561198968058652,"connected_time":176000000000,"state":"active","ping":66},{"user_id":336,"name":"||:‚ô©‚ô©‚ô©‚ô™:|| Opplydead","steam_id":76561198028630334,"connected_time":2405000000000,"state":"active","ping":60},{"user_id":277,"name":"Dorso","steam_id":76561198380590080,"connected_time":6635000000000,"state":"active","ping":56},{"user_id":344,"name":"Stupid Monkey =3","steam_id":76561198024580166,"connected_time":1902000000000,"state":"active","ping":65},{"user_id":360,"name":"Nyrator","steam_id":76561198018640479,"connected_time":480000000000,"state":"active","ping":133},{"user_id":361,"name":"Invisorum","steam_id":76561198051902115,"connected_time":473000000000,"state":"active","ping":131},{"user_id":367,"name":"weed","steam_id":76561199128192017,"connected_time":92000000000,"state":"active","ping":80},{"user_id":284,"name":"A Can of Arizona Green Tea","steam_id":76561198062481133,"connected_time":6433000000000,"state":"active","ping":83},{"user_id":347,"name":"Reisen Udongein Inaba","steam_id":76561198051082314,"connected_time":1379000000000,"state":"active","ping":59},{"user_id":363,"name":"jjsamachama","steam_id":76561198964488850,"connected_time":451000000000,"state":"active","ping":114},{"user_id":364,"name":"oo","steam_id":76561198119626492,"connected_time":384000000000,"state":"active","ping":84},{"user_id":349,"name":"xjlm","steam_id":76561198043497260,"connected_time":1282000000000,"state":"active","ping":77},{"user_id":368,"name":"unlucky","steam_id":76561199204822104,"connected_time":64000000000,"state":"active","ping":63},{"user_id":369,"name":"A_Duck075","steam_id":76561199066486620,"connected_time":62000000000,"state":"active","ping":94},{"user_id":370,"name":"Auburn","steam_id":76561198199541493,"connected_time":24000000000,"state":"spawning","ping":336},{"user_id":288,"name":"rock gaming","steam_id":76561199402868311,"connected_time":6298000000000,"state":"active","ping":70}]},{"server_id":141,"name":"Uncletopia | Sydney | 1 | All Maps","name_short":"syd-1","host":"syd-1.au.uncletopia.com","port":27015,"enabled":true,"region":"au","cc":"au","latitude":-33.865143,"longitude":151.2099,"reserved":0,"last_update":"0001-01-01T00:00:00Z","name_a2s":"Uncletopia | Sydney | 1 | All Maps","protocol":17,"map":"cp_coldfront","folder":"tf","game":"Team Fortress","app_id":440,"player_count":23,"max_players":24,"Bots":0,"server_type":"Dedicated","server_os":"Linux","password":true,"vac":true,"version":"7882260","steam_id":85568392924470001,"keywords":["cp","nocrits","nodmgspread","uncletopia"],"game_id":440,"stv_port":27016,"stv_name":"Uncletopia | Sydney | 1 | All Maps | STV","players":[{"user_id":77,"name":"Burnt_Taiyaki","steam_id":76561198045566851,"connected_time":2149000000000,"state":"active","ping":93},{"user_id":94,"name":"rat like behaver","steam_id":76561198000568803,"connected_time":740000000000,"state":"active","ping":50},{"user_id":75,"name":"DrackieCutie","steam_id":76561198216207177,"connected_time":2324000000000,"state":"active","ping":66},{"user_id":115,"name":"wombraidre","steam_id":76561199375834537,"connected_time":14000000000,"state":"spawning","ping":142},{"user_id":68,"name":"MikkyD","steam_id":76561198043452962,"connected_time":2920000000000,"state":"active","ping":61},{"user_id":38,"name":"Local Femboy \u003c3 (No sound)","steam_id":76561198355333388,"connected_time":3920000000000,"state":"active","ping":62},{"user_id":93,"name":"zorbingus blurgorgus","steam_id":76561198063481761,"connected_time":1074000000000,"state":"active","ping":44},{"user_id":84,"name":"Blander_17","steam_id":76561198068232508,"connected_time":1221000000000,"state":"active","ping":65},{"user_id":60,"name":"ibus","steam_id":76561199026701614,"connected_time":3162000000000,"state":"active","ping":58},{"user_id":46,"name":"Shadow Puppeteer","steam_id":76561198151121997,"connected_time":3502000000000,"state":"active","ping":74},{"user_id":47,"name":"Noble Chernobyl","steam_id":76561198011803825,"connected_time":3479000000000,"state":"active","ping":52},{"user_id":48,"name":"Bigrichard","steam_id":76561198032092945,"connected_time":3474000000000,"state":"active","ping":91},{"user_id":55,"name":"little raw meat boy","steam_id":76561199248254676,"connected_time":3377000000000,"state":"active","ping":60},{"user_id":114,"name":"¬øeTheRealMe?","steam_id":76561198033297147,"connected_time":81000000000,"state":"active","ping":92},{"user_id":96,"name":"Herr Doktor","steam_id":76561198080981482,"connected_time":686000000000,"state":"active","ping":42},{"user_id":113,"name":"I'm using a controller","steam_id":76561198152210509,"connected_time":117000000000,"state":"active","ping":41},{"user_id":97,"name":"Snowy","steam_id":76561198255720598,"connected_time":616000000000,"state":"active","ping":46},{"user_id":85,"name":"Fps","steam_id":76561198077651488,"connected_time":1186000000000,"state":"active","ping":46},{"user_id":62,"name":"Zieria","steam_id":76561199261811388,"connected_time":3123000000000,"state":"active","ping":39},{"user_id":111,"name":"Chromo Patrol","steam_id":76561197987001534,"connected_time":322000000000,"state":"active","ping":99},{"user_id":74,"name":"Sover blw.tf","steam_id":76561198136347837,"connected_time":2354000000000,"state":"active","ping":129},{"user_id":99,"name":"yarbinator","steam_id":76561198204678828,"connected_time":606000000000,"state":"active","ping":54},{"user_id":107,"name":"Mbappe Oppa","steam_id":76561198344513761,"connected_time":390000000000,"state":"active","ping":41}]},{"server_id":123,"name":"Uncletopia | Sydney | 2 | All Maps","name_short":"syd-2","host":"syd-1.au.uncletopia.com","port":27025,"enabled":true,"region":"au","cc":"au","latitude":-33.865143,"longitude":151.2099,"reserved":0,"last_update":"0001-01-01T00:00:00Z","name_a2s":"Uncletopia | Sydney | 2 | All Maps","protocol":17,"map":"pl_upward","folder":"tf","game":"Team Fortress","app_id":440,"player_count":14,"max_players":24,"Bots":0,"server_type":"Dedicated","server_os":"Linux","password":true,"vac":true,"version":"7882260","steam_id":85568392924470002,"keywords":["nocrits","nodmgspread","payload","uncletopia"],"game_id":440,"stv_port":27026,"stv_name":"Uncletopia | Sydney | 2 | All Maps | STV","players":[{"user_id":222,"name":"Retrovertigo","steam_id":76561198049285942,"connected_time":2473000000000,"state":"active","ping":79},{"user_id":223,"name":"Doc","steam_id":76561198065324789,"connected_time":2466000000000,"state":"active","ping":46},{"user_id":238,"name":"PeNGU","steam_id":76561198860536387,"connected_time":1670000000000,"state":"active","ping":97},{"user_id":249,"name":"NeonOn","steam_id":76561198321595238,"connected_time":1041000000000,"state":"active","ping":58},{"user_id":228,"name":"In The Balls","steam_id":76561198830756098,"connected_time":2332000000000,"state":"active","ping":184},{"user_id":266,"name":"Muffin","steam_id":76561198075391119,"connected_time":9000000000,"state":"spawning","ping":53},{"user_id":255,"name":"Branko","steam_id":76561199262196710,"connected_time":495000000000,"state":"active","ping":36},{"user_id":251,"name":"‡πá‡πá ‡πá‡πá","steam_id":76561198241303512,"connected_time":984000000000,"state":"active","ping":53},{"user_id":258,"name":"no teles 4 u","steam_id":76561198018478297,"connected_time":235000000000,"state":"active","ping":70},{"user_id":232,"name":"marink","steam_id":76561198446126519,"connected_time":2221000000000,"state":"active","ping":94},{"user_id":265,"name":"Anabolic Gaming","steam_id":76561198365228794,"connected_time":105000000000,"state":"active","ping":65},{"user_id":260,"name":"Sakamata Enthusiast","steam_id":76561199024484350,"connected_time":194000000000,"state":"active","ping":66},{"user_id":263,"name":"Deal","steam_id":76561199141649504,"connected_time":157000000000,"state":"active","ping":65},{"user_id":264,"name":"Poop2Hard Official (real)","steam_id":76561198099383586,"connected_time":135000000000,"state":"active","ping":54}]},{"server_id":395,"name":"Uncletopia | Sydney | 3 | All Maps","name_short":"syd-3","host":"syd-1.au.uncletopia.com","port":27035,"enabled":true,"region":"au","cc":"au","latitude":-33.865143,"longitude":151.2099,"reserved":0,"last_update":"0001-01-01T00:00:00Z","name_a2s":"Uncletopia | Sydney | 3 | All Maps","protocol":17,"map":"cp_altitude","folder":"tf","game":"Team Fortress","app_id":440,"player_count":0,"max_players":24,"Bots":0,"server_type":"Dedicated","server_os":"Linux","password":true,"vac":true,"version":"7882260","steam_id":85568392925194467,"keywords":["cp","nocrits","nodmgspread","uncletopia"],"game_id":440,"stv_port":27036,"stv_name":"Uncletopia | Sydney | 3 | All Maps | STV","players":null},{"server_id":396,"name":"Uncletopia | Sydney | 4 | All Maps","name_short":"syd-4","host":"syd-1.au.uncletopia.com","port":27045,"enabled":true,"region":"au","cc":"au","latitude":-33.865143,"longitude":151.2099,"reserved":0,"last_update":"0001-01-01T00:00:00Z","name_a2s":"Uncletopia | Sydney | 4 | All Maps","protocol":17,"map":"koth_highpass","folder":"tf","game":"Team Fortress","app_id":440,"player_count":0,"max_players":24,"Bots":0,"server_type":"Dedicated","server_os":"Linux","password":true,"vac":true,"version":"7882260","steam_id":85568392925397958,"keywords":["cp","nocrits","nodmgspread","uncletopia"],"game_id":440,"stv_port":27046,"stv_name":"Uncletopia | Sydney | 4 | All Maps | STV","players":null},{"server_id":58,"name":"Uncletopia | Sydney | 5 | Stopwatch Beta","name_short":"syd-5","host":"syd-1.au.uncletopia.com","port":27055,"enabled":true,"region":"au","cc":"au","latitude":-33.865143,"longitude":151.2099,"reserved":0,"last_update":"0001-01-01T00:00:00Z","name_a2s":"Uncletopia | Sydney | 5 | Stopwatch Beta","protocol":17,"map":"koth_highpass","folder":"tf","game":"Team Fortress","app_id":440,"player_count":0,"max_players":24,"Bots":0,"server_type":"Dedicated","server_os":"Linux","password":true,"vac":true,"version":"7882260","steam_id":85568392925397959,"keywords":["cp","nocrits","nodmgspread","uncletopia"],"game_id":440,"stv_port":27056,"stv_name":"Uncletopia | Sydney | 5 | Stopwatch Beta | STV","players":null},{"server_id":59,"name":"Uncletopia | Sydney | 6 | Community","name_short":"syd-6","host":"syd-1.au.uncletopia.com","port":27065,"enabled":true,"region":"au","cc":"au","latitude":-33.865143,"longitude":151.2099,"reserved":0,"last_update":"0001-01-01T00:00:00Z","name_a2s":"Uncletopia | Sydney | 6 | Community","protocol":17,"map":"workshop/koth_product_final.ugc454272353","folder":"tf","game":"Team Fortress","app_id":440,"player_count":0,"max_players":24,"Bots":0,"server_type":"Dedicated","server_os":"Linux","password":true,"vac":true,"version":"7882260","steam_id":85568392925397960,"keywords":["cp","nocrits","nodmgspread","uncletopia"],"game_id":440,"stv_port":27066,"stv_name":"Uncletopia | Sydney | 6 | Community | STV","players":null},{"server_id":49,"name":"Uncletopia | Warsaw | 1 | All Maps","name_short":"waw-1","host":"waw-1.pl.uncletopia.com","port":27015,"enabled":true,"region":"eu","cc":"pl","latitude":52.2297,"longitude":21.017532,"reserved":0,"last_update":"0001-01-01T00:00:00Z","name_a2s":"","protocol":0,"map":"","folder":"","game":"","app_id":0,"player_count":0,"max_players":0,"Bots":0,"server_type":"","server_os":"","password":false,"vac":false,"version":"","steam_id":0,"keywords":null,"game_id":0,"stv_port":0,"stv_name":"","players":null},{"server_id":50,"name":"Uncletopia | Warsaw | 2 | All Maps","name_short":"waw-2","host":"waw-1.pl.uncletopia.com","port":27025,"enabled":true,"region":"eu","cc":"pl","latitude":52.2297,"longitude":21.017532,"reserved":0,"last_update":"0001-01-01T00:00:00Z","name_a2s":"Uncletopia | Warsaw | 2 | All Maps","protocol":17,"map":"pl_swiftwater_final1","folder":"tf","game":"Team Fortress","app_id":440,"player_count":0,"max_players":24,"Bots":0,"server_type":"Dedicated","server_os":"Linux","password":true,"vac":true,"version":"7882260","steam_id":85568392925397851,"keywords":["nocrits","nodmgspread","payload","uncletopia"],"game_id":440,"stv_port":27026,"stv_name":"Uncletopia | Warsaw | 2 | All Maps | STV","players":null},{"server_id":51,"name":"Uncletopia | Warsaw | 3 | All Maps","name_short":"waw-3","host":"waw-1.pl.uncletopia.com","port":27035,"enabled":true,"region":"eu","cc":"pl","latitude":52.2297,"longitude":21.017532,"reserved":0,"last_update":"0001-01-01T00:00:00Z","name_a2s":"Uncletopia | Warsaw | 3 | All Maps","protocol":17,"map":"koth_viaduct","folder":"tf","game":"Team Fortress","app_id":440,"player_count":0,"max_players":24,"Bots":0,"server_type":"Dedicated","server_os":"Linux","password":true,"vac":true,"version":"7882260","steam_id":85568392925397852,"keywords":["cp","nocrits","nodmgspread","uncletopia"],"game_id":440,"stv_port":27036,"stv_name":"Uncletopia | Warsaw | 3 | All Maps | STV","players":null},{"server_id":52,"name":"Uncletopia | Warsaw | 4 | All Maps","name_short":"waw-4","host":"waw-1.pl.uncletopia.com","port":27045,"enabled":true,"region":"eu","cc":"pl","latitude":52.2297,"longitude":21.017532,"reserved":0,"last_update":"0001-01-01T00:00:00Z","name_a2s":"Uncletopia | Warsaw | 4 | All Maps","protocol":17,"map":"koth_highpass","folder":"tf","game":"Team Fortress","app_id":440,"player_count":0,"max_players":24,"Bots":0,"server_type":"Dedicated","server_os":"Linux","password":true,"vac":true,"version":"7882260","steam_id":85568392925397853,"keywords":["cp","nocrits","nodmgspread","uncletopia"],"game_id":440,"stv_port":27046,"stv_name":"Uncletopia | Warsaw | 4 | All Maps | STV","players":null},{"server_id":53,"name":"Uncletopia | Warsaw | 5 | Stopwatch Beta","name_short":"waw-5","host":"waw-1.pl.uncletopia.com","port":27055,"enabled":true,"region":"eu","cc":"pl","latitude":52.2297,"longitude":21.017532,"reserved":0,"last_update":"0001-01-01T00:00:00Z","name_a2s":"Uncletopia | Warsaw | 5 | Stopwatch Beta","protocol":17,"map":"cp_mountainlab","folder":"tf","game":"Team Fortress","app_id":440,"player_count":0,"max_players":24,"Bots":0,"server_type":"Dedicated","server_os":"Linux","password":true,"vac":true,"version":"7882260","steam_id":85568392925397854,"keywords":["cp","nocrits","nodmgspread","uncletopia"],"game_id":440,"stv_port":27056,"stv_name":"Uncletopia | Warsaw | 5 | Stopwatch Beta | STV","players":null},{"server_id":54,"name":"Uncletopia | Warsaw | 6 | Community","name_short":"waw-6","host":"waw-1.pl.uncletopia.com","port":27065,"enabled":true,"region":"eu","cc":"pl","latitude":52.2297,"longitude":21.017532,"reserved":0,"last_update":"0001-01-01T00:00:00Z","name_a2s":"Uncletopia | Warsaw | 6 | Community","protocol":17,"map":"koth_viaduct","folder":"tf","game":"Team Fortress","app_id":440,"player_count":0,"max_players":24,"Bots":0,"server_type":"Dedicated","server_os":"Linux","password":true,"vac":true,"version":"7882260","steam_id":85568392925397856,"keywords":["cp","nocrits","nodmgspread","uncletopia"],"game_id":440,"stv_port":27066,"stv_name":"Uncletopia | Warsaw | 6 | Community | STV","players":null}]}