{"status":true,"message":"","result":[{"server_id":9,"name":"Uncletopia | Atlanta | 1 | All Maps","name_short":"atl-1","host":"atl-1.us.uncletopia.com","port":27015,"enabled":true,"region":"us-east","cc":"us","latitude":33.753746,"longitude":-84.38633,"reserved":0,"last_update":"0001-01-01T00:00:00Z","name_a2s":"Uncletopia | Atlanta | 1 | All Maps","protocol":17,"map":"pl_snowycoast","folder":"tf","game":"Team Fortress","app_id":440,"player_count":24,"max_players":24,"Bots":0,"server_type":"Dedicated","server_os":"Linux","password":true,"vac":true,"version":"7961495","steam_id":85568392924469982,"keywords":["nocrits","nodmgspread","payload","uncletopia"],"game_id":440,"stv_port":27016,"stv_name":"Uncletopia | Atlanta | 1 | All Maps | STV","players":null},{"server_id":104,"name":"Uncletopia | Atlanta | 2 | All Maps","name_short":"atl-2","host":"atl-1.us.uncletopia.com","port":27025,"enabled":true,"region":"us-east","cc":"us","latitude":33.753746,"longitude":-84.38633,"reserved":0,"last_update":"0001-01-01T00:00:00Z","name_a2s":"Uncletopia | Atlanta | 2 | All Maps","protocol":17,"map":"koth_lakeside_final","folder":"tf","game":"Team Fortress","app_id":440,"player_count":24,"max_players":24,"Bots":0,"server_type":"Dedicated","server_os":"Linux","password":true,"vac":true,"version":"7961495","steam_id":85568392924469983,"keywords":["cp","nocrits","nodmgspread","uncletopia"],"game_id":440,"stv_port":27026,"stv_name":"Uncletopia | Atlanta | 2 | All Maps | STV","players":null},{"server_id":400,"name":"Uncletopia | Atlanta | 3 | Stopwatch","name_short":"atl-3","host":"atl-1.us.uncletopia.com","port":27035,"enabled":true,"region":"us-east","cc":"us","latitude":33.753746,"longitude":-84.38633,"reserved":0,"last_update":"0001-01-01T00:00:00Z","name_a2s":"Uncletopia | Atlanta | 3 | Stopwatch","protocol":17,"map":"koth_clearcut_b15","folder":"tf","game":"Team Fortress","app_id":440,"player_count":0,"max_players":24,"Bots":0,"server_type":"Dedicated","server_os":"Linux","password":true,"vac":true,"version":"7961495","steam_id":85568392924515187,"keywords":["cp","nocrits","nodmgspread","uncletopia"],"game_id":440,"stv_port":27036,"stv_name":"Uncletopia | Atlanta | 3 | Stopwatch | STV","players":null},{"server_id":401,"name":"Uncletopia | Atlanta | 4 | Community","name_short":"atl-4","host":"atl-1.us.uncletopia.com","port":27045,"enabled":true,"region":"us-east","cc":"us","latitude":33.753746,"longitude":-84.38633,"reserved":0,"last_update":"0001-01-01T00:00:00Z","name_a2s":"Uncletopia | Atlanta | 4 | Community","protocol":17,"map":"koth_trenchfoot_b1a","folder":"tf","game":"Team Fortress","app_id":440,"player_count":0,"max_players":24,"Bots":0,"server_type":"Dedicated","server_os":"Linux","password":true,"vac":true,"version":"7961495","steam_id":85568392924515188,"keywords":["cp","nocrits","nodmgspread","uncletopia"],"game_id":440,"stv_port":27046,"stv_name":"Uncletopia | Atlanta | 4 | Community | STV","players":null},{"server_id":2,"name":"Uncletopia | Chicago | 1 | All Maps","name_short":"chi-1","host":"chi-1.us.uncletopia.com","port":27015,"enabled":true,"region":"us-central","cc":"us","latitude":41.881832,"longitude":-87.62318,"reserved":0,"last_update":"0001-01-01T00:00:00Z","name_a2s":"Uncletopia | Chicago | 1 | All Maps","protocol":17,"map":"koth_brazil","folder":"tf","game":"Team Fortress","app_id":440,"player_count":24,"max_players":24,"Bots":0,"server_type":"Dedicated","server_os":"Linux","password":true,"vac":true,"version":"7961495","steam_id":85568392924469984,"keywords":["cp","nocrits","nodmgspread","uncletopia"],"game_id":440,"stv_port":27016,"stv_name":"Uncletopia | Chicago | 1 | All Maps | STV","players":[{"user_id":441,"name":"SoldMyKidneyForCollege","steam_id":76561198096329559,"connected_time":18000000000,"state":"active","ping":97},{"user_id":427,"name":"Helty","steam_id":76561199121365950,"connected_time":575000000000,"state":"active","ping":163},{"user_id":416,"name":"♥Bunny♥Slut♥","steam_id":76561198206376851,"connected_time":1286000000000,"state":"active","ping":89},{"user_id":428,"name":"Big Phonius","steam_id":76561199092395311,"connected_time":564000000000,"state":"active","ping":60},{"user_id":417,"name":"The Washer of Dishes","steam_id":76561198028157625,"connected_time":1268000000000,"state":"active","ping":86},{"user_id":432,"name":"Eins Shinigami","steam_id":76561199030343810,"connected_time":526000000000,"state":"active","ping":55},{"user_id":429,"name":"LeTonzy","steam_id":76561198005806699,"connected_time":559000000000,"state":"active","ping":116},{"user_id":407,"name":"Whoops!","steam_id":76561198151315898,"connected_time":1948000000000,"state":"active","ping":87},{"user_id":415,"name":"Toottoot","steam_id":76561197992404836,"connected_time":1370000000000,"state":"active","ping":47},{"user_id":378,"name":"TallBit","steam_id":76561199059748976,"connected_time":3853000000000,"state":"active","ping":50},{"user_id":439,"name":"Tito","steam_id":76561198041702529,"connected_time":180000000000,"state":"active","ping":84},{"user_id":426,"name":"Ta5K","steam_id":76561198939558155,"connected_time":578000000000,"state":"active","ping":46},{"user_id":436,"name":"carrot cake","steam_id":76561198055174915,"connected_time":365000000000,"state":"active","ping":70},{"user_id":396,"name":"rat eater","steam_id":76561199216874750,"connected_time":2831000000000,"state":"active","ping":60},{"user_id":408,"name":"BlameKarma","steam_id":76561198062151361,"connected_time":1935000000000,"state":"active","ping":60},{"user_id":400,"name":"Jerry Bondle","steam_id":76561198337512213,"connected_time":2158000000000,"state":"active","ping":68},{"user_id":431,"name":"Ceiling Man","steam_id":76561198003959902,"connected_time":539000000000,"state":"active","ping":61},{"user_id":393,"name":"Mer","steam_id":76561198192171041,"connected_time":3229000000000,"state":"active","ping":131},{"user_id":420,"name":"Milkmur","steam_id":76561198210043821,"connected_time":1252000000000,"state":"active","ping":71},{"user_id":411,"name":"Killerkarate","steam_id":76561198067533929,"connected_time":1918000000000,"state":"active","ping":57},{"user_id":430,"name":"bird enthusiast","steam_id":76561198087661713,"connected_time":547000000000,"state":"active","ping":61},{"user_id":440,"name":"SandHanitizer","steam_id":76561198234676500,"connected_time":96000000000,"state":"active","ping":74},{"user_id":438,"name":"Yam Jazzy Jim","steam_id":76561198000788950,"connected_time":246000000000,"state":"active","ping":70},{"user_id":384,"name":"ุ","steam_id":76561198170624701,"connected_time":3657000000000,"state":"active","ping":75}]},{"server_id":106,"name":"Uncletopia | Chicago | 2 | All Maps","name_short":"chi-2","host":"chi-1.us.uncletopia.com","port":27025,"enabled":true,"region":"us-central","cc":"us","latitude":41.881832,"longitude":-87.62318,"reserved":0,"last_update":"0001-01-01T00:00:00Z","name_a2s":"Uncletopia | Chicago | 2 | All Maps","protocol":17,"map":"pl_badwater","folder":"tf","game":"Team Fortress","app_id":440,"player_count":24,"max_players":24,"Bots":0,"server_type":"Dedicated","server_os":"Linux","password":true,"vac":true,"version":"7961495","steam_id":85568392924469985,"keywords":["nocrits","nodmgspread","payload","uncletopia"],"game_id":440,"stv_port":27026,"stv_name":"Uncletopia | Chicago | 2 | All Maps | STV","players":[{"user_id":372,"name":"milwaukee pasta bandit","steam_id":76561198417793830,"connected_time":607000000000,"state":"active","ping":70},{"user_id":390,"name":"Kora (It/Its)","steam_id":76561198128017814,"connected_time":201000000000,"state":"active","ping":66},{"user_id":357,"name":"oppenheimer style","steam_id":76561198026664629,"connected_time":1567000000000,"state":"active","ping":49},{"user_id":378,"name":"CandyCadet 0_0","steam_id":76561199229845864,"connected_time":560000000000,"state":"active","ping":74},{"user_id":394,"name":"Docc","steam_id":76561198085598022,"connected_time":76000000000,"state":"active","ping":55},{"user_id":387,"name":"Big_Beans888","steam_id":76561198100822287,"connected_time":404000000000,"state":"active","ping":100},{"user_id":395,"name":"Fuzzy Toast","steam_id":76561198028067781,"connected_time":61000000000,"state":"active","ping":45},{"user_id":382,"name":"anidiot","steam_id":76561199001600288,"connected_time":473000000000,"state":"active","ping":62},{"user_id":341,"name":"Generic Name","steam_id":76561198094225684,"connected_time":2752000000000,"state":"active","ping":71},{"user_id":350,"name":"Edible Chair","steam_id":76561198268661950,"connected_time":2139000000000,"state":"active","ping":73},{"user_id":392,"name":"1985 Toyota Sprinter Trueno","steam_id":76561198436383373,"connected_time":177000000000,"state":"active","ping":111},{"user_id":393,"name":"stall","steam_id":76561199152861652,"connected_time":157000000000,"state":"active","ping":60},{"user_id":389,"name":"BeachSMG","steam_id":76561198187121739,"connected_time":245000000000,"state":"active","ping":86},{"user_id":375,"name":"Nic0","steam_id":76561198305690218,"connected_time":600000000000,"state":"active","ping":62},{"user_id":365,"name":"DistantJragon","steam_id":76561198117563641,"connected_time":1006000000000,"state":"active","ping":46},{"user_id":388,"name":"blood-thirsty pitbull","steam_id":76561198106690989,"connected_time":321000000000,"state":"active","ping":64},{"user_id":383,"name":"AltersFalter","steam_id":76561199095678212,"connected_time":461000000000,"state":"active","ping":89},{"user_id":384,"name":"Gustavo Fring","steam_id":76561198132807405,"connected_time":432000000000,"state":"active","ping":88},{"user_id":385,"name":"Mr.HumanSoup","steam_id":76561198799202879,"connected_time":428000000000,"state":"active","ping":85},{"user_id":366,"name":"Oli B\u003eQS/BP/Bulk w/ 1.5k+ keys","steam_id":76561198140316312,"connected_time":904000000000,"state":"active","ping":56},{"user_id":369,"name":"Church","steam_id":76561199214866732,"connected_time":632000000000,"state":"active","ping":67},{"user_id":391,"name":"BigNugs","steam_id":76561198056402610,"connected_time":192000000000,"state":"active","ping":70},{"user_id":346,"name":"Glue Gulper","steam_id":76561198158014525,"connected_time":2511000000000,"state":"active","ping":58},{"user_id":352,"name":"EEEEErectin","steam_id":76561199127423378,"connected_time":2119000000000,"state":"active","ping":116}]},{"server_id":402,"name":"Uncletopia | Chicago | 3 | All Maps","name_short":"chi-3","host":"chi-1.us.uncletopia.com","port":27035,"enabled":true,"region":"us-central","cc":"us","latitude":41.881832,"longitude":-87.62318,"reserved":0,"last_update":"0001-01-01T00:00:00Z","name_a2s":"Uncletopia | Chicago | 3 | All Maps","protocol":17,"map":"pl_upward","folder":"tf","game":"Team Fortress","app_id":440,"player_count":24,"max_players":24,"Bots":0,"server_type":"Dedicated","server_os":"Linux","password":true,"vac":true,"version":"7961495","steam_id":85568392924515191,"keywords":["nocrits","nodmgspread","payload","uncletopia"],"game_id":440,"stv_port":27036,"stv_name":"Uncletopia | Chicago | 3 | All Maps | STV","players":[{"user_id":489,"name":"PTR","steam_id":76561198237253772,"connected_time":1068000000000,"state":"active","ping":73},{"user_id":493,"name":"cognitiveAfflatus","steam_id":76561198295181426,"connected_time":127000000000,"state":"active","ping":69},{"user_id":350,"name":"PolyNexus","steam_id":76561198802467051,"connected_time":5376000000000,"state":"active","ping":68},{"user_id":412,"name":"rose","steam_id":76561198048882285,"connected_time":2671000000000,"state":"active","ping":50},{"user_id":487,"name":"alvöru","steam_id":76561198273488925,"connected_time":1293000000000,"state":"active","ping":77},{"user_id":478,"name":"rickyrickyricky","steam_id":76561198041765918,"connected_time":1592000000000,"state":"active","ping":76},{"user_id":413,"name":"god gamer","steam_id":76561198168149434,"connected_time":2670000000000,"state":"active","ping":120},{"user_id":490,"name":"Acuzik","steam_id":76561198045453400,"connected_time":910000000000,"state":"active","ping":38},{"user_id":495,"name":"stockhack","steam_id":76561198050220225,"connected_time":85000000000,"state":"active","ping":72},{"user_id":308,"name":"The Jar","steam_id":76561198146013385,"connected_time":6890000000000,"state":"active","ping":80},{"user_id":485,"name":"Crouching Noob Hidden Sniper","steam_id":76561197971328473,"connected_time":1321000000000,"state":"active","ping":90},{"user_id":431,"name":"Kirby","steam_id":76561199161858008,"connected_time":2345000000000,"state":"active","ping":76},{"user_id":486,"name":"FAKE TAXI PRANKS","steam_id":76561198136746987,"connected_time":1319000000000,"state":"active","ping":87},{"user_id":488,"name":"pigswill","steam_id":76561197999081865,"connected_time":1280000000000,"state":"active","ping":83},{"user_id":467,"name":"big bunny boobs","steam_id":76561198249206656,"connected_time":1820000000000,"state":"active","ping":74},{"user_id":494,"name":"REAL TAXI PRANKS","steam_id":76561198431299354,"connected_time":118000000000,"state":"active","ping":74},{"user_id":428,"name":"Dandy Man","steam_id":76561198093331476,"connected_time":2374000000000,"state":"active","ping":62},{"user_id":491,"name":"Lia_Rein","steam_id":76561198151569597,"connected_time":435000000000,"state":"active","ping":134},{"user_id":430,"name":"M249 | Spectre","steam_id":76561198118334485,"connected_time":2372000000000,"state":"active","ping":76},{"user_id":440,"name":"MeKaso TropStar","steam_id":76561199109895840,"connected_time":2157000000000,"state":"active","ping":68},{"user_id":439,"name":"diarrhea","steam_id":76561199389283507,"connected_time":2179000000000,"state":"active","ping":66},{"user_id":471,"name":"smetc","steam_id":76561198240696986,"connected_time":1760000000000,"state":"active","ping":64},{"user_id":443,"name":"poopybutt420","steam_id":76561199000805315,"connected_time":2118000000000,"state":"active","ping":92},{"user_id":438,"name":"kicks","steam_id":76561199228854923,"connected_time":2199000000000,"state":"active","ping":58}]},{"server_id":403,"name":"Uncletopia | Chicago | 4 | All Maps","name_short":"chi-4","host":"chi-1.us.uncletopia.com","port":27045,"enabled":true,"region":"us-central","cc":"us","latitude":41.881832,"longitude":-87.62318,"reserved":0,"last_update":"0001-01-01T00:00:00Z","name_a2s":"Uncletopia | Chicago | 4 | All Maps","protocol":17,"map":"cp_altitude","folder":"tf","game":"Team Fortress","app_id":440,"player_count":16,"max_players":24,"Bots":0,"server_type":"Dedicated","server_os":"Linux","password":true,"vac":true,"version":"7961495","steam_id":85568392924515193,"keywords":["cp","nocrits","nodmgspread","uncletopia"],"game_id":440,"stv_port":27046,"stv_name":"Uncletopia | Chicago | 4 | All Maps | STV","players":[{"user_id":57,"name":"Remy the rat","steam_id":76561198080519558,"connected_time":729000000000,"state":"spawning","ping":56},{"user_id":59,"name":"Slip","steam_id":76561199057232579,"connected_time":715000000000,"state":"spawning","ping":64},{"user_id":56,"name":"badasscoolboy57","steam_id":76561198795412055,"connected_time":747000000000,"state":"spawning","ping":69},{"user_id":65,"name":"no wtf not that","steam_id":76561198461518382,"connected_time":23000000000,"state":"connecting","ping":48},{"user_id":66,"name":"anonpain","steam_id":76561198081317092,"connected_time":19000000000,"state":"spawning","ping":76},{"user_id":64,"name":"Poodwaddle","steam_id":76561198060384838,"connected_time":266000000000,"state":"spawning","ping":66},{"user_id":53,"name":"mariopasta6","steam_id":76561199073184183,"connected_time":896000000000,"state":"spawning","ping":58},{"user_id":55,"name":"sc67","steam_id":76561199302471485,"connected_time":820000000000,"state":"spawning","ping":54},{"user_id":39,"name":"bumrusherz","steam_id":76561198440658195,"connected_time":1364000000000,"state":"spawning","ping":79},{"user_id":40,"name":"stivanaker","steam_id":76561198346276579,"connected_time":1362000000000,"state":"spawning","ping":116},{"user_id":43,"name":"swan","steam_id":76561198012569200,"connected_time":1345000000000,"state":"spawning","ping":102},{"user_id":60,"name":"ol' musty","steam_id":76561198081075865,"connected_time":582000000000,"state":"spawning","ping":57},{"user_id":47,"name":"rollypollyolie","steam_id":76561198039539380,"connected_time":1280000000000,"state":"spawning","ping":104},{"user_id":58,"name":"CheesyNacho","steam_id":76561198350445456,"connected_time":716000000000,"state":"spawning","ping":64},{"user_id":49,"name":"Black Chan","steam_id":76561198053355299,"connected_time":1275000000000,"state":"spawning","ping":95},{"user_id":51,"name":"drwwby","steam_id":76561198067741339,"connected_time":1225000000000,"state":"spawning","ping":68}]},{"server_id":36,"name":"Uncletopia | Chicago | 5 | All Maps","name_short":"chi-5","host":"chi-2.us.uncletopia.com","port":27015,"enabled":true,"region":"us-central","cc":"us","latitude":41.881832,"longitude":-87.62318,"reserved":0,"last_update":"0001-01-01T00:00:00Z","name_a2s":"Uncletopia | Chicago | 5 | All Maps","protocol":17,"map":"cp_dustbowl","folder":"tf","game":"Team Fortress","app_id":440,"player_count":24,"max_players":24,"Bots":0,"server_type":"Dedicated","server_os":"Linux","password":true,"vac":true,"version":"7961495","steam_id":85568392924866362,"keywords":["cp","nocrits","nodmgspread","uncletopia"],"game_id":440,"stv_port":27016,"stv_name":"Uncletopia | Chicago | 5 | All Maps | STV","players":[{"user_id":233,"name":"guppy","steam_id":76561198041380190,"connected_time":1168000000000,"state":"active","ping":85},{"user_id":241,"name":"P.U. Poopenhauser","steam_id":76561198012093679,"connected_time":1016000000000,"state":"active","ping":85},{"user_id":234,"name":"articmonkeyass","steam_id":76561199148420326,"connected_time":1116000000000,"state":"active","ping":112},{"user_id":182,"name":"Migute","steam_id":76561198332012726,"connected_time":4200000000000,"state":"active","ping":87},{"user_id":253,"name":"(Ô)Ô)Wandering Singer(Ô(Ô)","steam_id":76561198126477141,"connected_time":38000000000,"state":"active","ping":76},{"user_id":212,"name":"Juan Pablo Gonzalez 2023","steam_id":76561199197961413,"connected_time":2789000000000,"state":"active","ping":54},{"user_id":251,"name":"garbuglio","steam_id":76561198012371111,"connected_time":524000000000,"state":"active","ping":48},{"user_id":246,"name":"mr poop","steam_id":76561199195196632,"connected_time":959000000000,"state":"active","ping":77},{"user_id":226,"name":"gaming elliptical","steam_id":76561198013456569,"connected_time":2147000000000,"state":"active","ping":46},{"user_id":239,"name":"WindWaker","steam_id":76561198245941534,"connected_time":1066000000000,"state":"active","ping":59},{"user_id":237,"name":"Discourse","steam_id":76561198984286678,"connected_time":1089000000000,"state":"active","ping":58},{"user_id":238,"name":"Kittylitter9000","steam_id":76561199059040954,"connected_time":1089000000000,"state":"active","ping":74},{"user_id":214,"name":"aiden","steam_id":76561198449527009,"connected_time":2770000000000,"state":"active","ping":107},{"user_id":206,"name":"Medici","steam_id":76561198310130481,"connected_time":2950000000000,"state":"active","ping":71},{"user_id":240,"name":"frost atronach","steam_id":76561198804901722,"connected_time":1062000000000,"state":"active","ping":63},{"user_id":254,"name":"trobin120","steam_id":76561199122420273,"connected_time":38000000000,"state":"active","ping":67},{"user_id":244,"name":"wroh2801","steam_id":76561199103292218,"connected_time":981000000000,"state":"active","ping":64},{"user_id":245,"name":"The Thaumaturge #savetf2","steam_id":76561198269232624,"connected_time":976000000000,"state":"active","ping":87},{"user_id":247,"name":"king sir glorious","steam_id":76561198115676070,"connected_time":943000000000,"state":"active","ping":91},{"user_id":183,"name":"Snoopy","steam_id":76561198273735974,"connected_time":4183000000000,"state":"active","ping":113},{"user_id":153,"name":"IAmAProfesonal","steam_id":76561199171858953,"connected_time":6685000000000,"state":"active","ping":56},{"user_id":204,"name":"berserker_tf2","steam_id":76561198303464488,"connected_time":3026000000000,"state":"active","ping":63},{"user_id":249,"name":"feenman","steam_id":76561199383834799,"connected_time":901000000000,"state":"active","ping":98},{"user_id":250,"name":"the gamer hermit crab","steam_id":76561198969402276,"connected_time":895000000000,"state":"active","ping":62}]},{"server_id":37,"name":"Uncletopia | Chicago | 6 | All Maps","name_short":"chi-6","host":"chi-2.us.uncletopia.com","port":27025,"enabled":true,"region":"us-central","cc":"us","latitude":41.881832,"longitude":-87.62318,"reserved":0,"last_update":"0001-01-01T00:00:00Z","name_a2s":"Uncletopia | Chicago | 6 | All Maps","protocol":17,"map":"pl_barnblitz","folder":"tf","game":"Team Fortress","app_id":440,"player_count":0,"max_players":24,"Bots":0,"server_type":"Dedicated","server_os":"Linux","password":true,"vac":true,"version":"7961495","steam_id":85568392924866363,"keywords":["nocrits","nodmgspread","payload","uncletopia"],"game_id":440,"stv_port":27026,"stv_name":"Uncletopia | Chicago | 6 | All Maps | STV","players":null},{"server_id":38,"name":"Uncletopia | Chicago | 7 | Stopwatch","name_short":"chi-7","host":"chi-2.us.uncletopia.com","port":27035,"enabled":true,"region":"us-central","cc":"us","latitude":41.881832,"longitude":-87.62318,"reserved":0,"last_update":"0001-01-01T00:00:00Z","name_a2s":"Uncletopia | Chicago | 7 | Stopwatch","protocol":17,"map":"workshop/koth_ramjam_rc1.ugc459778887","folder":"tf","game":"Team Fortress","app_id":440,"player_count":0,"max_players":24,"Bots":0,"server_type":"Dedicated","server_os":"Linux","password":true,"vac":true,"version":"7961495","steam_id":85568392924866364,"keywords":["cp","nocrits","nodmgspread","uncletopia"],"game_id":440,"stv_port":27036,"stv_name":"Uncletopia | Chicago | 7 | Stopwatch | STV","players":null},{"server_id":39,"name":"Uncletopia | Chicago | 8 | Community","name_short":"chi-8","host":"chi-2.us.uncletopia.com","port":27045,"enabled":true,"region":"us-central","cc":"us","latitude":41.881832,"longitude":-87.62318,"reserved":0,"last_update":"0001-01-01T00:00:00Z","name_a2s":"Uncletopia | Chicago | 8 | Community","protocol":17,"map":"workshop/koth_trenchfoot_b1a.ugc731436616","folder":"tf","game":"Team Fortress","app_id":440,"player_count":0,"max_players":24,"Bots":0,"server_type":"Dedicated","server_os":"Linux","password":true,"vac":true,"version":"7961495","steam_id":85568392924866365,"keywords":["cp","nocrits","nodmgspread","uncletopia"],"game_id":440,"stv_port":27046,"stv_name":"Uncletopia | Chicago | 8 | Community | STV","players":null},{"server_id":8,"name":"Uncletopia | Dallas | 1 | All Maps","name_short":"dal-1","host":"dal-1.us.uncletopia.com","port":27015,"enabled":true,"region":"us-central","cc":"us","latitude":32.779167,"longitude":-96.80889,"reserved":0,"last_update":"0001-01-01T00:00:00Z","name_a2s":"Uncletopia | Dallas | 1 | All Maps","protocol":17,"map":"pl_borneo","folder":"tf","game":"Team Fortress","app_id":440,"player_count":24,"max_players":24,"Bots":0,"server_type":"Dedicated","server_os":"Linux","password":true,"vac":true,"version":"7961495","steam_id":85568392924469986,"keywords":["nocrits","nodmgspread","payload","uncletopia"],"game_id":440,"stv_port":27016,"stv_name":"Uncletopia | Dallas | 1 | All Maps | STV","players":[{"user_id":236,"name":"ThreatLvl 9 (she/her)","steam_id":76561198079410533,"connected_time":6971000000000,"state":"active","ping":84},{"user_id":317,"name":"victordead121","steam_id":76561199180843121,"connected_time":56000000000,"state":"spawning","ping":92},{"user_id":171,"name":"lazy catboy","steam_id":76561198359994674,"connected_time":11294000000000,"state":"active","ping":187},{"user_id":302,"name":"mkl","steam_id":76561197986401685,"connected_time":309000000000,"state":"active","ping":59},{"user_id":282,"name":"L. Ron Hoyabembe","steam_id":76561198306393090,"connected_time":2730000000000,"state":"active","ping":52},{"user_id":305,"name":"SmugCoffeeMan","steam_id":76561198040765030,"connected_time":267000000000,"state":"active","ping":49},{"user_id":21,"name":"small meth pouch","steam_id":76561198130412963,"connected_time":19043000000000,"state":"active","ping":60},{"user_id":303,"name":"MintHaggis","steam_id":76561198006674825,"connected_time":284000000000,"state":"active","ping":88},{"user_id":296,"name":"Pyro Pootis","steam_id":76561199385177651,"connected_time":330000000000,"state":"active","ping":48},{"user_id":276,"name":"Someone1251","steam_id":76561198798977695,"connected_time":3151000000000,"state":"active","ping":72},{"user_id":304,"name":"STARZ#1400","steam_id":76561198965593434,"connected_time":273000000000,"state":"active","ping":59},{"user_id":306,"name":"schmuck","steam_id":76561198143789773,"connected_time":258000000000,"state":"active","ping":54},{"user_id":290,"name":"Input Angle","steam_id":76561198042398878,"connected_time":1206000000000,"state":"active","ping":74},{"user_id":308,"name":"Oxygen User","steam_id":76561199111975528,"connected_time":250000000000,"state":"active","ping":98},{"user_id":309,"name":"The Horselords and Animal Gods","steam_id":76561197975094050,"connected_time":227000000000,"state":"active","ping":87},{"user_id":298,"name":"Fishstall","steam_id":76561198038126034,"connected_time":325000000000,"state":"active","ping":72},{"user_id":316,"name":"Lemonade Juice","steam_id":76561198402892608,"connected_time":60000000000,"state":"spawning","ping":77},{"user_id":307,"name":"Alice in Rubberland","steam_id":76561198087328346,"connected_time":256000000000,"state":"active","ping":65},{"user_id":315,"name":"Captain Malarkey","steam_id":76561198869924281,"connected_time":142000000000,"state":"active","ping":63},{"user_id":313,"name":"GotDip","steam_id":76561198012764949,"connected_time":190000000000,"state":"active","ping":90},{"user_id":314,"name":"dak","steam_id":76561198076596506,"connected_time":190000000000,"state":"active","ping":60},{"user_id":269,"name":"_Ati","steam_id":76561198339777801,"connected_time":4106000000000,"state":"active","ping":89},{"user_id":262,"name":"Dragus","steam_id":76561198032967285,"connected_time":5172000000000,"state":"active","ping":73},{"user_id":301,"name":"Jerome","steam_id":76561198054796296,"connected_time":320000000000,"state":"active","ping":76}]},{"server_id":108,"name":"Uncletopia | Dallas | 2 | All Maps","name_short":"dal-2","host":"dal-1.us.uncletopia.com","port":27025,"enabled":true,"region":"us-central","cc":"us","latitude":32.779167,"longitude":-96.80889,"reserved":0,"last_update":"0001-01-01T00:00:00Z","name_a2s":"Uncletopia | Dallas | 2 | All Maps","protocol":17,"map":"koth_suijin","folder":"tf","game":"Team Fortress","app_id":440,"player_count":24,"max_players":24,"Bots":0,"server_type":"Dedicated","server_os":"Linux","password":true,"vac":true,"version":"7961495","steam_id":85568392924469988,"keywords":["cp","nocrits","nodmgspread","uncletopia"],"game_id":440,"stv_port":27026,"stv_name":"Uncletopia | Dallas | 2 | All Maps | STV","players":[{"user_id":175,"name":"Mr. Call You Back","steam_id":76561198025172811,"connected_time":1846000000000,"state":"active","ping":79},{"user_id":192,"name":"Drilly22","steam_id":76561198068838338,"connected_time":1432000000000,"state":"active","ping":60},{"user_id":176,"name":"ZoeLikesTrees","steam_id":76561198080784636,"connected_time":1841000000000,"state":"active","ping":87},{"user_id":203,"name":"Youngblood5780","steam_id":76561198113934410,"connected_time":295000000000,"state":"active","ping":100},{"user_id":179,"name":"buster brown","steam_id":76561199395721617,"connected_time":1726000000000,"state":"active","ping":58},{"user_id":149,"name":"Rafl","steam_id":76561198055222756,"connected_time":4469000000000,"state":"active","ping":46},{"user_id":180,"name":"Mecha_pug","steam_id":76561198856242434,"connected_time":1723000000000,"state":"active","ping":62},{"user_id":195,"name":"nonagon infinity","steam_id":76561198397662124,"connected_time":1046000000000,"state":"active","ping":67},{"user_id":181,"name":"BlueSceptile","steam_id":76561198303151606,"connected_time":1701000000000,"state":"active","ping":60},{"user_id":201,"name":"Squiliam","steam_id":76561198025278006,"connected_time":535000000000,"state":"active","ping":43},{"user_id":183,"name":"malarkeyman","steam_id":76561198844473584,"connected_time":1620000000000,"state":"active","ping":61},{"user_id":202,"name":"b","steam_id":76561198440808916,"connected_time":436000000000,"state":"active","ping":70},{"user_id":184,"name":"Walmart Employee","steam_id":76561198840373909,"connected_time":1589000000000,"state":"active","ping":95},{"user_id":197,"name":"yitz","steam_id":76561198375575841,"connected_time":817000000000,"state":"active","ping":72},{"user_id":194,"name":"firefly","steam_id":76561198151308698,"connected_time":1171000000000,"state":"active","ping":49},{"user_id":157,"name":"BADWOLF42","steam_id":76561198055447523,"connected_time":3850000000000,"state":"active","ping":55},{"user_id":167,"name":"Sarachnid","steam_id":76561198067163856,"connected_time":2926000000000,"state":"active","ping":94},{"user_id":206,"name":"reymundo","steam_id":76561197989412830,"connected_time":195000000000,"state":"active","ping":94},{"user_id":151,"name":"Rat Smoking a big cigar","steam_id":76561198090419068,"connected_time":4287000000000,"state":"active","ping":115},{"user_id":207,"name":"Xraverz","steam_id":76561198008891628,"connected_time":62000000000,"state":"active","ping":101},{"user_id":208,"name":"Juanelo","steam_id":76561199096390505,"connected_time":30000000000,"state":"spawning","ping":53},{"user_id":187,"name":"Derply","steam_id":76561198871211642,"connected_time":1542000000000,"state":"active","ping":75},{"user_id":196,"name":"Fungal","steam_id":76561198078973439,"connected_time":997000000000,"state":"active","ping":79},{"user_id":199,"name":"Cool_Turp","steam_id":76561198372130308,"connected_time":771000000000,"state":"active","ping":57}]},{"server_id":404,"name":"Uncletopia | Dallas | 3 | All Maps","name_short":"dal-3","host":"dal-1.us.uncletopia.com","port":27035,"enabled":true,"region":"us-central","cc":"us","latitude":32.779167,"longitude":-96.80889,"reserved":0,"last_update":"0001-01-01T00:00:00Z","name_a2s":"Uncletopia | Dallas | 3 | All Maps","protocol":17,"map":"ctf_2fort","folder":"tf","game":"Team Fortress","app_id":440,"player_count":19,"max_players":24,"Bots":0,"server_type":"Dedicated","server_os":"Linux","password":true,"vac":true,"version":"7961495","steam_id":85568392924515219,"keywords":["ctf","nocrits","nodmgspread","uncletopia"],"game_id":440,"stv_port":27036,"stv_name":"Uncletopia | Dallas | 3 | All Maps | STV","players":[{"user_id":93,"name":"MemoxJota (F2P)","steam_id":76561198862661338,"connected_time":450000000000,"state":"active","ping":134},{"user_id":82,"name":"BLAIR WITCH","steam_id":76561198847486703,"connected_time":865000000000,"state":"active","ping":88},{"user_id":94,"name":"ExtremeGamer","steam_id":76561199065181367,"connected_time":445000000000,"state":"active","ping":127},{"user_id":95,"name":"Fishmonger","steam_id":76561198372237027,"connected_time":437000000000,"state":"active","ping":88},{"user_id":15,"name":"Buswolley","steam_id":76561197995205571,"connected_time":4625000000000,"state":"active","ping":88},{"user_id":80,"name":"Menacing","steam_id":76561198009093788,"connected_time":959000000000,"state":"active","ping":46},{"user_id":83,"name":"ChickenFriar","steam_id":76561199119888114,"connected_time":845000000000,"state":"active","ping":167},{"user_id":100,"name":"Toomander","steam_id":76561199050150834,"connected_time":283000000000,"state":"active","ping":100},{"user_id":60,"name":"Op banana","steam_id":76561198303231451,"connected_time":2102000000000,"state":"active","ping":41},{"user_id":84,"name":"AndyIsVeryHandy","steam_id":76561198120561470,"connected_time":793000000000,"state":"active","ping":55},{"user_id":98,"name":"ChebJeb","steam_id":76561198981377081,"connected_time":317000000000,"state":"active","ping":90},{"user_id":27,"name":"schnedwob","steam_id":76561197999146588,"connected_time":3771000000000,"state":"active","ping":54},{"user_id":86,"name":"jimmz","steam_id":76561199076776118,"connected_time":745000000000,"state":"active","ping":89},{"user_id":87,"name":"Freyja","steam_id":76561198207412177,"connected_time":708000000000,"state":"active","ping":63},{"user_id":97,"name":"get scrongled, idiot","steam_id":76561198115874625,"connected_time":369000000000,"state":"active","ping":93},{"user_id":99,"name":"henrat4","steam_id":76561199131516758,"connected_time":306000000000,"state":"active","ping":74},{"user_id":101,"name":"Ben","steam_id":76561198057908189,"connected_time":40000000000,"state":"active","ping":86},{"user_id":102,"name":"birb","steam_id":76561199453849273,"connected_time":20000000000,"state":"active","ping":95},{"user_id":57,"name":"MMAD","steam_id":76561198026446420,"connected_time":2243000000000,"state":"active","ping":59}]},{"server_id":405,"name":"Uncletopia | Dallas | 4 | Community","name_short":"dal-4","host":"dal-1.us.uncletopia.com","port":27045,"enabled":true,"region":"us-central","cc":"us","latitude":32.779167,"longitude":-96.80889,"reserved":0,"last_update":"0001-01-01T00:00:00Z","name_a2s":"Uncletopia | Dallas | 4 | Community","protocol":17,"map":"workshop/cp_sulfur_rc2.ugc619869471","folder":"tf","game":"Team Fortress","app_id":440,"player_count":0,"max_players":24,"Bots":0,"server_type":"Dedicated","server_os":"Linux","password":true,"vac":true,"version":"7961495","steam_id":85568392924515220,"keywords":["cp","nocrits","nodmgspread","uncletopia"],"game_id":440,"stv_port":27046,"stv_name":"Uncletopia | Dallas | 4 | Community | STV","players":null},{"server_id":5,"name":"Uncletopia | Frankfurt | 1 | All Maps","name_short":"frk-1","host":"frk-1.de.uncletopia.com","port":27015,"enabled":true,"region":"eu","cc":"de","latitude":50.110924,"longitude":8.682127,"reserved":0,"last_update":"0001-01-01T00:00:00Z","name_a2s":"Uncletopia | Frankfurt | 1 | All Maps","protocol":17,"map":"cp_sunshine","folder":"tf","game":"Team Fortress","app_id":440,"player_count":20,"max_players":24,"Bots":0,"server_type":"Dedicated","server_os":"Linux","password":true,"vac":true,"version":"7961495","steam_id":85568392924469989,"keywords":["cp","nocrits","nodmgspread","uncletopia"],"game_id":440,"stv_port":27016,"stv_name":"Uncletopia | Frankfurt | 1 | All Maps | STV","players":[{"user_id":577,"name":"Mati [EST]","steam_id":76561197994743813,"connected_time":334000000000,"state":"active","ping":108},{"user_id":569,"name":"Nonok","steam_id":76561199480685498,"connected_time":1569000000000,"state":"active","ping":68},{"user_id":575,"name":"Gavin","steam_id":76561198259767212,"connected_time":490000000000,"state":"active","ping":66},{"user_id":579,"name":"mmm","steam_id":76561198307035830,"connected_time":9000000000,"state":"spawning","ping":86},{"user_id":580,"name":"generic alias","steam_id":76561198271607226,"connected_time":6000000000,"state":"spawning","ping":87},{"user_id":489,"name":"Conan the Librarian","steam_id":76561198007224654,"connected_time":7062000000000,"state":"active","ping":55},{"user_id":550,"name":"King Goomba","steam_id":76561198146467813,"connected_time":2656000000000,"state":"active","ping":77},{"user_id":552,"name":"ion luca caragiale","steam_id":76561198132025408,"connected_time":2605000000000,"state":"active","ping":62},{"user_id":451,"name":"Mister","steam_id":76561199049647854,"connected_time":9486000000000,"state":"active","ping":45},{"user_id":578,"name":"Steen","steam_id":76561198122992510,"connected_time":209000000000,"state":"active","ping":33},{"user_id":541,"name":"ArcX","steam_id":76561198805049375,"connected_time":3996000000000,"state":"active","ping":58},{"user_id":572,"name":"H341","steam_id":76561198046754534,"connected_time":1191000000000,"state":"active","ping":75},{"user_id":565,"name":"Fridge","steam_id":76561198071665589,"connected_time":1790000000000,"state":"active","ping":89},{"user_id":553,"name":"DevFish","steam_id":76561199010456751,"connected_time":2577000000000,"state":"active","ping":66},{"user_id":538,"name":"endlesshills","steam_id":76561198081908373,"connected_time":4109000000000,"state":"active","ping":48},{"user_id":562,"name":"Lödde","steam_id":76561198274165770,"connected_time":2005000000000,"state":"active","ping":67},{"user_id":534,"name":"Elder","steam_id":76561198114889977,"connected_time":4212000000000,"state":"active","ping":84},{"user_id":555,"name":"Gold","steam_id":76561198071111501,"connected_time":2544000000000,"state":"active","ping":61},{"user_id":574,"name":"TidB","steam_id":76561198055342304,"connected_time":632000000000,"state":"active","ping":45},{"user_id":542,"name":"lurid","steam_id":76561198063159528,"connected_time":3989000000000,"state":"active","ping":56}]},{"server_id":110,"name":"Uncletopia | Frankfurt | 2 | All Maps","name_short":"frk-2","host":"frk-1.de.uncletopia.com","port":27025,"enabled":true,"region":"eu","cc":"de","latitude":50.110924,"longitude":8.682127,"reserved":0,"last_update":"0001-01-01T00:00:00Z","name_a2s":"Uncletopia | Frankfurt | 2 | All Maps","protocol":17,"map":"pl_pier","folder":"tf","game":"Team Fortress","app_id":440,"player_count":24,"max_players":24,"Bots":0,"server_type":"Dedicated","server_os":"Linux","password":true,"vac":true,"version":"7961495","steam_id":85568392924469990,"keywords":["nocrits","nodmgspread","payload","uncletopia"],"game_id":440,"stv_port":27026,"stv_name":"Uncletopia | Frankfurt | 2 | All Maps | STV","players":[{"user_id":403,"name":"jerkwaterberg","steam_id":76561198134165667,"connected_time":4901000000000,"state":"active","ping":61},{"user_id":447,"name":"f0x","steam_id":76561198072921704,"connected_time":542000000000,"state":"active","ping":49},{"user_id":445,"name":"miiq130","steam_id":76561198188010666,"connected_time":614000000000,"state":"active","ping":76},{"user_id":435,"name":"After8","steam_id":76561198090750865,"connected_time":2149000000000,"state":"active","ping":62},{"user_id":454,"name":"TosunPasha","steam_id":76561199039584984,"connected_time":133000000000,"state":"active","ping":80},{"user_id":376,"name":"CzechMate #SaveTF2","steam_id":76561198012687703,"connected_time":6459000000000,"state":"active","ping":49},{"user_id":448,"name":"BuzzBees ❤","steam_id":76561198101502273,"connected_time":500000000000,"state":"active","ping":61},{"user_id":433,"name":"SpilledMilk","steam_id":76561198174123971,"connected_time":2184000000000,"state":"active","ping":54},{"user_id":449,"name":"rummy","steam_id":76561197997573379,"connected_time":498000000000,"state":"active","ping":53},{"user_id":425,"name":"Maru","steam_id":76561198030931030,"connected_time":3418000000000,"state":"active","ping":66},{"user_id":437,"name":"El Wiwi","steam_id":76561198134378108,"connected_time":2092000000000,"state":"active","ping":87},{"user_id":414,"name":"Bombilla","steam_id":76561198084281798,"connected_time":4506000000000,"state":"active","ping":90},{"user_id":434,"name":"Rigby","steam_id":76561198021552128,"connected_time":2180000000000,"state":"active","ping":91},{"user_id":430,"name":"desmo_","steam_id":76561198023528339,"connected_time":2451000000000,"state":"active","ping":70},{"user_id":453,"name":"Green Uncle","steam_id":76561198257163156,"connected_time":184000000000,"state":"active","ping":60},{"user_id":452,"name":"https://shorturl.at/deLMW","steam_id":76561198275955087,"connected_time":247000000000,"state":"active","ping":66},{"user_id":418,"name":"BELADIT","steam_id":76561198011911501,"connected_time":4222000000000,"state":"active","ping":74},{"user_id":348,"name":"kurage","steam_id":76561198021221288,"connected_time":8344000000000,"state":"active","ping":57},{"user_id":419,"name":"Ushlus","steam_id":76561199225270732,"connected_time":4210000000000,"state":"active","ping":116},{"user_id":362,"name":"siriusplay116","steam_id":76561199403847433,"connected_time":7166000000000,"state":"active","ping":75},{"user_id":455,"name":"roufei","steam_id":76561198140371993,"connected_time":34000000000,"state":"spawning","ping":90},{"user_id":440,"name":"Joe","steam_id":76561198145639903,"connected_time":1893000000000,"state":"active","ping":103},{"user_id":423,"name":"finbar","steam_id":76561198056812396,"connected_time":3968000000000,"state":"active","ping":76},{"user_id":444,"name":"KittyKate ❤","steam_id":76561198116340817,"connected_time":987000000000,"state":"active","ping":69}]},{"server_id":308,"name":"Uncletopia | Frankfurt | 3 | All Maps","name_short":"frk-3","host":"frk-1.de.uncletopia.com","port":27035,"enabled":true,"region":"eu","cc":"de","latitude":50.110924,"longitude":8.682127,"reserved":0,"last_update":"0001-01-01T00:00:00Z","name_a2s":"Uncletopia | Frankfurt | 3 | All Maps","protocol":17,"map":"pl_frontier_final","folder":"tf","game":"Team Fortress","app_id":440,"player_count":20,"max_players":24,"Bots":0,"server_type":"Dedicated","server_os":"Linux","password":true,"vac":true,"version":"7961495","steam_id":85568392924504274,"keywords":["nocrits","nodmgspread","payload","uncletopia"],"game_id":440,"stv_port":27036,"stv_name":"Uncletopia | Frankfurt | 3 | All Maps | STV","players":[{"user_id":416,"name":"milkshake","steam_id":76561198328505819,"connected_time":3067000000000,"state":"active","ping":71},{"user_id":408,"name":"peter stevens","steam_id":76561198075068529,"connected_time":3764000000000,"state":"active","ping":46},{"user_id":445,"name":"Flohr","steam_id":76561198191948841,"connected_time":1108000000000,"state":"active","ping":55},{"user_id":461,"name":"deez","steam_id":76561199093115772,"connected_time":197000000000,"state":"active","ping":68},{"user_id":343,"name":"Kenny","steam_id":76561198994898206,"connected_time":8086000000000,"state":"active","ping":71},{"user_id":451,"name":"committed to the bit","steam_id":76561198181368101,"connected_time":754000000000,"state":"active","ping":49},{"user_id":405,"name":"KAIOKEN X10","steam_id":76561198147173457,"connected_time":4018000000000,"state":"active","ping":64},{"user_id":460,"name":"[ALT_F4]dottor_cacabula_m8","steam_id":76561198173192267,"connected_time":309000000000,"state":"active","ping":62},{"user_id":459,"name":"Saber 0X1","steam_id":76561198090226093,"connected_time":536000000000,"state":"active","ping":143},{"user_id":447,"name":"BJ","steam_id":76561198146229582,"connected_time":799000000000,"state":"active","ping":70},{"user_id":423,"name":"REN","steam_id":76561198000596385,"connected_time":2983000000000,"state":"active","ping":70},{"user_id":449,"name":"LiterallyRyanGosling","steam_id":76561199017856691,"connected_time":788000000000,"state":"active","ping":68},{"user_id":455,"name":"Gamer.com","steam_id":76561198805741008,"connected_time":689000000000,"state":"active","ping":68},{"user_id":410,"name":"Arsonist","steam_id":76561199087953833,"connected_time":3357000000000,"state":"active","ping":110},{"user_id":456,"name":"no blocking no dodging","steam_id":76561198138208569,"connected_time":688000000000,"state":"active","ping":150},{"user_id":399,"name":"Alienketchup","steam_id":76561197970585162,"connected_time":4616000000000,"state":"active","ping":75},{"user_id":458,"name":"Suetolog","steam_id":76561199053090212,"connected_time":621000000000,"state":"active","ping":51},{"user_id":457,"name":"renegade","steam_id":76561198073233132,"connected_time":652000000000,"state":"active","ping":75},{"user_id":411,"name":"Imperial City Guard","steam_id":76561198083355845,"connected_time":3193000000000,"state":"active","ping":54},{"user_id":364,"name":"dash.","steam_id":76561198084796149,"connected_time":7635000000000,"state":"active","ping":50}]},{"server_id":309,"name":"Uncletopia | Frankfurt | 4 | All Maps","name_short":"frk-4","host":"frk-1.de.uncletopia.com","port":27045,"enabled":true,"region":"eu","cc":"de","latitude":50.110924,"longitude":8.682127,"reserved":0,"last_update":"0001-01-01T00:00:00Z","name_a2s":"Uncletopia | Frankfurt | 4 | All Maps","protocol":17,"map":"pl_pier","folder":"tf","game":"Team Fortress","app_id":440,"player_count":0,"max_players":24,"Bots":0,"server_type":"Dedicated","server_os":"Linux","password":true,"vac":true,"version":"7961495","steam_id":85568392924504275,"keywords":["nocrits","nodmgspread","payload","uncletopia"],"game_id":440,"stv_port":27046,"stv_name":"Uncletopia | Frankfurt | 4 | All Maps | STV","players":null},{"server_id":310,"name":"Uncletopia | Frankfurt | 5 | All Maps","name_short":"frk-5","host":"frk-1.de.uncletopia.com","port":27055,"enabled":true,"region":"eu","cc":"de","latitude":50.110924,"longitude":8.682127,"reserved":0,"last_update":"0001-01-01T00:00:00Z","name_a2s":"Uncletopia | Frankfurt | 5 | All Maps","protocol":17,"map":"cp_sunshine","folder":"tf","game":"Team Fortress","app_id":440,"player_count":0,"max_players":24,"Bots":0,"server_type":"Dedicated","server_os":"Linux","password":true,"vac":true,"version":"7961495","steam_id":85568392924504277,"keywords":["cp","nocrits","nodmgspread","uncletopia"],"game_id":440,"stv_port":27056,"stv_name":"Uncletopia | Frankfurt | 5 | All Maps | STV","players":null},{"server_id":311,"name":"Uncletopia | Frankfurt | 6 | All Maps","name_short":"frk-6","host":"frk-1.de.uncletopia.com","port":27065,"enabled":true,"region":"eu","cc":"de","latitude":50.110924,"longitude":8.682127,"reserved":0,"last_update":"0001-01-01T00:00:00Z","name_a2s":"Uncletopia | Frankfurt | 6 | All Maps","protocol":17,"map":"koth_viaduct","folder":"tf","game":"Team Fortress","app_id":440,"player_count":2,"max_players":24,"Bots":0,"server_type":"Dedicated","server_os":"Linux","password":true,"vac":true,"version":"7961495","steam_id":85568392924504278,"keywords":["cp","nocrits","nodmgspread","uncletopia"],"game_id":440,"stv_port":27066,"stv_name":"Uncletopia | Frankfurt | 6 | All Maps | STV","players":[{"user_id":144,"name":"ran is running","steam_id":76561199443185667,"connected_time":2422000000000,"state":"active","ping":132},{"user_id":132,"name":"Jessica","steam_id":76561198342993279,"connected_time":3345000000000,"state":"active","ping":109}]},{"server_id":23,"name":"Uncletopia | Frankfurt | 7 | Stopwatch","name_short":"frk-7","host":"frk-1.de.uncletopia.com","port":27075,"enabled":true,"region":"eu","cc":"de","latitude":50.110924,"longitude":8.682127,"reserved":0,"last_update":"0001-01-01T00:00:00Z","name_a2s":"Uncletopia | Frankfurt | 7 | Stopwatch","protocol":17,"map":"workshop/pl_summercoast_rc8e.ugc1761528829","folder":"tf","game":"Team Fortress","app_id":440,"player_count":0,"max_players":24,"Bots":0,"server_type":"Dedicated","server_os":"Linux","password":true,"vac":true,"version":"7961495","steam_id":85568392924742827,"keywords":["nocrits","nodmgspread","payload","uncletopia"],"game_id":440,"stv_port":27076,"stv_name":"Uncletopia | Frankfurt | 7 | Stopwatch | STV","players":null},{"server_id":24,"name":"Uncletopia | Frankfurt | 8 | Community","name_short":"frk-8","host":"frk-1.de.uncletopia.com","port":27085,"enabled":true,"region":"eu","cc":"de","latitude":50.110924,"longitude":8.682127,"reserved":0,"last_update":"0001-01-01T00:00:00Z","name_a2s":"Uncletopia | Frankfurt | 8 | Community","protocol":17,"map":"workshop/koth_slaughter_rc1.ugc1712845210","folder":"tf","game":"Team Fortress","app_id":440,"player_count":0,"max_players":24,"Bots":0,"server_type":"Dedicated","server_os":"Linux","password":true,"vac":true,"version":"7961495","steam_id":85568392924742828,"keywords":["cp","nocrits","nodmgspread","uncletopia"],"game_id":440,"stv_port":27086,"stv_name":"Uncletopia | Frankfurt | 8 | Community | STV","players":null},{"server_id":202,"name":"Uncletopia | Hong Kong | 1 | All Maps","name_short":"hgk-1","host":"hgk-1.hk.uncletopia.com","port":27015,"enabled":true,"region":"asia","cc":"hk","latitude":22.302711,"longitude":114.177216,"reserved":0,"last_update":"0001-01-01T00:00:00Z","name_a2s":"Uncletopia | Hong Kong | 1 | All Maps","protocol":17,"map":"pl_frontier_final","folder":"tf","game":"Team Fortress","app_id":440,"player_count":0,"max_players":24,"Bots":0,"server_type":"Dedicated","server_os":"Linux","password":true,"vac":true,"version":"7961495","steam_id":85568392924494504,"keywords":["nocrits","nodmgspread","payload","uncletopia"],"game_id":440,"stv_port":27016,"stv_name":"Uncletopia | Hong Kong | 1 | All Maps | STV","players":null},{"server_id":1,"name":"Uncletopia | Los Angeles | 1 | All Maps","name_short":"lax-1","host":"lax-1.us.uncletopia.com","port":27015,"enabled":true,"region":"us-west","cc":"us","latitude":33.94279,"longitude":-118.41004,"reserved":0,"last_update":"0001-01-01T00:00:00Z","name_a2s":"Uncletopia | Los Angeles | 1 | All Maps","protocol":17,"map":"koth_harvest_final","folder":"tf","game":"Team Fortress","app_id":440,"player_count":24,"max_players":24,"Bots":0,"server_type":"Dedicated","server_os":"Linux","password":true,"vac":true,"version":"7961495","steam_id":85568392924469991,"keywords":["cp","nocrits","nodmgspread","uncletopia"],"game_id":440,"stv_port":27016,"stv_name":"Uncletopia | Los Angeles | 1 | All Maps | STV","players":[{"user_id":112,"name":"mr. nine","steam_id":76561198097599414,"connected_time":682000000000,"state":"active","ping":61},{"user_id":110,"name":"MyHeadHz","steam_id":76561198090654531,"connected_time":802000000000,"state":"active","ping":77},{"user_id":118,"name":"Eden","steam_id":76561198081284664,"connected_time":532000000000,"state":"active","ping":45},{"user_id":121,"name":"superbad","steam_id":76561198065913973,"connected_time":361000000000,"state":"active","ping":35},{"user_id":91,"name":"MechanizedContortion","steam_id":76561199146092247,"connected_time":1910000000000,"state":"active","ping":52},{"user_id":104,"name":"INFINITE","steam_id":76561197971285557,"connected_time":887000000000,"state":"active","ping":118},{"user_id":80,"name":"moe","steam_id":76561198929586245,"connected_time":3360000000000,"state":"active","ping":56},{"user_id":74,"name":"Duckpin","steam_id":76561198147503700,"connected_time":3786000000000,"state":"active","ping":53},{"user_id":122,"name":"Decuplets","steam_id":76561198080661586,"connected_time":360000000000,"state":"active","ping":79},{"user_id":83,"name":"triph","steam_id":76561198067196509,"connected_time":2577000000000,"state":"active","ping":38},{"user_id":58,"name":"usedhalfcart","steam_id":76561198072621852,"connected_time":5459000000000,"state":"active","ping":79},{"user_id":81,"name":"Sugary","steam_id":76561198088267265,"connected_time":3218000000000,"state":"active","ping":60},{"user_id":105,"name":"Stomp","steam_id":76561198167765748,"connected_time":870000000000,"state":"active","ping":82},{"user_id":106,"name":"orangesuit1","steam_id":76561199020443017,"connected_time":868000000000,"state":"active","ping":68},{"user_id":107,"name":"VeloCity","steam_id":76561198148688626,"connected_time":867000000000,"state":"active","ping":116},{"user_id":71,"name":"Alkimia","steam_id":76561198385763137,"connected_time":3857000000000,"state":"active","ping":158},{"user_id":108,"name":"crossbow shot misser","steam_id":76561198076447485,"connected_time":865000000000,"state":"active","ping":65},{"user_id":116,"name":"zinnk","steam_id":76561198092081825,"connected_time":591000000000,"state":"active","ping":53},{"user_id":96,"name":"AureateAura","steam_id":76561198046902265,"connected_time":1677000000000,"state":"active","ping":115},{"user_id":109,"name":"HAT-WEARING™ Maggot Gamer Cat","steam_id":76561197973992705,"connected_time":864000000000,"state":"active","ping":70},{"user_id":89,"name":"bouncyhousin","steam_id":76561198852902827,"connected_time":2202000000000,"state":"active","ping":108},{"user_id":117,"name":"bookreader","steam_id":76561198978568007,"connected_time":567000000000,"state":"active","ping":96},{"user_id":123,"name":"Terror","steam_id":76561198188685728,"connected_time":282000000000,"state":"active","ping":97},{"user_id":97,"name":"Matthew Lewis MJ","steam_id":76561199014695287,"connected_time":1636000000000,"state":"active","ping":103}]},{"server_id":112,"name":"Uncletopia | Los Angeles | 2 | All Maps","name_short":"lax-2","host":"lax-1.us.uncletopia.com","port":27025,"enabled":true,"region":"us-west","cc":"us","latitude":33.94279,"longitude":-118.41004,"reserved":0,"last_update":"0001-01-01T00:00:00Z","name_a2s":"Uncletopia | Los Angeles | 2 | All Maps","protocol":17,"map":"koth_cascade","folder":"tf","game":"Team Fortress","app_id":440,"player_count":0,"max_players":24,"Bots":0,"server_type":"Dedicated","server_os":"Linux","password":true,"vac":true,"version":"7961495","steam_id":85568392924469992,"keywords":["cp","nocrits","nodmgspread","uncletopia"],"game_id":440,"stv_port":27026,"stv_name":"Uncletopia | Los Angeles | 2 | All Maps | STV","players":null},{"server_id":324,"name":"Uncletopia | Los Angeles | 3 | All Maps","name_short":"lax-3","host":"lax-1.us.uncletopia.com","port":27035,"enabled":true,"region":"us-west","cc":"us","latitude":33.94279,"longitude":-118.41004,"reserved":0,"last_update":"0001-01-01T00:00:00Z","name_a2s":"Uncletopia | Los Angeles | 3 | All Maps","protocol":17,"map":"pl_badwater","folder":"tf","game":"Team Fortress","app_id":440,"player_count":0,"max_players":24,"Bots":0,"server_type":"Dedicated","server_os":"Linux","password":true,"vac":true,"version":"7961495","steam_id":85568392924510198,"keywords":["nocrits","nodmgspread","payload","uncletopia"],"game_id":440,"stv_port":27036,"stv_name":"Uncletopia | Los Angeles | 3 | All Maps | STV","players":null},{"server_id":25,"name":"Uncletopia | Los Angeles | 4 | Stopwatch","name_short":"lax-4","host":"lax-1.us.uncletopia.com","port":27045,"enabled":true,"region":"us-west","cc":"us","latitude":33.94279,"longitude":-118.41004,"reserved":0,"last_update":"0001-01-01T00:00:00Z","name_a2s":"Uncletopia | Los Angeles | 4 | Stopwatch","protocol":17,"map":"pl_barnblitz","folder":"tf","game":"Team Fortress","app_id":440,"player_count":1,"max_players":24,"Bots":0,"server_type":"Dedicated","server_os":"Linux","password":true,"vac":true,"version":"7961495","steam_id":85568392924510199,"keywords":["nocrits","nodmgspread","payload","uncletopia"],"game_id":440,"stv_port":27046,"stv_name":"Uncletopia | Los Angeles | 4 | Stopwatch | STV","players":[{"user_id":3,"name":"Babushka Lady","steam_id":76561198153280053,"connected_time":274000000000,"state":"active","ping":90}]},{"server_id":11,"name":"Uncletopia | London | 1 | All Maps","name_short":"lon-1","host":"lon-1.uk.uncletopia.com","port":27015,"enabled":true,"region":"eu","cc":"gb","latitude":51.509865,"longitude":-0.118092,"reserved":0,"last_update":"0001-01-01T00:00:00Z","name_a2s":"Uncletopia | London | 1 | All Maps","protocol":17,"map":"pl_borneo","folder":"tf","game":"Team Fortress","app_id":440,"player_count":9,"max_players":24,"Bots":0,"server_type":"Dedicated","server_os":"Linux","password":true,"vac":true,"version":"7961495","steam_id":85568392924367362,"keywords":["nocrits","nodmgspread","payload","uncletopia"],"game_id":440,"stv_port":27016,"stv_name":"Uncletopia | London | 1 | All Maps | STV","players":[{"user_id":827,"name":"whimsy.","steam_id":76561198878171763,"connected_time":10000000000,"state":"spawning","ping":44},{"user_id":826,"name":"☭King☭","steam_id":76561199214677088,"connected_time":154000000000,"state":"active","ping":78},{"user_id":817,"name":"WEEN | :0","steam_id":76561198073607799,"connected_time":542000000000,"state":"active","ping":66},{"user_id":821,"name":"It's a me Malario","steam_id":76561198176546013,"connected_time":419000000000,"state":"active","ping":47},{"user_id":773,"name":"sora","steam_id":76561198096547662,"connected_time":4213000000000,"state":"active","ping":50},{"user_id":795,"name":"BoB's BurGers","steam_id":76561198273194512,"connected_time":2930000000000,"state":"active","ping":86},{"user_id":809,"name":"FurbyZone","steam_id":76561198268344503,"connected_time":2208000000000,"state":"active","ping":44},{"user_id":816,"name":"phong","steam_id":76561198090990465,"connected_time":982000000000,"state":"active","ping":67},{"user_id":813,"name":"Marquis de Hoto","steam_id":76561198080687708,"connected_time":1468000000000,"state":"active","ping":72}]},{"server_id":114,"name":"Uncletopia | London | 2 | All Maps","name_short":"lon-2","host":"lon-1.uk.uncletopia.com","port":27025,"enabled":true,"region":"eu","cc":"gb","latitude":51.509865,"longitude":-0.118092,"reserved":0,"last_update":"0001-01-01T00:00:00Z","name_a2s":"Uncletopia | London | 2 | All Maps","protocol":17,"map":"pl_barnblitz","folder":"tf","game":"Team Fortress","app_id":440,"player_count":24,"max_players":24,"Bots":0,"server_type":"Dedicated","server_os":"Linux","password":true,"vac":true,"version":"7961495","steam_id":85568392924470941,"keywords":["nocrits","nodmgspread","payload","uncletopia"],"game_id":440,"stv_port":27026,"stv_name":"Uncletopia | London | 2 | All Maps | STV","players":[{"user_id":698,"name":"Macci - Obismal","steam_id":76561198050485404,"connected_time":1005000000000,"state":"active","ping":89},{"user_id":675,"name":"RudiPrico4","steam_id":76561199014381495,"connected_time":2828000000000,"state":"active","ping":59},{"user_id":681,"name":"bongo","steam_id":76561198015489880,"connected_time":2551000000000,"state":"active","ping":40},{"user_id":689,"name":"pakin157","steam_id":76561198035125667,"connected_time":1177000000000,"state":"active","ping":86},{"user_id":673,"name":"Flying Squirrel","steam_id":76561198005202791,"connected_time":3210000000000,"state":"active","ping":78},{"user_id":690,"name":"DesolateCabbage","steam_id":76561198064467423,"connected_time":1172000000000,"state":"active","ping":157},{"user_id":703,"name":"a chimp with a keyboard","steam_id":76561198060270322,"connected_time":153000000000,"state":"active","ping":86},{"user_id":704,"name":"Tort","steam_id":76561198329646769,"connected_time":151000000000,"state":"active","ping":56},{"user_id":653,"name":"mr.resetti","steam_id":76561198974520642,"connected_time":4160000000000,"state":"active","ping":78},{"user_id":632,"name":"SpacePig","steam_id":76561198044662873,"connected_time":5894000000000,"state":"active","ping":99},{"user_id":701,"name":"froglids","steam_id":76561198045466919,"connected_time":524000000000,"state":"active","ping":74},{"user_id":705,"name":"Holo Jumpscare","steam_id":76561198153908250,"connected_time":109000000000,"state":"active","ping":193},{"user_id":706,"name":"Mortis","steam_id":76561198160658223,"connected_time":101000000000,"state":"active","ping":66},{"user_id":687,"name":"dave.shotgun_2008","steam_id":76561199153146171,"connected_time":1214000000000,"state":"active","ping":54},{"user_id":662,"name":"Cataleptic","steam_id":76561197997966949,"connected_time":3986000000000,"state":"active","ping":56},{"user_id":702,"name":"Sherlock Bond","steam_id":76561198042045955,"connected_time":176000000000,"state":"active","ping":51},{"user_id":695,"name":"D_Ink","steam_id":76561198267716662,"connected_time":1093000000000,"state":"active","ping":40},{"user_id":700,"name":"BigDikNRJ - Obismal","steam_id":76561198055309521,"connected_time":531000000000,"state":"active","ping":68},{"user_id":696,"name":"Caruzon - Obismal","steam_id":76561198036211170,"connected_time":1090000000000,"state":"active","ping":76},{"user_id":682,"name":"Monkey","steam_id":76561199008411791,"connected_time":2342000000000,"state":"active","ping":44},{"user_id":627,"name":"Jhare","steam_id":76561198211794225,"connected_time":6124000000000,"state":"active","ping":35},{"user_id":697,"name":"R8N - Obismal","steam_id":76561198007482714,"connected_time":1086000000000,"state":"active","ping":84},{"user_id":641,"name":"hipster_doofus","steam_id":76561197970902697,"connected_time":5550000000000,"state":"active","ping":58},{"user_id":631,"name":"highest noon","steam_id":76561199103959197,"connected_time":5973000000000,"state":"active","ping":100}]},{"server_id":320,"name":"Uncletopia | London | 3 | All Maps","name_short":"lon-3","host":"lon-1.uk.uncletopia.com","port":27035,"enabled":true,"region":"eu","cc":"gb","latitude":51.509865,"longitude":-0.118092,"reserved":0,"last_update":"0001-01-01T00:00:00Z","name_a2s":"Uncletopia | London | 3 | All Maps","protocol":17,"map":"pl_swiftwater_final1","folder":"tf","game":"Team Fortress","app_id":440,"player_count":24,"max_players":24,"Bots":0,"server_type":"Dedicated","server_os":"Linux","password":true,"vac":true,"version":"7961495","steam_id":85568392924510192,"keywords":["nocrits","nodmgspread","payload","uncletopia"],"game_id":440,"stv_port":27036,"stv_name":"Uncletopia | London | 3 | All Maps | STV","players":[{"user_id":341,"name":"Dangerous Andrew","steam_id":76561198067218981,"connected_time":1744000000000,"state":"active","ping":91},{"user_id":264,"name":"Roboolet","steam_id":76561198107353953,"connected_time":5526000000000,"state":"active","ping":53},{"user_id":357,"name":"xX_GamingGilf_Xx","steam_id":76561199118876157,"connected_time":414000000000,"state":"active","ping":57},{"user_id":346,"name":"Dyon B.","steam_id":76561198285690526,"connected_time":1381000000000,"state":"active","ping":61},{"user_id":353,"name":"jin.88","steam_id":76561198045099492,"connected_time":648000000000,"state":"active","ping":122},{"user_id":345,"name":"[UwU] Blackblood909","steam_id":76561198079427660,"connected_time":1390000000000,"state":"active","ping":94},{"user_id":296,"name":"Famous Anus","steam_id":76561198413675639,"connected_time":3889000000000,"state":"active","ping":69},{"user_id":354,"name":"thorn648","steam_id":76561198012565777,"connected_time":562000000000,"state":"active","ping":170},{"user_id":356,"name":"alpha","steam_id":76561198250491640,"connected_time":486000000000,"state":"active","ping":53},{"user_id":349,"name":"screenshot2020-25-09","steam_id":76561198255275650,"connected_time":699000000000,"state":"active","ping":53},{"user_id":334,"name":"sorry about my face","steam_id":76561198160202087,"connected_time":1938000000000,"state":"active","ping":62},{"user_id":327,"name":"Omyskull","steam_id":76561198131711758,"connected_time":2318000000000,"state":"active","ping":67},{"user_id":358,"name":"R@DIO","steam_id":76561197995533046,"connected_time":353000000000,"state":"active","ping":85},{"user_id":335,"name":"R1k15h1","steam_id":76561198037955288,"connected_time":1908000000000,"state":"active","ping":45},{"user_id":347,"name":"Fkc","steam_id":76561198007018507,"connected_time":1366000000000,"state":"active","ping":51},{"user_id":355,"name":"Tri-","steam_id":76561198133524794,"connected_time":539000000000,"state":"active","ping":44},{"user_id":315,"name":"Tea Follet","steam_id":76561198852408734,"connected_time":3258000000000,"state":"active","ping":59},{"user_id":337,"name":"can u die from gargling honey","steam_id":76561197996269312,"connected_time":1895000000000,"state":"active","ping":31},{"user_id":348,"name":"MACHO MAN RANDY SAVAGE","steam_id":76561197995723404,"connected_time":998000000000,"state":"active","ping":61},{"user_id":350,"name":"Jonno","steam_id":76561198023443744,"connected_time":694000000000,"state":"active","ping":49},{"user_id":198,"name":"Snowy","steam_id":76561198169992461,"connected_time":10510000000000,"state":"active","ping":50},{"user_id":324,"name":"gaming (official)","steam_id":76561198106012909,"connected_time":2517000000000,"state":"active","ping":81},{"user_id":343,"name":"tone","steam_id":76561197975301462,"connected_time":1569000000000,"state":"active","ping":51},{"user_id":340,"name":"John Cena -AA-","steam_id":76561198066656865,"connected_time":1852000000000,"state":"active","ping":69}]},{"server_id":321,"name":"Uncletopia | London | 4 | All Maps","name_short":"lon-4","host":"lon-1.uk.uncletopia.com","port":27045,"enabled":true,"region":"eu","cc":"gb","latitude":51.509865,"longitude":-0.118092,"reserved":0,"last_update":"0001-01-01T00:00:00Z","name_a2s":"Uncletopia | London | 4 | All Maps","protocol":17,"map":"pl_barnblitz","folder":"tf","game":"Team Fortress","app_id":440,"player_count":24,"max_players":24,"Bots":0,"server_type":"Dedicated","server_os":"Linux","password":true,"vac":true,"version":"7961495","steam_id":85568392924510193,"keywords":["nocrits","nodmgspread","payload","uncletopia"],"game_id":440,"stv_port":27046,"stv_name":"Uncletopia | London | 4 | All Maps | STV","players":[{"user_id":577,"name":"core","steam_id":76561198090152271,"connected_time":291000000000,"state":"active","ping":86},{"user_id":539,"name":"coygus","steam_id":76561198071751994,"connected_time":2709000000000,"state":"active","ping":55},{"user_id":567,"name":"FNF","steam_id":76561199151422826,"connected_time":835000000000,"state":"active","ping":125},{"user_id":538,"name":"Doctor Livesey","steam_id":76561198828037534,"connected_time":2799000000000,"state":"active","ping":67},{"user_id":578,"name":"Ocrim_R","steam_id":76561198050479516,"connected_time":289000000000,"state":"active","ping":57},{"user_id":582,"name":"Kelpy G gaming","steam_id":76561198056995633,"connected_time":150000000000,"state":"active","ping":57},{"user_id":579,"name":"Deformed Gollum","steam_id":76561198155563589,"connected_time":275000000000,"state":"active","ping":50},{"user_id":498,"name":"Harryke4","steam_id":76561198120494568,"connected_time":5034000000000,"state":"active","ping":49},{"user_id":564,"name":"Ostara","steam_id":76561198200054489,"connected_time":1048000000000,"state":"active","ping":68},{"user_id":571,"name":"Cute Bulge","steam_id":76561198155494332,"connected_time":748000000000,"state":"active","ping":45},{"user_id":573,"name":"Neeeiks","steam_id":76561198009156801,"connected_time":517000000000,"state":"active","ping":86},{"user_id":576,"name":"gustavo","steam_id":76561198091686339,"connected_time":405000000000,"state":"active","ping":47},{"user_id":580,"name":"Level 1 Noob","steam_id":76561198088586340,"connected_time":263000000000,"state":"active","ping":60},{"user_id":545,"name":"Nox Equites","steam_id":76561198115438449,"connected_time":2085000000000,"state":"active","ping":94},{"user_id":557,"name":"yuno appreciator","steam_id":76561198083286511,"connected_time":1623000000000,"state":"active","ping":43},{"user_id":581,"name":"bean","steam_id":76561198161013815,"connected_time":225000000000,"state":"active","ping":51},{"user_id":502,"name":"Rakiru","steam_id":76561198334097259,"connected_time":4784000000000,"state":"active","ping":87},{"user_id":583,"name":"Cheese_Fiend","steam_id":76561198026899984,"connected_time":143000000000,"state":"active","ping":91},{"user_id":585,"name":"wG toemon$terr","steam_id":76561198815271970,"connected_time":116000000000,"state":"active","ping":64},{"user_id":559,"name":"Onbeheerde_Jongeheer","steam_id":76561198051685232,"connected_time":1564000000000,"state":"active","ping":45},{"user_id":565,"name":"Shromide","steam_id":76561198140382935,"connected_time":1039000000000,"state":"active","ping":56},{"user_id":551,"name":"Abit","steam_id":76561198032786948,"connected_time":1927000000000,"state":"active","ping":72},{"user_id":586,"name":"Fidacha","steam_id":76561198003060881,"connected_time":106000000000,"state":"active","ping":70},{"user_id":561,"name":"deere","steam_id":76561198282535525,"connected_time":1520000000000,"state":"active","ping":29}]},{"server_id":21,"name":"Uncletopia | London | 5 | All Maps","name_short":"lon-5","host":"lon-1.uk.uncletopia.com","port":27055,"enabled":true,"region":"eu","cc":"gb","latitude":51.509865,"longitude":-0.118092,"reserved":0,"last_update":"0001-01-01T00:00:00Z","name_a2s":"Uncletopia | London | 5 | All Maps","protocol":17,"map":"cp_sunshine","folder":"tf","game":"Team Fortress","app_id":440,"player_count":24,"max_players":24,"Bots":0,"server_type":"Dedicated","server_os":"Linux","password":true,"vac":true,"version":"7961495","steam_id":85568392924742829,"keywords":["cp","nocrits","nodmgspread","uncletopia"],"game_id":440,"stv_port":27056,"stv_name":"Uncletopia | London | 5 | All Maps | STV","players":[{"user_id":485,"name":"Redditor","steam_id":76561198023609460,"connected_time":5159000000000,"state":"active","ping":89},{"user_id":484,"name":"LogainAblar","steam_id":76561198353261190,"connected_time":5183000000000,"state":"active","ping":65},{"user_id":523,"name":"Valen","steam_id":76561198049614521,"connected_time":2303000000000,"state":"active","ping":74},{"user_id":541,"name":"I I","steam_id":76561199101935057,"connected_time":387000000000,"state":"active","ping":102},{"user_id":501,"name":"Senior","steam_id":76561198065014164,"connected_time":3521000000000,"state":"active","ping":50},{"user_id":533,"name":"Mafew","steam_id":76561198119993886,"connected_time":1360000000000,"state":"active","ping":58},{"user_id":542,"name":"Beorn","steam_id":76561198317714120,"connected_time":385000000000,"state":"active","ping":96},{"user_id":540,"name":"Gry","steam_id":76561198053961616,"connected_time":899000000000,"state":"active","ping":49},{"user_id":492,"name":"Harry","steam_id":76561198046899720,"connected_time":4849000000000,"state":"active","ping":45},{"user_id":528,"name":"Lux","steam_id":76561198060417740,"connected_time":2229000000000,"state":"active","ping":57},{"user_id":454,"name":"random_player691","steam_id":76561199209946306,"connected_time":7743000000000,"state":"active","ping":59},{"user_id":548,"name":"tm`","steam_id":76561197993580412,"connected_time":78000000000,"state":"active","ping":69},{"user_id":531,"name":"Lag","steam_id":76561198159360376,"connected_time":1748000000000,"state":"active","ping":49},{"user_id":535,"name":"Ryan Gosling (Literally me)","steam_id":76561198438150893,"connected_time":1235000000000,"state":"active","ping":186},{"user_id":543,"name":"ZOOKY","steam_id":76561198028806392,"connected_time":219000000000,"state":"active","ping":46},{"user_id":506,"name":"Fran","steam_id":76561199070516960,"connected_time":3225000000000,"state":"active","ping":73},{"user_id":532,"name":"KODE","steam_id":76561198053212394,"connected_time":1433000000000,"state":"active","ping":76},{"user_id":546,"name":"tiia (fool)","steam_id":76561198046196005,"connected_time":159000000000,"state":"active","ping":52},{"user_id":527,"name":"shenanigan","steam_id":76561198043452925,"connected_time":2267000000000,"state":"active","ping":100},{"user_id":489,"name":"Woad Raider","steam_id":76561198215485788,"connected_time":5108000000000,"state":"active","ping":78},{"user_id":507,"name":"hondjo","steam_id":76561198119324108,"connected_time":3206000000000,"state":"active","ping":60},{"user_id":549,"name":"overman","steam_id":76561198038348301,"connected_time":72000000000,"state":"active","ping":75},{"user_id":545,"name":"mumbler","steam_id":76561197970641239,"connected_time":178000000000,"state":"active","ping":57},{"user_id":550,"name":"the babadook","steam_id":76561198040168682,"connected_time":18000000000,"state":"active","ping":50}]},{"server_id":22,"name":"Uncletopia | London | 6 | All Maps","name_short":"lon-6","host":"lon-1.uk.uncletopia.com","port":27065,"enabled":true,"region":"eu","cc":"gb","latitude":51.509865,"longitude":-0.118092,"reserved":0,"last_update":"0001-01-01T00:00:00Z","name_a2s":"Uncletopia | London | 6 | All Maps","protocol":17,"map":"cp_mountainlab","folder":"tf","game":"Team Fortress","app_id":440,"player_count":18,"max_players":24,"Bots":0,"server_type":"Dedicated","server_os":"Linux","password":true,"vac":true,"version":"7961495","steam_id":85568392924742830,"keywords":["cp","nocrits","nodmgspread","uncletopia"],"game_id":440,"stv_port":27066,"stv_name":"Uncletopia | London | 6 | All Maps | STV","players":[{"user_id":333,"name":"Plushy Freeman","steam_id":76561198004935560,"connected_time":58000000000,"state":"active","ping":70},{"user_id":331,"name":"SuntanPikachu","steam_id":76561198121242476,"connected_time":161000000000,"state":"active","ping":108},{"user_id":332,"name":"Furious_Coder B\u003ewith/800k","steam_id":76561198146046621,"connected_time":157000000000,"state":"active","ping":105},{"user_id":330,"name":"gibb (official)","steam_id":76561198074097655,"connected_time":175000000000,"state":"active","ping":66},{"user_id":334,"name":"SourcePan","steam_id":76561199070294504,"connected_time":55000000000,"state":"active","ping":96},{"user_id":253,"name":":3","steam_id":76561198169471853,"connected_time":8025000000000,"state":"active","ping":40},{"user_id":325,"name":"Hoxton","steam_id":76561198129209505,"connected_time":655000000000,"state":"active","ping":75},{"user_id":335,"name":"Hopla","steam_id":76561198061580384,"connected_time":14000000000,"state":"active","ping":109},{"user_id":310,"name":"MovingIsOverRated","steam_id":76561198385633292,"connected_time":1951000000000,"state":"active","ping":73},{"user_id":336,"name":"cuddles","steam_id":76561198805181599,"connected_time":3000000000,"state":"spawning","ping":43},{"user_id":323,"name":"Amandus","steam_id":76561198036281079,"connected_time":774000000000,"state":"active","ping":62},{"user_id":329,"name":"Thundercracker__","steam_id":76561199163505476,"connected_time":361000000000,"state":"active","ping":49},{"user_id":316,"name":"gagalak","steam_id":76561198089979108,"connected_time":1306000000000,"state":"active","ping":98},{"user_id":312,"name":"Just Navlis (on the scoreboard)","steam_id":76561198090479609,"connected_time":1329000000000,"state":"active","ping":54},{"user_id":317,"name":"Burak","steam_id":76561198441622971,"connected_time":1290000000000,"state":"active","ping":99},{"user_id":292,"name":"Noob_with_source","steam_id":76561198870362103,"connected_time":3626000000000,"state":"active","ping":59},{"user_id":318,"name":"JamOnBread","steam_id":76561199232257212,"connected_time":1283000000000,"state":"active","ping":55},{"user_id":216,"name":"Zerfesh","steam_id":76561198117534358,"connected_time":10757000000000,"state":"active","ping":103}]},{"server_id":40,"name":"Uncletopia | London | 7 | Stopwatch","name_short":"lon-7","host":"lon-1.uk.uncletopia.com","port":27075,"enabled":true,"region":"eu","cc":"gb","latitude":51.509865,"longitude":-0.118092,"reserved":0,"last_update":"0001-01-01T00:00:00Z","name_a2s":"Uncletopia | London | 7 | Stopwatch","protocol":17,"map":"workshop/koth_product_final.ugc454272353","folder":"tf","game":"Team Fortress","app_id":440,"player_count":0,"max_players":24,"Bots":0,"server_type":"Dedicated","server_os":"Linux","password":true,"vac":true,"version":"7961495","steam_id":85568392924964314,"keywords":["cp","nocrits","nodmgspread","uncletopia"],"game_id":440,"stv_port":27076,"stv_name":"Uncletopia | London | 7 | Stopwatch | STV","players":null},{"server_id":41,"name":"Uncletopia | London | 8 | Community","name_short":"lon-8","host":"lon-1.uk.uncletopia.com","port":27085,"enabled":true,"region":"eu","cc":"gb","latitude":51.509865,"longitude":-0.118092,"reserved":0,"last_update":"0001-01-01T00:00:00Z","name_a2s":"Uncletopia | London | 8 | Community","protocol":17,"map":"workshop/pl_cashworks_final1.ugc2904065412","folder":"tf","game":"Team Fortress","app_id":440,"player_count":0,"max_players":24,"Bots":0,"server_type":"Dedicated","server_os":"Linux","password":true,"vac":true,"version":"7961495","steam_id":85568392924964315,"keywords":["nocrits","nodmgspread","payload","uncletopia"],"game_id":440,"stv_port":27086,"stv_name":"Uncletopia | London | 8 | Community | STV","players":null},{"server_id":300,"name":"Uncletopia | Montréal | 1 | One Thousand Uncles","name_short":"mtl-1","host":"mtl-1.ca.uncletopia.com","port":27015,"enabled":true,"region":"us-east","cc":"ca","latitude":45.50889,"longitude":-73.56167,"reserved":0,"last_update":"0001-01-01T00:00:00Z","name_a2s":"","protocol":0,"map":"","folder":"","game":"","app_id":0,"player_count":7,"max_players":0,"Bots":0,"server_type":"","server_os":"","password":false,"vac":false,"version":"","steam_id":0,"keywords":null,"game_id":0,"stv_port":0,"stv_name":"","players":[{"user_id":169,"name":"space mann","steam_id":76561198174447043,"connected_time":2614000000000,"state":"active","ping":56},{"user_id":167,"name":"Zanartan","steam_id":76561198050528902,"connected_time":5866000000000,"state":"active","ping":163},{"user_id":170,"name":"DrMisteryous2","steam_id":76561198336307012,"connected_time":2353000000000,"state":"active","ping":175},{"user_id":171,"name":"dj magdogrozen","steam_id":76561198984131011,"connected_time":1938000000000,"state":"active","ping":46},{"user_id":173,"name":"Rhutebeer","steam_id":76561198018302761,"connected_time":1747000000000,"state":"active","ping":105},{"user_id":175,"name":"Game_Stormer","steam_id":76561199098016096,"connected_time":1291000000000,"state":"active","ping":74},{"user_id":176,"name":"manbearswineflu","steam_id":76561198083945137,"connected_time":1043000000000,"state":"active","ping":65}]},{"server_id":301,"name":"Uncletopia | Montréal | 2 | One Thousand Uncles","name_short":"mtl-2","host":"mtl-1.ca.uncletopia.com","port":27025,"enabled":true,"region":"us-east","cc":"ca","latitude":45.50889,"longitude":-73.56167,"reserved":0,"last_update":"0001-01-01T00:00:00Z","name_a2s":"","protocol":0,"map":"","folder":"","game":"","app_id":0,"player_count":0,"max_players":0,"Bots":0,"server_type":"","server_os":"","password":false,"vac":false,"version":"","steam_id":0,"keywords":null,"game_id":0,"stv_port":0,"stv_name":"","players":null},{"server_id":302,"name":"Uncletopia | Montréal | 3 | One Thousand Uncles","name_short":"mtl-3","host":"mtl-1.ca.uncletopia.com","port":27035,"enabled":true,"region":"us-east","cc":"ca","latitude":45.50889,"longitude":-73.56167,"reserved":0,"last_update":"0001-01-01T00:00:00Z","name_a2s":"","protocol":0,"map":"","folder":"","game":"","app_id":0,"player_count":1,"max_players":0,"Bots":0,"server_type":"","server_os":"","password":false,"vac":false,"version":"","steam_id":0,"keywords":null,"game_id":0,"stv_port":0,"stv_name":"","players":[{"user_id":141,"name":"Lesbian Futa Mommy","steam_id":76561198130479030,"connected_time":7396000000000,"state":"active","ping":112}]},{"server_id":13,"name":"Uncletopia | New York City | 1 | All Maps","name_short":"nyc-1","host":"nyc-1.us.uncletopia.com","port":27015,"enabled":true,"region":"us-east","cc":"us","latitude":40.73061,"longitude":-73.93524,"reserved":0,"last_update":"0001-01-01T00:00:00Z","name_a2s":"Uncletopia | New York City | 1 | All Maps","protocol":17,"map":"cp_steel","folder":"tf","game":"Team Fortress","app_id":440,"player_count":20,"max_players":24,"Bots":0,"server_type":"Dedicated","server_os":"Linux","password":true,"vac":true,"version":"7961495","steam_id":85568392924469993,"keywords":["cp","nocrits","nodmgspread","uncletopia"],"game_id":440,"stv_port":27016,"stv_name":"Uncletopia | New York City | 1 | All Maps | STV","players":[{"user_id":578,"name":"CoconutHead","steam_id":76561198090624456,"connected_time":18000000000,"state":"spawning","ping":43},{"user_id":577,"name":"Fredrick","steam_id":76561197981419964,"connected_time":24000000000,"state":"active","ping":48},{"user_id":562,"name":"LegendaireNic","steam_id":76561198211753861,"connected_time":1596000000000,"state":"active","ping":66},{"user_id":563,"name":"Roar","steam_id":76561199476592495,"connected_time":1548000000000,"state":"active","ping":44},{"user_id":544,"name":"Dareu","steam_id":76561198081781710,"connected_time":3004000000000,"state":"active","ping":45},{"user_id":556,"name":"bubba","steam_id":76561198142629517,"connected_time":2221000000000,"state":"active","ping":76},{"user_id":548,"name":"Hoovy","steam_id":76561198409907417,"connected_time":2750000000000,"state":"active","ping":120},{"user_id":565,"name":"Lemoncurry","steam_id":76561198045356414,"connected_time":1068000000000,"state":"active","ping":68},{"user_id":508,"name":"Aldatzailea Egitura","steam_id":76561199240547667,"connected_time":4565000000000,"state":"active","ping":86},{"user_id":542,"name":"Billy Mays","steam_id":76561197998876324,"connected_time":3131000000000,"state":"active","ping":126},{"user_id":545,"name":"Joy","steam_id":76561198073690173,"connected_time":3002000000000,"state":"active","ping":54},{"user_id":573,"name":"Rigby","steam_id":76561198258121396,"connected_time":557000000000,"state":"active","ping":76},{"user_id":531,"name":"Navi","steam_id":76561198088884451,"connected_time":3526000000000,"state":"active","ping":95},{"user_id":567,"name":"Scroobles","steam_id":76561199197646696,"connected_time":986000000000,"state":"active","ping":83},{"user_id":568,"name":"trackftv","steam_id":76561198036488706,"connected_time":980000000000,"state":"active","ping":107},{"user_id":559,"name":"Fiendish Frog","steam_id":76561198029478821,"connected_time":1719000000000,"state":"active","ping":53},{"user_id":558,"name":"Dr. HCN","steam_id":76561198059373667,"connected_time":1952000000000,"state":"active","ping":61},{"user_id":575,"name":"Lin","steam_id":76561198143746480,"connected_time":472000000000,"state":"active","ping":142},{"user_id":572,"name":"Waffle Wannabe","steam_id":76561198064510650,"connected_time":717000000000,"state":"active","ping":44},{"user_id":561,"name":"CDBeans","steam_id":76561198046990367,"connected_time":1673000000000,"state":"active","ping":76}]},{"server_id":14,"name":"Uncletopia | New York City | 2 | All Maps","name_short":"nyc-2","host":"nyc-1.us.uncletopia.com","port":27025,"enabled":true,"region":"us-east","cc":"us","latitude":40.73061,"longitude":-73.93524,"reserved":0,"last_update":"0001-01-01T00:00:00Z","name_a2s":"Uncletopia | New York City | 2 | All Maps","protocol":17,"map":"pl_badwater","folder":"tf","game":"Team Fortress","app_id":440,"player_count":24,"max_players":24,"Bots":0,"server_type":"Dedicated","server_os":"Linux","password":true,"vac":true,"version":"7961495","steam_id":85568392924469994,"keywords":["nocrits","nodmgspread","payload","uncletopia"],"game_id":440,"stv_port":27026,"stv_name":"Uncletopia | New York City | 2 | All Maps | STV","players":[{"user_id":206,"name":"Rummy the Blargh-gineer","steam_id":76561197997192800,"connected_time":924000000000,"state":"active","ping":60},{"user_id":173,"name":"MilesFireStorm","steam_id":76561198078642820,"connected_time":3607000000000,"state":"active","ping":73},{"user_id":198,"name":"Konnichiwa","steam_id":76561198022302843,"connected_time":1922000000000,"state":"active","ping":75},{"user_id":209,"name":"Jango","steam_id":76561198084589742,"connected_time":894000000000,"state":"active","ping":75},{"user_id":203,"name":"Riske","steam_id":76561198115840568,"connected_time":1217000000000,"state":"active","ping":67},{"user_id":197,"name":"Unfathomable","steam_id":76561198975113366,"connected_time":1932000000000,"state":"active","ping":85},{"user_id":207,"name":"Oh No! It's Twister!","steam_id":76561198016791916,"connected_time":910000000000,"state":"active","ping":105},{"user_id":215,"name":"AmazingPlasma","steam_id":76561199005527586,"connected_time":576000000000,"state":"active","ping":97},{"user_id":218,"name":"LeBron James","steam_id":76561198086978424,"connected_time":397000000000,"state":"active","ping":73},{"user_id":213,"name":"Derp Copter","steam_id":76561198140140739,"connected_time":698000000000,"state":"active","ping":60},{"user_id":97,"name":"Architect","steam_id":76561198015242016,"connected_time":6283000000000,"state":"active","ping":59},{"user_id":217,"name":"Argo","steam_id":76561198353725622,"connected_time":449000000000,"state":"active","ping":67},{"user_id":185,"name":"Digit","steam_id":76561198156589157,"connected_time":2283000000000,"state":"active","ping":58},{"user_id":167,"name":"Nerrrd_","steam_id":76561198870129960,"connected_time":4142000000000,"state":"active","ping":44},{"user_id":216,"name":"gIBBY","steam_id":76561198080099598,"connected_time":497000000000,"state":"active","ping":40},{"user_id":187,"name":"kirbo","steam_id":76561199404157971,"connected_time":2257000000000,"state":"active","ping":88},{"user_id":200,"name":"The Guy","steam_id":76561198799183693,"connected_time":1769000000000,"state":"active","ping":91},{"user_id":188,"name":"Bother","steam_id":76561198336750909,"connected_time":2247000000000,"state":"active","ping":36},{"user_id":204,"name":"Big L","steam_id":76561199277159499,"connected_time":1117000000000,"state":"active","ping":56},{"user_id":189,"name":"Mr. Soupman","steam_id":76561198021649598,"connected_time":2246000000000,"state":"active","ping":48},{"user_id":211,"name":"MeKa4life","steam_id":76561198843713927,"connected_time":871000000000,"state":"active","ping":179},{"user_id":220,"name":"BNTF","steam_id":76561198062740087,"connected_time":96000000000,"state":"active","ping":75},{"user_id":212,"name":"phone","steam_id":76561198029268743,"connected_time":859000000000,"state":"active","ping":60},{"user_id":219,"name":"Buck","steam_id":76561198064244796,"connected_time":154000000000,"state":"active","ping":53}]},{"server_id":15,"name":"Uncletopia | New York City | 3 | Stopwatch","name_short":"nyc-3","host":"nyc-1.us.uncletopia.com","port":27035,"enabled":true,"region":"us-east","cc":"us","latitude":40.73061,"longitude":-73.93524,"reserved":0,"last_update":"0001-01-01T00:00:00Z","name_a2s":"Uncletopia | New York City | 3 | Stopwatch","protocol":17,"map":"workshop/koth_product_final.ugc454272353","folder":"tf","game":"Team Fortress","app_id":440,"player_count":0,"max_players":24,"Bots":0,"server_type":"Dedicated","server_os":"Linux","password":true,"vac":true,"version":"7961495","steam_id":85568392924742820,"keywords":["cp","nocrits","nodmgspread","uncletopia"],"game_id":440,"stv_port":27036,"stv_name":"Uncletopia | New York City | 3 | Stopwatch | STV","players":null},{"server_id":16,"name":"Uncletopia | New York City | 4 | Community","name_short":"nyc-4","host":"nyc-1.us.uncletopia.com","port":27045,"enabled":true,"region":"us-east","cc":"us","latitude":40.73061,"longitude":-73.93524,"reserved":0,"last_update":"0001-01-01T00:00:00Z","name_a2s":"Uncletopia | New York City | 4 | Community","protocol":17,"map":"workshop/cp_sulfur_rc2.ugc619869471","folder":"tf","game":"Team Fortress","app_id":440,"player_count":0,"max_players":24,"Bots":0,"server_type":"Dedicated","server_os":"Linux","password":true,"vac":true,"version":"7961495","steam_id":85568392924742821,"keywords":["cp","nocrits","nodmgspread","uncletopia"],"game_id":440,"stv_port":27046,"stv_name":"Uncletopia | New York City | 4 | Community | STV","players":null},{"server_id":142,"name":"Uncletopia | São Paulo | 1 | All Maps","name_short":"sao-1","host":"sao-1.br.uncletopia.com","port":27015,"enabled":true,"region":"sa","cc":"br","latitude":-23.533773,"longitude":-46.62529,"reserved":0,"last_update":"0001-01-01T00:00:00Z","name_a2s":"Uncletopia | São Paulo | 1 | All Maps","protocol":17,"map":"cp_dustbowl","folder":"tf","game":"Team Fortress","app_id":440,"player_count":0,"max_players":24,"Bots":0,"server_type":"Dedicated","server_os":"Linux","password":true,"vac":true,"version":"7961495","steam_id":85568392924469996,"keywords":["cp","nocrits","nodmgspread","uncletopia"],"game_id":440,"stv_port":27016,"stv_name":"Uncletopia | São Paulo | 1 | All Maps | STV","players":null},{"server_id":143,"name":"Uncletopia | São Paulo | 2 | Community","name_short":"sao-2","host":"sao-2.br.uncletopia.com","port":27015,"enabled":true,"region":"sa","cc":"br","latitude":-23.533773,"longitude":-46.62529,"reserved":0,"last_update":"0001-01-01T00:00:00Z","name_a2s":"Uncletopia | São Paulo | 2 | Community","protocol":17,"map":"workshop/pl_vigil_rc10.ugc1266210012","folder":"tf","game":"Team Fortress","app_id":440,"player_count":0,"max_players":24,"Bots":0,"server_type":"Dedicated","server_os":"Linux","password":true,"vac":true,"version":"7961495","steam_id":85568392924485349,"keywords":["nocrits","nodmgspread","payload","uncletopia"],"game_id":440,"stv_port":27016,"stv_name":"Uncletopia | São Paulo | 2 | Community | STV","players":null},{"server_id":7,"name":"Uncletopia | Seattle | 1 | All Maps","name_short":"sea-1","host":"sea-1.us.uncletopia.com","port":27015,"enabled":true,"region":"us-west","cc":"us","latitude":47.608013,"longitude":-122.33517,"reserved":0,"last_update":"0001-01-01T00:00:00Z","name_a2s":"Uncletopia | Seattle | 1 | All Maps","protocol":17,"map":"pl_barnblitz","folder":"tf","game":"Team Fortress","app_id":440,"player_count":24,"max_players":24,"Bots":0,"server_type":"Dedicated","server_os":"Linux","password":true,"vac":true,"version":"7961495","steam_id":85568392924469997,"keywords":["nocrits","nodmgspread","payload","uncletopia"],"game_id":440,"stv_port":27016,"stv_name":"Uncletopia | Seattle | 1 | All Maps | STV","players":[{"user_id":397,"name":"Toaster (Hamilton Beach)","steam_id":76561198039891934,"connected_time":2149000000000,"state":"active","ping":57},{"user_id":422,"name":"Madz","steam_id":76561197980025933,"connected_time":1140000000000,"state":"active","ping":81},{"user_id":426,"name":"rad killl raccoon","steam_id":76561198980975595,"connected_time":663000000000,"state":"active","ping":49},{"user_id":398,"name":"slushy :))","steam_id":76561198135281802,"connected_time":2097000000000,"state":"active","ping":43},{"user_id":403,"name":"Kinetic Warlord","steam_id":76561198007900244,"connected_time":1620000000000,"state":"active","ping":105},{"user_id":371,"name":"Forte","steam_id":76561198873357759,"connected_time":3004000000000,"state":"active","ping":84},{"user_id":400,"name":"Don't Fuckle with Shuckle","steam_id":76561199020102367,"connected_time":1956000000000,"state":"active","ping":129},{"user_id":424,"name":"amberenix","steam_id":76561198805110908,"connected_time":1127000000000,"state":"active","ping":97},{"user_id":385,"name":"♥Chara喜生子♥","steam_id":76561198080500920,"connected_time":2802000000000,"state":"active","ping":76},{"user_id":433,"name":"Keamy","steam_id":76561199471434875,"connected_time":27000000000,"state":"active","ping":31},{"user_id":404,"name":"toolbox","steam_id":76561198446151354,"connected_time":1558000000000,"state":"active","ping":64},{"user_id":405,"name":"Enderlord99","steam_id":76561198158152954,"connected_time":1555000000000,"state":"active","ping":55},{"user_id":434,"name":"Eraser cat","steam_id":76561199045570463,"connected_time":23000000000,"state":"active","ping":44},{"user_id":430,"name":"Pneumo.","steam_id":76561197987911883,"connected_time":430000000000,"state":"active","ping":57},{"user_id":407,"name":"goobins","steam_id":76561198834355366,"connected_time":1535000000000,"state":"active","ping":136},{"user_id":408,"name":"Kraftlos","steam_id":76561198074350350,"connected_time":1484000000000,"state":"active","ping":112},{"user_id":409,"name":"Cowboyfos","steam_id":76561199055740230,"connected_time":1470000000000,"state":"active","ping":60},{"user_id":431,"name":"PopcornBucketGames","steam_id":76561199089562026,"connected_time":186000000000,"state":"active","ping":43},{"user_id":425,"name":"es","steam_id":76561198006892337,"connected_time":1050000000000,"state":"active","ping":77},{"user_id":429,"name":"Scampy","steam_id":76561198001506924,"connected_time":552000000000,"state":"active","ping":47},{"user_id":415,"name":"my monitor is off","steam_id":76561198074499537,"connected_time":1333000000000,"state":"active","ping":75},{"user_id":423,"name":"Cam","steam_id":76561198285054047,"connected_time":1136000000000,"state":"active","ping":78},{"user_id":420,"name":"Level 1 Crook","steam_id":76561198441098132,"connected_time":1199000000000,"state":"active","ping":90},{"user_id":427,"name":"xylerjkoss","steam_id":76561198136444361,"connected_time":634000000000,"state":"active","ping":113}]},{"server_id":119,"name":"Uncletopia | Seattle | 2 | All Maps","name_short":"sea-2","host":"sea-1.us.uncletopia.com","port":27025,"enabled":true,"region":"us-west","cc":"us","latitude":47.608013,"longitude":-122.33517,"reserved":0,"last_update":"0001-01-01T00:00:00Z","name_a2s":"Uncletopia | Seattle | 2 | All Maps","protocol":17,"map":"koth_highpass","folder":"tf","game":"Team Fortress","app_id":440,"player_count":23,"max_players":24,"Bots":0,"server_type":"Dedicated","server_os":"Linux","password":true,"vac":true,"version":"7961495","steam_id":85568392924469998,"keywords":["cp","nocrits","nodmgspread","uncletopia"],"game_id":440,"stv_port":27026,"stv_name":"Uncletopia | Seattle | 2 | All Maps | STV","players":[{"user_id":165,"name":"you just got dyked on","steam_id":76561198018977723,"connected_time":4755000000000,"state":"active","ping":41},{"user_id":228,"name":"❤ Dolphiniz ❤","steam_id":76561199093367765,"connected_time":539000000000,"state":"active","ping":72},{"user_id":238,"name":"Rude Dog","steam_id":76561197980385816,"connected_time":313000000000,"state":"active","ping":42},{"user_id":222,"name":"Beef Wellington","steam_id":76561197995635241,"connected_time":1113000000000,"state":"active","ping":174},{"user_id":242,"name":"engies wrench","steam_id":76561199000953413,"connected_time":224000000000,"state":"active","ping":69},{"user_id":239,"name":"donaldronningii","steam_id":76561198324570722,"connected_time":304000000000,"state":"active","ping":150},{"user_id":247,"name":"FunnyGoomba","steam_id":76561198279865229,"connected_time":18000000000,"state":"active","ping":148},{"user_id":248,"name":"Re:Lie","steam_id":76561198125401588,"connected_time":10000000000,"state":"spawning","ping":73},{"user_id":215,"name":"Goose","steam_id":76561198036774894,"connected_time":1783000000000,"state":"active","ping":55},{"user_id":224,"name":"American Dad Funny Moments #32","steam_id":76561198254874328,"connected_time":1090000000000,"state":"active","ping":45},{"user_id":219,"name":"Joh Bags","steam_id":76561198097004438,"connected_time":1318000000000,"state":"active","ping":92},{"user_id":244,"name":"Carpet enthusiast","steam_id":76561198024040142,"connected_time":168000000000,"state":"active","ping":122},{"user_id":175,"name":"NO NOT THE TOP ROPE","steam_id":76561198292463064,"connected_time":4134000000000,"state":"active","ping":44},{"user_id":196,"name":"Derdun","steam_id":76561198276323783,"connected_time":2755000000000,"state":"active","ping":56},{"user_id":225,"name":"Nue Houjuu","steam_id":76561199013167718,"connected_time":957000000000,"state":"active","ping":121},{"user_id":218,"name":"stupid dumbo","steam_id":76561199499587098,"connected_time":1613000000000,"state":"active","ping":81},{"user_id":181,"name":"tf2bot","steam_id":76561199016742478,"connected_time":3989000000000,"state":"active","ping":74},{"user_id":240,"name":"flomu","steam_id":76561198034151680,"connected_time":247000000000,"state":"active","ping":60},{"user_id":245,"name":"Thequirka","steam_id":76561198968058652,"connected_time":156000000000,"state":"active","ping":53},{"user_id":231,"name":"radicalPolio","steam_id":76561197961561855,"connected_time":484000000000,"state":"active","ping":90},{"user_id":233,"name":"Justice","steam_id":76561198044735930,"connected_time":423000000000,"state":"active","ping":90},{"user_id":241,"name":"eeethan","steam_id":76561198128868891,"connected_time":233000000000,"state":"active","ping":46},{"user_id":243,"name":"Mr.Autistik","steam_id":76561198861596654,"connected_time":210000000000,"state":"active","ping":56}]},{"server_id":406,"name":"Uncletopia | Seattle | 3 | Stopwatch","name_short":"sea-3","host":"sea-1.us.uncletopia.com","port":27035,"enabled":true,"region":"us-west","cc":"us","latitude":47.608013,"longitude":-122.33517,"reserved":0,"last_update":"0001-01-01T00:00:00Z","name_a2s":"Uncletopia | Seattle | 3 | Stopwatch","protocol":17,"map":"cp_granary","folder":"tf","game":"Team Fortress","app_id":440,"player_count":0,"max_players":24,"Bots":0,"server_type":"Dedicated","server_os":"Linux","password":true,"vac":true,"version":"7961495","steam_id":85568392924515217,"keywords":["cp","nocrits","nodmgspread","uncletopia"],"game_id":440,"stv_port":27036,"stv_name":"Uncletopia | Seattle | 3 | Stopwatch | STV","players":null},{"server_id":17,"name":"Uncletopia | San Francisco | 1 | All Maps","name_short":"sfo-1","host":"sfo-1.us.uncletopia.com","port":27015,"enabled":true,"region":"us-west","cc":"us","latitude":37.77397,"longitude":-122.4313,"reserved":0,"last_update":"0001-01-01T00:00:00Z","name_a2s":"Uncletopia | San Francisco | 1 | All Maps","protocol":17,"map":"koth_cascade","folder":"tf","game":"Team Fortress","app_id":440,"player_count":3,"max_players":24,"Bots":0,"server_type":"Dedicated","server_os":"Linux","password":true,"vac":true,"version":"7961495","steam_id":85568392924469999,"keywords":["cp","nocrits","nodmgspread","uncletopia"],"game_id":440,"stv_port":27016,"stv_name":"Uncletopia | San Francisco | 1 | All Maps | STV","players":[{"user_id":8,"name":"Tideflat","steam_id":76561198179850851,"connected_time":290000000000,"state":"active","ping":74},{"user_id":9,"name":"asm_ghost","steam_id":76561199205363547,"connected_time":289000000000,"state":"active","ping":70},{"user_id":10,"name":"DUMBASSCOUT","steam_id":76561199127408846,"connected_time":273000000000,"state":"active","ping":66}]},{"server_id":18,"name":"Uncletopia | San Francisco | 2 | All Maps","name_short":"sfo-2","host":"sfo-1.us.uncletopia.com","port":27025,"enabled":true,"region":"us-west","cc":"us","latitude":37.77397,"longitude":-122.4313,"reserved":0,"last_update":"0001-01-01T00:00:00Z","name_a2s":"Uncletopia | San Francisco | 2 | All Maps","protocol":17,"map":"pl_borneo","folder":"tf","game":"Team Fortress","app_id":440,"player_count":24,"max_players":24,"Bots":0,"server_type":"Dedicated","server_os":"Linux","password":true,"vac":true,"version":"7961495","steam_id":85568392924470000,"keywords":["nocrits","nodmgspread","payload","uncletopia"],"game_id":440,"stv_port":27026,"stv_name":"Uncletopia | San Francisco | 2 | All Maps | STV","players":[{"user_id":60,"name":"Soap","steam_id":76561197994893383,"connected_time":575000000000,"state":"active","ping":68},{"user_id":47,"name":"TommyBoi","steam_id":76561198025528637,"connected_time":1135000000000,"state":"active","ping":72},{"user_id":58,"name":"Boogie03","steam_id":76561198995812187,"connected_time":790000000000,"state":"active","ping":68},{"user_id":63,"name":"NotAWeeb","steam_id":76561198165530739,"connected_time":251000000000,"state":"active","ping":45},{"user_id":12,"name":"the demoman","steam_id":76561199046667189,"connected_time":2621000000000,"state":"active","ping":132},{"user_id":13,"name":"Super Giga Mega Nesbit","steam_id":76561199200035167,"connected_time":2560000000000,"state":"active","ping":101},{"user_id":14,"name":"brazn","steam_id":76561198169468233,"connected_time":2210000000000,"state":"active","ping":70},{"user_id":33,"name":"Frank Accardi","steam_id":76561198017275707,"connected_time":1524000000000,"state":"active","ping":75},{"user_id":16,"name":"CupcakeFroster","steam_id":76561199026250987,"connected_time":2144000000000,"state":"active","ping":51},{"user_id":17,"name":"Hezxp","steam_id":76561198312931111,"connected_time":2077000000000,"state":"active","ping":97},{"user_id":18,"name":"jewel","steam_id":76561198406934379,"connected_time":2027000000000,"state":"active","ping":68},{"user_id":37,"name":"Lavalace","steam_id":76561198073757592,"connected_time":1338000000000,"state":"active","ping":92},{"user_id":20,"name":"rey","steam_id":76561198021883683,"connected_time":1962000000000,"state":"active","ping":66},{"user_id":45,"name":"Esteban Delsin","steam_id":76561198433519639,"connected_time":1183000000000,"state":"active","ping":112},{"user_id":25,"name":"Toasterduds","steam_id":76561198163477584,"connected_time":1818000000000,"state":"active","ping":57},{"user_id":24,"name":"CalicoAze","steam_id":76561199113474246,"connected_time":1879000000000,"state":"active","ping":66},{"user_id":44,"name":"BigBubble42","steam_id":76561198136286123,"connected_time":1191000000000,"state":"active","ping":65},{"user_id":62,"name":"HUMBY","steam_id":76561198065045867,"connected_time":498000000000,"state":"active","ping":90},{"user_id":61,"name":"Waesel","steam_id":76561198069188177,"connected_time":561000000000,"state":"active","ping":76},{"user_id":38,"name":"Veritox","steam_id":76561198075778026,"connected_time":1277000000000,"state":"active","ping":58},{"user_id":52,"name":"SneekiCheekiQbone","steam_id":76561198045077980,"connected_time":1042000000000,"state":"active","ping":50},{"user_id":54,"name":"Rennsellaer","steam_id":76561198096207580,"connected_time":1025000000000,"state":"active","ping":61},{"user_id":42,"name":"mach5","steam_id":76561198014094290,"connected_time":1229000000000,"state":"active","ping":77},{"user_id":43,"name":"Wool","steam_id":76561198332704108,"connected_time":1213000000000,"state":"active","ping":91}]},{"server_id":19,"name":"Uncletopia | San Francisco | 3 | Stopwatch","name_short":"sfo-3","host":"sfo-1.us.uncletopia.com","port":27035,"enabled":true,"region":"us-west","cc":"us","latitude":37.77397,"longitude":-122.4313,"reserved":0,"last_update":"0001-01-01T00:00:00Z","name_a2s":"Uncletopia | San Francisco | 3 | Stopwatch","protocol":17,"map":"workshop/koth_bagel_rc6.ugc2514036946","folder":"tf","game":"Team Fortress","app_id":440,"player_count":0,"max_players":24,"Bots":0,"server_type":"Dedicated","server_os":"Linux","password":true,"vac":true,"version":"7961495","steam_id":85568392924742824,"keywords":["cp","nocrits","nodmgspread","uncletopia"],"game_id":440,"stv_port":27036,"stv_name":"Uncletopia | San Francisco | 3 | Stopwatch | STV","players":null},{"server_id":20,"name":"Uncletopia | San Francisco | 4 | Community","name_short":"sfo-4","host":"sfo-1.us.uncletopia.com","port":27045,"enabled":true,"region":"us-west","cc":"us","latitude":37.77397,"longitude":-122.4313,"reserved":0,"last_update":"0001-01-01T00:00:00Z","name_a2s":"Uncletopia | San Francisco | 4 | Community","protocol":17,"map":"pl_pier","folder":"tf","game":"Team Fortress","app_id":440,"player_count":0,"max_players":24,"Bots":0,"server_type":"Dedicated","server_os":"Linux","password":true,"vac":true,"version":"7961495","steam_id":85568392924742826,"keywords":["nocrits","nodmgspread","payload","uncletopia"],"game_id":440,"stv_port":27046,"stv_name":"Uncletopia | San Francisco | 4 | Community | STV","players":null},{"server_id":141,"name":"Uncletopia | Sydney | 1 | All Maps","name_short":"syd-1","host":"syd-1.au.uncletopia.com","port":27015,"enabled":true,"region":"au","cc":"au","latitude":-33.865143,"longitude":151.2099,"reserved":0,"last_update":"0001-01-01T00:00:00Z","name_a2s":"Uncletopia | Sydney | 1 | All Maps","protocol":17,"map":"pl_frontier_final","folder":"tf","game":"Team Fortress","app_id":440,"player_count":9,"max_players":24,"Bots":0,"server_type":"Dedicated","server_os":"Linux","password":true,"vac":true,"version":"7961495","steam_id":85568392924470001,"keywords":["nocrits","nodmgspread","payload","uncletopia"],"game_id":440,"stv_port":27016,"stv_name":"Uncletopia | Sydney | 1 | All Maps | STV","players":[{"user_id":22,"name":"{Azura Sarah}","steam_id":76561197989210208,"connected_time":1465000000000,"state":"active","ping":51},{"user_id":20,"name":"L-Neo","steam_id":76561198123242967,"connected_time":1923000000000,"state":"active","ping":47},{"user_id":10,"name":"Burnz","steam_id":76561199170593893,"connected_time":6675000000000,"state":"active","ping":58},{"user_id":23,"name":"we're so back","steam_id":76561198799721381,"connected_time":922000000000,"state":"active","ping":47},{"user_id":24,"name":"DEDSKI","steam_id":76561199258918666,"connected_time":811000000000,"state":"active","ping":64},{"user_id":26,"name":"Medieval Cucumber Sorcerer","steam_id":76561198972095766,"connected_time":484000000000,"state":"active","ping":42},{"user_id":28,"name":"soupcan","steam_id":76561199376385352,"connected_time":401000000000,"state":"active","ping":60},{"user_id":29,"name":"little raw meat boy","steam_id":76561199248254676,"connected_time":303000000000,"state":"active","ping":59},{"user_id":30,"name":"King Stan II","steam_id":76561198890742309,"connected_time":219000000000,"state":"active","ping":71}]},{"server_id":123,"name":"Uncletopia | Sydney | 2 | All Maps","name_short":"syd-2","host":"syd-1.au.uncletopia.com","port":27025,"enabled":true,"region":"au","cc":"au","latitude":-33.865143,"longitude":151.2099,"reserved":0,"last_update":"0001-01-01T00:00:00Z","name_a2s":"Uncletopia | Sydney | 2 | All Maps","protocol":17,"map":"koth_lakeside_final","folder":"tf","game":"Team Fortress","app_id":440,"player_count":0,"max_players":24,"Bots":0,"server_type":"Dedicated","server_os":"Linux","password":true,"vac":true,"version":"7961495","steam_id":85568392924470002,"keywords":["cp","nocrits","nodmgspread","uncletopia"],"game_id":440,"stv_port":27026,"stv_name":"Uncletopia | Sydney | 2 | All Maps | STV","players":null},{"server_id":395,"name":"Uncletopia | Sydney | 3 | All Maps","name_short":"syd-3","host":"syd-1.au.uncletopia.com","port":27035,"enabled":true,"region":"au","cc":"au","latitude":-33.865143,"longitude":151.2099,"reserved":0,"last_update":"0001-01-01T00:00:00Z","name_a2s":"Uncletopia | Sydney | 3 | All Maps","protocol":17,"map":"koth_lakeside_final","folder":"tf","game":"Team Fortress","app_id":440,"player_count":0,"max_players":24,"Bots":0,"server_type":"Dedicated","server_os":"Linux","password":true,"vac":true,"version":"7961495","steam_id":85568392925194467,"keywords":["cp","nocrits","nodmgspread","uncletopia"],"game_id":440,"stv_port":27036,"stv_name":"Uncletopia | Sydney | 3 | All Maps | STV","players":null},{"server_id":396,"name":"Uncletopia | Sydney | 4 | All Maps","name_short":"syd-4","host":"syd-1.au.uncletopia.com","port":27045,"enabled":true,"region":"au","cc":"au","latitude":-33.865143,"longitude":151.2099,"reserved":0,"last_update":"0001-01-01T00:00:00Z","name_a2s":"Uncletopia | Sydney | 4 | All Maps","protocol":17,"map":"cp_process_final","folder":"tf","game":"Team Fortress","app_id":440,"player_count":0,"max_players":24,"Bots":0,"server_type":"Dedicated","server_os":"Linux","password":true,"vac":true,"version":"7961495","steam_id":85568392925397958,"keywords":["cp","nocrits","nodmgspread","uncletopia"],"game_id":440,"stv_port":27046,"stv_name":"Uncletopia | Sydney | 4 | All Maps | STV","players":null},{"server_id":58,"name":"Uncletopia | Sydney | 5 | Stopwatch","name_short":"syd-5","host":"syd-1.au.uncletopia.com","port":27055,"enabled":true,"region":"au","cc":"au","latitude":-33.865143,"longitude":151.2099,"reserved":0,"last_update":"0001-01-01T00:00:00Z","name_a2s":"Uncletopia | Sydney | 5 | Stopwatch","protocol":17,"map":"pl_frontier_final","folder":"tf","game":"Team Fortress","app_id":440,"player_count":0,"max_players":24,"Bots":0,"server_type":"Dedicated","server_os":"Linux","password":true,"vac":true,"version":"7961495","steam_id":85568392925397959,"keywords":["nocrits","nodmgspread","payload","uncletopia"],"game_id":440,"stv_port":27056,"stv_name":"Uncletopia | Sydney | 5 | Stopwatch | STV","players":null},{"server_id":59,"name":"Uncletopia | Sydney | 6 | Community","name_short":"syd-6","host":"syd-1.au.uncletopia.com","port":27065,"enabled":true,"region":"au","cc":"au","latitude":-33.865143,"longitude":151.2099,"reserved":0,"last_update":"0001-01-01T00:00:00Z","name_a2s":"Uncletopia | Sydney | 6 | Community","protocol":17,"map":"cp_sunshine","folder":"tf","game":"Team Fortress","app_id":440,"player_count":0,"max_players":24,"Bots":0,"server_type":"Dedicated","server_os":"Linux","password":true,"vac":true,"version":"7961495","steam_id":85568392925397960,"keywords":["cp","nocrits","nodmgspread","uncletopia"],"game_id":440,"stv_port":27066,"stv_name":"Uncletopia | Sydney | 6 | Community | STV","players":null},{"server_id":49,"name":"Uncletopia | Warsaw | 1 | One Thousand Uncles","name_short":"waw-1","host":"waw-1.pl.uncletopia.com","port":27015,"enabled":true,"region":"eu","cc":"pl","latitude":52.2297,"longitude":21.017532,"reserved":0,"last_update":"0001-01-01T00:00:00Z","name_a2s":"Uncletopia | Warsaw | 1 | One Thousand Uncles","protocol":17,"map":"pl_upward","folder":"tf","game":"Team Fortress","app_id":440,"player_count":19,"max_players":32,"Bots":16,"server_type":"Dedicated","server_os":"Linux","password":true,"vac":true,"version":"7961495","steam_id":85568392925397850,"keywords":["alltalk","bots","danepve","increased_maxplayers","nocrits","norespawntime","payload","uncletopia"],"game_id":440,"stv_port":0,"stv_name":"","players":[{"user_id":463,"name":"Zillsy","steam_id":76561198166436893,"connected_time":959000000000,"state":"active","ping":45},{"user_id":482,"name":"Marx_guard","steam_id":76561198987233274,"connected_time":586000000000,"state":"active","ping":52},{"user_id":481,"name":"SvinoPitek","steam_id":76561199402865949,"connected_time":671000000000,"state":"active","ping":42}]},{"server_id":50,"name":"Uncletopia | Warsaw | 2 | One Thousand Uncles","name_short":"waw-2","host":"waw-1.pl.uncletopia.com","port":27025,"enabled":true,"region":"eu","cc":"pl","latitude":52.2297,"longitude":21.017532,"reserved":0,"last_update":"0001-01-01T00:00:00Z","name_a2s":"Uncletopia | Warsaw | 2 | One Thousand Uncles","protocol":17,"map":"pl_hoodoo_final","folder":"tf","game":"Team Fortress","app_id":440,"player_count":25,"max_players":32,"Bots":16,"server_type":"Dedicated","server_os":"Linux","password":true,"vac":true,"version":"7961495","steam_id":85568392925397851,"keywords":["alltalk","bots","danepve","increased_maxplayers","nocrits","norespawntime","payload","uncletopia"],"game_id":440,"stv_port":0,"stv_name":"","players":[{"user_id":746,"name":"pyro","steam_id":76561199255856612,"connected_time":4932000000000,"state":"active","ping":34},{"user_id":777,"name":"riaan222","steam_id":76561198167235331,"connected_time":1941000000000,"state":"active","ping":222},{"user_id":781,"name":"yoingle spoingle","steam_id":76561198336684715,"connected_time":1707000000000,"state":"active","ping":176},{"user_id":774,"name":"John Marston","steam_id":76561198998780070,"connected_time":2366000000000,"state":"active","ping":61},{"user_id":749,"name":"JellieGamerYT","steam_id":76561199113839333,"connected_time":4663000000000,"state":"active","ping":76},{"user_id":778,"name":"blackman.vbhop.2004","steam_id":76561198268384872,"connected_time":1888000000000,"state":"active","ping":85},{"user_id":779,"name":"ZharMeny","steam_id":76561199086841610,"connected_time":1836000000000,"state":"active","ping":102},{"user_id":789,"name":"Tx_madmash","steam_id":76561198924656512,"connected_time":621000000000,"state":"active","ping":93},{"user_id":790,"name":"bobbymcbobington","steam_id":76561199089411172,"connected_time":568000000000,"state":"active","ping":229}]},{"server_id":51,"name":"Uncletopia | Warsaw | 3 | All Maps","name_short":"waw-3","host":"waw-1.pl.uncletopia.com","port":27035,"enabled":true,"region":"eu","cc":"pl","latitude":52.2297,"longitude":21.017532,"reserved":0,"last_update":"0001-01-01T00:00:00Z","name_a2s":"Uncletopia | Warsaw | 3 | All Maps","protocol":17,"map":"pl_barnblitz","folder":"tf","game":"Team Fortress","app_id":440,"player_count":0,"max_players":24,"Bots":0,"server_type":"Dedicated","server_os":"Linux","password":true,"vac":true,"version":"7961495","steam_id":85568392925397852,"keywords":["nocrits","nodmgspread","payload","uncletopia"],"game_id":440,"stv_port":27036,"stv_name":"Uncletopia | Warsaw | 3 | All Maps | STV","players":null},{"server_id":52,"name":"Uncletopia | Warsaw | 4 | All Maps","name_short":"waw-4","host":"waw-1.pl.uncletopia.com","port":27045,"enabled":true,"region":"eu","cc":"pl","latitude":52.2297,"longitude":21.017532,"reserved":0,"last_update":"0001-01-01T00:00:00Z","name_a2s":"Uncletopia | Warsaw | 4 | All Maps","protocol":17,"map":"cp_process_final","folder":"tf","game":"Team Fortress","app_id":440,"player_count":1,"max_players":24,"Bots":0,"server_type":"Dedicated","server_os":"Linux","password":true,"vac":true,"version":"7961495","steam_id":85568392925397853,"keywords":["cp","nocrits","nodmgspread","uncletopia"],"game_id":440,"stv_port":27046,"stv_name":"Uncletopia | Warsaw | 4 | All Maps | STV","players":[{"user_id":32,"name":"Cabbch","steam_id":76561198045955679,"connected_time":37000000000,"state":"spawning","ping":105}]},{"server_id":53,"name":"Uncletopia | Warsaw | 5 | Stopwatch","name_short":"waw-5","host":"waw-1.pl.uncletopia.com","port":27055,"enabled":true,"region":"eu","cc":"pl","latitude":52.2297,"longitude":21.017532,"reserved":0,"last_update":"0001-01-01T00:00:00Z","name_a2s":"Uncletopia | Warsaw | 5 | Stopwatch","protocol":17,"map":"workshop/cp_reckoner_rc6.ugc674719999","folder":"tf","game":"Team Fortress","app_id":440,"player_count":0,"max_players":24,"Bots":0,"server_type":"Dedicated","server_os":"Linux","password":true,"vac":true,"version":"7961495","steam_id":85568392925397854,"keywords":["cp","nocrits","nodmgspread","uncletopia"],"game_id":440,"stv_port":27056,"stv_name":"Uncletopia | Warsaw | 5 | Stopwatch | STV","players":null},{"server_id":54,"name":"Uncletopia | Warsaw | 6 | Community","name_short":"waw-6","host":"waw-1.pl.uncletopia.com","port":27065,"enabled":true,"region":"eu","cc":"pl","latitude":52.2297,"longitude":21.017532,"reserved":0,"last_update":"0001-01-01T00:00:00Z","name_a2s":"Uncletopia | Warsaw | 6 | Community","protocol":17,"map":"workshop/pl_badwater_pro_v12.ugc2142942074","folder":"tf","game":"Team Fortress","app_id":440,"player_count":0,"max_players":24,"Bots":0,"server_type":"Dedicated","server_os":"Linux","password":true,"vac":true,"version":"7961495","steam_id":85568392925397856,"keywords":["nocrits","nodmgspread","payload","uncletopia"],"game_id":440,"stv_port":27066,"stv_name":"Uncletopia | Warsaw | 6 | Community | STV","players":null}]}