{"status":true,"message":"","result":[{"server_id":9,"name":"Uncletopia | Atlanta | 1 | All Maps","name_short":"atl-1","host":"atl-1.us.uncletopia.com","port":27015,"enabled":true,"region":"us-east","cc":"us","latitude":33.753746,"longitude":-84.38633,"reserved":0,"last_update":"0001-01-01T00:00:00Z","name_a2s":"Uncletopia | Atlanta | 1 | All Maps","protocol":17,"map":"cp_powerhouse","folder":"tf","game":"Team Fortress","app_id":440,"player_count":23,"max_players":24,"Bots":0,"server_type":"Dedicated","server_os":"Linux","password":true,"vac":true,"version":"7757534","steam_id":85568392924469982,"keywords":["cp","nocrits","nodmgspread","uncletopia"],"game_id":440,"stv_port":27016,"stv_name":"Uncletopia | Atlanta | 1 | All Maps | STV","players":[{"user_id":709,"name":"com lag","steam_id":76561198019019392,"connected_time":3820000000000,"state":"active","ping":62},{"user_id":721,"name":"ATL1 | Pango","steam_id":76561198069811545,"connected_time":902000000000,"state":"active","ping":45},{"user_id":728,"name":"floofy","steam_id":76561198389769098,"connected_time":5000000000,"state":"spawning","ping":84},{"user_id":710,"name":"mayhem","steam_id":76561199246637881,"connected_time":3696000000000,"state":"active","ping":56},{"user_id":724,"name":"Edited Atom","steam_id":76561198210844957,"connected_time":883000000000,"state":"active","ping":54},{"user_id":646,"name":"HARRY","steam_id":76561198842067238,"connected_time":8220000000000,"state":"active","ping":60},{"user_id":633,"name":"chubbbo","steam_id":76561198943598378,"connected_time":9772000000000,"state":"active","ping":37},{"user_id":727,"name":"plasmaofthedawn","steam_id":76561198287916194,"connected_time":10000000000,"state":"active","ping":51},{"user_id":714,"name":"e0e0","steam_id":76561198293839750,"connected_time":3463000000000,"state":"active","ping":50},{"user_id":673,"name":"psy","steam_id":76561198013195018,"connected_time":5685000000000,"state":"active","ping":85},{"user_id":693,"name":"obamascout","steam_id":76561199073972797,"connected_time":4614000000000,"state":"active","ping":99},{"user_id":719,"name":"Roald (Solemn Vow Collector)","steam_id":76561198143182772,"connected_time":2553000000000,"state":"active","ping":72},{"user_id":688,"name":"hygge","steam_id":76561197960327792,"connected_time":4753000000000,"state":"active","ping":67},{"user_id":686,"name":"basil","steam_id":76561198075758026,"connected_time":4843000000000,"state":"active","ping":70},{"user_id":679,"name":"Jabawakai","steam_id":76561198088881254,"connected_time":5203000000000,"state":"active","ping":70},{"user_id":725,"name":"porfer","steam_id":76561199118049168,"connected_time":883000000000,"state":"active","ping":103},{"user_id":703,"name":"Frost ‚ô•","steam_id":76561198168870617,"connected_time":4288000000000,"state":"active","ping":75},{"user_id":707,"name":"chexo4","steam_id":76561198150532531,"connected_time":3845000000000,"state":"active","ping":49},{"user_id":726,"name":"stink","steam_id":76561198099318923,"connected_time":432000000000,"state":"active","ping":75},{"user_id":675,"name":"Fasthink","steam_id":76561197985512715,"connected_time":5504000000000,"state":"active","ping":61},{"user_id":716,"name":"ATL1 | Crystron","steam_id":76561198880437428,"connected_time":3150000000000,"state":"active","ping":84},{"user_id":717,"name":"Kirb Says Poyo","steam_id":76561198212823547,"connected_time":2932000000000,"state":"active","ping":112},{"user_id":683,"name":"Orko (Third Degree Enjoyer)","steam_id":76561198162232131,"connected_time":5027000000000,"state":"active","ping":81}]},{"server_id":104,"name":"Uncletopia | Atlanta | 2 | All Maps","name_short":"atl-2","host":"atl-1.us.uncletopia.com","port":27025,"enabled":true,"region":"us-east","cc":"us","latitude":33.753746,"longitude":-84.38633,"reserved":0,"last_update":"0001-01-01T00:00:00Z","name_a2s":"Uncletopia | Atlanta | 2 | All Maps","protocol":17,"map":"cp_dustbowl","folder":"tf","game":"Team Fortress","app_id":440,"player_count":23,"max_players":24,"Bots":0,"server_type":"Dedicated","server_os":"Linux","password":true,"vac":true,"version":"7757534","steam_id":85568392924469983,"keywords":["cp","nocrits","nodmgspread","uncletopia"],"game_id":440,"stv_port":27026,"stv_name":"Uncletopia | Atlanta | 2 | All Maps | STV","players":[{"user_id":619,"name":"Plague Roach","steam_id":76561198037953356,"connected_time":2816000000000,"state":"active","ping":97},{"user_id":639,"name":"ultralisk52","steam_id":76561198051666604,"connected_time":1149000000000,"state":"active","ping":77},{"user_id":640,"name":"hamletespacial","steam_id":76561199084414649,"connected_time":1105000000000,"state":"active","ping":63},{"user_id":658,"name":"king dedede","steam_id":76561198965562679,"connected_time":537000000000,"state":"active","ping":73},{"user_id":633,"name":"Rat","steam_id":76561199102985277,"connected_time":1764000000000,"state":"active","ping":84},{"user_id":641,"name":"SomeRandomGuy","steam_id":76561199092571346,"connected_time":1097000000000,"state":"active","ping":74},{"user_id":610,"name":"Briefcase","steam_id":76561198913610148,"connected_time":3801000000000,"state":"active","ping":66},{"user_id":654,"name":"FemboyNate","steam_id":76561198146636410,"connected_time":800000000000,"state":"active","ping":60},{"user_id":595,"name":"jayb1rd","steam_id":76561198057185312,"connected_time":5383000000000,"state":"active","ping":44},{"user_id":659,"name":"Nox(She/Her)","steam_id":76561198141950842,"connected_time":151000000000,"state":"active","ping":44},{"user_id":655,"name":"Bismofunyuns","steam_id":76561198154206862,"connected_time":788000000000,"state":"active","ping":113},{"user_id":643,"name":"Hmmm","steam_id":76561198387695047,"connected_time":1027000000000,"state":"active","ping":83},{"user_id":644,"name":"Vimh","steam_id":76561198384938589,"connected_time":1008000000000,"state":"active","ping":114},{"user_id":657,"name":"Wiener Hole Paper Cut","steam_id":76561198000808203,"connected_time":705000000000,"state":"active","ping":70},{"user_id":651,"name":"troll","steam_id":76561198040890252,"connected_time":850000000000,"state":"active","ping":45},{"user_id":645,"name":"MysticPhoinex","steam_id":76561198283656159,"connected_time":995000000000,"state":"active","ping":64},{"user_id":646,"name":"Donutking20","steam_id":76561198164760031,"connected_time":995000000000,"state":"active","ping":74},{"user_id":661,"name":"Herdez Hot Salsa","steam_id":76561197991740906,"connected_time":125000000000,"state":"active","ping":84},{"user_id":656,"name":"Intestinal Straw","steam_id":76561198082095303,"connected_time":775000000000,"state":"active","ping":70},{"user_id":650,"name":"Rain","steam_id":76561198074827140,"connected_time":890000000000,"state":"active","ping":91},{"user_id":627,"name":"Jake The Snake","steam_id":76561198047722285,"connected_time":2436000000000,"state":"active","ping":70},{"user_id":638,"name":"moth, man, you're troubled","steam_id":76561198801533626,"connected_time":1174000000000,"state":"active","ping":81},{"user_id":616,"name":"SubZero_416","steam_id":76561198176467907,"connected_time":3328000000000,"state":"active","ping":62}]},{"server_id":400,"name":"Uncletopia | Atlanta | 3 | Community","name_short":"atl-3","host":"atl-1.us.uncletopia.com","port":27035,"enabled":true,"region":"us-east","cc":"us","latitude":33.753746,"longitude":-84.38633,"reserved":0,"last_update":"0001-01-01T00:00:00Z","name_a2s":"Uncletopia | Atlanta | 3 | Community","protocol":17,"map":"workshop/koth_trenchfoot_b1a.ugc731436616","folder":"tf","game":"Team Fortress","app_id":440,"player_count":0,"max_players":24,"Bots":0,"server_type":"Dedicated","server_os":"Linux","password":true,"vac":true,"version":"7757534","steam_id":85568392924515187,"keywords":["cp","nocrits","nodmgspread","uncletopia"],"game_id":440,"stv_port":27036,"stv_name":"Uncletopia | Atlanta | 3 | Community | STV","players":null},{"server_id":401,"name":"Uncletopia | Atlanta | 4 | No Payload","name_short":"atl-4","host":"atl-1.us.uncletopia.com","port":27045,"enabled":true,"region":"us-east","cc":"us","latitude":33.753746,"longitude":-84.38633,"reserved":0,"last_update":"0001-01-01T00:00:00Z","name_a2s":"","protocol":0,"map":"","folder":"","game":"","app_id":0,"player_count":0,"max_players":0,"Bots":0,"server_type":"","server_os":"","password":false,"vac":false,"version":"","steam_id":0,"keywords":null,"game_id":0,"stv_port":0,"stv_name":"","players":null},{"server_id":2,"name":"Uncletopia | Chicago | 1 | All Maps","name_short":"chi-1","host":"chi-1.us.uncletopia.com","port":27015,"enabled":true,"region":"us-central","cc":"us","latitude":41.881832,"longitude":-87.62318,"reserved":0,"last_update":"0001-01-01T00:00:00Z","name_a2s":"Uncletopia | Chicago | 1 | All Maps","protocol":17,"map":"pl_borneo","folder":"tf","game":"Team Fortress","app_id":440,"player_count":24,"max_players":24,"Bots":0,"server_type":"Dedicated","server_os":"Linux","password":true,"vac":true,"version":"7757534","steam_id":85568392924469984,"keywords":["nocrits","nodmgspread","payload","uncletopia"],"game_id":440,"stv_port":27016,"stv_name":"Uncletopia | Chicago | 1 | All Maps | STV","players":[{"user_id":969,"name":"F0restFerret","steam_id":76561199112458876,"connected_time":342000000000,"state":"active","ping":64},{"user_id":944,"name":"wolf_71","steam_id":76561198963570945,"connected_time":2269000000000,"state":"active","ping":67},{"user_id":965,"name":"Praxis","steam_id":76561197960794303,"connected_time":386000000000,"state":"active","ping":110},{"user_id":946,"name":"Bubblegum Bitch","steam_id":76561198043307965,"connected_time":2255000000000,"state":"active","ping":82},{"user_id":934,"name":"God of bread","steam_id":76561198373688035,"connected_time":4244000000000,"state":"active","ping":61},{"user_id":955,"name":"C4K3","steam_id":76561197996963285,"connected_time":1945000000000,"state":"active","ping":69},{"user_id":953,"name":"OVA Iggy","steam_id":76561198120355981,"connected_time":2180000000000,"state":"active","ping":60},{"user_id":922,"name":"Snoogs","steam_id":76561198444880931,"connected_time":5256000000000,"state":"active","ping":70},{"user_id":937,"name":"Doublebagel47","steam_id":76561198832021744,"connected_time":2729000000000,"state":"active","ping":72},{"user_id":927,"name":"Kapitan Bomba","steam_id":76561199102087660,"connected_time":4908000000000,"state":"active","ping":67},{"user_id":960,"name":"nut e","steam_id":76561198082210257,"connected_time":1142000000000,"state":"active","ping":55},{"user_id":963,"name":"Counter striking man","steam_id":76561198312058142,"connected_time":582000000000,"state":"active","ping":80},{"user_id":959,"name":"Blagoni","steam_id":76561198079134230,"connected_time":1169000000000,"state":"active","ping":100},{"user_id":964,"name":"chaffy","steam_id":76561198021754567,"connected_time":405000000000,"state":"active","ping":53},{"user_id":923,"name":"jayhong","steam_id":76561198046772832,"connected_time":5133000000000,"state":"active","ping":43},{"user_id":962,"name":"BatJet","steam_id":76561198147738441,"connected_time":774000000000,"state":"active","ping":111},{"user_id":966,"name":"Milkius","steam_id":76561198401392472,"connected_time":386000000000,"state":"active","ping":75},{"user_id":936,"name":"AttackCommander","steam_id":76561198111522679,"connected_time":2929000000000,"state":"active","ping":79},{"user_id":958,"name":"MoanfulMilk","steam_id":76561199229169396,"connected_time":1323000000000,"state":"active","ping":72},{"user_id":961,"name":"Cult of neurodivergency üè≥","steam_id":76561199112194007,"connected_time":816000000000,"state":"active","ping":85},{"user_id":972,"name":"Aegis","steam_id":76561198272052750,"connected_time":101000000000,"state":"active","ping":75},{"user_id":968,"name":"wildfire","steam_id":76561197994242246,"connected_time":362000000000,"state":"active","ping":76},{"user_id":973,"name":"Im High","steam_id":76561198049954886,"connected_time":90000000000,"state":"active","ping":67},{"user_id":919,"name":"!! HEY GOYAMON !!","steam_id":76561198095313463,"connected_time":5662000000000,"state":"active","ping":70}]},{"server_id":106,"name":"Uncletopia | Chicago | 2 | All Maps","name_short":"chi-2","host":"chi-1.us.uncletopia.com","port":27025,"enabled":true,"region":"us-central","cc":"us","latitude":41.881832,"longitude":-87.62318,"reserved":0,"last_update":"0001-01-01T00:00:00Z","name_a2s":"Uncletopia | Chicago | 2 | All Maps","protocol":17,"map":"pl_upward","folder":"tf","game":"Team Fortress","app_id":440,"player_count":24,"max_players":24,"Bots":0,"server_type":"Dedicated","server_os":"Linux","password":true,"vac":true,"version":"7757534","steam_id":85568392924469985,"keywords":["nocrits","nodmgspread","payload","uncletopia"],"game_id":440,"stv_port":27026,"stv_name":"Uncletopia | Chicago | 2 | All Maps | STV","players":[{"user_id":755,"name":"Glass Joe","steam_id":76561198317365741,"connected_time":3715000000000,"state":"active","ping":65},{"user_id":798,"name":"Charlie","steam_id":76561199098209171,"connected_time":589000000000,"state":"active","ping":73},{"user_id":771,"name":"Protato","steam_id":76561198061182563,"connected_time":2138000000000,"state":"active","ping":70},{"user_id":796,"name":"villainy","steam_id":76561199061380038,"connected_time":736000000000,"state":"active","ping":74},{"user_id":809,"name":"gyozaking","steam_id":76561197972312696,"connected_time":103000000000,"state":"active","ping":33},{"user_id":799,"name":"Joe Beef","steam_id":76561198437703253,"connected_time":581000000000,"state":"active","ping":55},{"user_id":800,"name":"TynMaiden","steam_id":76561198847327488,"connected_time":579000000000,"state":"active","ping":74},{"user_id":788,"name":"El Gato Paranoico","steam_id":76561198116567116,"connected_time":1528000000000,"state":"active","ping":104},{"user_id":765,"name":"stevemarshall","steam_id":76561198405982285,"connected_time":3120000000000,"state":"active","ping":44},{"user_id":742,"name":"gps","steam_id":76561198067492304,"connected_time":5400000000000,"state":"active","ping":80},{"user_id":801,"name":"Bread Mold No. 69","steam_id":76561199179906644,"connected_time":577000000000,"state":"active","ping":84},{"user_id":806,"name":"Chicken Joe","steam_id":76561198095143020,"connected_time":517000000000,"state":"active","ping":123},{"user_id":802,"name":" ï‚Ä¢·¥•‚Ä¢ î the bear","steam_id":76561197989591976,"connected_time":574000000000,"state":"active","ping":77},{"user_id":758,"name":"Wallem","steam_id":76561198052361822,"connected_time":3673000000000,"state":"active","ping":75},{"user_id":792,"name":"Farmer From The Barnyard","steam_id":76561198138054595,"connected_time":1067000000000,"state":"active","ping":63},{"user_id":803,"name":"Aurro","steam_id":76561198315692300,"connected_time":561000000000,"state":"active","ping":48},{"user_id":804,"name":"Auld","steam_id":76561198013180268,"connected_time":559000000000,"state":"active","ping":93},{"user_id":805,"name":"chiswola","steam_id":76561198046920142,"connected_time":549000000000,"state":"active","ping":74},{"user_id":757,"name":"Motreir","steam_id":76561198151717946,"connected_time":3709000000000,"state":"active","ping":77},{"user_id":759,"name":"captainskullet","steam_id":76561198314597170,"connected_time":3670000000000,"state":"active","ping":72},{"user_id":786,"name":"frank gallagher","steam_id":76561198973429541,"connected_time":1725000000000,"state":"active","ping":98},{"user_id":770,"name":"Psyionn","steam_id":76561198024461287,"connected_time":2145000000000,"state":"active","ping":46},{"user_id":808,"name":"Jack Horner","steam_id":76561198068039870,"connected_time":400000000000,"state":"active","ping":76},{"user_id":791,"name":"wiiblob","steam_id":76561198109106242,"connected_time":1227000000000,"state":"active","ping":137}]},{"server_id":402,"name":"Uncletopia | Chicago | 3 | All Maps","name_short":"chi-3","host":"chi-1.us.uncletopia.com","port":27035,"enabled":true,"region":"us-central","cc":"us","latitude":41.881832,"longitude":-87.62318,"reserved":0,"last_update":"0001-01-01T00:00:00Z","name_a2s":"Uncletopia | Chicago | 3 | All Maps","protocol":17,"map":"pl_snowycoast","folder":"tf","game":"Team Fortress","app_id":440,"player_count":23,"max_players":24,"Bots":0,"server_type":"Dedicated","server_os":"Linux","password":true,"vac":true,"version":"7757534","steam_id":85568392924515191,"keywords":["nocrits","nodmgspread","payload","uncletopia"],"game_id":440,"stv_port":27036,"stv_name":"Uncletopia | Chicago | 3 | All Maps | STV","players":[{"user_id":710,"name":"PEPPINO","steam_id":76561198066566813,"connected_time":191000000000,"state":"active","ping":137},{"user_id":711,"name":"THE NOISE","steam_id":76561198084849541,"connected_time":181000000000,"state":"active","ping":58},{"user_id":712,"name":"LOTO","steam_id":76561198048419095,"connected_time":166000000000,"state":"active","ping":85},{"user_id":713,"name":"HeatedArtist","steam_id":76561198961937603,"connected_time":158000000000,"state":"active","ping":109},{"user_id":714,"name":"yoodle doodle","steam_id":76561198054897884,"connected_time":118000000000,"state":"active","ping":73},{"user_id":691,"name":"Scoober","steam_id":76561198079736959,"connected_time":2923000000000,"state":"active","ping":79},{"user_id":719,"name":"lil boogie","steam_id":76561198064059721,"connected_time":77000000000,"state":"active","ping":91},{"user_id":607,"name":"coxen","steam_id":76561198095125557,"connected_time":9826000000000,"state":"active","ping":62},{"user_id":716,"name":"Larkest","steam_id":76561198008789844,"connected_time":90000000000,"state":"active","ping":71},{"user_id":717,"name":"threethree","steam_id":76561198177354155,"connected_time":86000000000,"state":"active","ping":48},{"user_id":663,"name":"Vintage TV","steam_id":76561198800334545,"connected_time":4773000000000,"state":"active","ping":107},{"user_id":718,"name":"ChaolinDrake","steam_id":76561198028027997,"connected_time":80000000000,"state":"active","ping":108},{"user_id":720,"name":"Klip","steam_id":76561198316254429,"connected_time":72000000000,"state":"active","ping":75},{"user_id":707,"name":"Bread Baker","steam_id":76561198185335103,"connected_time":818000000000,"state":"active","ping":55},{"user_id":626,"name":"the ifunny watermark","steam_id":76561198077272494,"connected_time":7097000000000,"state":"active","ping":51},{"user_id":683,"name":"vanta","steam_id":76561198084317504,"connected_time":3785000000000,"state":"active","ping":48},{"user_id":721,"name":"dulg","steam_id":76561198127640309,"connected_time":71000000000,"state":"active","ping":78},{"user_id":672,"name":"Barlon","steam_id":76561198023717515,"connected_time":4061000000000,"state":"active","ping":74},{"user_id":722,"name":"Big Inch","steam_id":76561198052513500,"connected_time":48000000000,"state":"active","ping":108},{"user_id":695,"name":"Scrumpy Main","steam_id":76561198146302597,"connected_time":2667000000000,"state":"active","ping":64},{"user_id":702,"name":"Shame","steam_id":76561198100490994,"connected_time":1811000000000,"state":"active","ping":76},{"user_id":650,"name":"Mr.Pan","steam_id":76561198069030613,"connected_time":5830000000000,"state":"active","ping":69},{"user_id":699,"name":"Addy \u003c3","steam_id":76561198045819723,"connected_time":1934000000000,"state":"active","ping":85}]},{"server_id":403,"name":"Uncletopia | Chicago | 4 | All Maps","name_short":"chi-4","host":"chi-1.us.uncletopia.com","port":27045,"enabled":true,"region":"us-central","cc":"us","latitude":41.881832,"longitude":-87.62318,"reserved":0,"last_update":"0001-01-01T00:00:00Z","name_a2s":"Uncletopia | Chicago | 4 | All Maps","protocol":17,"map":"pl_thundermountain","folder":"tf","game":"Team Fortress","app_id":440,"player_count":24,"max_players":24,"Bots":0,"server_type":"Dedicated","server_os":"Linux","password":true,"vac":true,"version":"7757534","steam_id":85568392924515193,"keywords":["nocrits","nodmgspread","payload","uncletopia"],"game_id":440,"stv_port":27046,"stv_name":"Uncletopia | Chicago | 4 | All Maps | STV","players":[{"user_id":507,"name":"PoisonIvy","steam_id":76561198072384574,"connected_time":3284000000000,"state":"active","ping":52},{"user_id":477,"name":"super freak","steam_id":76561198133877665,"connected_time":6781000000000,"state":"active","ping":90},{"user_id":533,"name":"The local hobo","steam_id":76561198289650060,"connected_time":584000000000,"state":"active","ping":83},{"user_id":527,"name":"River Rat","steam_id":76561198116383976,"connected_time":1302000000000,"state":"active","ping":116},{"user_id":428,"name":"HanakoToast","steam_id":76561198045233131,"connected_time":9507000000000,"state":"active","ping":106},{"user_id":512,"name":"why my toes fall off?","steam_id":76561198041348890,"connected_time":2824000000000,"state":"active","ping":45},{"user_id":482,"name":"Ask Nicely For Heals","steam_id":76561198138478907,"connected_time":6432000000000,"state":"active","ping":51},{"user_id":450,"name":"Eminem Sandvich","steam_id":76561198064631314,"connected_time":7999000000000,"state":"active","ping":66},{"user_id":519,"name":"SC|Formuoli","steam_id":76561198254354595,"connected_time":2107000000000,"state":"active","ping":38},{"user_id":517,"name":"Rein","steam_id":76561198300340427,"connected_time":2216000000000,"state":"active","ping":60},{"user_id":494,"name":"schizophrenic with a medigun","steam_id":76561198323435040,"connected_time":4580000000000,"state":"active","ping":60},{"user_id":508,"name":"Amish Robot","steam_id":76561198041156065,"connected_time":3274000000000,"state":"active","ping":80},{"user_id":531,"name":"Bigstu","steam_id":76561197974497071,"connected_time":791000000000,"state":"active","ping":115},{"user_id":532,"name":"good!","steam_id":76561198112388117,"connected_time":674000000000,"state":"active","ping":81},{"user_id":534,"name":"koompa_stomp","steam_id":76561198073081735,"connected_time":71000000000,"state":"active","ping":101},{"user_id":474,"name":"misterjozo","steam_id":76561198012300755,"connected_time":6973000000000,"state":"active","ping":110},{"user_id":478,"name":"GOT DA STRAP ON ME #NOLESBO","steam_id":76561198144766439,"connected_time":6774000000000,"state":"active","ping":47},{"user_id":485,"name":"hej","steam_id":76561197996366940,"connected_time":5916000000000,"state":"active","ping":60},{"user_id":502,"name":"Vox Vulpera","steam_id":76561198796227041,"connected_time":3733000000000,"state":"active","ping":86},{"user_id":486,"name":"MedRed‚Ñ¢ #IATAH","steam_id":76561198002962970,"connected_time":5893000000000,"state":"active","ping":99},{"user_id":506,"name":"manga man","steam_id":76561198106435815,"connected_time":3372000000000,"state":"active","ping":100},{"user_id":525,"name":"GothicHusky","steam_id":76561198246207010,"connected_time":1369000000000,"state":"active","ping":92},{"user_id":522,"name":"Mr.Poopy Pants","steam_id":76561199037703635,"connected_time":1551000000000,"state":"active","ping":74},{"user_id":523,"name":"Deathpill","steam_id":76561197994404793,"connected_time":1549000000000,"state":"active","ping":72}]},{"server_id":36,"name":"Uncletopia | Chicago | 5 | All Maps","name_short":"chi-5","host":"chi-2.us.uncletopia.com","port":27015,"enabled":true,"region":"us-central","cc":"us","latitude":41.881832,"longitude":-87.62318,"reserved":0,"last_update":"0001-01-01T00:00:00Z","name_a2s":"Uncletopia | Chicago | 5 | All Maps","protocol":17,"map":"pl_snowycoast","folder":"tf","game":"Team Fortress","app_id":440,"player_count":24,"max_players":24,"Bots":0,"server_type":"Dedicated","server_os":"Linux","password":true,"vac":true,"version":"7757534","steam_id":85568392924866362,"keywords":["nocrits","nodmgspread","payload","uncletopia"],"game_id":440,"stv_port":27016,"stv_name":"Uncletopia | Chicago | 5 | All Maps | STV","players":[{"user_id":627,"name":"INoob5430","steam_id":76561198251896612,"connected_time":974000000000,"state":"active","ping":44},{"user_id":607,"name":"‚ö°VoltonBolton‚ö°","steam_id":76561198189176634,"connected_time":4252000000000,"state":"active","ping":92},{"user_id":608,"name":"BongBong","steam_id":76561198190288063,"connected_time":4089000000000,"state":"active","ping":90},{"user_id":589,"name":"remote_tenor","steam_id":76561198102941724,"connected_time":4989000000000,"state":"active","ping":84},{"user_id":641,"name":"YAG(+___+)GLE","steam_id":76561198066685074,"connected_time":355000000000,"state":"active","ping":94},{"user_id":546,"name":"HumFreY","steam_id":76561198076639682,"connected_time":6951000000000,"state":"active","ping":73},{"user_id":582,"name":"Mario","steam_id":76561198321794277,"connected_time":5110000000000,"state":"active","ping":57},{"user_id":629,"name":"Mkwhackertracker","steam_id":76561198128343704,"connected_time":934000000000,"state":"active","ping":66},{"user_id":630,"name":"steggy","steam_id":76561198000564263,"connected_time":932000000000,"state":"active","ping":70},{"user_id":639,"name":"Infinitytacos","steam_id":76561198884260211,"connected_time":382000000000,"state":"active","ping":46},{"user_id":635,"name":"java","steam_id":76561198030276792,"connected_time":832000000000,"state":"active","ping":60},{"user_id":632,"name":"Meat","steam_id":76561198010019214,"connected_time":930000000000,"state":"active","ping":48},{"user_id":642,"name":"stump","steam_id":76561198012653832,"connected_time":348000000000,"state":"active","ping":60},{"user_id":598,"name":"Discourse","steam_id":76561198984286678,"connected_time":4463000000000,"state":"active","ping":59},{"user_id":633,"name":"lanoc","steam_id":76561198055415367,"connected_time":926000000000,"state":"active","ping":61},{"user_id":637,"name":"slep.py","steam_id":76561197988287144,"connected_time":488000000000,"state":"active","ping":58},{"user_id":621,"name":"skin infant babies","steam_id":76561198082470182,"connected_time":1957000000000,"state":"active","ping":93},{"user_id":643,"name":"Soothsayer","steam_id":76561198051750641,"connected_time":339000000000,"state":"active","ping":119},{"user_id":640,"name":"minerkid2004","steam_id":76561198044262827,"connected_time":373000000000,"state":"active","ping":99},{"user_id":636,"name":"proud owner of a large tongue","steam_id":76561198106690989,"connected_time":711000000000,"state":"active","ping":72},{"user_id":644,"name":"urine trouble","steam_id":76561199013266640,"connected_time":316000000000,"state":"active","ping":51},{"user_id":645,"name":"Drilly22","steam_id":76561198068838338,"connected_time":316000000000,"state":"active","ping":95},{"user_id":613,"name":"SenTreats","steam_id":76561198085835841,"connected_time":3058000000000,"state":"active","ping":115},{"user_id":646,"name":"we gang?","steam_id":76561198119826352,"connected_time":287000000000,"state":"active","ping":76}]},{"server_id":37,"name":"Uncletopia | Chicago | 6 | All Maps","name_short":"chi-6","host":"chi-2.us.uncletopia.com","port":27025,"enabled":true,"region":"us-central","cc":"us","latitude":41.881832,"longitude":-87.62318,"reserved":0,"last_update":"0001-01-01T00:00:00Z","name_a2s":"Uncletopia | Chicago | 6 | All Maps","protocol":17,"map":"pl_swiftwater_final1","folder":"tf","game":"Team Fortress","app_id":440,"player_count":24,"max_players":24,"Bots":0,"server_type":"Dedicated","server_os":"Linux","password":true,"vac":true,"version":"7757534","steam_id":85568392924866363,"keywords":["nocrits","nodmgspread","payload","uncletopia"],"game_id":440,"stv_port":27026,"stv_name":"Uncletopia | Chicago | 6 | All Maps | STV","players":[{"user_id":460,"name":"KalmingKoz","steam_id":76561198362800060,"connected_time":1056000000000,"state":"active","ping":96},{"user_id":450,"name":"anon003","steam_id":76561198286971687,"connected_time":2384000000000,"state":"active","ping":116},{"user_id":442,"name":"Vince Offer","steam_id":76561198991008825,"connected_time":3167000000000,"state":"active","ping":130},{"user_id":472,"name":"RapidkilleR |OsK","steam_id":76561197983157809,"connected_time":183000000000,"state":"active","ping":79},{"user_id":408,"name":"Thunderin' Typhoons","steam_id":76561198197687293,"connected_time":6844000000000,"state":"active","ping":75},{"user_id":471,"name":"Veridian","steam_id":76561198096334078,"connected_time":226000000000,"state":"active","ping":65},{"user_id":458,"name":"Jaydyn","steam_id":76561198140326797,"connected_time":1308000000000,"state":"active","ping":75},{"user_id":463,"name":"DatFluffyPancake","steam_id":76561198271958697,"connected_time":1018000000000,"state":"active","ping":78},{"user_id":475,"name":"blekk","steam_id":76561198000082101,"connected_time":62000000000,"state":"active","ping":69},{"user_id":409,"name":"enmgxcltayiqoacx","steam_id":76561197974965536,"connected_time":6818000000000,"state":"active","ping":64},{"user_id":448,"name":"Wang of Wall St","steam_id":76561198047460598,"connected_time":2614000000000,"state":"active","ping":85},{"user_id":376,"name":"Mr. Dry Lips","steam_id":76561198028157625,"connected_time":10813000000000,"state":"active","ping":75},{"user_id":474,"name":"Toxic Medic Main (he/they)","steam_id":76561198009314845,"connected_time":169000000000,"state":"active","ping":116},{"user_id":465,"name":"I Like Bugs (In A Bad Way)","steam_id":76561198980062131,"connected_time":1016000000000,"state":"active","ping":74},{"user_id":440,"name":"Harper","steam_id":76561199214101143,"connected_time":3695000000000,"state":"active","ping":72},{"user_id":466,"name":"Omni-S","steam_id":76561198082396372,"connected_time":1016000000000,"state":"active","ping":79},{"user_id":441,"name":"sweaterfan","steam_id":76561199389567214,"connected_time":3563000000000,"state":"active","ping":69},{"user_id":404,"name":"Gachalover","steam_id":76561199231552074,"connected_time":7075000000000,"state":"active","ping":105},{"user_id":434,"name":"Quiet Kid Wit A Rlly Large BP","steam_id":76561198106147222,"connected_time":3821000000000,"state":"active","ping":74},{"user_id":309,"name":"Loki!","steam_id":76561198089201861,"connected_time":16434000000000,"state":"active","ping":66},{"user_id":436,"name":"Team Fartpiss Poo","steam_id":76561199163591880,"connected_time":3797000000000,"state":"active","ping":95},{"user_id":459,"name":"BIG CHIP","steam_id":76561198023680617,"connected_time":1277000000000,"state":"active","ping":52},{"user_id":467,"name":"watchfull","steam_id":76561198433266742,"connected_time":956000000000,"state":"active","ping":102},{"user_id":438,"name":"LoveShark","steam_id":76561198141498508,"connected_time":3765000000000,"state":"active","ping":70}]},{"server_id":38,"name":"Uncletopia | Chicago | 7 | Stopwatch Beta","name_short":"chi-7","host":"chi-2.us.uncletopia.com","port":27035,"enabled":true,"region":"us-central","cc":"us","latitude":41.881832,"longitude":-87.62318,"reserved":0,"last_update":"0001-01-01T00:00:00Z","name_a2s":"Uncletopia | Chicago | 7 | Stopwatch Beta","protocol":17,"map":"workshop/koth_ashville_final.ugc2130459942","folder":"tf","game":"Team Fortress","app_id":440,"player_count":0,"max_players":24,"Bots":0,"server_type":"Dedicated","server_os":"Linux","password":true,"vac":true,"version":"7757534","steam_id":85568392924866364,"keywords":["cp","nocrits","nodmgspread","uncletopia"],"game_id":440,"stv_port":27036,"stv_name":"Uncletopia | Chicago | 7 | Stopwatch Beta | STV","players":null},{"server_id":39,"name":"Uncletopia | Chicago | 8 | Community","name_short":"chi-8","host":"chi-2.us.uncletopia.com","port":27045,"enabled":true,"region":"us-central","cc":"us","latitude":41.881832,"longitude":-87.62318,"reserved":0,"last_update":"0001-01-01T00:00:00Z","name_a2s":"Uncletopia | Chicago | 8 | Community","protocol":17,"map":"workshop/pl_corrode_rc2.ugc546577989","folder":"tf","game":"Team Fortress","app_id":440,"player_count":0,"max_players":24,"Bots":0,"server_type":"Dedicated","server_os":"Linux","password":true,"vac":true,"version":"7757534","steam_id":85568392924866365,"keywords":["nocrits","nodmgspread","payload","uncletopia"],"game_id":440,"stv_port":27046,"stv_name":"Uncletopia | Chicago | 8 | Community | STV","players":null},{"server_id":8,"name":"Uncletopia | Dallas | 1 | All Maps","name_short":"dal-1","host":"dal-1.us.uncletopia.com","port":27015,"enabled":true,"region":"us-central","cc":"us","latitude":32.779167,"longitude":-96.80889,"reserved":0,"last_update":"0001-01-01T00:00:00Z","name_a2s":"Uncletopia | Dallas | 1 | All Maps","protocol":17,"map":"cp_steel","folder":"tf","game":"Team Fortress","app_id":440,"player_count":24,"max_players":24,"Bots":0,"server_type":"Dedicated","server_os":"Linux","password":true,"vac":true,"version":"7757534","steam_id":85568392924469986,"keywords":["cp","nocrits","nodmgspread","uncletopia"],"game_id":440,"stv_port":27016,"stv_name":"Uncletopia | Dallas | 1 | All Maps | STV","players":[{"user_id":718,"name":"CaptainKn1ght","steam_id":76561198018979695,"connected_time":2114000000000,"state":"active","ping":75},{"user_id":734,"name":"Nidus | IFN.GG","steam_id":76561198886277516,"connected_time":1227000000000,"state":"active","ping":67},{"user_id":631,"name":"pleasehelpidonthavefingers","steam_id":76561199367935846,"connected_time":10886000000000,"state":"active","ping":74},{"user_id":715,"name":"Environment Storytelling Toilet","steam_id":76561198083526608,"connected_time":2754000000000,"state":"active","ping":62},{"user_id":703,"name":"‰ªôÂ•≥Â§¥Â≠ê‰∫éË∞¶","steam_id":76561199031075505,"connected_time":4149000000000,"state":"active","ping":169},{"user_id":740,"name":"ShapedSilver","steam_id":76561199073305310,"connected_time":679000000000,"state":"active","ping":49},{"user_id":664,"name":"Colonel Salt","steam_id":76561198207009563,"connected_time":8002000000000,"state":"active","ping":60},{"user_id":738,"name":"Shaizo","steam_id":76561199118241286,"connected_time":700000000000,"state":"active","ping":81},{"user_id":729,"name":"William P. Ennis","steam_id":76561198073464877,"connected_time":1757000000000,"state":"active","ping":105},{"user_id":693,"name":"Xen","steam_id":76561198025311844,"connected_time":4577000000000,"state":"active","ping":105},{"user_id":741,"name":"Beefface","steam_id":76561198262595825,"connected_time":659000000000,"state":"active","ping":38},{"user_id":712,"name":"deb","steam_id":76561198414336279,"connected_time":2797000000000,"state":"active","ping":58},{"user_id":719,"name":"NOT Susie Deltarune (not real)","steam_id":76561199007365488,"connected_time":2062000000000,"state":"active","ping":68},{"user_id":739,"name":"„Ç¥?!Jon Chainsaw!?„Ç¥","steam_id":76561198400240040,"connected_time":695000000000,"state":"active","ping":47},{"user_id":714,"name":"Etomb","steam_id":76561198210017208,"connected_time":2786000000000,"state":"active","ping":75},{"user_id":733,"name":"Locksteel","steam_id":76561198050679036,"connected_time":1278000000000,"state":"active","ping":90},{"user_id":744,"name":"McSnapperDapple","steam_id":76561199163296508,"connected_time":49000000000,"state":"active","ping":59},{"user_id":737,"name":"Stormtroper","steam_id":76561198251067522,"connected_time":794000000000,"state":"active","ping":105},{"user_id":732,"name":"Hedsik","steam_id":76561198045797773,"connected_time":1320000000000,"state":"active","ping":54},{"user_id":743,"name":"Sqiddwr","steam_id":76561197998071622,"connected_time":442000000000,"state":"active","ping":105},{"user_id":695,"name":"veldt","steam_id":76561198056135308,"connected_time":4565000000000,"state":"active","ping":53},{"user_id":713,"name":"DerpyFurret","steam_id":76561198308116092,"connected_time":2797000000000,"state":"active","ping":47},{"user_id":727,"name":"Giselle","steam_id":76561198162593640,"connected_time":1969000000000,"state":"active","ping":103},{"user_id":717,"name":"Chief Diggery K.","steam_id":76561198066629137,"connected_time":2506000000000,"state":"active","ping":85}]},{"server_id":108,"name":"Uncletopia | Dallas | 2 | All Maps","name_short":"dal-2","host":"dal-1.us.uncletopia.com","port":27025,"enabled":true,"region":"us-central","cc":"us","latitude":32.779167,"longitude":-96.80889,"reserved":0,"last_update":"0001-01-01T00:00:00Z","name_a2s":"Uncletopia | Dallas | 2 | All Maps","protocol":17,"map":"cp_gullywash_final1","folder":"tf","game":"Team Fortress","app_id":440,"player_count":15,"max_players":24,"Bots":0,"server_type":"Dedicated","server_os":"Linux","password":true,"vac":true,"version":"7757534","steam_id":85568392924469988,"keywords":["cp","nocrits","nodmgspread","uncletopia"],"game_id":440,"stv_port":27026,"stv_name":"Uncletopia | Dallas | 2 | All Maps | STV","players":[{"user_id":436,"name":"kermitcreeper(ZAZA)","steam_id":76561199222829972,"connected_time":6243000000000,"state":"spawning","ping":65},{"user_id":456,"name":"asm_ghost","steam_id":76561199205363547,"connected_time":4623000000000,"state":"spawning","ping":227},{"user_id":481,"name":"‚òÇBliffenstimmers‚òÇ","steam_id":76561198059984896,"connected_time":1835000000000,"state":"spawning","ping":49},{"user_id":482,"name":"JEFFREY EPSTEIN","steam_id":76561198150237381,"connected_time":1828000000000,"state":"spawning","ping":33},{"user_id":502,"name":"Jib","steam_id":76561198328210524,"connected_time":11000000000,"state":"spawning","ping":63},{"user_id":458,"name":"volar","steam_id":76561198954814358,"connected_time":4471000000000,"state":"spawning","ping":79},{"user_id":465,"name":"Smuggy","steam_id":76561199063999311,"connected_time":2981000000000,"state":"spawning","ping":79},{"user_id":496,"name":"big naked bruh","steam_id":76561199179040672,"connected_time":787000000000,"state":"spawning","ping":172},{"user_id":453,"name":"K.A.R.M.A.","steam_id":76561198240750142,"connected_time":4881000000000,"state":"spawning","ping":151},{"user_id":426,"name":"COKEISBAD","steam_id":76561198443746507,"connected_time":6349000000000,"state":"spawning","ping":34},{"user_id":457,"name":"Just A Red Cultist","steam_id":76561198369543102,"connected_time":4608000000000,"state":"spawning","ping":67},{"user_id":459,"name":"Seedkns","steam_id":76561199092210172,"connected_time":4205000000000,"state":"spawning","ping":82},{"user_id":463,"name":"Villenova","steam_id":76561198073606416,"connected_time":3562000000000,"state":"spawning","ping":60},{"user_id":461,"name":"radicalPolio","steam_id":76561197961561855,"connected_time":4182000000000,"state":"spawning","ping":50},{"user_id":464,"name":"littengamer1112","steam_id":76561198992690060,"connected_time":3512000000000,"state":"spawning","ping":54}]},{"server_id":5,"name":"Uncletopia | Frankfurt | 1 | All Maps","name_short":"frk-1","host":"frk-1.de.uncletopia.com","port":27015,"enabled":true,"region":"eu","cc":"de","latitude":50.110924,"longitude":8.682127,"reserved":0,"last_update":"0001-01-01T00:00:00Z","name_a2s":"Uncletopia | Frankfurt | 1 | All Maps","protocol":17,"map":"pl_snowycoast","folder":"tf","game":"Team Fortress","app_id":440,"player_count":0,"max_players":24,"Bots":0,"server_type":"Dedicated","server_os":"Linux","password":true,"vac":true,"version":"7757534","steam_id":85568392924469989,"keywords":["nocrits","nodmgspread","payload","uncletopia"],"game_id":440,"stv_port":27016,"stv_name":"Uncletopia | Frankfurt | 1 | All Maps | STV","players":null},{"server_id":110,"name":"Uncletopia | Frankfurt | 2 | All Maps","name_short":"frk-2","host":"frk-1.de.uncletopia.com","port":27025,"enabled":true,"region":"eu","cc":"de","latitude":50.110924,"longitude":8.682127,"reserved":0,"last_update":"0001-01-01T00:00:00Z","name_a2s":"Uncletopia | Frankfurt | 2 | All Maps","protocol":17,"map":"cp_snakewater_final1","folder":"tf","game":"Team Fortress","app_id":440,"player_count":0,"max_players":24,"Bots":0,"server_type":"Dedicated","server_os":"Linux","password":true,"vac":true,"version":"7757534","steam_id":85568392924469990,"keywords":["cp","nocrits","nodmgspread","uncletopia"],"game_id":440,"stv_port":27026,"stv_name":"Uncletopia | Frankfurt | 2 | All Maps | STV","players":null},{"server_id":308,"name":"Uncletopia | Frankfurt | 3 | All Maps","name_short":"frk-3","host":"frk-1.de.uncletopia.com","port":27035,"enabled":true,"region":"eu","cc":"de","latitude":50.110924,"longitude":8.682127,"reserved":0,"last_update":"0001-01-01T00:00:00Z","name_a2s":"Uncletopia | Frankfurt | 3 | All Maps","protocol":17,"map":"pl_swiftwater_final1","folder":"tf","game":"Team Fortress","app_id":440,"player_count":0,"max_players":24,"Bots":0,"server_type":"Dedicated","server_os":"Linux","password":true,"vac":true,"version":"7757534","steam_id":85568392924504274,"keywords":["nocrits","nodmgspread","payload","uncletopia"],"game_id":440,"stv_port":27036,"stv_name":"Uncletopia | Frankfurt | 3 | All Maps | STV","players":null},{"server_id":309,"name":"Uncletopia | Frankfurt | 4 | All Maps","name_short":"frk-4","host":"frk-1.de.uncletopia.com","port":27045,"enabled":true,"region":"eu","cc":"de","latitude":50.110924,"longitude":8.682127,"reserved":0,"last_update":"0001-01-01T00:00:00Z","name_a2s":"Uncletopia | Frankfurt | 4 | All Maps","protocol":17,"map":"koth_viaduct","folder":"tf","game":"Team Fortress","app_id":440,"player_count":0,"max_players":24,"Bots":0,"server_type":"Dedicated","server_os":"Linux","password":true,"vac":true,"version":"7757534","steam_id":85568392924504275,"keywords":["cp","nocrits","nodmgspread","uncletopia"],"game_id":440,"stv_port":27046,"stv_name":"Uncletopia | Frankfurt | 4 | All Maps | STV","players":null},{"server_id":310,"name":"Uncletopia | Frankfurt | 5 | All Maps","name_short":"frk-5","host":"frk-1.de.uncletopia.com","port":27055,"enabled":true,"region":"eu","cc":"de","latitude":50.110924,"longitude":8.682127,"reserved":0,"last_update":"0001-01-01T00:00:00Z","name_a2s":"Uncletopia | Frankfurt | 5 | All Maps","protocol":17,"map":"koth_lakeside_final","folder":"tf","game":"Team Fortress","app_id":440,"player_count":0,"max_players":24,"Bots":0,"server_type":"Dedicated","server_os":"Linux","password":true,"vac":true,"version":"7757534","steam_id":85568392924504277,"keywords":["cp","nocrits","nodmgspread","uncletopia"],"game_id":440,"stv_port":27056,"stv_name":"Uncletopia | Frankfurt | 5 | All Maps | STV","players":null},{"server_id":311,"name":"Uncletopia | Frankfurt | 6 | All Maps","name_short":"frk-6","host":"frk-1.de.uncletopia.com","port":27065,"enabled":true,"region":"eu","cc":"de","latitude":50.110924,"longitude":8.682127,"reserved":0,"last_update":"0001-01-01T00:00:00Z","name_a2s":"Uncletopia | Frankfurt | 6 | All Maps","protocol":17,"map":"pl_frontier_final","folder":"tf","game":"Team Fortress","app_id":440,"player_count":0,"max_players":24,"Bots":0,"server_type":"Dedicated","server_os":"Linux","password":true,"vac":true,"version":"7757534","steam_id":85568392924504278,"keywords":["nocrits","nodmgspread","payload","uncletopia"],"game_id":440,"stv_port":27066,"stv_name":"Uncletopia | Frankfurt | 6 | All Maps | STV","players":null},{"server_id":23,"name":"Uncletopia | Frankfurt | 7 | Stopwatch Beta","name_short":"frk-7","host":"frk-1.de.uncletopia.com","port":27075,"enabled":true,"region":"eu","cc":"de","latitude":50.110924,"longitude":8.682127,"reserved":0,"last_update":"0001-01-01T00:00:00Z","name_a2s":"Uncletopia | Frankfurt | 7 | Stopwatch Beta","protocol":17,"map":"cp_sunshine","folder":"tf","game":"Team Fortress","app_id":440,"player_count":0,"max_players":24,"Bots":0,"server_type":"Dedicated","server_os":"Linux","password":true,"vac":true,"version":"7757534","steam_id":85568392924742827,"keywords":["cp","nocrits","nodmgspread","uncletopia"],"game_id":440,"stv_port":27076,"stv_name":"Uncletopia | Frankfurt | 7 | Stopwatch Beta | STV","players":null},{"server_id":24,"name":"Uncletopia | Frankfurt | 8 | Community","name_short":"frk-8","host":"frk-1.de.uncletopia.com","port":27085,"enabled":true,"region":"eu","cc":"de","latitude":50.110924,"longitude":8.682127,"reserved":0,"last_update":"0001-01-01T00:00:00Z","name_a2s":"Uncletopia | Frankfurt | 8 | Community","protocol":17,"map":"koth_lakeside_final","folder":"tf","game":"Team Fortress","app_id":440,"player_count":0,"max_players":24,"Bots":0,"server_type":"Dedicated","server_os":"Linux","password":true,"vac":true,"version":"7757534","steam_id":85568392924742828,"keywords":["cp","nocrits","nodmgspread","uncletopia"],"game_id":440,"stv_port":27086,"stv_name":"Uncletopia | Frankfurt | 8 | Community | STV","players":null},{"server_id":202,"name":"Uncletopia | Hong Kong | 1 | All Maps","name_short":"hgk-1","host":"hgk-1.hk.uncletopia.com","port":27015,"enabled":true,"region":"asia","cc":"hk","latitude":22.302711,"longitude":114.177216,"reserved":0,"last_update":"0001-01-01T00:00:00Z","name_a2s":"Uncletopia | Hong Kong | 1 | All Maps","protocol":17,"map":"pl_upward","folder":"tf","game":"Team Fortress","app_id":440,"player_count":24,"max_players":24,"Bots":0,"server_type":"Dedicated","server_os":"Linux","password":true,"vac":true,"version":"7757534","steam_id":85568392924494504,"keywords":["nocrits","nodmgspread","payload","uncletopia"],"game_id":440,"stv_port":27016,"stv_name":"Uncletopia | Hong Kong | 1 | All Maps | STV","players":[{"user_id":87,"name":"ArcticDolphin","steam_id":76561198203626319,"connected_time":772000000000,"state":"active","ping":128},{"user_id":98,"name":"daveyyhowyadoin‡∂û","steam_id":76561199215878763,"connected_time":249000000000,"state":"active","ping":180},{"user_id":99,"name":"–ø–æ–Ω–æ—Å –º–æ—Ä–∂–∞ 2.0","steam_id":76561198853810276,"connected_time":235000000000,"state":"active","ping":170},{"user_id":88,"name":"Ezylynn","steam_id":76561198388935921,"connected_time":740000000000,"state":"active","ping":62},{"user_id":69,"name":"OrdinaryShiba","steam_id":76561198870912104,"connected_time":2622000000000,"state":"active","ping":55},{"user_id":76,"name":"Zinx","steam_id":76561199116459368,"connected_time":2173000000000,"state":"active","ping":86},{"user_id":70,"name":"hayonsteam","steam_id":76561199438952901,"connected_time":2606000000000,"state":"active","ping":48},{"user_id":90,"name":"juscusimkool","steam_id":76561198809511635,"connected_time":537000000000,"state":"active","ping":65},{"user_id":84,"name":"huh :-)","steam_id":76561198293775978,"connected_time":847000000000,"state":"active","ping":149},{"user_id":64,"name":"MegaBomb","steam_id":76561199074950492,"connected_time":3114000000000,"state":"active","ping":114},{"user_id":79,"name":"Bepo","steam_id":76561198136685157,"connected_time":1341000000000,"state":"active","ping":56},{"user_id":46,"name":"spinach (old mouse)","steam_id":76561198042539541,"connected_time":4634000000000,"state":"active","ping":81},{"user_id":91,"name":"Saffron","steam_id":76561199025320247,"connected_time":510000000000,"state":"active","ping":69},{"user_id":74,"name":"robloxianrapist512","steam_id":76561198320532821,"connected_time":2373000000000,"state":"active","ping":58},{"user_id":48,"name":"17","steam_id":76561198241530712,"connected_time":4525000000000,"state":"active","ping":60},{"user_id":92,"name":"phantomizer","steam_id":76561199062227543,"connected_time":504000000000,"state":"active","ping":77},{"user_id":63,"name":"Vesha","steam_id":76561199208233146,"connected_time":3308000000000,"state":"active","ping":83},{"user_id":77,"name":"Cheesey","steam_id":76561198975684137,"connected_time":1987000000000,"state":"active","ping":86},{"user_id":81,"name":"TheObviousNovice","steam_id":76561198292192169,"connected_time":1300000000000,"state":"active","ping":81},{"user_id":55,"name":"Milk‚ù§","steam_id":76561198163911560,"connected_time":4240000000000,"state":"active","ping":136},{"user_id":86,"name":"bad at everything(f2p)","steam_id":76561199378524169,"connected_time":780000000000,"state":"active","ping":124},{"user_id":89,"name":"paper boat","steam_id":76561198046558051,"connected_time":665000000000,"state":"active","ping":88},{"user_id":59,"name":"Nonexistent","steam_id":76561198980563251,"connected_time":4138000000000,"state":"active","ping":82},{"user_id":97,"name":"\"SKS\"","steam_id":76561198187995386,"connected_time":256000000000,"state":"active","ping":88}]},{"server_id":1,"name":"Uncletopia | Los Angeles | 1 | All Maps","name_short":"lax-1","host":"lax-1.us.uncletopia.com","port":27015,"enabled":true,"region":"us-west","cc":"us","latitude":33.94279,"longitude":-118.41004,"reserved":0,"last_update":"0001-01-01T00:00:00Z","name_a2s":"Uncletopia | Los Angeles | 1 | All Maps","protocol":17,"map":"pl_badwater","folder":"tf","game":"Team Fortress","app_id":440,"player_count":22,"max_players":24,"Bots":0,"server_type":"Dedicated","server_os":"Linux","password":true,"vac":true,"version":"7757534","steam_id":85568392924469991,"keywords":["nocrits","nodmgspread","payload","uncletopia"],"game_id":440,"stv_port":27016,"stv_name":"Uncletopia | Los Angeles | 1 | All Maps | STV","players":[{"user_id":82,"name":"Torendactyl","steam_id":76561198008463630,"connected_time":4775000000000,"state":"active","ping":69},{"user_id":112,"name":"An00bis","steam_id":76561198044084508,"connected_time":399000000000,"state":"active","ping":45},{"user_id":114,"name":"Sarbanes-Oxley","steam_id":76561197975898479,"connected_time":344000000000,"state":"active","ping":79},{"user_id":84,"name":"‚ô•Npenplz‚ô•","steam_id":76561197999605423,"connected_time":4680000000000,"state":"active","ping":57},{"user_id":104,"name":"Thunder","steam_id":76561198097721532,"connected_time":2129000000000,"state":"active","ping":49},{"user_id":115,"name":"bballbhuddababyboy","steam_id":76561198079516052,"connected_time":164000000000,"state":"active","ping":51},{"user_id":101,"name":"kr1tsurf3r","steam_id":76561198076402476,"connected_time":2156000000000,"state":"active","ping":64},{"user_id":109,"name":"Medic","steam_id":76561198152570304,"connected_time":1291000000000,"state":"active","ping":56},{"user_id":88,"name":"Lizardtails","steam_id":76561198275381867,"connected_time":3576000000000,"state":"active","ping":88},{"user_id":102,"name":"flo rida","steam_id":76561198226169704,"connected_time":2143000000000,"state":"active","ping":58},{"user_id":86,"name":"urotsuki","steam_id":76561197995200743,"connected_time":3603000000000,"state":"active","ping":30},{"user_id":61,"name":"Sasha Waybright (real)","steam_id":76561198063076753,"connected_time":6072000000000,"state":"active","ping":58},{"user_id":87,"name":"ƒÜevapi","steam_id":76561198037080361,"connected_time":3595000000000,"state":"active","ping":68},{"user_id":110,"name":"Sir_Cheddar","steam_id":76561198132354554,"connected_time":1042000000000,"state":"active","ping":48},{"user_id":85,"name":"awtem","steam_id":76561198083673187,"connected_time":3937000000000,"state":"active","ping":51},{"user_id":69,"name":"Pooh, The 6th Density Wanderer","steam_id":76561197999517488,"connected_time":5660000000000,"state":"active","ping":79},{"user_id":70,"name":"Khan","steam_id":76561198003267167,"connected_time":5659000000000,"state":"active","ping":65},{"user_id":71,"name":"Jolly Joseph Stalin","steam_id":76561197977644083,"connected_time":5618000000000,"state":"active","ping":73},{"user_id":79,"name":"crumbles","steam_id":76561198168707036,"connected_time":5110000000000,"state":"active","ping":69},{"user_id":92,"name":"sheep on da linux","steam_id":76561198076781979,"connected_time":3418000000000,"state":"active","ping":53},{"user_id":74,"name":"A Cuddly Bunny","steam_id":76561198062791613,"connected_time":5564000000000,"state":"active","ping":103},{"user_id":99,"name":"JamesSetRadio","steam_id":76561198444320809,"connected_time":2258000000000,"state":"active","ping":176}]},{"server_id":112,"name":"Uncletopia | Los Angeles | 2 | All Maps","name_short":"lax-2","host":"lax-1.us.uncletopia.com","port":27025,"enabled":true,"region":"us-west","cc":"us","latitude":33.94279,"longitude":-118.41004,"reserved":0,"last_update":"0001-01-01T00:00:00Z","name_a2s":"Uncletopia | Los Angeles | 2 | All Maps","protocol":17,"map":"koth_lakeside_final","folder":"tf","game":"Team Fortress","app_id":440,"player_count":26,"max_players":24,"Bots":0,"server_type":"Dedicated","server_os":"Linux","password":true,"vac":true,"version":"7757534","steam_id":85568392924469992,"keywords":["cp","nocrits","nodmgspread","uncletopia"],"game_id":440,"stv_port":27026,"stv_name":"Uncletopia | Los Angeles | 2 | All Maps | STV","players":[{"user_id":684,"name":"everyrockstar!","steam_id":76561198272094975,"connected_time":991000000000,"state":"active","ping":85},{"user_id":732,"name":"‚ô¶‚ô£Quadric‚ô•‚ô†","steam_id":76561198061003853,"connected_time":53000000000,"state":"spawning","ping":99},{"user_id":708,"name":"Gubby","steam_id":76561199125862469,"connected_time":445000000000,"state":"active","ping":94},{"user_id":415,"name":"moocifer45","steam_id":76561198274748359,"connected_time":3604000000000,"state":"active","ping":157},{"user_id":598,"name":"Mynameisbeep","steam_id":76561198041988517,"connected_time":1960000000000,"state":"active","ping":70},{"user_id":592,"name":"kaede :3","steam_id":76561198345528370,"connected_time":1987000000000,"state":"active","ping":54},{"user_id":416,"name":"Poe","steam_id":76561198145039862,"connected_time":3598000000000,"state":"active","ping":125},{"user_id":654,"name":"bobletoob","steam_id":76561199184464900,"connected_time":1292000000000,"state":"active","ping":58},{"user_id":581,"name":"Marzbee115","steam_id":76561198095821025,"connected_time":2080000000000,"state":"active","ping":45},{"user_id":356,"name":"beblonski","steam_id":76561198067053408,"connected_time":8990000000000,"state":"active","ping":46},{"user_id":342,"name":"Spruce","steam_id":76561198081684676,"connected_time":9949000000000,"state":"active","ping":95},{"user_id":693,"name":"\u003c blank \u003e","steam_id":76561198057457717,"connected_time":836000000000,"state":"active","ping":78},{"user_id":304,"name":"Cinnifox","steam_id":76561198068773971,"connected_time":12606000000000,"state":"active","ping":94},{"user_id":696,"name":"Nillad","steam_id":76561198984334138,"connected_time":818000000000,"state":"active","ping":87},{"user_id":695,"name":"ICESPROCKET","steam_id":76561198320452169,"connected_time":820000000000,"state":"active","ping":73},{"user_id":697,"name":"Twombly","steam_id":76561198056532348,"connected_time":771000000000,"state":"active","ping":62},{"user_id":730,"name":"wait no stop dont do that","steam_id":76561199117157198,"connected_time":75000000000,"state":"active","ping":101},{"user_id":612,"name":"Joe Biden","steam_id":76561198238699798,"connected_time":1847000000000,"state":"active","ping":84},{"user_id":506,"name":"LogicalFurret","steam_id":76561198350604657,"connected_time":2758000000000,"state":"active","ping":78},{"user_id":606,"name":"selvhat","steam_id":76561198114225509,"connected_time":1921000000000,"state":"active","ping":51},{"user_id":419,"name":"The Horselords and Animal Gods","steam_id":76561197975094050,"connected_time":3565000000000,"state":"active","ping":53},{"user_id":514,"name":"jimmyfortnite2014","steam_id":76561198987713830,"connected_time":2653000000000,"state":"active","ping":159},{"user_id":424,"name":"Panda","steam_id":76561199064165517,"connected_time":3517000000000,"state":"active","ping":122},{"user_id":410,"name":"MR.THE TOASTER","steam_id":76561199109565739,"connected_time":3809000000000,"state":"active","ping":98},{"user_id":735,"name":"SchmitySchmit","steam_id":76561198127024448,"connected_time":2000000000,"state":"spawning","ping":92},{"user_id":681,"name":"lytewerk","steam_id":76561198002819791,"connected_time":1046000000000,"state":"active","ping":93}]},{"server_id":324,"name":"Uncletopia | Los Angeles | 3 | All Maps","name_short":"lax-3","host":"lax-1.us.uncletopia.com","port":27035,"enabled":true,"region":"us-west","cc":"us","latitude":33.94279,"longitude":-118.41004,"reserved":0,"last_update":"0001-01-01T00:00:00Z","name_a2s":"Uncletopia | Los Angeles | 3 | All Maps","protocol":17,"map":"pl_pier","folder":"tf","game":"Team Fortress","app_id":440,"player_count":24,"max_players":24,"Bots":0,"server_type":"Dedicated","server_os":"Linux","password":true,"vac":true,"version":"7757534","steam_id":85568392924510198,"keywords":["nocrits","nodmgspread","payload","uncletopia"],"game_id":440,"stv_port":27036,"stv_name":"Uncletopia | Los Angeles | 3 | All Maps | STV","players":[{"user_id":507,"name":"crunchy obama","steam_id":76561198044485217,"connected_time":2147000000000,"state":"active","ping":66},{"user_id":356,"name":"nori_420","steam_id":76561199117134203,"connected_time":12393000000000,"state":"active","ping":54},{"user_id":506,"name":"Kasm","steam_id":76561198151165548,"connected_time":2225000000000,"state":"active","ping":31},{"user_id":511,"name":"Wendall555","steam_id":76561198985637603,"connected_time":697000000000,"state":"active","ping":63},{"user_id":497,"name":"momus","steam_id":76561198966979196,"connected_time":2972000000000,"state":"active","ping":46},{"user_id":375,"name":"Chalupa Jones","steam_id":76561198335855588,"connected_time":11903000000000,"state":"active","ping":53},{"user_id":520,"name":"-Red-","steam_id":76561198092200560,"connected_time":134000000000,"state":"active","ping":76},{"user_id":513,"name":"Jack from Jack in The Box","steam_id":76561199083594971,"connected_time":648000000000,"state":"active","ping":60},{"user_id":510,"name":"walrooos","steam_id":76561198024521839,"connected_time":750000000000,"state":"active","ping":45},{"user_id":487,"name":"Psych03","steam_id":76561198061753667,"connected_time":3963000000000,"state":"active","ping":53},{"user_id":514,"name":"Inigo Montoya","steam_id":76561198010603881,"connected_time":612000000000,"state":"active","ping":96},{"user_id":521,"name":"PainInTheRuss","steam_id":76561197977960543,"connected_time":13000000000,"state":"active","ping":234},{"user_id":493,"name":"Mister Fister","steam_id":76561199059653595,"connected_time":3143000000000,"state":"active","ping":79},{"user_id":499,"name":"Landlord","steam_id":76561198987913057,"connected_time":2968000000000,"state":"active","ping":65},{"user_id":505,"name":"CeoVortex","steam_id":76561198035679805,"connected_time":2234000000000,"state":"active","ping":51},{"user_id":508,"name":"Timebomb2134","steam_id":76561199065629825,"connected_time":2120000000000,"state":"active","ping":68},{"user_id":516,"name":"R5-D4","steam_id":76561198025196439,"connected_time":583000000000,"state":"active","ping":83},{"user_id":518,"name":"Disbicord","steam_id":76561198145228904,"connected_time":561000000000,"state":"active","ping":104},{"user_id":394,"name":"tekan","steam_id":76561199077174231,"connected_time":10408000000000,"state":"active","ping":74},{"user_id":468,"name":"ROGUE-PLANET","steam_id":76561198116023052,"connected_time":5387000000000,"state":"active","ping":76},{"user_id":459,"name":"Natalie","steam_id":76561198048848289,"connected_time":6344000000000,"state":"active","ping":59},{"user_id":509,"name":"Perplex","steam_id":76561198219984335,"connected_time":1325000000000,"state":"active","ping":52},{"user_id":504,"name":"42 minutes of skyrim atmosphere","steam_id":76561198397662124,"connected_time":2822000000000,"state":"active","ping":91},{"user_id":519,"name":"OH JIMMY I'M HOME #SaveTf2","steam_id":76561198396658806,"connected_time":553000000000,"state":"active","ping":38}]},{"server_id":25,"name":"Uncletopia | Los Angeles | 4 | Stopwatch Beta","name_short":"lax-4","host":"lax-1.us.uncletopia.com","port":27045,"enabled":true,"region":"us-west","cc":"us","latitude":33.94279,"longitude":-118.41004,"reserved":0,"last_update":"0001-01-01T00:00:00Z","name_a2s":"Uncletopia | Los Angeles | 4 | Stopwatch Beta","protocol":17,"map":"pl_swiftwater_final1","folder":"tf","game":"Team Fortress","app_id":440,"player_count":0,"max_players":24,"Bots":0,"server_type":"Dedicated","server_os":"Linux","password":true,"vac":true,"version":"7757534","steam_id":85568392924510199,"keywords":["nocrits","nodmgspread","payload","uncletopia"],"game_id":440,"stv_port":27046,"stv_name":"Uncletopia | Los Angeles | 4 | Stopwatch Beta | STV","players":null},{"server_id":11,"name":"Uncletopia | London | 1 | All Maps","name_short":"lon-1","host":"lon-1.uk.uncletopia.com","port":27015,"enabled":true,"region":"eu","cc":"gb","latitude":51.509865,"longitude":-0.118092,"reserved":0,"last_update":"0001-01-01T00:00:00Z","name_a2s":"Uncletopia | London | 1 | All Maps","protocol":17,"map":"cp_snakewater_final1","folder":"tf","game":"Team Fortress","app_id":440,"player_count":15,"max_players":24,"Bots":0,"server_type":"Dedicated","server_os":"Linux","password":true,"vac":true,"version":"7757534","steam_id":85568392924367362,"keywords":["cp","nocrits","nodmgspread","uncletopia"],"game_id":440,"stv_port":27016,"stv_name":"Uncletopia | London | 1 | All Maps | STV","players":[{"user_id":816,"name":"storepilled grocerycel","steam_id":76561198097588802,"connected_time":1252000000000,"state":"active","ping":134},{"user_id":828,"name":"Pico","steam_id":76561198063552545,"connected_time":47000000000,"state":"active","ping":105},{"user_id":788,"name":"murderwow","steam_id":76561198024566944,"connected_time":3899000000000,"state":"active","ping":105},{"user_id":817,"name":"U1F","steam_id":76561198053700703,"connected_time":1143000000000,"state":"active","ping":66},{"user_id":818,"name":"bingo","steam_id":76561198151884156,"connected_time":980000000000,"state":"active","ping":47},{"user_id":819,"name":"TheFox.tf","steam_id":76561197996851702,"connected_time":882000000000,"state":"active","ping":69},{"user_id":795,"name":"√∏possum","steam_id":76561198056152479,"connected_time":3339000000000,"state":"active","ping":30},{"user_id":820,"name":"spxcy","steam_id":76561198080296853,"connected_time":838000000000,"state":"active","ping":88},{"user_id":772,"name":"shooer! (shooer!)","steam_id":76561198110531281,"connected_time":5631000000000,"state":"active","ping":59},{"user_id":804,"name":"imthegerman","steam_id":76561198053401077,"connected_time":2990000000000,"state":"active","ping":117},{"user_id":702,"name":"random_player691","steam_id":76561199209946306,"connected_time":13449000000000,"state":"active","ping":51},{"user_id":808,"name":"dec","steam_id":76561198009660168,"connected_time":2477000000000,"state":"active","ping":45},{"user_id":823,"name":"Vilantious","steam_id":76561198154943112,"connected_time":624000000000,"state":"active","ping":89},{"user_id":824,"name":"Vayrella","steam_id":76561198271376566,"connected_time":592000000000,"state":"active","ping":149},{"user_id":779,"name":"ja","steam_id":76561199228540618,"connected_time":5234000000000,"state":"active","ping":82}]},{"server_id":114,"name":"Uncletopia | London | 2 | All Maps","name_short":"lon-2","host":"lon-1.uk.uncletopia.com","port":27025,"enabled":true,"region":"eu","cc":"gb","latitude":51.509865,"longitude":-0.118092,"reserved":0,"last_update":"0001-01-01T00:00:00Z","name_a2s":"Uncletopia | London | 2 | All Maps","protocol":17,"map":"koth_viaduct","folder":"tf","game":"Team Fortress","app_id":440,"player_count":0,"max_players":24,"Bots":0,"server_type":"Dedicated","server_os":"Linux","password":true,"vac":true,"version":"7757534","steam_id":85568392924470941,"keywords":["cp","nocrits","nodmgspread","uncletopia"],"game_id":440,"stv_port":27026,"stv_name":"Uncletopia | London | 2 | All Maps | STV","players":null},{"server_id":320,"name":"Uncletopia | London | 3 | All Maps","name_short":"lon-3","host":"lon-1.uk.uncletopia.com","port":27035,"enabled":true,"region":"eu","cc":"gb","latitude":51.509865,"longitude":-0.118092,"reserved":0,"last_update":"0001-01-01T00:00:00Z","name_a2s":"Uncletopia | London | 3 | All Maps","protocol":17,"map":"koth_highpass","folder":"tf","game":"Team Fortress","app_id":440,"player_count":0,"max_players":24,"Bots":0,"server_type":"Dedicated","server_os":"Linux","password":true,"vac":true,"version":"7757534","steam_id":85568392924510192,"keywords":["cp","nocrits","nodmgspread","uncletopia"],"game_id":440,"stv_port":27036,"stv_name":"Uncletopia | London | 3 | All Maps | STV","players":null},{"server_id":321,"name":"Uncletopia | London | 4 | All Maps","name_short":"lon-4","host":"lon-1.uk.uncletopia.com","port":27045,"enabled":true,"region":"eu","cc":"gb","latitude":51.509865,"longitude":-0.118092,"reserved":0,"last_update":"0001-01-01T00:00:00Z","name_a2s":"Uncletopia | London | 4 | All Maps","protocol":17,"map":"cp_altitude","folder":"tf","game":"Team Fortress","app_id":440,"player_count":0,"max_players":24,"Bots":0,"server_type":"Dedicated","server_os":"Linux","password":true,"vac":true,"version":"7757534","steam_id":85568392924510193,"keywords":["cp","nocrits","nodmgspread","uncletopia"],"game_id":440,"stv_port":27046,"stv_name":"Uncletopia | London | 4 | All Maps | STV","players":null},{"server_id":21,"name":"Uncletopia | London | 5 | All Maps","name_short":"lon-5","host":"lon-1.uk.uncletopia.com","port":27055,"enabled":true,"region":"eu","cc":"gb","latitude":51.509865,"longitude":-0.118092,"reserved":0,"last_update":"0001-01-01T00:00:00Z","name_a2s":"Uncletopia | London | 5 | All Maps","protocol":17,"map":"cp_dustbowl","folder":"tf","game":"Team Fortress","app_id":440,"player_count":0,"max_players":24,"Bots":0,"server_type":"Dedicated","server_os":"Linux","password":true,"vac":true,"version":"7757534","steam_id":85568392924742829,"keywords":["cp","nocrits","nodmgspread","uncletopia"],"game_id":440,"stv_port":27056,"stv_name":"Uncletopia | London | 5 | All Maps | STV","players":null},{"server_id":22,"name":"Uncletopia | London | 6 | All Maps","name_short":"lon-6","host":"lon-1.uk.uncletopia.com","port":27065,"enabled":true,"region":"eu","cc":"gb","latitude":51.509865,"longitude":-0.118092,"reserved":0,"last_update":"0001-01-01T00:00:00Z","name_a2s":"Uncletopia | London | 6 | All Maps","protocol":17,"map":"pl_snowycoast","folder":"tf","game":"Team Fortress","app_id":440,"player_count":0,"max_players":24,"Bots":0,"server_type":"Dedicated","server_os":"Linux","password":true,"vac":true,"version":"7757534","steam_id":85568392924742830,"keywords":["nocrits","nodmgspread","payload","uncletopia"],"game_id":440,"stv_port":27066,"stv_name":"Uncletopia | London | 6 | All Maps | STV","players":null},{"server_id":40,"name":"Uncletopia | London | 7 | No Payload","name_short":"lon-7","host":"lon-1.uk.uncletopia.com","port":27075,"enabled":true,"region":"eu","cc":"gb","latitude":51.509865,"longitude":-0.118092,"reserved":0,"last_update":"0001-01-01T00:00:00Z","name_a2s":"Uncletopia | London | 7 | No Payload","protocol":17,"map":"cp_5gorge","folder":"tf","game":"Team Fortress","app_id":440,"player_count":0,"max_players":24,"Bots":0,"server_type":"Dedicated","server_os":"Linux","password":true,"vac":true,"version":"7757534","steam_id":85568392924964314,"keywords":["cp","nocrits","nodmgspread","uncletopia"],"game_id":440,"stv_port":27076,"stv_name":"Uncletopia | London | 7 | No Payload | STV","players":null},{"server_id":41,"name":"Uncletopia | London | 8 | Community","name_short":"lon-8","host":"lon-1.uk.uncletopia.com","port":27085,"enabled":true,"region":"eu","cc":"gb","latitude":51.509865,"longitude":-0.118092,"reserved":0,"last_update":"0001-01-01T00:00:00Z","name_a2s":"Uncletopia | London | 8 | Community","protocol":17,"map":"workshop/cp_sulfur_rc2.ugc619869471","folder":"tf","game":"Team Fortress","app_id":440,"player_count":0,"max_players":24,"Bots":0,"server_type":"Dedicated","server_os":"Linux","password":true,"vac":true,"version":"7757534","steam_id":85568392924964315,"keywords":["cp","nocrits","nodmgspread","uncletopia"],"game_id":440,"stv_port":27086,"stv_name":"Uncletopia | London | 8 | Community | STV","players":null},{"server_id":300,"name":"Uncletopia | Montr√©al | 1 | All Maps","name_short":"mtl-1","host":"mtl-1.ca.uncletopia.com","port":27015,"enabled":true,"region":"us-east","cc":"ca","latitude":45.50889,"longitude":-73.56167,"reserved":0,"last_update":"0001-01-01T00:00:00Z","name_a2s":"Uncletopia | Montr√©al | 1 | All Maps","protocol":17,"map":"koth_viaduct","folder":"tf","game":"Team Fortress","app_id":440,"player_count":0,"max_players":24,"Bots":0,"server_type":"Dedicated","server_os":"Linux","password":true,"vac":true,"version":"7757534","steam_id":85568392924500087,"keywords":["cp","nocrits","nodmgspread","uncletopia"],"game_id":440,"stv_port":27016,"stv_name":"Uncletopia | Montr√©al | 1 | All Maps | STV","players":null},{"server_id":301,"name":"Uncletopia | Montr√©al | 2 | All Maps","name_short":"mtl-2","host":"mtl-1.ca.uncletopia.com","port":27025,"enabled":true,"region":"us-east","cc":"ca","latitude":45.50889,"longitude":-73.56167,"reserved":0,"last_update":"0001-01-01T00:00:00Z","name_a2s":"Uncletopia | Montr√©al | 2 | All Maps","protocol":17,"map":"pl_borneo","folder":"tf","game":"Team Fortress","app_id":440,"player_count":23,"max_players":24,"Bots":0,"server_type":"Dedicated","server_os":"Linux","password":true,"vac":true,"version":"7757534","steam_id":85568392924500088,"keywords":["nocrits","nodmgspread","payload","uncletopia"],"game_id":440,"stv_port":27026,"stv_name":"Uncletopia | Montr√©al | 2 | All Maps | STV","players":[{"user_id":130,"name":"buford tobagganson","steam_id":76561198240043930,"connected_time":3413000000000,"state":"active","ping":69},{"user_id":178,"name":"starry","steam_id":76561198989740125,"connected_time":150000000000,"state":"active","ping":88},{"user_id":161,"name":"[LHC] Sequel","steam_id":76561199003380346,"connected_time":1327000000000,"state":"active","ping":79},{"user_id":94,"name":"„ÇØ„É¨„Ç™„É©","steam_id":76561198000830794,"connected_time":6420000000000,"state":"active","ping":112},{"user_id":179,"name":"Caster","steam_id":76561198131592341,"connected_time":135000000000,"state":"active","ping":129},{"user_id":160,"name":"Creamy","steam_id":76561198063907478,"connected_time":1598000000000,"state":"active","ping":140},{"user_id":163,"name":"[LHC] Syvyy","steam_id":76561198819576467,"connected_time":1306000000000,"state":"active","ping":68},{"user_id":166,"name":"shake","steam_id":76561199064204750,"connected_time":1131000000000,"state":"active","ping":87},{"user_id":153,"name":"Hamu","steam_id":76561198044272721,"connected_time":2283000000000,"state":"active","ping":115},{"user_id":165,"name":"SLess","steam_id":76561199091263690,"connected_time":1188000000000,"state":"active","ping":87},{"user_id":180,"name":"feliser","steam_id":76561198084336096,"connected_time":97000000000,"state":"active","ping":42},{"user_id":154,"name":"dicksnip","steam_id":76561198356515396,"connected_time":2266000000000,"state":"active","ping":97},{"user_id":181,"name":"PikaGEMER","steam_id":76561198409850176,"connected_time":86000000000,"state":"active","ping":166},{"user_id":169,"name":"TheSocialZ","steam_id":76561198801534077,"connected_time":1077000000000,"state":"active","ping":66},{"user_id":96,"name":"Dot.","steam_id":76561198149463984,"connected_time":6368000000000,"state":"active","ping":63},{"user_id":123,"name":"MrrPamplemousse","steam_id":76561198072241333,"connected_time":4305000000000,"state":"active","ping":66},{"user_id":82,"name":"Van","steam_id":76561198073518712,"connected_time":7701000000000,"state":"active","ping":55},{"user_id":170,"name":"The Thunder Down Under","steam_id":76561198098587930,"connected_time":1061000000000,"state":"active","ping":55},{"user_id":156,"name":"HorseCooker","steam_id":76561198076588370,"connected_time":2069000000000,"state":"active","ping":57},{"user_id":176,"name":"k3nny11","steam_id":76561198182533757,"connected_time":430000000000,"state":"active","ping":91},{"user_id":141,"name":"‚ô™Almond_Candy‚ô™","steam_id":76561199453410299,"connected_time":2974000000000,"state":"active","ping":107},{"user_id":174,"name":"schnof","steam_id":76561198301598124,"connected_time":688000000000,"state":"active","ping":143},{"user_id":177,"name":"Freshwater Waterfall","steam_id":76561198969601240,"connected_time":277000000000,"state":"active","ping":93}]},{"server_id":302,"name":"Uncletopia | Montr√©al | 3 | All Maps","name_short":"mtl-3","host":"mtl-1.ca.uncletopia.com","port":27035,"enabled":true,"region":"us-east","cc":"ca","latitude":45.50889,"longitude":-73.56167,"reserved":0,"last_update":"0001-01-01T00:00:00Z","name_a2s":"Uncletopia | Montr√©al | 3 | All Maps","protocol":17,"map":"pl_upward","folder":"tf","game":"Team Fortress","app_id":440,"player_count":10,"max_players":24,"Bots":0,"server_type":"Dedicated","server_os":"Linux","password":true,"vac":true,"version":"7757534","steam_id":85568392924500089,"keywords":["nocrits","nodmgspread","payload","uncletopia"],"game_id":440,"stv_port":27036,"stv_name":"Uncletopia | Montr√©al | 3 | All Maps | STV","players":[{"user_id":358,"name":"ThatOneDude","steam_id":76561198269184641,"connected_time":627000000000,"state":"active","ping":86},{"user_id":347,"name":"YaBoyRegret","steam_id":76561198812371213,"connected_time":1574000000000,"state":"active","ping":108},{"user_id":360,"name":"_noodle","steam_id":76561199278361340,"connected_time":366000000000,"state":"active","ping":118},{"user_id":348,"name":"Nelson","steam_id":76561198850327678,"connected_time":1542000000000,"state":"active","ping":119},{"user_id":361,"name":"Turbocat","steam_id":76561198145431353,"connected_time":355000000000,"state":"active","ping":63},{"user_id":364,"name":"CupcakeWarlock","steam_id":76561198179963697,"connected_time":83000000000,"state":"active","ping":62},{"user_id":365,"name":"The Guy Who Gamed","steam_id":76561198259982095,"connected_time":46000000000,"state":"active","ping":116},{"user_id":366,"name":"beter prian","steam_id":76561199075528574,"connected_time":25000000000,"state":"spawning","ping":105},{"user_id":367,"name":"jorjor wells","steam_id":76561199073429082,"connected_time":24000000000,"state":"active","ping":56},{"user_id":350,"name":"Petrivus","steam_id":76561198202152453,"connected_time":1458000000000,"state":"active","ping":124}]},{"server_id":303,"name":"Uncletopia | Montr√©al | 4 | No Payload","name_short":"mtl-4","host":"mtl-1.ca.uncletopia.com","port":27045,"enabled":true,"region":"us-east","cc":"ca","latitude":45.50889,"longitude":-73.56167,"reserved":0,"last_update":"0001-01-01T00:00:00Z","name_a2s":"Uncletopia | Montr√©al | 4 | No Payload","protocol":17,"map":"koth_suijin","folder":"tf","game":"Team Fortress","app_id":440,"player_count":3,"max_players":24,"Bots":0,"server_type":"Dedicated","server_os":"Linux","password":true,"vac":true,"version":"7757534","steam_id":85568392924500090,"keywords":["cp","nocrits","nodmgspread","uncletopia"],"game_id":440,"stv_port":27046,"stv_name":"Uncletopia | Montr√©al | 4 | No Payload | STV","players":[{"user_id":17,"name":"medic tf2","steam_id":76561198053046161,"connected_time":357000000000,"state":"active","ping":54},{"user_id":18,"name":"Maddening Whisper","steam_id":76561198369050108,"connected_time":322000000000,"state":"active","ping":64},{"user_id":19,"name":"residentevilfan82","steam_id":76561198024662861,"connected_time":177000000000,"state":"active","ping":58}]},{"server_id":13,"name":"Uncletopia | New York City | 1 | All Maps","name_short":"nyc-1","host":"nyc-1.us.uncletopia.com","port":27015,"enabled":true,"region":"us-east","cc":"us","latitude":40.73061,"longitude":-73.93524,"reserved":0,"last_update":"0001-01-01T00:00:00Z","name_a2s":"Uncletopia | New York City | 1 | All Maps","protocol":17,"map":"pl_frontier_final","folder":"tf","game":"Team Fortress","app_id":440,"player_count":24,"max_players":24,"Bots":0,"server_type":"Dedicated","server_os":"Linux","password":true,"vac":true,"version":"7757534","steam_id":85568392924469993,"keywords":["nocrits","nodmgspread","payload","uncletopia"],"game_id":440,"stv_port":27016,"stv_name":"Uncletopia | New York City | 1 | All Maps | STV","players":[{"user_id":305,"name":"Mochi","steam_id":76561199151314140,"connected_time":22939000000000,"state":"active","ping":39},{"user_id":574,"name":"Amauri","steam_id":76561198130809137,"connected_time":1050000000000,"state":"active","ping":78},{"user_id":552,"name":"W","steam_id":76561198227153828,"connected_time":2875000000000,"state":"active","ping":90},{"user_id":489,"name":"Milk Enjoyer","steam_id":76561198124311404,"connected_time":8449000000000,"state":"active","ping":71},{"user_id":560,"name":"Iron","steam_id":76561198247918478,"connected_time":2393000000000,"state":"active","ping":83},{"user_id":577,"name":"Vivid Hut 64","steam_id":76561198170050059,"connected_time":918000000000,"state":"active","ping":68},{"user_id":521,"name":"BasicPeaches","steam_id":76561198190890150,"connected_time":4920000000000,"state":"active","ping":67},{"user_id":566,"name":"Wiggles","steam_id":76561197964143762,"connected_time":1669000000000,"state":"active","ping":60},{"user_id":509,"name":"pipebombrater","steam_id":76561199029030831,"connected_time":5719000000000,"state":"active","ping":65},{"user_id":575,"name":"Corthadin","steam_id":76561198026485914,"connected_time":1034000000000,"state":"active","ping":76},{"user_id":576,"name":"Aura (she/her)","steam_id":76561198348941784,"connected_time":1022000000000,"state":"active","ping":91},{"user_id":556,"name":"Trajans Legion","steam_id":76561198272383949,"connected_time":2844000000000,"state":"active","ping":96},{"user_id":531,"name":"FueledBurrito","steam_id":76561198094396678,"connected_time":4468000000000,"state":"active","ping":63},{"user_id":559,"name":"It's FoolMoon","steam_id":76561198153344375,"connected_time":2447000000000,"state":"active","ping":45},{"user_id":571,"name":"gaijingirldick „Ç∏„Éº„Çµ","steam_id":76561198033499175,"connected_time":1573000000000,"state":"active","ping":61},{"user_id":578,"name":"Aristotle Voulton","steam_id":76561198100174923,"connected_time":899000000000,"state":"active","ping":86},{"user_id":526,"name":"DiscoTraveler","steam_id":76561199240168088,"connected_time":4783000000000,"state":"active","ping":51},{"user_id":573,"name":"Motorbung87","steam_id":76561198976821898,"connected_time":1431000000000,"state":"active","ping":124},{"user_id":538,"name":"A Puppy","steam_id":76561198828184456,"connected_time":3920000000000,"state":"active","ping":50},{"user_id":550,"name":"ignoreddisc","steam_id":76561198940997957,"connected_time":3121000000000,"state":"active","ping":64},{"user_id":568,"name":"Yuzu","steam_id":76561198417913035,"connected_time":1640000000000,"state":"active","ping":76},{"user_id":428,"name":"SINEPLLAMS","steam_id":76561198316993833,"connected_time":13612000000000,"state":"active","ping":48},{"user_id":580,"name":"Digresser","steam_id":76561198016426367,"connected_time":130000000000,"state":"active","ping":40},{"user_id":564,"name":"the spy behind the healing (F2P","steam_id":76561198854070384,"connected_time":2112000000000,"state":"active","ping":147}]},{"server_id":14,"name":"Uncletopia | New York City | 2 | All Maps","name_short":"nyc-2","host":"nyc-1.us.uncletopia.com","port":27025,"enabled":true,"region":"us-east","cc":"us","latitude":40.73061,"longitude":-73.93524,"reserved":0,"last_update":"0001-01-01T00:00:00Z","name_a2s":"Uncletopia | New York City | 2 | All Maps","protocol":17,"map":"pl_badwater","folder":"tf","game":"Team Fortress","app_id":440,"player_count":24,"max_players":24,"Bots":0,"server_type":"Dedicated","server_os":"Linux","password":true,"vac":true,"version":"7757534","steam_id":85568392924469994,"keywords":["nocrits","nodmgspread","payload","uncletopia"],"game_id":440,"stv_port":27026,"stv_name":"Uncletopia | New York City | 2 | All Maps | STV","players":[{"user_id":579,"name":"SubZeroDestruction","steam_id":76561198145082209,"connected_time":835000000000,"state":"active","ping":65},{"user_id":549,"name":"Wibis428","steam_id":76561198058249141,"connected_time":3735000000000,"state":"active","ping":67},{"user_id":564,"name":"Pine","steam_id":76561198114193659,"connected_time":2488000000000,"state":"active","ping":56},{"user_id":589,"name":"gobbie FASTNESS","steam_id":76561198026865054,"connected_time":189000000000,"state":"active","ping":50},{"user_id":580,"name":"itsmajestic","steam_id":76561198304790008,"connected_time":826000000000,"state":"active","ping":50},{"user_id":572,"name":"Dr. FlimFlam","steam_id":76561198049212986,"connected_time":1455000000000,"state":"active","ping":98},{"user_id":550,"name":"ndvr","steam_id":76561199379200102,"connected_time":3566000000000,"state":"active","ping":53},{"user_id":581,"name":"skilaruh","steam_id":76561198413172611,"connected_time":808000000000,"state":"active","ping":65},{"user_id":529,"name":"dozy","steam_id":76561199470933385,"connected_time":4964000000000,"state":"active","ping":51},{"user_id":578,"name":"Captain Astolfo","steam_id":76561198342774089,"connected_time":883000000000,"state":"active","ping":67},{"user_id":561,"name":"reymundo","steam_id":76561197989412830,"connected_time":2535000000000,"state":"active","ping":122},{"user_id":582,"name":"dipp","steam_id":76561198395577807,"connected_time":803000000000,"state":"active","ping":32},{"user_id":577,"name":"Lore","steam_id":76561198098407538,"connected_time":885000000000,"state":"active","ping":71},{"user_id":583,"name":"mos","steam_id":76561197995777973,"connected_time":767000000000,"state":"active","ping":71},{"user_id":584,"name":"SpicedRum","steam_id":76561198075990335,"connected_time":713000000000,"state":"active","ping":145},{"user_id":591,"name":"gIBBY","steam_id":76561198080099598,"connected_time":125000000000,"state":"active","ping":52},{"user_id":552,"name":"only a spoonful","steam_id":76561198113180616,"connected_time":3447000000000,"state":"active","ping":74},{"user_id":567,"name":"aisu","steam_id":76561198043768507,"connected_time":2288000000000,"state":"active","ping":101},{"user_id":541,"name":"Swaus","steam_id":76561198035761308,"connected_time":4373000000000,"state":"active","ping":68},{"user_id":586,"name":"Hifumi Togo","steam_id":76561198074930636,"connected_time":676000000000,"state":"active","ping":73},{"user_id":519,"name":"Chance","steam_id":76561198360789770,"connected_time":6063000000000,"state":"active","ping":91},{"user_id":587,"name":"whiskrrts","steam_id":76561198025653846,"connected_time":357000000000,"state":"active","ping":80},{"user_id":571,"name":"Error 4 Oh Four","steam_id":76561198121637567,"connected_time":1555000000000,"state":"active","ping":75},{"user_id":576,"name":"doom","steam_id":76561198327120483,"connected_time":1088000000000,"state":"active","ping":45}]},{"server_id":15,"name":"Uncletopia | New York City | 3 | Stopwatch Beta","name_short":"nyc-3","host":"nyc-1.us.uncletopia.com","port":27035,"enabled":true,"region":"us-east","cc":"us","latitude":40.73061,"longitude":-73.93524,"reserved":0,"last_update":"0001-01-01T00:00:00Z","name_a2s":"Uncletopia | New York City | 3 | Stopwatch Beta","protocol":17,"map":"cp_metalworks","folder":"tf","game":"Team Fortress","app_id":440,"player_count":22,"max_players":24,"Bots":0,"server_type":"Dedicated","server_os":"Linux","password":true,"vac":true,"version":"7757534","steam_id":85568392924742820,"keywords":["cp","nocrits","nodmgspread","uncletopia"],"game_id":440,"stv_port":27036,"stv_name":"Uncletopia | New York City | 3 | Stopwatch Beta | STV","players":[{"user_id":775,"name":"Dundee","steam_id":76561198079713343,"connected_time":300000000000,"state":"active","ping":122},{"user_id":773,"name":"TwinAirplane959","steam_id":76561198866756840,"connected_time":328000000000,"state":"active","ping":114},{"user_id":781,"name":"Anhkrehg","steam_id":76561197963201684,"connected_time":11000000000,"state":"active","ping":82},{"user_id":752,"name":"Kaluka","steam_id":76561198036861445,"connected_time":1689000000000,"state":"active","ping":59},{"user_id":769,"name":"Wendigo","steam_id":76561198031942404,"connected_time":382000000000,"state":"active","ping":78},{"user_id":776,"name":"Dweebus The Nerd","steam_id":76561198952790489,"connected_time":291000000000,"state":"active","ping":102},{"user_id":777,"name":"Mengle","steam_id":76561198001953684,"connected_time":252000000000,"state":"active","ping":65},{"user_id":778,"name":"dweeb","steam_id":76561198255473632,"connected_time":217000000000,"state":"active","ping":75},{"user_id":779,"name":"Gambling addiction","steam_id":76561198251665862,"connected_time":142000000000,"state":"active","ping":101},{"user_id":742,"name":"Dripless The Poor","steam_id":76561198090546454,"connected_time":1943000000000,"state":"active","ping":73},{"user_id":763,"name":"dmdr1969","steam_id":76561198080469611,"connected_time":952000000000,"state":"active","ping":86},{"user_id":711,"name":"SIGMA [BS]","steam_id":76561197962604879,"connected_time":3033000000000,"state":"active","ping":50},{"user_id":761,"name":"onsen episode","steam_id":76561197979960008,"connected_time":1063000000000,"state":"active","ping":44},{"user_id":725,"name":"ECCO","steam_id":76561198002821513,"connected_time":2620000000000,"state":"active","ping":69},{"user_id":667,"name":"truezyoungblood","steam_id":76561198044589114,"connected_time":5345000000000,"state":"active","ping":49},{"user_id":726,"name":"Minion Bob","steam_id":76561198023938170,"connected_time":2558000000000,"state":"active","ping":63},{"user_id":754,"name":"NovaStar","steam_id":76561198421340963,"connected_time":1391000000000,"state":"active","ping":117},{"user_id":736,"name":"Peanut Arbuckle","steam_id":76561198081689361,"connected_time":2154000000000,"state":"active","ping":53},{"user_id":780,"name":"Malevo","steam_id":76561198148606522,"connected_time":118000000000,"state":"active","ping":103},{"user_id":756,"name":"NotsoAmazingUSSR","steam_id":76561199217887760,"connected_time":1298000000000,"state":"active","ping":117},{"user_id":733,"name":"0","steam_id":76561198046065237,"connected_time":2492000000000,"state":"active","ping":65},{"user_id":755,"name":"Raine","steam_id":76561198098860903,"connected_time":1388000000000,"state":"active","ping":130}]},{"server_id":16,"name":"Uncletopia | New York City | 4 | Community","name_short":"nyc-4","host":"nyc-1.us.uncletopia.com","port":27045,"enabled":true,"region":"us-east","cc":"us","latitude":40.73061,"longitude":-73.93524,"reserved":0,"last_update":"0001-01-01T00:00:00Z","name_a2s":"Uncletopia | New York City | 4 | Community","protocol":17,"map":"workshop/koth_trenchfoot_b1a.ugc731436616","folder":"tf","game":"Team Fortress","app_id":440,"player_count":24,"max_players":24,"Bots":0,"server_type":"Dedicated","server_os":"Linux","password":true,"vac":true,"version":"7757534","steam_id":85568392924742821,"keywords":["cp","nocrits","nodmgspread","uncletopia"],"game_id":440,"stv_port":27046,"stv_name":"Uncletopia | New York City | 4 | Community | STV","players":[{"user_id":187,"name":"Jace","steam_id":76561199166566671,"connected_time":3127000000000,"state":"active","ping":92},{"user_id":211,"name":"ldshwt","steam_id":76561198090364357,"connected_time":1231000000000,"state":"active","ping":130},{"user_id":210,"name":"treasuredicecream","steam_id":76561199010773204,"connected_time":1454000000000,"state":"active","ping":113},{"user_id":198,"name":"Gubbington","steam_id":76561198959381302,"connected_time":1939000000000,"state":"active","ping":80},{"user_id":199,"name":"TwelvePackofSaltyBones","steam_id":76561198224764664,"connected_time":1913000000000,"state":"active","ping":68},{"user_id":200,"name":"deadpixel","steam_id":76561198150249843,"connected_time":1876000000000,"state":"active","ping":74},{"user_id":181,"name":"Rari","steam_id":76561198128537564,"connected_time":3568000000000,"state":"active","ping":61},{"user_id":216,"name":"superx","steam_id":76561198044976613,"connected_time":928000000000,"state":"active","ping":57},{"user_id":225,"name":"ItsTanleyCrunch","steam_id":76561198037915942,"connected_time":21000000000,"state":"spawning","ping":207},{"user_id":206,"name":"guess i'll die...virtually","steam_id":76561199112291386,"connected_time":1723000000000,"state":"active","ping":131},{"user_id":163,"name":"awesomeajb08","steam_id":76561199056316311,"connected_time":5079000000000,"state":"active","ping":69},{"user_id":164,"name":"ff6563pc","steam_id":76561199219838381,"connected_time":5047000000000,"state":"active","ping":80},{"user_id":223,"name":"Meatballgirl","steam_id":76561198049902502,"connected_time":205000000000,"state":"active","ping":67},{"user_id":207,"name":"xXcLaImEd__ReApErXx [F2P]","steam_id":76561198067232540,"connected_time":1673000000000,"state":"active","ping":75},{"user_id":219,"name":"Red","steam_id":76561198001939529,"connected_time":695000000000,"state":"active","ping":103},{"user_id":224,"name":"Urine Enthusiast [Piss Gaming]","steam_id":76561198067798973,"connected_time":110000000000,"state":"active","ping":127},{"user_id":208,"name":"jodie.blend","steam_id":76561198140701807,"connected_time":1634000000000,"state":"active","ping":86},{"user_id":215,"name":"Seethe \u0026 Cope","steam_id":76561197995063735,"connected_time":982000000000,"state":"active","ping":92},{"user_id":221,"name":"t13trevor","steam_id":76561199091633736,"connected_time":528000000000,"state":"active","ping":118},{"user_id":218,"name":"GiraffeMan","steam_id":76561198042104084,"connected_time":840000000000,"state":"active","ping":61},{"user_id":180,"name":"breadroll","steam_id":76561198039506482,"connected_time":3809000000000,"state":"active","ping":33},{"user_id":213,"name":"Bzamo","steam_id":76561198039883392,"connected_time":1159000000000,"state":"active","ping":54},{"user_id":177,"name":"vvichael","steam_id":76561198238148528,"connected_time":4112000000000,"state":"active","ping":56},{"user_id":178,"name":"Phil Collins","steam_id":76561198068868644,"connected_time":4107000000000,"state":"active","ping":119}]},{"server_id":142,"name":"Uncletopia | S√£o Paulo | 1 | All Maps","name_short":"sao-1","host":"sao-1.br.uncletopia.com","port":27015,"enabled":true,"region":"sa","cc":"br","latitude":-23.533773,"longitude":-46.62529,"reserved":0,"last_update":"0001-01-01T00:00:00Z","name_a2s":"Uncletopia | S√£o Paulo | 1 | All Maps","protocol":17,"map":"koth_cascade","folder":"tf","game":"Team Fortress","app_id":440,"player_count":0,"max_players":24,"Bots":0,"server_type":"Dedicated","server_os":"Linux","password":true,"vac":true,"version":"7757534","steam_id":85568392924469996,"keywords":["cp","nocrits","nodmgspread","uncletopia"],"game_id":440,"stv_port":27016,"stv_name":"Uncletopia | S√£o Paulo | 1 | All Maps | STV","players":null},{"server_id":143,"name":"Uncletopia | S√£o Paulo | 2 | All Maps","name_short":"sao-2","host":"sao-2.br.uncletopia.com","port":27015,"enabled":true,"region":"sa","cc":"br","latitude":-23.533773,"longitude":-46.62529,"reserved":0,"last_update":"0001-01-01T00:00:00Z","name_a2s":"Uncletopia | S√£o Paulo | 2 | All Maps","protocol":17,"map":"koth_viaduct","folder":"tf","game":"Team Fortress","app_id":440,"player_count":3,"max_players":24,"Bots":0,"server_type":"Dedicated","server_os":"Linux","password":true,"vac":true,"version":"7757534","steam_id":85568392924485349,"keywords":["cp","nocrits","nodmgspread","uncletopia"],"game_id":440,"stv_port":27016,"stv_name":"Uncletopia | S√£o Paulo | 2 | All Maps | STV","players":[{"user_id":53,"name":"comicalbanana","steam_id":76561198296310522,"connected_time":404000000000,"state":"active","ping":248},{"user_id":54,"name":"Ultra","steam_id":76561198257384980,"connected_time":389000000000,"state":"active","ping":215},{"user_id":55,"name":"Arrowthebest","steam_id":76561198183901409,"connected_time":370000000000,"state":"active","ping":174}]},{"server_id":7,"name":"Uncletopia | Seattle | 1 | All Maps","name_short":"sea-1","host":"sea-1.us.uncletopia.com","port":27015,"enabled":true,"region":"us-west","cc":"us","latitude":47.608013,"longitude":-122.33517,"reserved":0,"last_update":"0001-01-01T00:00:00Z","name_a2s":"Uncletopia | Seattle | 1 | All Maps","protocol":17,"map":"koth_harvest_final","folder":"tf","game":"Team Fortress","app_id":440,"player_count":24,"max_players":24,"Bots":0,"server_type":"Dedicated","server_os":"Linux","password":true,"vac":true,"version":"7757534","steam_id":85568392924469997,"keywords":["cp","nocrits","nodmgspread","uncletopia"],"game_id":440,"stv_port":27016,"stv_name":"Uncletopia | Seattle | 1 | All Maps | STV","players":[{"user_id":590,"name":"The King of Piss World","steam_id":76561198082806956,"connected_time":12127000000000,"state":"active","ping":121},{"user_id":714,"name":"Erk-Kirk","steam_id":76561198288954914,"connected_time":1196000000000,"state":"active","ping":97},{"user_id":678,"name":"old bugger photoshoot","steam_id":76561198038142791,"connected_time":3677000000000,"state":"active","ping":66},{"user_id":688,"name":"[TrC] Dackstrus","steam_id":76561197973518509,"connected_time":3049000000000,"state":"active","ping":61},{"user_id":705,"name":"Fang Lopez","steam_id":76561198141800967,"connected_time":1590000000000,"state":"active","ping":62},{"user_id":706,"name":"An Alien Mango","steam_id":76561198864823970,"connected_time":1537000000000,"state":"active","ping":67},{"user_id":670,"name":"dominants = asserted","steam_id":76561198029396836,"connected_time":4615000000000,"state":"active","ping":43},{"user_id":691,"name":"miguelrodriguez2013","steam_id":76561198269253587,"connected_time":2813000000000,"state":"active","ping":60},{"user_id":720,"name":"Skoad","steam_id":76561198104650528,"connected_time":412000000000,"state":"active","ping":59},{"user_id":701,"name":"mac_cheese","steam_id":76561198071334162,"connected_time":1839000000000,"state":"active","ping":51},{"user_id":667,"name":"Thanks Ants","steam_id":76561197966221018,"connected_time":5084000000000,"state":"active","ping":50},{"user_id":672,"name":"mooney","steam_id":76561199110622484,"connected_time":4585000000000,"state":"active","ping":61},{"user_id":712,"name":"viciousbeatmaker","steam_id":76561198086876652,"connected_time":1210000000000,"state":"active","ping":71},{"user_id":699,"name":"spenca","steam_id":76561198025371154,"connected_time":1945000000000,"state":"active","ping":66},{"user_id":599,"name":"DoctorHa","steam_id":76561198044026008,"connected_time":11558000000000,"state":"active","ping":92},{"user_id":708,"name":"PL0T0","steam_id":76561198157481171,"connected_time":1422000000000,"state":"active","ping":38},{"user_id":718,"name":"jenny possum","steam_id":76561198062879460,"connected_time":723000000000,"state":"active","ping":52},{"user_id":696,"name":"Professor Cuthbert Calculus","steam_id":76561198003257461,"connected_time":2260000000000,"state":"active","ping":57},{"user_id":671,"name":"silly jester birthday mode","steam_id":76561198079609974,"connected_time":4611000000000,"state":"active","ping":83},{"user_id":715,"name":"Mico (ENA Troublemaker)","steam_id":76561198125462953,"connected_time":1193000000000,"state":"active","ping":54},{"user_id":717,"name":"Alset","steam_id":76561197993820174,"connected_time":840000000000,"state":"active","ping":115},{"user_id":652,"name":"litcherally in vents","steam_id":76561199169558959,"connected_time":6892000000000,"state":"active","ping":45},{"user_id":721,"name":"Anderswo","steam_id":76561198253224241,"connected_time":343000000000,"state":"active","ping":45},{"user_id":686,"name":"Mr.Thirteen","steam_id":76561198047468836,"connected_time":3210000000000,"state":"active","ping":64}]},{"server_id":119,"name":"Uncletopia | Seattle | 2 | All Maps","name_short":"sea-2","host":"sea-1.us.uncletopia.com","port":27025,"enabled":true,"region":"us-west","cc":"us","latitude":47.608013,"longitude":-122.33517,"reserved":0,"last_update":"0001-01-01T00:00:00Z","name_a2s":"Uncletopia | Seattle | 2 | All Maps","protocol":17,"map":"pl_frontier_final","folder":"tf","game":"Team Fortress","app_id":440,"player_count":24,"max_players":24,"Bots":0,"server_type":"Dedicated","server_os":"Linux","password":true,"vac":true,"version":"7757534","steam_id":85568392924469998,"keywords":["nocrits","nodmgspread","payload","uncletopia"],"game_id":440,"stv_port":27026,"stv_name":"Uncletopia | Seattle | 2 | All Maps | STV","players":[{"user_id":540,"name":"Pubby Do","steam_id":76561198072066185,"connected_time":1550000000000,"state":"active","ping":121},{"user_id":553,"name":"chinese spy balloon","steam_id":76561198184814466,"connected_time":4000000000,"state":"spawning","ping":29},{"user_id":538,"name":"Eraser cat","steam_id":76561199045570463,"connected_time":1591000000000,"state":"active","ping":46},{"user_id":519,"name":"witch","steam_id":76561197974871380,"connected_time":3873000000000,"state":"active","ping":45},{"user_id":548,"name":"Tom","steam_id":76561198070630154,"connected_time":308000000000,"state":"active","ping":81},{"user_id":543,"name":"Len","steam_id":76561199141913673,"connected_time":1377000000000,"state":"active","ping":57},{"user_id":551,"name":"(ngv) Antwan","steam_id":76561198018017318,"connected_time":192000000000,"state":"active","ping":45},{"user_id":545,"name":"ArchmageF","steam_id":76561197992246851,"connected_time":586000000000,"state":"active","ping":56},{"user_id":536,"name":"yaboismitty","steam_id":76561199130187442,"connected_time":2538000000000,"state":"active","ping":87},{"user_id":474,"name":"Dongus","steam_id":76561197979056451,"connected_time":8533000000000,"state":"active","ping":45},{"user_id":537,"name":"ed","steam_id":76561198080475712,"connected_time":2003000000000,"state":"active","ping":52},{"user_id":542,"name":"Tibetan Pop Star","steam_id":76561198844903984,"connected_time":1454000000000,"state":"active","ping":85},{"user_id":518,"name":"wtf (what the flop)","steam_id":76561198059437813,"connected_time":4220000000000,"state":"active","ping":57},{"user_id":546,"name":"Corpe","steam_id":76561198054490549,"connected_time":471000000000,"state":"active","ping":51},{"user_id":492,"name":"Cheezbeargur","steam_id":76561198164702899,"connected_time":7254000000000,"state":"active","ping":73},{"user_id":523,"name":"Brathic","steam_id":76561198966232163,"connected_time":3519000000000,"state":"active","ping":97},{"user_id":547,"name":"mohamy_19","steam_id":76561198075833698,"connected_time":381000000000,"state":"active","ping":63},{"user_id":488,"name":"Lambchop","steam_id":76561198043900363,"connected_time":7842000000000,"state":"active","ping":76},{"user_id":550,"name":"BackToSchoolAds","steam_id":76561198870281128,"connected_time":213000000000,"state":"active","ping":97},{"user_id":526,"name":"hungry kibten","steam_id":76561198184099558,"connected_time":3017000000000,"state":"active","ping":47},{"user_id":552,"name":"codykurusu","steam_id":76561199468723267,"connected_time":164000000000,"state":"active","ping":132},{"user_id":533,"name":"mega","steam_id":76561198089520959,"connected_time":2759000000000,"state":"active","ping":97},{"user_id":535,"name":"2j psych ward waifu","steam_id":76561198206752128,"connected_time":2690000000000,"state":"active","ping":155},{"user_id":541,"name":"MCman","steam_id":76561198412110305,"connected_time":1550000000000,"state":"active","ping":76}]},{"server_id":406,"name":"Uncletopia | Seattle | 3 | Stopwatch Beta","name_short":"sea-3","host":"sea-1.us.uncletopia.com","port":27035,"enabled":true,"region":"us-west","cc":"us","latitude":47.608013,"longitude":-122.33517,"reserved":0,"last_update":"0001-01-01T00:00:00Z","name_a2s":"Uncletopia | Seattle | 3 | Stopwatch Beta","protocol":17,"map":"workshop/cp_process_f12.ugc2302948105","folder":"tf","game":"Team Fortress","app_id":440,"player_count":0,"max_players":24,"Bots":0,"server_type":"Dedicated","server_os":"Linux","password":true,"vac":true,"version":"7757534","steam_id":85568392924515217,"keywords":["cp","nocrits","nodmgspread","uncletopia"],"game_id":440,"stv_port":27036,"stv_name":"Uncletopia | Seattle | 3 | Stopwatch Beta | STV","players":null},{"server_id":17,"name":"Uncletopia | San Francisco | 1 | All Maps","name_short":"sfo-1","host":"sfo-1.us.uncletopia.com","port":27015,"enabled":true,"region":"us-west","cc":"us","latitude":37.77397,"longitude":-122.4313,"reserved":0,"last_update":"0001-01-01T00:00:00Z","name_a2s":"Uncletopia | San Francisco | 1 | All Maps","protocol":17,"map":"cp_steel","folder":"tf","game":"Team Fortress","app_id":440,"player_count":24,"max_players":24,"Bots":0,"server_type":"Dedicated","server_os":"Linux","password":true,"vac":true,"version":"7757534","steam_id":85568392924469999,"keywords":["cp","nocrits","nodmgspread","uncletopia"],"game_id":440,"stv_port":27016,"stv_name":"Uncletopia | San Francisco | 1 | All Maps | STV","players":[{"user_id":425,"name":"RazorLime","steam_id":76561198277251223,"connected_time":26000000000,"state":"active","ping":111},{"user_id":392,"name":"squinzi","steam_id":76561198086520846,"connected_time":1971000000000,"state":"active","ping":59},{"user_id":405,"name":"burger king hypnosis ego death ","steam_id":76561198070136627,"connected_time":1446000000000,"state":"active","ping":60},{"user_id":380,"name":"Demoman","steam_id":76561198101850500,"connected_time":3533000000000,"state":"active","ping":60},{"user_id":383,"name":"Ugly Mick Mars (Plz Duel Me)","steam_id":76561198051504563,"connected_time":3315000000000,"state":"active","ping":82},{"user_id":423,"name":"Satori Komeiji","steam_id":76561198158211423,"connected_time":124000000000,"state":"active","ping":55},{"user_id":417,"name":"tone","steam_id":76561198006505587,"connected_time":633000000000,"state":"active","ping":131},{"user_id":324,"name":"hiko3.aug","steam_id":76561198379650478,"connected_time":5397000000000,"state":"active","ping":164},{"user_id":406,"name":"scuffle bulwarked","steam_id":76561198106704927,"connected_time":1432000000000,"state":"active","ping":110},{"user_id":416,"name":"trobort","steam_id":76561198027150357,"connected_time":658000000000,"state":"active","ping":94},{"user_id":365,"name":"matchmatch                     ","steam_id":76561198048925904,"connected_time":3727000000000,"state":"active","ping":61},{"user_id":394,"name":"bigman1","steam_id":76561198050225055,"connected_time":1898000000000,"state":"active","ping":57},{"user_id":350,"name":"NotAWeeb","steam_id":76561198165530739,"connected_time":4343000000000,"state":"active","ping":46},{"user_id":329,"name":"loppy","steam_id":76561198081870327,"connected_time":5251000000000,"state":"active","ping":72},{"user_id":404,"name":"Brando","steam_id":76561198078306678,"connected_time":1466000000000,"state":"active","ping":70},{"user_id":401,"name":"girlthing","steam_id":76561198799922000,"connected_time":1544000000000,"state":"active","ping":61},{"user_id":419,"name":"Racist (I Play War Thunder)","steam_id":76561198263083789,"connected_time":457000000000,"state":"active","ping":153},{"user_id":424,"name":"Arrythmia","steam_id":76561198093748123,"connected_time":124000000000,"state":"active","ping":65},{"user_id":413,"name":"mechanicvirus","steam_id":76561198038161480,"connected_time":694000000000,"state":"active","ping":69},{"user_id":400,"name":"Final_MarioXD","steam_id":76561199184862419,"connected_time":1772000000000,"state":"active","ping":119},{"user_id":418,"name":"vvvvvinyl","steam_id":76561198116805255,"connected_time":494000000000,"state":"active","ping":79},{"user_id":335,"name":"WrittenInsanity","steam_id":76561198182968827,"connected_time":5154000000000,"state":"active","ping":63},{"user_id":414,"name":"lolgamer247","steam_id":76561198974645534,"connected_time":689000000000,"state":"active","ping":93},{"user_id":391,"name":"KazakamiSouta","steam_id":76561198074578849,"connected_time":2021000000000,"state":"active","ping":50}]},{"server_id":18,"name":"Uncletopia | San Francisco | 2 | All Maps","name_short":"sfo-2","host":"sfo-1.us.uncletopia.com","port":27025,"enabled":true,"region":"us-west","cc":"us","latitude":37.77397,"longitude":-122.4313,"reserved":0,"last_update":"0001-01-01T00:00:00Z","name_a2s":"Uncletopia | San Francisco | 2 | All Maps","protocol":17,"map":"pl_swiftwater_final1","folder":"tf","game":"Team Fortress","app_id":440,"player_count":24,"max_players":24,"Bots":0,"server_type":"Dedicated","server_os":"Linux","password":true,"vac":true,"version":"7757534","steam_id":85568392924470000,"keywords":["nocrits","nodmgspread","payload","uncletopia"],"game_id":440,"stv_port":27026,"stv_name":"Uncletopia | San Francisco | 2 | All Maps | STV","players":[{"user_id":657,"name":"CPTforever","steam_id":76561198237767198,"connected_time":112000000000,"state":"active","ping":45},{"user_id":632,"name":"WalkinMan","steam_id":76561198047941142,"connected_time":2987000000000,"state":"active","ping":28},{"user_id":651,"name":"Firedust19","steam_id":76561198153238631,"connected_time":1179000000000,"state":"active","ping":77},{"user_id":625,"name":"Professor Sex","steam_id":76561198396414319,"connected_time":3830000000000,"state":"active","ping":63},{"user_id":653,"name":"Kazmirl [Youtube]","steam_id":76561198116008410,"connected_time":831000000000,"state":"active","ping":102},{"user_id":652,"name":"Greskrendtregk","steam_id":76561197969553142,"connected_time":1164000000000,"state":"active","ping":74},{"user_id":619,"name":"Francis Cockrel 2016","steam_id":76561198078391538,"connected_time":4476000000000,"state":"active","ping":104},{"user_id":607,"name":"charley","steam_id":76561198828238339,"connected_time":5825000000000,"state":"active","ping":82},{"user_id":654,"name":"The Super Mario Bros. Movie","steam_id":76561198871692156,"connected_time":708000000000,"state":"active","ping":68},{"user_id":525,"name":"Alcohol Hominid","steam_id":76561198320313950,"connected_time":10577000000000,"state":"active","ping":101},{"user_id":633,"name":"Love Waffle","steam_id":76561197990077189,"connected_time":2788000000000,"state":"active","ping":85},{"user_id":511,"name":"DemoLiberTF2","steam_id":76561198095378689,"connected_time":10969000000000,"state":"active","ping":92},{"user_id":644,"name":"Alkemistt","steam_id":76561198147644202,"connected_time":1301000000000,"state":"active","ping":57},{"user_id":635,"name":"crack pipe gaming","steam_id":76561198283101331,"connected_time":2464000000000,"state":"active","ping":70},{"user_id":639,"name":"spacetoven","steam_id":76561198115821131,"connected_time":2182000000000,"state":"active","ping":48},{"user_id":637,"name":"jimmy outlaw","steam_id":76561198070380402,"connected_time":2427000000000,"state":"active","ping":97},{"user_id":658,"name":"PinguEnjoyer6","steam_id":76561199186723516,"connected_time":30000000000,"state":"active","ping":80},{"user_id":631,"name":"Stapler","steam_id":76561198099295077,"connected_time":3185000000000,"state":"active","ping":45},{"user_id":645,"name":"A Very Confused Gentleman","steam_id":76561198051686391,"connected_time":1287000000000,"state":"active","ping":104},{"user_id":642,"name":"LemonPoppyMuffin","steam_id":76561198044813750,"connected_time":1795000000000,"state":"active","ping":82},{"user_id":655,"name":"parmesan","steam_id":76561198118304061,"connected_time":396000000000,"state":"active","ping":61},{"user_id":513,"name":"ScoutSecoTF2","steam_id":76561198366212156,"connected_time":10959000000000,"state":"active","ping":120},{"user_id":656,"name":"Noodlesmasher2","steam_id":76561199084186813,"connected_time":396000000000,"state":"active","ping":82},{"user_id":621,"name":"Jacob Hornberger 2016 dice","steam_id":76561198204549723,"connected_time":4428000000000,"state":"active","ping":128}]},{"server_id":19,"name":"Uncletopia | San Francisco | 3 | Stopwatch Beta","name_short":"sfo-3","host":"sfo-1.us.uncletopia.com","port":27035,"enabled":true,"region":"us-west","cc":"us","latitude":37.77397,"longitude":-122.4313,"reserved":0,"last_update":"0001-01-01T00:00:00Z","name_a2s":"Uncletopia | San Francisco | 3 | Stopwatch Beta","protocol":17,"map":"pl_borneo","folder":"tf","game":"Team Fortress","app_id":440,"player_count":0,"max_players":24,"Bots":0,"server_type":"Dedicated","server_os":"Linux","password":true,"vac":true,"version":"7757534","steam_id":85568392924742824,"keywords":["nocrits","nodmgspread","payload","uncletopia"],"game_id":440,"stv_port":27036,"stv_name":"Uncletopia | San Francisco | 3 | Stopwatch Beta | STV","players":null},{"server_id":20,"name":"Uncletopia | San Francisco | 4 | Community","name_short":"sfo-4","host":"sfo-1.us.uncletopia.com","port":27045,"enabled":true,"region":"us-west","cc":"us","latitude":37.77397,"longitude":-122.4313,"reserved":0,"last_update":"0001-01-01T00:00:00Z","name_a2s":"Uncletopia | San Francisco | 4 | Community","protocol":17,"map":"workshop/koth_ramjam_rc1.ugc459778887","folder":"tf","game":"Team Fortress","app_id":440,"player_count":0,"max_players":24,"Bots":0,"server_type":"Dedicated","server_os":"Linux","password":true,"vac":true,"version":"7757534","steam_id":85568392924742826,"keywords":["cp","nocrits","nodmgspread","uncletopia"],"game_id":440,"stv_port":27046,"stv_name":"Uncletopia | San Francisco | 4 | Community | STV","players":null},{"server_id":141,"name":"Uncletopia | Sydney | 1 | All Maps","name_short":"syd-1","host":"syd-1.au.uncletopia.com","port":27015,"enabled":true,"region":"au","cc":"au","latitude":-33.865143,"longitude":151.2099,"reserved":0,"last_update":"0001-01-01T00:00:00Z","name_a2s":"Uncletopia | Sydney | 1 | All Maps","protocol":17,"map":"pl_borneo","folder":"tf","game":"Team Fortress","app_id":440,"player_count":0,"max_players":24,"Bots":0,"server_type":"Dedicated","server_os":"Linux","password":true,"vac":true,"version":"7757534","steam_id":85568392924470001,"keywords":["nocrits","nodmgspread","payload","uncletopia"],"game_id":440,"stv_port":27016,"stv_name":"Uncletopia | Sydney | 1 | All Maps | STV","players":null},{"server_id":123,"name":"Uncletopia | Sydney | 2 | All Maps","name_short":"syd-2","host":"syd-1.au.uncletopia.com","port":27025,"enabled":true,"region":"au","cc":"au","latitude":-33.865143,"longitude":151.2099,"reserved":0,"last_update":"0001-01-01T00:00:00Z","name_a2s":"Uncletopia | Sydney | 2 | All Maps","protocol":17,"map":"pl_snowycoast","folder":"tf","game":"Team Fortress","app_id":440,"player_count":24,"max_players":24,"Bots":0,"server_type":"Dedicated","server_os":"Linux","password":true,"vac":true,"version":"7757534","steam_id":85568392924470002,"keywords":["nocrits","nodmgspread","payload","uncletopia"],"game_id":440,"stv_port":27026,"stv_name":"Uncletopia | Sydney | 2 | All Maps | STV","players":[{"user_id":139,"name":"CypressFluff (She/Her)","steam_id":76561198174667818,"connected_time":1231000000000,"state":"active","ping":68},{"user_id":147,"name":"moflow081703","steam_id":76561198357274326,"connected_time":666000000000,"state":"active","ping":60},{"user_id":152,"name":"Swate","steam_id":76561198042991670,"connected_time":287000000000,"state":"active","ping":58},{"user_id":154,"name":"Dimond_bird","steam_id":76561199129051643,"connected_time":164000000000,"state":"spawning","ping":36},{"user_id":140,"name":"Cavalcade","steam_id":76561198289709527,"connected_time":1167000000000,"state":"active","ping":59},{"user_id":69,"name":"Zoey","steam_id":76561198126153554,"connected_time":7171000000000,"state":"active","ping":80},{"user_id":138,"name":"oldbie","steam_id":76561198053297711,"connected_time":1296000000000,"state":"active","ping":85},{"user_id":123,"name":"old chunk of coal","steam_id":76561197990537324,"connected_time":3096000000000,"state":"active","ping":109},{"user_id":95,"name":"thrax","steam_id":76561197992385270,"connected_time":6311000000000,"state":"active","ping":49},{"user_id":143,"name":"[GG] Cryo","steam_id":76561198062014383,"connected_time":896000000000,"state":"active","ping":58},{"user_id":102,"name":"Brooklyn","steam_id":76561198160577231,"connected_time":5830000000000,"state":"active","ping":66},{"user_id":137,"name":"Warren","steam_id":76561198120350917,"connected_time":1318000000000,"state":"active","ping":37},{"user_id":148,"name":"Deeznutz69Gamer","steam_id":76561199221531190,"connected_time":617000000000,"state":"active","ping":149},{"user_id":125,"name":"Bay Goy","steam_id":76561197989541221,"connected_time":2853000000000,"state":"active","ping":70},{"user_id":129,"name":"Crabloid","steam_id":76561199081848498,"connected_time":2043000000000,"state":"active","ping":63},{"user_id":110,"name":"Jdn","steam_id":76561198293079232,"connected_time":5164000000000,"state":"active","ping":60},{"user_id":122,"name":"Pew pew pew!","steam_id":76561198004120277,"connected_time":3545000000000,"state":"active","ping":44},{"user_id":118,"name":"DragRiper","steam_id":76561198050917553,"connected_time":4322000000000,"state":"active","ping":59},{"user_id":151,"name":"DP","steam_id":76561198087877161,"connected_time":416000000000,"state":"active","ping":68},{"user_id":155,"name":"Arpazha","steam_id":76561199072257230,"connected_time":164000000000,"state":"active","ping":145},{"user_id":107,"name":"no teles 4 u","steam_id":76561198018478297,"connected_time":5581000000000,"state":"active","ping":75},{"user_id":111,"name":"NollReed","steam_id":76561198098501571,"connected_time":5148000000000,"state":"active","ping":86},{"user_id":145,"name":"whiteshaq","steam_id":76561198131988811,"connected_time":833000000000,"state":"active","ping":49},{"user_id":146,"name":"Rashid Of The Dank Memes","steam_id":76561198281398078,"connected_time":825000000000,"state":"active","ping":64}]},{"server_id":395,"name":"Uncletopia | Sydney | 3 | All Maps","name_short":"syd-3","host":"syd-1.au.uncletopia.com","port":27035,"enabled":true,"region":"au","cc":"au","latitude":-33.865143,"longitude":151.2099,"reserved":0,"last_update":"0001-01-01T00:00:00Z","name_a2s":"Uncletopia | Sydney | 3 | All Maps","protocol":17,"map":"cp_sunshine","folder":"tf","game":"Team Fortress","app_id":440,"player_count":24,"max_players":24,"Bots":0,"server_type":"Dedicated","server_os":"Linux","password":true,"vac":true,"version":"7757534","steam_id":85568392925194467,"keywords":["cp","nocrits","nodmgspread","uncletopia"],"game_id":440,"stv_port":27036,"stv_name":"Uncletopia | Sydney | 3 | All Maps | STV","players":[{"user_id":291,"name":"vicho","steam_id":76561199447372008,"connected_time":1683000000000,"state":"active","ping":58},{"user_id":322,"name":"sav","steam_id":76561198058760041,"connected_time":29000000000,"state":"spawning","ping":101},{"user_id":285,"name":"Tasman","steam_id":76561198041224384,"connected_time":1970000000000,"state":"active","ping":41},{"user_id":302,"name":"pants money","steam_id":76561198066256359,"connected_time":1278000000000,"state":"active","ping":56},{"user_id":260,"name":"MININinja1308","steam_id":76561199040303660,"connected_time":3250000000000,"state":"active","ping":57},{"user_id":286,"name":"O'rangutan","steam_id":76561198095916681,"connected_time":1912000000000,"state":"active","ping":44},{"user_id":300,"name":"Notorious","steam_id":76561198042197894,"connected_time":1304000000000,"state":"active","ping":105},{"user_id":309,"name":"R","steam_id":76561197996963023,"connected_time":540000000000,"state":"active","ping":69},{"user_id":264,"name":"Kremmen","steam_id":76561198051368641,"connected_time":2838000000000,"state":"active","ping":60},{"user_id":321,"name":"Crockblocked","steam_id":76561198202538620,"connected_time":49000000000,"state":"active","ping":115},{"user_id":266,"name":"TwilightJericho","steam_id":76561198044875117,"connected_time":2789000000000,"state":"active","ping":61},{"user_id":295,"name":"Dede","steam_id":76561198171707301,"connected_time":1460000000000,"state":"active","ping":45},{"user_id":292,"name":"ThatGuyLogan","steam_id":76561198155645208,"connected_time":1601000000000,"state":"active","ping":45},{"user_id":304,"name":"Team Fartress Poo","steam_id":76561198139598106,"connected_time":1215000000000,"state":"active","ping":58},{"user_id":310,"name":"Poop2Hard","steam_id":76561198099383586,"connected_time":533000000000,"state":"active","ping":60},{"user_id":311,"name":"Frog Friend","steam_id":76561198054505772,"connected_time":485000000000,"state":"active","ping":56},{"user_id":299,"name":"Magicant","steam_id":76561198064244826,"connected_time":1319000000000,"state":"active","ping":60},{"user_id":296,"name":"House fly","steam_id":76561198127767137,"connected_time":1438000000000,"state":"active","ping":65},{"user_id":317,"name":"humph","steam_id":76561198083730533,"connected_time":318000000000,"state":"active","ping":46},{"user_id":303,"name":"Charm","steam_id":76561198028891054,"connected_time":1273000000000,"state":"active","ping":63},{"user_id":312,"name":"goob","steam_id":76561199480479443,"connected_time":444000000000,"state":"active","ping":73},{"user_id":313,"name":"mynutsow","steam_id":76561198927387801,"connected_time":437000000000,"state":"active","ping":50},{"user_id":315,"name":"TFC games","steam_id":76561198130868318,"connected_time":428000000000,"state":"active","ping":55},{"user_id":323,"name":"Sover blw.tf","steam_id":76561198136347837,"connected_time":20000000000,"state":"active","ping":127}]},{"server_id":396,"name":"Uncletopia | Sydney | 4 | All Maps","name_short":"syd-4","host":"syd-1.au.uncletopia.com","port":27045,"enabled":true,"region":"au","cc":"au","latitude":-33.865143,"longitude":151.2099,"reserved":0,"last_update":"0001-01-01T00:00:00Z","name_a2s":"Uncletopia | Sydney | 4 | All Maps","protocol":17,"map":"cp_altitude","folder":"tf","game":"Team Fortress","app_id":440,"player_count":0,"max_players":24,"Bots":0,"server_type":"Dedicated","server_os":"Linux","password":true,"vac":true,"version":"7757534","steam_id":85568392925397958,"keywords":["cp","nocrits","nodmgspread","uncletopia"],"game_id":440,"stv_port":27046,"stv_name":"Uncletopia | Sydney | 4 | All Maps | STV","players":null},{"server_id":58,"name":"Uncletopia | Sydney | 5 | Stopwatch Beta","name_short":"syd-5","host":"syd-1.au.uncletopia.com","port":27055,"enabled":true,"region":"au","cc":"au","latitude":-33.865143,"longitude":151.2099,"reserved":0,"last_update":"0001-01-01T00:00:00Z","name_a2s":"Uncletopia | Sydney | 5 | Stopwatch Beta","protocol":17,"map":"workshop/cp_reckoner_rc6.ugc674719999","folder":"tf","game":"Team Fortress","app_id":440,"player_count":0,"max_players":24,"Bots":0,"server_type":"Dedicated","server_os":"Linux","password":true,"vac":true,"version":"7757534","steam_id":85568392925397959,"keywords":["cp","nocrits","nodmgspread","uncletopia"],"game_id":440,"stv_port":27056,"stv_name":"Uncletopia | Sydney | 5 | Stopwatch Beta | STV","players":null},{"server_id":59,"name":"Uncletopia | Sydney | 6 | Community","name_short":"syd-6","host":"syd-1.au.uncletopia.com","port":27065,"enabled":true,"region":"au","cc":"au","latitude":-33.865143,"longitude":151.2099,"reserved":0,"last_update":"0001-01-01T00:00:00Z","name_a2s":"Uncletopia | Sydney | 6 | Community","protocol":17,"map":"cp_snakewater_final1","folder":"tf","game":"Team Fortress","app_id":440,"player_count":0,"max_players":24,"Bots":0,"server_type":"Dedicated","server_os":"Linux","password":true,"vac":true,"version":"7757534","steam_id":85568392925397960,"keywords":["cp","nocrits","nodmgspread","uncletopia"],"game_id":440,"stv_port":27066,"stv_name":"Uncletopia | Sydney | 6 | Community | STV","players":null},{"server_id":49,"name":"Uncletopia | Warsaw | 1 | All Maps","name_short":"waw-1","host":"waw-1.pl.uncletopia.com","port":27015,"enabled":true,"region":"eu","cc":"pl","latitude":52.2297,"longitude":21.017532,"reserved":0,"last_update":"0001-01-01T00:00:00Z","name_a2s":"","protocol":0,"map":"","folder":"","game":"","app_id":0,"player_count":0,"max_players":0,"Bots":0,"server_type":"","server_os":"","password":false,"vac":false,"version":"","steam_id":0,"keywords":null,"game_id":0,"stv_port":0,"stv_name":"","players":null},{"server_id":50,"name":"Uncletopia | Warsaw | 2 | All Maps","name_short":"waw-2","host":"waw-1.pl.uncletopia.com","port":27025,"enabled":true,"region":"eu","cc":"pl","latitude":52.2297,"longitude":21.017532,"reserved":0,"last_update":"0001-01-01T00:00:00Z","name_a2s":"Uncletopia | Warsaw | 2 | All Maps","protocol":17,"map":"koth_viaduct","folder":"tf","game":"Team Fortress","app_id":440,"player_count":0,"max_players":24,"Bots":0,"server_type":"Dedicated","server_os":"Linux","password":true,"vac":true,"version":"7757534","steam_id":85568392925397851,"keywords":["cp","nocrits","nodmgspread","uncletopia"],"game_id":440,"stv_port":27026,"stv_name":"Uncletopia | Warsaw | 2 | All Maps | STV","players":null},{"server_id":51,"name":"Uncletopia | Warsaw | 3 | All Maps","name_short":"waw-3","host":"waw-1.pl.uncletopia.com","port":27035,"enabled":true,"region":"eu","cc":"pl","latitude":52.2297,"longitude":21.017532,"reserved":0,"last_update":"0001-01-01T00:00:00Z","name_a2s":"Uncletopia | Warsaw | 3 | All Maps","protocol":17,"map":"pl_badwater","folder":"tf","game":"Team Fortress","app_id":440,"player_count":0,"max_players":24,"Bots":0,"server_type":"Dedicated","server_os":"Linux","password":true,"vac":true,"version":"7757534","steam_id":85568392925397852,"keywords":["nocrits","nodmgspread","payload","uncletopia"],"game_id":440,"stv_port":27036,"stv_name":"Uncletopia | Warsaw | 3 | All Maps | STV","players":null},{"server_id":52,"name":"Uncletopia | Warsaw | 4 | All Maps","name_short":"waw-4","host":"waw-1.pl.uncletopia.com","port":27045,"enabled":true,"region":"eu","cc":"pl","latitude":52.2297,"longitude":21.017532,"reserved":0,"last_update":"0001-01-01T00:00:00Z","name_a2s":"Uncletopia | Warsaw | 4 | All Maps","protocol":17,"map":"koth_lakeside_final","folder":"tf","game":"Team Fortress","app_id":440,"player_count":0,"max_players":24,"Bots":0,"server_type":"Dedicated","server_os":"Linux","password":true,"vac":true,"version":"7757534","steam_id":85568392925397853,"keywords":["cp","nocrits","nodmgspread","uncletopia"],"game_id":440,"stv_port":27046,"stv_name":"Uncletopia | Warsaw | 4 | All Maps | STV","players":null},{"server_id":53,"name":"Uncletopia | Warsaw | 5 | Stopwatch Beta","name_short":"waw-5","host":"waw-1.pl.uncletopia.com","port":27055,"enabled":true,"region":"eu","cc":"pl","latitude":52.2297,"longitude":21.017532,"reserved":0,"last_update":"0001-01-01T00:00:00Z","name_a2s":"Uncletopia | Warsaw | 5 | Stopwatch Beta","protocol":17,"map":"pl_borneo","folder":"tf","game":"Team Fortress","app_id":440,"player_count":0,"max_players":24,"Bots":0,"server_type":"Dedicated","server_os":"Linux","password":true,"vac":true,"version":"7757534","steam_id":85568392925397854,"keywords":["nocrits","nodmgspread","payload","uncletopia"],"game_id":440,"stv_port":27056,"stv_name":"Uncletopia | Warsaw | 5 | Stopwatch Beta | STV","players":null},{"server_id":54,"name":"Uncletopia | Warsaw | 6 | Community","name_short":"waw-6","host":"waw-1.pl.uncletopia.com","port":27065,"enabled":true,"region":"eu","cc":"pl","latitude":52.2297,"longitude":21.017532,"reserved":0,"last_update":"0001-01-01T00:00:00Z","name_a2s":"Uncletopia | Warsaw | 6 | Community","protocol":17,"map":"koth_lakeside_final","folder":"tf","game":"Team Fortress","app_id":440,"player_count":0,"max_players":24,"Bots":0,"server_type":"Dedicated","server_os":"Linux","password":true,"vac":true,"version":"7757534","steam_id":85568392925397856,"keywords":["cp","nocrits","nodmgspread","uncletopia"],"game_id":440,"stv_port":27066,"stv_name":"Uncletopia | Warsaw | 6 | Community | STV","players":null}]}