{"status":true,"message":"","result":[{"server_id":9,"name":"Uncletopia | Atlanta | 1 | All Maps","name_short":"atl-1","host":"atl-1.us.uncletopia.com","port":27015,"enabled":true,"region":"us-east","cc":"us","latitude":33.753746,"longitude":-84.38633,"reserved":0,"last_update":"0001-01-01T00:00:00Z","name_a2s":"Uncletopia | Atlanta | 1 | All Maps","protocol":17,"map":"pl_pier","folder":"tf","game":"Team Fortress","app_id":440,"player_count":24,"max_players":24,"Bots":0,"server_type":"Dedicated","server_os":"Linux","password":true,"vac":true,"version":"7757534","steam_id":85568392924469982,"keywords":["nocrits","nodmgspread","payload","uncletopia"],"game_id":440,"stv_port":27016,"stv_name":"Uncletopia | Atlanta | 1 | All Maps | STV","players":[{"user_id":53,"name":"SpaceBanana","steam_id":76561198077857315,"connected_time":1981000000000,"state":"active","ping":104},{"user_id":19,"name":"StuartBell511","steam_id":76561198060931721,"connected_time":3905000000000,"state":"active","ping":64},{"user_id":59,"name":"bogginwater","steam_id":76561198155547142,"connected_time":1946000000000,"state":"active","ping":66},{"user_id":70,"name":"ghenotic","steam_id":76561199310269979,"connected_time":825000000000,"state":"active","ping":53},{"user_id":60,"name":"Bandicario","steam_id":76561198432036026,"connected_time":1892000000000,"state":"active","ping":48},{"user_id":50,"name":"living in mushroom park","steam_id":76561198249206656,"connected_time":2643000000000,"state":"active","ping":86},{"user_id":72,"name":"Javelin","steam_id":76561198068782818,"connected_time":240000000000,"state":"active","ping":72},{"user_id":24,"name":"William Wallace","steam_id":76561199343316814,"connected_time":3668000000000,"state":"active","ping":56},{"user_id":28,"name":"nat","steam_id":76561198865090309,"connected_time":3390000000000,"state":"active","ping":116},{"user_id":67,"name":"Dude bro","steam_id":76561198249916746,"connected_time":910000000000,"state":"active","ping":60},{"user_id":48,"name":"'LaxAttack","steam_id":76561198044129346,"connected_time":2932000000000,"state":"active","ping":61},{"user_id":34,"name":"The Undead Knight","steam_id":76561198010654500,"connected_time":3175000000000,"state":"active","ping":66},{"user_id":65,"name":"You Want Me","steam_id":76561198135492119,"connected_time":1177000000000,"state":"active","ping":70},{"user_id":64,"name":"Pixeled","steam_id":76561198088917077,"connected_time":1339000000000,"state":"active","ping":71},{"user_id":37,"name":"lauren/","steam_id":76561198048745798,"connected_time":3099000000000,"state":"active","ping":60},{"user_id":66,"name":"G_Bob","steam_id":76561198098133233,"connected_time":1176000000000,"state":"active","ping":55},{"user_id":39,"name":"LerN","steam_id":76561198083463877,"connected_time":3050000000000,"state":"active","ping":62},{"user_id":54,"name":"[CTC] kooldan","steam_id":76561198136593625,"connected_time":1977000000000,"state":"active","ping":60},{"user_id":62,"name":"yomokha","steam_id":76561198063175935,"connected_time":1738000000000,"state":"active","ping":62},{"user_id":52,"name":"Bee","steam_id":76561198074681324,"connected_time":2420000000000,"state":"active","ping":66},{"user_id":45,"name":"Mirari","steam_id":76561198126889358,"connected_time":2986000000000,"state":"active","ping":84},{"user_id":61,"name":"【TRHD】Pharaxer™","steam_id":76561198051236069,"connected_time":1756000000000,"state":"active","ping":149},{"user_id":69,"name":"ATL1 | to4st","steam_id":76561198981009008,"connected_time":894000000000,"state":"active","ping":65},{"user_id":58,"name":"ATL1 | Lav4ie they/them","steam_id":76561198825997674,"connected_time":1966000000000,"state":"active","ping":57}]},{"server_id":400,"name":"Uncletopia | Atlanta | 3 | Stopwatch Beta","name_short":"atl-3","host":"atl-1.us.uncletopia.com","port":27035,"enabled":true,"region":"us-east","cc":"us","latitude":33.753746,"longitude":-84.38633,"reserved":0,"last_update":"0001-01-01T00:00:00Z","name_a2s":"Uncletopia | Atlanta | 3 | Stopwatch Beta","protocol":17,"map":"workshop/koth_bagel_rc5.ugc2514036946","folder":"tf","game":"Team Fortress","app_id":440,"player_count":24,"max_players":24,"Bots":0,"server_type":"Dedicated","server_os":"Linux","password":true,"vac":true,"version":"7757534","steam_id":85568392924515187,"keywords":["cp","nocrits","nodmgspread","uncletopia"],"game_id":440,"stv_port":27036,"stv_name":"Uncletopia | Atlanta | 3 | Stopwatch Beta | STV","players":[{"user_id":259,"name":"sc67","steam_id":76561199302471485,"connected_time":2318000000000,"state":"active","ping":64},{"user_id":281,"name":"RipOffGay","steam_id":76561198173381377,"connected_time":1192000000000,"state":"active","ping":71},{"user_id":234,"name":"Motreir","steam_id":76561198151717946,"connected_time":4353000000000,"state":"active","ping":83},{"user_id":233,"name":"Infinity","steam_id":76561199134919099,"connected_time":4368000000000,"state":"active","ping":76},{"user_id":277,"name":"leahkubo","steam_id":76561198202173016,"connected_time":1289000000000,"state":"active","ping":74},{"user_id":288,"name":"beli-ben","steam_id":76561199230045254,"connected_time":404000000000,"state":"active","ping":171},{"user_id":229,"name":"ethanbear360 #savetf2","steam_id":76561198354577444,"connected_time":4571000000000,"state":"active","ping":74},{"user_id":256,"name":"Mad dog of Shimano","steam_id":76561198797266817,"connected_time":2506000000000,"state":"active","ping":85},{"user_id":258,"name":"Gamer","steam_id":76561199006299766,"connected_time":2357000000000,"state":"active","ping":96},{"user_id":257,"name":"Rornir","steam_id":76561198081829615,"connected_time":2430000000000,"state":"active","ping":59},{"user_id":171,"name":"Cum3602","steam_id":76561198047675566,"connected_time":8388000000000,"state":"active","ping":57},{"user_id":261,"name":"HorizonPear","steam_id":76561198179808389,"connected_time":2250000000000,"state":"active","ping":98},{"user_id":211,"name":"Dr. Bernard Rieux","steam_id":76561198084582998,"connected_time":5399000000000,"state":"active","ping":75},{"user_id":282,"name":"Walmart Employee","steam_id":76561198840373909,"connected_time":1002000000000,"state":"active","ping":82},{"user_id":286,"name":"Dragon of Dojima","steam_id":76561198171059033,"connected_time":788000000000,"state":"active","ping":131},{"user_id":289,"name":"thundermuffin","steam_id":76561198067770965,"connected_time":400000000000,"state":"active","ping":61},{"user_id":270,"name":"corviraptor (\u003c-- awesome)","steam_id":76561198058284392,"connected_time":2004000000000,"state":"active","ping":82},{"user_id":283,"name":"totally not a pile of beans","steam_id":76561198119851931,"connected_time":869000000000,"state":"active","ping":73},{"user_id":271,"name":"ℓ0ℓO","steam_id":76561198026811744,"connected_time":1953000000000,"state":"active","ping":83},{"user_id":273,"name":"Azula's #1 Fan","steam_id":76561198133111058,"connected_time":1902000000000,"state":"active","ping":96},{"user_id":280,"name":"[chef] iron","steam_id":76561197970888616,"connected_time":1228000000000,"state":"active","ping":73},{"user_id":264,"name":"armed slobbery. enguzzlement.","steam_id":76561198237292756,"connected_time":2208000000000,"state":"active","ping":74},{"user_id":290,"name":"BroBama","steam_id":76561198203732587,"connected_time":83000000000,"state":"active","ping":92},{"user_id":287,"name":"Jarryl97","steam_id":76561198055451373,"connected_time":478000000000,"state":"active","ping":85}]},{"server_id":401,"name":"Uncletopia | Atlanta | 4 | No Payload","name_short":"atl-4","host":"atl-1.us.uncletopia.com","port":27045,"enabled":true,"region":"us-east","cc":"us","latitude":33.753746,"longitude":-84.38633,"reserved":0,"last_update":"0001-01-01T00:00:00Z","name_a2s":"Uncletopia | Atlanta | 4 | No Payload","protocol":17,"map":"pl_pier","folder":"tf","game":"Team Fortress","app_id":440,"player_count":0,"max_players":24,"Bots":0,"server_type":"Dedicated","server_os":"Linux","password":true,"vac":true,"version":"7723704","steam_id":85568392924515188,"keywords":["nocrits","nodmgspread","payload","uncletopia"],"game_id":440,"stv_port":27046,"stv_name":"Uncletopia | Atlanta | 4 | No Payload | STV","players":null},{"server_id":2,"name":"Uncletopia | Chicago | 1 | All Maps","name_short":"chi-1","host":"chi-1.us.uncletopia.com","port":27015,"enabled":true,"region":"us-central","cc":"us","latitude":41.881832,"longitude":-87.62318,"reserved":0,"last_update":"0001-01-01T00:00:00Z","name_a2s":"Uncletopia | Chicago | 1 | All Maps","protocol":17,"map":"cp_badlands","folder":"tf","game":"Team Fortress","app_id":440,"player_count":24,"max_players":24,"Bots":0,"server_type":"Dedicated","server_os":"Linux","password":true,"vac":true,"version":"7757534","steam_id":85568392924469984,"keywords":["cp","nocrits","nodmgspread","uncletopia"],"game_id":440,"stv_port":27016,"stv_name":"Uncletopia | Chicago | 1 | All Maps | STV","players":[{"user_id":185,"name":"ṽ⧉ cookie","steam_id":76561197998884823,"connected_time":594000000000,"state":"active","ping":74},{"user_id":158,"name":"bruiseraaron","steam_id":76561198020092380,"connected_time":2915000000000,"state":"active","ping":51},{"user_id":163,"name":"Temujin","steam_id":76561198030936583,"connected_time":1972000000000,"state":"active","ping":65},{"user_id":100,"name":"gretchling","steam_id":76561198046111695,"connected_time":7487000000000,"state":"active","ping":60},{"user_id":173,"name":"capybara","steam_id":76561198798828328,"connected_time":1716000000000,"state":"active","ping":45},{"user_id":118,"name":"ch","steam_id":76561198012566405,"connected_time":6761000000000,"state":"active","ping":61},{"user_id":159,"name":"♥ Femboy♥Ventily ♥","steam_id":76561198157260335,"connected_time":2881000000000,"state":"active","ping":56},{"user_id":183,"name":"Errrmmett","steam_id":76561198041314051,"connected_time":614000000000,"state":"active","ping":87},{"user_id":177,"name":"just bacon","steam_id":76561198275147111,"connected_time":1588000000000,"state":"active","ping":81},{"user_id":131,"name":"Napalm_Gaming","steam_id":76561199027819479,"connected_time":5626000000000,"state":"active","ping":114},{"user_id":167,"name":"The Land Admiral","steam_id":76561198159356609,"connected_time":1730000000000,"state":"active","ping":70},{"user_id":138,"name":"Kartyac","steam_id":76561197991069005,"connected_time":5256000000000,"state":"active","ping":76},{"user_id":161,"name":"IGotTheLettuce","steam_id":76561198062473897,"connected_time":2189000000000,"state":"active","ping":83},{"user_id":176,"name":"pv.Bebop","steam_id":76561198207022619,"connected_time":1601000000000,"state":"active","ping":67},{"user_id":186,"name":"Shark Sandwich","steam_id":76561198025007938,"connected_time":542000000000,"state":"active","ping":149},{"user_id":180,"name":"fresco","steam_id":76561199101199477,"connected_time":1371000000000,"state":"active","ping":61},{"user_id":155,"name":"sickomode123","steam_id":76561198975511346,"connected_time":3895000000000,"state":"active","ping":94},{"user_id":169,"name":"Censing Auto, The Challenger","steam_id":76561198060926681,"connected_time":1727000000000,"state":"active","ping":57},{"user_id":137,"name":"Snale","steam_id":76561198039517965,"connected_time":5310000000000,"state":"active","ping":120},{"user_id":184,"name":"catboy phroliax","steam_id":76561198207075529,"connected_time":609000000000,"state":"active","ping":75},{"user_id":98,"name":"Ikalpo","steam_id":76561198044686915,"connected_time":7504000000000,"state":"active","ping":103},{"user_id":187,"name":"Jimothy","steam_id":76561198982248872,"connected_time":527000000000,"state":"active","ping":75},{"user_id":160,"name":"Quentin","steam_id":76561198032941413,"connected_time":2568000000000,"state":"active","ping":71},{"user_id":179,"name":"ZeFizzyPop™","steam_id":76561198258104981,"connected_time":1425000000000,"state":"active","ping":44}]},{"server_id":106,"name":"Uncletopia | Chicago | 2 | All Maps","name_short":"chi-2","host":"chi-1.us.uncletopia.com","port":27025,"enabled":true,"region":"us-central","cc":"us","latitude":41.881832,"longitude":-87.62318,"reserved":0,"last_update":"0001-01-01T00:00:00Z","name_a2s":"Uncletopia | Chicago | 2 | All Maps","protocol":17,"map":"koth_lakeside_final","folder":"tf","game":"Team Fortress","app_id":440,"player_count":0,"max_players":24,"Bots":0,"server_type":"Dedicated","server_os":"Linux","password":true,"vac":true,"version":"7757534","steam_id":85568392924469985,"keywords":["cp","nocrits","nodmgspread","uncletopia"],"game_id":440,"stv_port":27026,"stv_name":"Uncletopia | Chicago | 2 | All Maps | STV","players":null},{"server_id":402,"name":"Uncletopia | Chicago | 3 | All Maps","name_short":"chi-3","host":"chi-1.us.uncletopia.com","port":27035,"enabled":true,"region":"us-central","cc":"us","latitude":41.881832,"longitude":-87.62318,"reserved":0,"last_update":"0001-01-01T00:00:00Z","name_a2s":"Uncletopia | Chicago | 3 | All Maps","protocol":17,"map":"pl_barnblitz","folder":"tf","game":"Team Fortress","app_id":440,"player_count":0,"max_players":24,"Bots":0,"server_type":"Dedicated","server_os":"Linux","password":true,"vac":true,"version":"7757534","steam_id":85568392924515191,"keywords":["nocrits","nodmgspread","payload","uncletopia"],"game_id":440,"stv_port":27036,"stv_name":"Uncletopia | Chicago | 3 | All Maps | STV","players":null},{"server_id":403,"name":"Uncletopia | Chicago | 4 | All Maps","name_short":"chi-4","host":"chi-1.us.uncletopia.com","port":27045,"enabled":true,"region":"us-central","cc":"us","latitude":41.881832,"longitude":-87.62318,"reserved":0,"last_update":"0001-01-01T00:00:00Z","name_a2s":"Uncletopia | Chicago | 4 | All Maps","protocol":17,"map":"cp_snakewater_final1","folder":"tf","game":"Team Fortress","app_id":440,"player_count":24,"max_players":24,"Bots":0,"server_type":"Dedicated","server_os":"Linux","password":true,"vac":true,"version":"7757534","steam_id":85568392924515193,"keywords":["cp","nocrits","nodmgspread","uncletopia"],"game_id":440,"stv_port":27046,"stv_name":"Uncletopia | Chicago | 4 | All Maps | STV","players":[{"user_id":186,"name":"parm spagert with bassil","steam_id":76561198047476380,"connected_time":4898000000000,"state":"active","ping":72},{"user_id":254,"name":"Psych03","steam_id":76561198061753667,"connected_time":648000000000,"state":"active","ping":102},{"user_id":245,"name":"[LINUX] Purple Penguin Pybro","steam_id":76561198093538786,"connected_time":856000000000,"state":"active","ping":70},{"user_id":258,"name":"bobbyreinman2009","steam_id":76561198804763186,"connected_time":429000000000,"state":"active","ping":61},{"user_id":255,"name":"FunGi","steam_id":76561198881418662,"connected_time":530000000000,"state":"active","ping":74},{"user_id":256,"name":"PeopleOrderOurPatties","steam_id":76561198323144922,"connected_time":518000000000,"state":"active","ping":81},{"user_id":247,"name":"fhish","steam_id":76561198064911344,"connected_time":838000000000,"state":"active","ping":74},{"user_id":221,"name":"B45Guy","steam_id":76561198117290531,"connected_time":2766000000000,"state":"active","ping":59},{"user_id":259,"name":"Lord Scrubling","steam_id":76561198263744445,"connected_time":404000000000,"state":"active","ping":67},{"user_id":212,"name":"JazzMuted","steam_id":76561197974184265,"connected_time":3258000000000,"state":"active","ping":47},{"user_id":250,"name":"Yukihana","steam_id":76561198348354629,"connected_time":725000000000,"state":"active","ping":111},{"user_id":260,"name":"Phantom_03","steam_id":76561198217929829,"connected_time":392000000000,"state":"active","ping":98},{"user_id":230,"name":"bobdragon27","steam_id":76561198065833387,"connected_time":2385000000000,"state":"active","ping":59},{"user_id":238,"name":"deer","steam_id":76561198195911246,"connected_time":1270000000000,"state":"active","ping":81},{"user_id":228,"name":"FiveStryker","steam_id":76561198366172207,"connected_time":2425000000000,"state":"active","ping":46},{"user_id":223,"name":"Gongus","steam_id":76561199199194177,"connected_time":2741000000000,"state":"active","ping":84},{"user_id":234,"name":"Anon","steam_id":76561198109740776,"connected_time":1780000000000,"state":"active","ping":111},{"user_id":244,"name":"Raydn","steam_id":76561198418414338,"connected_time":914000000000,"state":"active","ping":86},{"user_id":242,"name":"shadow6","steam_id":76561197979807910,"connected_time":1047000000000,"state":"active","ping":91},{"user_id":240,"name":"superbad","steam_id":76561198065913973,"connected_time":1225000000000,"state":"active","ping":93},{"user_id":261,"name":"Wwaz","steam_id":76561198000240092,"connected_time":49000000000,"state":"active","ping":45},{"user_id":253,"name":"Mara Roo","steam_id":76561198279341789,"connected_time":673000000000,"state":"active","ping":76},{"user_id":193,"name":"Cuttle's Fish","steam_id":76561198280483257,"connected_time":4548000000000,"state":"active","ping":60},{"user_id":108,"name":"Tommy Pickles (Very Cool)","steam_id":76561198391261463,"connected_time":11246000000000,"state":"active","ping":65}]},{"server_id":36,"name":"Uncletopia | Chicago | 5 | All Maps","name_short":"chi-5","host":"chi-2.us.uncletopia.com","port":27015,"enabled":true,"region":"us-central","cc":"us","latitude":41.881832,"longitude":-87.62318,"reserved":0,"last_update":"0001-01-01T00:00:00Z","name_a2s":"Uncletopia | Chicago | 5 | All Maps","protocol":17,"map":"pl_swiftwater_final1","folder":"tf","game":"Team Fortress","app_id":440,"player_count":24,"max_players":24,"Bots":0,"server_type":"Dedicated","server_os":"Linux","password":true,"vac":true,"version":"7757534","steam_id":85568392924866362,"keywords":["nocrits","nodmgspread","payload","uncletopia"],"game_id":440,"stv_port":27016,"stv_name":"Uncletopia | Chicago | 5 | All Maps | STV","players":[{"user_id":27,"name":"Blueshadow","steam_id":76561199294815271,"connected_time":1340000000000,"state":"active","ping":95},{"user_id":55,"name":"Aquark","steam_id":76561198328155605,"connected_time":46000000000,"state":"active","ping":57},{"user_id":20,"name":"DusterDad3","steam_id":76561198055802794,"connected_time":1816000000000,"state":"active","ping":72},{"user_id":22,"name":"The Wrong Trousers","steam_id":76561198797647275,"connected_time":1784000000000,"state":"active","ping":71},{"user_id":29,"name":"Cthulwho?","steam_id":76561198165550810,"connected_time":1292000000000,"state":"active","ping":60},{"user_id":25,"name":"Berries","steam_id":76561198109312962,"connected_time":1443000000000,"state":"active","ping":75},{"user_id":26,"name":"raspy","steam_id":76561198027298961,"connected_time":1442000000000,"state":"active","ping":61},{"user_id":28,"name":"Bluskye","steam_id":76561197998117127,"connected_time":1327000000000,"state":"active","ping":87},{"user_id":30,"name":"Very Small Giant","steam_id":76561199187337967,"connected_time":1273000000000,"state":"active","ping":60},{"user_id":31,"name":"st0mpt","steam_id":76561197963372924,"connected_time":1257000000000,"state":"active","ping":87},{"user_id":37,"name":"Fitts1099","steam_id":76561198044986906,"connected_time":798000000000,"state":"active","ping":46},{"user_id":43,"name":"the.land.of.avalon","steam_id":76561198245431668,"connected_time":587000000000,"state":"active","ping":58},{"user_id":34,"name":"Pi Guy","steam_id":76561199071784224,"connected_time":1126000000000,"state":"active","ping":73},{"user_id":35,"name":"condom shard #27","steam_id":76561198060342804,"connected_time":966000000000,"state":"active","ping":70},{"user_id":38,"name":"30.jt","steam_id":76561198125328737,"connected_time":731000000000,"state":"active","ping":60},{"user_id":39,"name":"total phoenix","steam_id":76561198063293839,"connected_time":724000000000,"state":"active","ping":58},{"user_id":40,"name":"the rizzlious bear 200 rozzle","steam_id":76561198125255729,"connected_time":722000000000,"state":"active","ping":48},{"user_id":41,"name":"Interrobang","steam_id":76561198385044529,"connected_time":646000000000,"state":"active","ping":167},{"user_id":52,"name":"Luffy","steam_id":76561198120914343,"connected_time":95000000000,"state":"active","ping":69},{"user_id":46,"name":"gabryxx","steam_id":76561199075272427,"connected_time":537000000000,"state":"active","ping":158},{"user_id":47,"name":"God im so badas.............","steam_id":76561199037497493,"connected_time":503000000000,"state":"active","ping":56},{"user_id":50,"name":"LVL 4 Dispenser Gaming","steam_id":76561198044244547,"connected_time":308000000000,"state":"active","ping":80},{"user_id":51,"name":"rotbrain","steam_id":76561198127534492,"connected_time":134000000000,"state":"active","ping":57},{"user_id":54,"name":"GuyGoom","steam_id":76561198254522178,"connected_time":67000000000,"state":"active","ping":60}]},{"server_id":37,"name":"Uncletopia | Chicago | 6 | All Maps","name_short":"chi-6","host":"chi-2.us.uncletopia.com","port":27025,"enabled":true,"region":"us-central","cc":"us","latitude":41.881832,"longitude":-87.62318,"reserved":0,"last_update":"0001-01-01T00:00:00Z","name_a2s":"Uncletopia | Chicago | 6 | All Maps","protocol":17,"map":"pl_barnblitz","folder":"tf","game":"Team Fortress","app_id":440,"player_count":0,"max_players":24,"Bots":0,"server_type":"Dedicated","server_os":"Linux","password":true,"vac":true,"version":"7757534","steam_id":85568392924866363,"keywords":["nocrits","nodmgspread","payload","uncletopia"],"game_id":440,"stv_port":27026,"stv_name":"Uncletopia | Chicago | 6 | All Maps | STV","players":null},{"server_id":38,"name":"Uncletopia | Chicago | 7 | Stopwatch Beta","name_short":"chi-7","host":"chi-2.us.uncletopia.com","port":27035,"enabled":true,"region":"us-central","cc":"us","latitude":41.881832,"longitude":-87.62318,"reserved":0,"last_update":"0001-01-01T00:00:00Z","name_a2s":"Uncletopia | Chicago | 7 | Stopwatch Beta","protocol":17,"map":"cp_metalworks","folder":"tf","game":"Team Fortress","app_id":440,"player_count":0,"max_players":24,"Bots":0,"server_type":"Dedicated","server_os":"Linux","password":true,"vac":true,"version":"7757534","steam_id":85568392924866364,"keywords":["cp","nocrits","nodmgspread","uncletopia"],"game_id":440,"stv_port":27036,"stv_name":"Uncletopia | Chicago | 7 | Stopwatch Beta | STV","players":null},{"server_id":39,"name":"Uncletopia | Chicago | 8 | Community","name_short":"chi-8","host":"chi-2.us.uncletopia.com","port":27045,"enabled":true,"region":"us-central","cc":"us","latitude":41.881832,"longitude":-87.62318,"reserved":0,"last_update":"0001-01-01T00:00:00Z","name_a2s":"Uncletopia | Chicago | 8 | Community","protocol":17,"map":"workshop/pl_eruption_b9a.ugc2807898013","folder":"tf","game":"Team Fortress","app_id":440,"player_count":0,"max_players":24,"Bots":0,"server_type":"Dedicated","server_os":"Linux","password":true,"vac":true,"version":"7757534","steam_id":85568392924866365,"keywords":["nocrits","nodmgspread","payload","uncletopia"],"game_id":440,"stv_port":27046,"stv_name":"Uncletopia | Chicago | 8 | Community | STV","players":null},{"server_id":8,"name":"Uncletopia | Dallas | 1 | All Maps","name_short":"dal-1","host":"dal-1.us.uncletopia.com","port":27015,"enabled":true,"region":"us-central","cc":"us","latitude":32.779167,"longitude":-96.80889,"reserved":0,"last_update":"0001-01-01T00:00:00Z","name_a2s":"Uncletopia | Dallas | 1 | All Maps","protocol":17,"map":"cp_snakewater_final1","folder":"tf","game":"Team Fortress","app_id":440,"player_count":24,"max_players":24,"Bots":0,"server_type":"Dedicated","server_os":"Linux","password":true,"vac":true,"version":"7757534","steam_id":85568392924469986,"keywords":["cp","nocrits","nodmgspread","uncletopia"],"game_id":440,"stv_port":27016,"stv_name":"Uncletopia | Dallas | 1 | All Maps | STV","players":[{"user_id":153,"name":"cilo","steam_id":76561198046163502,"connected_time":415000000000,"state":"active","ping":59},{"user_id":164,"name":"lag","steam_id":76561197963872739,"connected_time":39000000000,"state":"active","ping":72},{"user_id":162,"name":"Chromatic","steam_id":76561198355976286,"connected_time":163000000000,"state":"active","ping":254},{"user_id":137,"name":"FloofyDranks","steam_id":76561198286944082,"connected_time":1829000000000,"state":"active","ping":68},{"user_id":156,"name":"Miles","steam_id":76561199009492151,"connected_time":381000000000,"state":"active","ping":92},{"user_id":133,"name":"Cave Dweller","steam_id":76561198374825685,"connected_time":1941000000000,"state":"active","ping":78},{"user_id":145,"name":"tf2s worst player","steam_id":76561199108820058,"connected_time":1400000000000,"state":"active","ping":132},{"user_id":135,"name":"Mr. Call You Back","steam_id":76561198025172811,"connected_time":1852000000000,"state":"active","ping":75},{"user_id":82,"name":"crippling fumo addiction","steam_id":76561198115874625,"connected_time":6024000000000,"state":"active","ping":82},{"user_id":159,"name":"Unregistered Hypercam 2","steam_id":76561198046895822,"connected_time":307000000000,"state":"active","ping":60},{"user_id":134,"name":"HE’S IN THE GODDAMN WALLS","steam_id":76561198363267009,"connected_time":1926000000000,"state":"active","ping":45},{"user_id":163,"name":"DrCrent","steam_id":76561198182204161,"connected_time":78000000000,"state":"active","ping":75},{"user_id":107,"name":"Tyler\u0026Fingers","steam_id":76561198085154485,"connected_time":4250000000000,"state":"active","ping":93},{"user_id":129,"name":"Thequirka (not NC ready)","steam_id":76561198968058652,"connected_time":2336000000000,"state":"active","ping":93},{"user_id":150,"name":"Kierbo05","steam_id":76561198885018051,"connected_time":937000000000,"state":"active","ping":160},{"user_id":146,"name":"heimdall","steam_id":76561198069380992,"connected_time":1313000000000,"state":"active","ping":66},{"user_id":158,"name":"Chase","steam_id":76561199054592081,"connected_time":361000000000,"state":"active","ping":96},{"user_id":147,"name":"Aphex Twink","steam_id":76561199166361733,"connected_time":1268000000000,"state":"active","ping":103},{"user_id":140,"name":"scrapheap","steam_id":76561198202407087,"connected_time":1796000000000,"state":"active","ping":103},{"user_id":165,"name":"Don Piccolo","steam_id":76561198118539302,"connected_time":28000000000,"state":"active","ping":100},{"user_id":160,"name":"lost in spaaaaace","steam_id":76561199085974120,"connected_time":285000000000,"state":"active","ping":85},{"user_id":161,"name":"bendera","steam_id":76561197965486503,"connected_time":211000000000,"state":"active","ping":86},{"user_id":144,"name":"ivy","steam_id":76561198131876013,"connected_time":1725000000000,"state":"active","ping":78},{"user_id":123,"name":"Toaster","steam_id":76561198110748463,"connected_time":3083000000000,"state":"active","ping":78}]},{"server_id":108,"name":"Uncletopia | Dallas | 2 | All Maps","name_short":"dal-2","host":"dal-1.us.uncletopia.com","port":27025,"enabled":true,"region":"us-central","cc":"us","latitude":32.779167,"longitude":-96.80889,"reserved":0,"last_update":"0001-01-01T00:00:00Z","name_a2s":"Uncletopia | Dallas | 2 | All Maps","protocol":17,"map":"pl_barnblitz","folder":"tf","game":"Team Fortress","app_id":440,"player_count":22,"max_players":24,"Bots":0,"server_type":"Dedicated","server_os":"Linux","password":true,"vac":true,"version":"7757534","steam_id":85568392924469988,"keywords":["nocrits","nodmgspread","payload","uncletopia"],"game_id":440,"stv_port":27026,"stv_name":"Uncletopia | Dallas | 2 | All Maps | STV","players":[{"user_id":70,"name":"Roz257","steam_id":76561198842844532,"connected_time":57000000000,"state":"active","ping":92},{"user_id":51,"name":"Joker Joestar","steam_id":76561198115696839,"connected_time":2157000000000,"state":"active","ping":77},{"user_id":64,"name":"toilet bong gaming","steam_id":76561198134212003,"connected_time":561000000000,"state":"active","ping":71},{"user_id":31,"name":"Crab12","steam_id":76561198398818373,"connected_time":2828000000000,"state":"active","ping":104},{"user_id":52,"name":"Fk it we Ball","steam_id":76561198078421075,"connected_time":2131000000000,"state":"active","ping":62},{"user_id":69,"name":"lucaslane610","steam_id":76561198997885052,"connected_time":122000000000,"state":"connecting","ping":0},{"user_id":71,"name":"swooce","steam_id":76561198156232484,"connected_time":24000000000,"state":"active","ping":106},{"user_id":67,"name":"pipibaby","steam_id":76561198067430685,"connected_time":133000000000,"state":"active","ping":61},{"user_id":21,"name":"PAC-MATH","steam_id":76561198327729748,"connected_time":3610000000000,"state":"active","ping":76},{"user_id":57,"name":"deech","steam_id":76561198066429444,"connected_time":1762000000000,"state":"active","ping":85},{"user_id":33,"name":"abolish the federal reserve","steam_id":76561198047796437,"connected_time":2628000000000,"state":"active","ping":81},{"user_id":40,"name":"Dauntless Duelist","steam_id":76561198025056018,"connected_time":2421000000000,"state":"active","ping":100},{"user_id":34,"name":"Aleuric","steam_id":76561198246248220,"connected_time":2624000000000,"state":"active","ping":78},{"user_id":72,"name":"A Random Guy","steam_id":76561198282519457,"connected_time":6000000000,"state":"spawning","ping":54},{"user_id":68,"name":"TheBrocklobster","steam_id":76561198039682984,"connected_time":131000000000,"state":"active","ping":89},{"user_id":61,"name":"Pinto","steam_id":76561199105386998,"connected_time":1180000000000,"state":"active","ping":58},{"user_id":43,"name":"Engravings","steam_id":76561198851536991,"connected_time":2405000000000,"state":"active","ping":79},{"user_id":65,"name":"Pink","steam_id":76561198042140694,"connected_time":481000000000,"state":"active","ping":57},{"user_id":45,"name":"Fancyassasin","steam_id":76561198331864258,"connected_time":2345000000000,"state":"active","ping":54},{"user_id":47,"name":"schmopp","steam_id":76561198076490954,"connected_time":2278000000000,"state":"active","ping":60},{"user_id":58,"name":"Squidward","steam_id":76561198189429665,"connected_time":1711000000000,"state":"active","ping":75},{"user_id":59,"name":"Voyager","steam_id":76561199128786637,"connected_time":1670000000000,"state":"active","ping":126}]},{"server_id":5,"name":"Uncletopia | Frankfurt | 1 | All Maps","name_short":"frk-1","host":"frk-1.de.uncletopia.com","port":27015,"enabled":true,"region":"eu","cc":"de","latitude":50.110924,"longitude":8.682127,"reserved":0,"last_update":"0001-01-01T00:00:00Z","name_a2s":"Uncletopia | Frankfurt | 1 | All Maps","protocol":17,"map":"cp_snakewater_final1","folder":"tf","game":"Team Fortress","app_id":440,"player_count":24,"max_players":24,"Bots":0,"server_type":"Dedicated","server_os":"Linux","password":true,"vac":true,"version":"7757534","steam_id":85568392924469989,"keywords":["cp","nocrits","nodmgspread","uncletopia"],"game_id":440,"stv_port":27016,"stv_name":"Uncletopia | Frankfurt | 1 | All Maps | STV","players":[{"user_id":460,"name":"ᴍɪʟᴋ Cryspoeth47","steam_id":76561198892776023,"connected_time":1281000000000,"state":"active","ping":128},{"user_id":461,"name":"G4mbl3_M4m1de","steam_id":76561198093196257,"connected_time":1280000000000,"state":"active","ping":70},{"user_id":462,"name":"G6 sherlock","steam_id":76561198802967796,"connected_time":1227000000000,"state":"active","ping":117},{"user_id":479,"name":"risco1bolota","steam_id":76561198323074603,"connected_time":496000000000,"state":"active","ping":87},{"user_id":445,"name":"Mass","steam_id":76561198432195204,"connected_time":2680000000000,"state":"active","ping":53},{"user_id":464,"name":"RadialMount","steam_id":76561198063002562,"connected_time":1195000000000,"state":"active","ping":64},{"user_id":465,"name":"Mr.Schnittlauch","steam_id":76561198295868113,"connected_time":1172000000000,"state":"active","ping":61},{"user_id":422,"name":"fector","steam_id":76561199204249586,"connected_time":5020000000000,"state":"active","ping":133},{"user_id":375,"name":"Pico","steam_id":76561198063552545,"connected_time":9758000000000,"state":"active","ping":101},{"user_id":466,"name":"saml","steam_id":76561198040716257,"connected_time":1144000000000,"state":"active","ping":70},{"user_id":441,"name":"sm00key","steam_id":76561198065455120,"connected_time":2881000000000,"state":"active","ping":75},{"user_id":474,"name":"Meleth","steam_id":76561198262103957,"connected_time":993000000000,"state":"active","ping":72},{"user_id":451,"name":"Mr. Luck | SFM","steam_id":76561198088255641,"connected_time":2534000000000,"state":"active","ping":103},{"user_id":448,"name":"ӋԼן.maS","steam_id":76561198114953928,"connected_time":2664000000000,"state":"active","ping":60},{"user_id":393,"name":"baijro","steam_id":76561198061001376,"connected_time":8081000000000,"state":"active","ping":67},{"user_id":395,"name":"Vitamin Weee","steam_id":76561199183937747,"connected_time":7823000000000,"state":"active","ping":92},{"user_id":469,"name":"TÊÄ_mãn","steam_id":76561198163048826,"connected_time":1061000000000,"state":"active","ping":82},{"user_id":468,"name":"holykyckling","steam_id":76561198040661615,"connected_time":1139000000000,"state":"active","ping":75},{"user_id":478,"name":"Vonk","steam_id":76561199080400526,"connected_time":759000000000,"state":"active","ping":75},{"user_id":480,"name":"hellrunner","steam_id":76561198205309695,"connected_time":346000000000,"state":"active","ping":91},{"user_id":364,"name":"gagalak","steam_id":76561198089979108,"connected_time":11063000000000,"state":"active","ping":95},{"user_id":481,"name":"Noodle","steam_id":76561197997208006,"connected_time":72000000000,"state":"active","ping":48},{"user_id":477,"name":"kag","steam_id":76561198059813166,"connected_time":917000000000,"state":"active","ping":60},{"user_id":476,"name":"viddy","steam_id":76561198004383856,"connected_time":949000000000,"state":"active","ping":93}]},{"server_id":110,"name":"Uncletopia | Frankfurt | 2 | All Maps","name_short":"frk-2","host":"frk-1.de.uncletopia.com","port":27025,"enabled":true,"region":"eu","cc":"de","latitude":50.110924,"longitude":8.682127,"reserved":0,"last_update":"0001-01-01T00:00:00Z","name_a2s":"Uncletopia | Frankfurt | 2 | All Maps","protocol":17,"map":"pl_badwater","folder":"tf","game":"Team Fortress","app_id":440,"player_count":24,"max_players":24,"Bots":0,"server_type":"Dedicated","server_os":"Linux","password":true,"vac":true,"version":"7757534","steam_id":85568392924469990,"keywords":["nocrits","nodmgspread","payload","uncletopia"],"game_id":440,"stv_port":27026,"stv_name":"Uncletopia | Frankfurt | 2 | All Maps | STV","players":[{"user_id":491,"name":"Jojiganstar","steam_id":76561198313086739,"connected_time":1685000000000,"state":"active","ping":78},{"user_id":525,"name":"pumpkin spice go.ggez.ro","steam_id":76561198449957490,"connected_time":97000000000,"state":"active","ping":79},{"user_id":519,"name":"Mor'du","steam_id":76561198274105878,"connected_time":700000000000,"state":"active","ping":76},{"user_id":496,"name":"Demonstration Man","steam_id":76561198279459977,"connected_time":1280000000000,"state":"active","ping":71},{"user_id":516,"name":"Aqo","steam_id":76561197992991704,"connected_time":826000000000,"state":"active","ping":113},{"user_id":448,"name":"Bobby Brown","steam_id":76561199061537074,"connected_time":4455000000000,"state":"active","ping":69},{"user_id":494,"name":"Acid","steam_id":76561198102110680,"connected_time":1373000000000,"state":"active","ping":93},{"user_id":483,"name":"R. Kray","steam_id":76561198135655520,"connected_time":2172000000000,"state":"active","ping":86},{"user_id":524,"name":"BOO","steam_id":76561198809430255,"connected_time":104000000000,"state":"active","ping":45},{"user_id":511,"name":"Preyzen","steam_id":76561199043448824,"connected_time":941000000000,"state":"active","ping":60},{"user_id":486,"name":"ProfessorCrack","steam_id":76561199035475627,"connected_time":2039000000000,"state":"active","ping":78},{"user_id":498,"name":"FramefrapsoM","steam_id":76561198113119119,"connected_time":1187000000000,"state":"active","ping":99},{"user_id":520,"name":"Misty","steam_id":76561198863357531,"connected_time":394000000000,"state":"active","ping":109},{"user_id":517,"name":"Niroku","steam_id":76561199026980036,"connected_time":769000000000,"state":"active","ping":59},{"user_id":434,"name":"john fortress","steam_id":76561198202668788,"connected_time":5686000000000,"state":"active","ping":60},{"user_id":500,"name":"Albert Einstein","steam_id":76561198351190006,"connected_time":1135000000000,"state":"active","ping":92},{"user_id":501,"name":"TerraformerBeing","steam_id":76561198281011934,"connected_time":1097000000000,"state":"active","ping":97},{"user_id":521,"name":"YourDoom","steam_id":76561198080790857,"connected_time":324000000000,"state":"active","ping":49},{"user_id":504,"name":"Jokudami","steam_id":76561198346604154,"connected_time":1046000000000,"state":"active","ping":34},{"user_id":514,"name":"Canti","steam_id":76561198049924349,"connected_time":910000000000,"state":"active","ping":76},{"user_id":522,"name":"Bung","steam_id":76561199107304541,"connected_time":310000000000,"state":"active","ping":76},{"user_id":526,"name":"árvíztűrő tükörfúrógép","steam_id":76561198296643061,"connected_time":95000000000,"state":"active","ping":57},{"user_id":509,"name":"napole","steam_id":76561198267530436,"connected_time":961000000000,"state":"active","ping":116},{"user_id":515,"name":"Dunte","steam_id":76561199100863648,"connected_time":888000000000,"state":"active","ping":130}]},{"server_id":308,"name":"Uncletopia | Frankfurt | 3 | All Maps","name_short":"frk-3","host":"frk-1.de.uncletopia.com","port":27035,"enabled":true,"region":"eu","cc":"de","latitude":50.110924,"longitude":8.682127,"reserved":0,"last_update":"0001-01-01T00:00:00Z","name_a2s":"Uncletopia | Frankfurt | 3 | All Maps","protocol":17,"map":"koth_lakeside_final","folder":"tf","game":"Team Fortress","app_id":440,"player_count":24,"max_players":24,"Bots":0,"server_type":"Dedicated","server_os":"Linux","password":true,"vac":true,"version":"7757534","steam_id":85568392924504274,"keywords":["cp","nocrits","nodmgspread","uncletopia"],"game_id":440,"stv_port":27036,"stv_name":"Uncletopia | Frankfurt | 3 | All Maps | STV","players":[{"user_id":202,"name":"Mr. Mundy","steam_id":76561198132008918,"connected_time":12986000000000,"state":"active","ping":73},{"user_id":384,"name":"cosmetical","steam_id":76561198444036574,"connected_time":112000000000,"state":"active","ping":74},{"user_id":341,"name":"Hexagon","steam_id":76561198151205758,"connected_time":2325000000000,"state":"active","ping":52},{"user_id":351,"name":"Hoxton","steam_id":76561198129209505,"connected_time":1852000000000,"state":"active","ping":67},{"user_id":374,"name":"Mi Manchi","steam_id":76561198171573129,"connected_time":236000000000,"state":"active","ping":60},{"user_id":342,"name":"Nick","steam_id":76561198036109469,"connected_time":2186000000000,"state":"active","ping":77},{"user_id":345,"name":"remove cars","steam_id":76561199433578516,"connected_time":1998000000000,"state":"active","ping":73},{"user_id":383,"name":"irem eating tuna","steam_id":76561198142183478,"connected_time":118000000000,"state":"active","ping":91},{"user_id":360,"name":"Sparky","steam_id":76561198036754195,"connected_time":496000000000,"state":"active","ping":39},{"user_id":367,"name":"paguro","steam_id":76561198119560871,"connected_time":358000000000,"state":"active","ping":60},{"user_id":375,"name":"BROOMSTER","steam_id":76561198344833818,"connected_time":215000000000,"state":"active","ping":76},{"user_id":354,"name":"Zogg","steam_id":76561198352683491,"connected_time":1354000000000,"state":"active","ping":55},{"user_id":331,"name":"BAD BALD \u0026 BEYOND","steam_id":76561198029873185,"connected_time":3840000000000,"state":"active","ping":59},{"user_id":352,"name":"kpn","steam_id":76561198063512694,"connected_time":1746000000000,"state":"active","ping":54},{"user_id":357,"name":"The Funny Cat-Heaby","steam_id":76561198439978112,"connected_time":582000000000,"state":"active","ping":106},{"user_id":385,"name":"linkinparkfan123","steam_id":76561199033782005,"connected_time":48000000000,"state":"active","ping":87},{"user_id":279,"name":"Banana","steam_id":76561198155118706,"connected_time":7642000000000,"state":"active","ping":98},{"user_id":348,"name":"Stuka","steam_id":76561198019424668,"connected_time":1948000000000,"state":"active","ping":71},{"user_id":363,"name":"bread","steam_id":76561198148565240,"connected_time":464000000000,"state":"active","ping":126},{"user_id":368,"name":"K4nek0","steam_id":76561198219296785,"connected_time":344000000000,"state":"active","ping":61},{"user_id":365,"name":"Kedy","steam_id":76561198308990457,"connected_time":425000000000,"state":"active","ping":88},{"user_id":369,"name":"poliakov.noam","steam_id":76561199259322961,"connected_time":331000000000,"state":"active","ping":108},{"user_id":356,"name":"♫★Xriasp★♫","steam_id":76561198104721321,"connected_time":1272000000000,"state":"active","ping":92},{"user_id":372,"name":"USBug999","steam_id":76561199174677820,"connected_time":291000000000,"state":"active","ping":134}]},{"server_id":309,"name":"Uncletopia | Frankfurt | 4 | All Maps","name_short":"frk-4","host":"frk-1.de.uncletopia.com","port":27045,"enabled":true,"region":"eu","cc":"de","latitude":50.110924,"longitude":8.682127,"reserved":0,"last_update":"0001-01-01T00:00:00Z","name_a2s":"Uncletopia | Frankfurt | 4 | All Maps","protocol":17,"map":"pl_upward","folder":"tf","game":"Team Fortress","app_id":440,"player_count":24,"max_players":24,"Bots":0,"server_type":"Dedicated","server_os":"Linux","password":true,"vac":true,"version":"7757534","steam_id":85568392924504275,"keywords":["nocrits","nodmgspread","payload","uncletopia"],"game_id":440,"stv_port":27046,"stv_name":"Uncletopia | Frankfurt | 4 | All Maps | STV","players":[{"user_id":501,"name":"Shaiva","steam_id":76561198034677706,"connected_time":1092000000000,"state":"active","ping":75},{"user_id":499,"name":"Bosnian Ketamine Mafia","steam_id":76561198163571788,"connected_time":1945000000000,"state":"active","ping":96},{"user_id":505,"name":"snsmac","steam_id":76561198082821185,"connected_time":483000000000,"state":"active","ping":48},{"user_id":489,"name":"if you the when yes and to why","steam_id":76561198023211417,"connected_time":2688000000000,"state":"active","ping":61},{"user_id":509,"name":"Ratman","steam_id":76561198962458505,"connected_time":438000000000,"state":"active","ping":53},{"user_id":492,"name":"vesper","steam_id":76561198256680240,"connected_time":2329000000000,"state":"active","ping":78},{"user_id":494,"name":"DoctorTopLeL","steam_id":76561198088533595,"connected_time":2281000000000,"state":"active","ping":118},{"user_id":449,"name":"Sgreff","steam_id":76561198036304365,"connected_time":4816000000000,"state":"active","ping":60},{"user_id":500,"name":"Welder","steam_id":76561198355300561,"connected_time":1621000000000,"state":"active","ping":66},{"user_id":515,"name":"monikka","steam_id":76561198297003397,"connected_time":288000000000,"state":"active","ping":66},{"user_id":485,"name":"Goliath","steam_id":76561198088583638,"connected_time":3251000000000,"state":"active","ping":47},{"user_id":517,"name":"maid in china","steam_id":76561198043601838,"connected_time":121000000000,"state":"active","ping":60},{"user_id":508,"name":"Franku","steam_id":76561199192707266,"connected_time":470000000000,"state":"active","ping":55},{"user_id":440,"name":"Laiker","steam_id":76561198163560309,"connected_time":5427000000000,"state":"active","ping":55},{"user_id":471,"name":"waluigi","steam_id":76561198215809251,"connected_time":4167000000000,"state":"active","ping":57},{"user_id":519,"name":"SpeddyMeddy","steam_id":76561197999693825,"connected_time":89000000000,"state":"active","ping":66},{"user_id":415,"name":"jebac disa","steam_id":76561197995572935,"connected_time":7760000000000,"state":"active","ping":77},{"user_id":444,"name":"tshirt","steam_id":76561198040757844,"connected_time":4979000000000,"state":"active","ping":75},{"user_id":512,"name":"Stu_Strib","steam_id":76561197970588300,"connected_time":396000000000,"state":"active","ping":171},{"user_id":513,"name":"bunk","steam_id":76561199161512397,"connected_time":388000000000,"state":"active","ping":71},{"user_id":514,"name":"Bonca","steam_id":76561198137503531,"connected_time":384000000000,"state":"active","ping":76},{"user_id":451,"name":"abcdefg","steam_id":76561198147277460,"connected_time":4814000000000,"state":"active","ping":60},{"user_id":503,"name":"hayabusa","steam_id":76561197984528025,"connected_time":1061000000000,"state":"active","ping":73},{"user_id":452,"name":"ᗜ˰ᗜ","steam_id":76561198148074472,"connected_time":4814000000000,"state":"active","ping":44}]},{"server_id":310,"name":"Uncletopia | Frankfurt | 5 | All Maps","name_short":"frk-5","host":"frk-1.de.uncletopia.com","port":27055,"enabled":true,"region":"eu","cc":"de","latitude":50.110924,"longitude":8.682127,"reserved":0,"last_update":"0001-01-01T00:00:00Z","name_a2s":"Uncletopia | Frankfurt | 5 | All Maps","protocol":17,"map":"pl_badwater","folder":"tf","game":"Team Fortress","app_id":440,"player_count":23,"max_players":24,"Bots":0,"server_type":"Dedicated","server_os":"Linux","password":true,"vac":true,"version":"7757534","steam_id":85568392924504277,"keywords":["nocrits","nodmgspread","payload","uncletopia"],"game_id":440,"stv_port":27056,"stv_name":"Uncletopia | Frankfurt | 5 | All Maps | STV","players":[{"user_id":412,"name":"Swiss_Nostalgia","steam_id":76561199159896259,"connected_time":391000000000,"state":"active","ping":69},{"user_id":419,"name":"Cars","steam_id":76561198173329977,"connected_time":68000000000,"state":"active","ping":62},{"user_id":398,"name":"Cuf","steam_id":76561198026789225,"connected_time":1500000000000,"state":"active","ping":46},{"user_id":418,"name":"Delta The Lonely","steam_id":76561198865334424,"connected_time":132000000000,"state":"active","ping":60},{"user_id":394,"name":"trite","steam_id":76561197983765323,"connected_time":1659000000000,"state":"active","ping":66},{"user_id":356,"name":"Threon","steam_id":76561198826783545,"connected_time":3981000000000,"state":"active","ping":76},{"user_id":357,"name":"esheen","steam_id":76561198139376665,"connected_time":3980000000000,"state":"active","ping":60},{"user_id":421,"name":"sharty in my head","steam_id":76561198106049954,"connected_time":46000000000,"state":"active","ping":77},{"user_id":411,"name":"8114","steam_id":76561198069214797,"connected_time":513000000000,"state":"active","ping":77},{"user_id":397,"name":"DanteFromDmc5","steam_id":76561198390314734,"connected_time":1533000000000,"state":"active","ping":61},{"user_id":403,"name":"clouds","steam_id":76561198111134021,"connected_time":1360000000000,"state":"active","ping":74},{"user_id":409,"name":"Shynii","steam_id":76561198194682105,"connected_time":1206000000000,"state":"active","ping":72},{"user_id":420,"name":"rbellolarroche","steam_id":76561198947596398,"connected_time":66000000000,"state":"spawning","ping":269},{"user_id":385,"name":"night.s","steam_id":76561198326287823,"connected_time":2747000000000,"state":"active","ping":86},{"user_id":370,"name":"Bloop","steam_id":76561198152645636,"connected_time":3738000000000,"state":"active","ping":56},{"user_id":369,"name":"NEWT !!!","steam_id":76561198798809471,"connected_time":3741000000000,"state":"active","ping":70},{"user_id":422,"name":"Ligamentum transversum atlantis","steam_id":76561198072167345,"connected_time":14000000000,"state":"active","ping":76},{"user_id":392,"name":"Jedi Knight","steam_id":76561198039030709,"connected_time":1951000000000,"state":"active","ping":55},{"user_id":423,"name":"panakid","steam_id":76561198364121077,"connected_time":3000000000,"state":"spawning","ping":86},{"user_id":413,"name":"chu_chu_boiz","steam_id":76561198721498886,"connected_time":374000000000,"state":"active","ping":69},{"user_id":415,"name":"AWJ ˆ-ˆ","steam_id":76561198053628243,"connected_time":333000000000,"state":"active","ping":59},{"user_id":372,"name":"Michał Wiśniewski","steam_id":76561198250958974,"connected_time":3711000000000,"state":"active","ping":74},{"user_id":384,"name":"Barbo","steam_id":76561198067554169,"connected_time":2861000000000,"state":"active","ping":58}]},{"server_id":311,"name":"Uncletopia | Frankfurt | 6 | All Maps","name_short":"frk-6","host":"frk-1.de.uncletopia.com","port":27065,"enabled":true,"region":"eu","cc":"de","latitude":50.110924,"longitude":8.682127,"reserved":0,"last_update":"0001-01-01T00:00:00Z","name_a2s":"Uncletopia | Frankfurt | 6 | All Maps","protocol":17,"map":"pl_snowycoast","folder":"tf","game":"Team Fortress","app_id":440,"player_count":21,"max_players":24,"Bots":0,"server_type":"Dedicated","server_os":"Linux","password":true,"vac":true,"version":"7757534","steam_id":85568392924504278,"keywords":["nocrits","nodmgspread","payload","uncletopia"],"game_id":440,"stv_port":27066,"stv_name":"Uncletopia | Frankfurt | 6 | All Maps | STV","players":[{"user_id":19,"name":"TSx* Bargal","steam_id":76561198040266872,"connected_time":3794000000000,"state":"active","ping":75},{"user_id":68,"name":"Vikud","steam_id":76561199110575856,"connected_time":1152000000000,"state":"active","ping":137},{"user_id":21,"name":"TSx* Naxer","steam_id":76561198011986779,"connected_time":3783000000000,"state":"active","ping":65},{"user_id":75,"name":"Záporák","steam_id":76561198207175503,"connected_time":46000000000,"state":"spawning","ping":56},{"user_id":74,"name":"Tort","steam_id":76561198329646769,"connected_time":59000000000,"state":"active","ping":69},{"user_id":64,"name":"Alegz","steam_id":76561198287810139,"connected_time":1538000000000,"state":"active","ping":48},{"user_id":65,"name":"gus","steam_id":76561198876303958,"connected_time":1456000000000,"state":"active","ping":112},{"user_id":72,"name":".::[SerafeTTiN]::.","steam_id":76561198009471724,"connected_time":71000000000,"state":"active","ping":87},{"user_id":62,"name":"ghenios","steam_id":76561198030011207,"connected_time":1663000000000,"state":"active","ping":98},{"user_id":33,"name":"Penis Contortionist","steam_id":76561198073663784,"connected_time":3380000000000,"state":"active","ping":57},{"user_id":35,"name":"Ar|es","steam_id":76561198819160313,"connected_time":3330000000000,"state":"active","ping":87},{"user_id":36,"name":"Don Juan","steam_id":76561198264353568,"connected_time":3326000000000,"state":"active","ping":100},{"user_id":77,"name":"'Poli","steam_id":76561198058710244,"connected_time":17000000000,"state":"active","ping":70},{"user_id":38,"name":"Valoxi","steam_id":76561197995042938,"connected_time":3324000000000,"state":"active","ping":65},{"user_id":50,"name":"TSx* Osa__PL","steam_id":76561198027016799,"connected_time":2866000000000,"state":"active","ping":63},{"user_id":56,"name":"TSx* {Demon-Angel}","steam_id":76561198151486463,"connected_time":2527000000000,"state":"active","ping":74},{"user_id":41,"name":"Mr. Dick™","steam_id":76561198047309044,"connected_time":3280000000000,"state":"active","ping":148},{"user_id":63,"name":"The Ghost Of Siberian | #FIXTF2","steam_id":76561198183368329,"connected_time":1603000000000,"state":"active","ping":93},{"user_id":73,"name":"Santa Claus","steam_id":76561198415266145,"connected_time":66000000000,"state":"active","ping":62},{"user_id":66,"name":"Udinese Dion","steam_id":76561198067931573,"connected_time":1383000000000,"state":"active","ping":48},{"user_id":71,"name":"i forgor","steam_id":76561198137627679,"connected_time":437000000000,"state":"active","ping":106}]},{"server_id":23,"name":"Uncletopia | Frankfurt | 7 | Stopwatch Beta","name_short":"frk-7","host":"frk-1.de.uncletopia.com","port":27075,"enabled":true,"region":"eu","cc":"de","latitude":50.110924,"longitude":8.682127,"reserved":0,"last_update":"0001-01-01T00:00:00Z","name_a2s":"Uncletopia | Frankfurt | 7 | Stopwatch Beta","protocol":17,"map":"workshop/koth_ashville_final.ugc2130459942","folder":"tf","game":"Team Fortress","app_id":440,"player_count":0,"max_players":24,"Bots":0,"server_type":"Dedicated","server_os":"Linux","password":true,"vac":true,"version":"7757534","steam_id":85568392924742827,"keywords":["cp","nocrits","nodmgspread","uncletopia"],"game_id":440,"stv_port":27076,"stv_name":"Uncletopia | Frankfurt | 7 | Stopwatch Beta | STV","players":null},{"server_id":24,"name":"Uncletopia | Frankfurt | 8 | Community","name_short":"frk-8","host":"frk-1.de.uncletopia.com","port":27085,"enabled":true,"region":"eu","cc":"de","latitude":50.110924,"longitude":8.682127,"reserved":0,"last_update":"0001-01-01T00:00:00Z","name_a2s":"Uncletopia | Frankfurt | 8 | Community","protocol":17,"map":"koth_cascade","folder":"tf","game":"Team Fortress","app_id":440,"player_count":0,"max_players":24,"Bots":0,"server_type":"Dedicated","server_os":"Linux","password":true,"vac":true,"version":"7757534","steam_id":85568392924742828,"keywords":["cp","nocrits","nodmgspread","uncletopia"],"game_id":440,"stv_port":27086,"stv_name":"Uncletopia | Frankfurt | 8 | Community | STV","players":null},{"server_id":202,"name":"Uncletopia | Hong Kong | 1 | All Maps","name_short":"hgk-1","host":"hgk-1.hk.uncletopia.com","port":27015,"enabled":true,"region":"asia","cc":"hk","latitude":22.302711,"longitude":114.177216,"reserved":0,"last_update":"0001-01-01T00:00:00Z","name_a2s":"Uncletopia | Hong Kong | 1 | All Maps","protocol":17,"map":"koth_highpass","folder":"tf","game":"Team Fortress","app_id":440,"player_count":0,"max_players":24,"Bots":0,"server_type":"Dedicated","server_os":"Linux","password":true,"vac":true,"version":"7757534","steam_id":85568392924494504,"keywords":["cp","nocrits","nodmgspread","uncletopia"],"game_id":440,"stv_port":27016,"stv_name":"Uncletopia | Hong Kong | 1 | All Maps | STV","players":null},{"server_id":1,"name":"Uncletopia | Los Angeles | 1 | All Maps","name_short":"lax-1","host":"lax-1.us.uncletopia.com","port":27015,"enabled":true,"region":"us-west","cc":"us","latitude":33.94279,"longitude":-118.41004,"reserved":0,"last_update":"0001-01-01T00:00:00Z","name_a2s":"Uncletopia | Los Angeles | 1 | All Maps","protocol":17,"map":"cp_snakewater_final1","folder":"tf","game":"Team Fortress","app_id":440,"player_count":0,"max_players":24,"Bots":0,"server_type":"Dedicated","server_os":"Linux","password":true,"vac":true,"version":"7757534","steam_id":85568392924469991,"keywords":["cp","nocrits","nodmgspread","uncletopia"],"game_id":440,"stv_port":27016,"stv_name":"Uncletopia | Los Angeles | 1 | All Maps | STV","players":null},{"server_id":112,"name":"Uncletopia | Los Angeles | 2 | All Maps","name_short":"lax-2","host":"lax-1.us.uncletopia.com","port":27025,"enabled":true,"region":"us-west","cc":"us","latitude":33.94279,"longitude":-118.41004,"reserved":0,"last_update":"0001-01-01T00:00:00Z","name_a2s":"Uncletopia | Los Angeles | 2 | All Maps","protocol":17,"map":"pl_frontier_final","folder":"tf","game":"Team Fortress","app_id":440,"player_count":24,"max_players":24,"Bots":0,"server_type":"Dedicated","server_os":"Linux","password":true,"vac":true,"version":"7757534","steam_id":85568392924469992,"keywords":["nocrits","nodmgspread","payload","uncletopia"],"game_id":440,"stv_port":27026,"stv_name":"Uncletopia | Los Angeles | 2 | All Maps | STV","players":[{"user_id":174,"name":"Dog","steam_id":76561198450992953,"connected_time":4830000000000,"state":"active","ping":63},{"user_id":255,"name":"nolife","steam_id":76561198414300607,"connected_time":284000000000,"state":"active","ping":58},{"user_id":253,"name":"nhoj_","steam_id":76561198048003380,"connected_time":342000000000,"state":"active","ping":44},{"user_id":259,"name":"primordialheath","steam_id":76561199386942638,"connected_time":145000000000,"state":"active","ping":124},{"user_id":254,"name":"engi","steam_id":76561199193020423,"connected_time":337000000000,"state":"active","ping":58},{"user_id":249,"name":"FBI Agent","steam_id":76561199180807531,"connected_time":1194000000000,"state":"active","ping":105},{"user_id":234,"name":"Stagred","steam_id":76561198055973266,"connected_time":2493000000000,"state":"active","ping":119},{"user_id":209,"name":"Level 1 Crook","steam_id":76561198441098132,"connected_time":3738000000000,"state":"active","ping":118},{"user_id":256,"name":"santas.secret.sauce","steam_id":76561198042464635,"connected_time":277000000000,"state":"active","ping":81},{"user_id":241,"name":"The Announcer's Feet","steam_id":76561199443456893,"connected_time":1678000000000,"state":"active","ping":75},{"user_id":244,"name":"gatorbelt","steam_id":76561198145784505,"connected_time":1248000000000,"state":"active","ping":45},{"user_id":260,"name":"Samwise565","steam_id":76561197996819083,"connected_time":137000000000,"state":"active","ping":116},{"user_id":261,"name":"she/her type beat ❀","steam_id":76561198049910169,"connected_time":94000000000,"state":"active","ping":108},{"user_id":250,"name":"Gorbin'Time","steam_id":76561198029786784,"connected_time":1112000000000,"state":"active","ping":115},{"user_id":222,"name":"riri ᗜᴗᗜ","steam_id":76561198055462404,"connected_time":3050000000000,"state":"active","ping":34},{"user_id":227,"name":"Cream Corn","steam_id":76561198043791586,"connected_time":2786000000000,"state":"active","ping":91},{"user_id":246,"name":"Proud Antifa Cockwarmer 19th Di","steam_id":76561198045010282,"connected_time":1244000000000,"state":"active","ping":115},{"user_id":251,"name":"doobiebob","steam_id":76561198071963742,"connected_time":690000000000,"state":"active","ping":60},{"user_id":258,"name":"another breloom","steam_id":76561198006938024,"connected_time":187000000000,"state":"active","ping":42},{"user_id":136,"name":"Lemon of oog","steam_id":76561198861851551,"connected_time":9922000000000,"state":"active","ping":127},{"user_id":243,"name":"EmmLoaf","steam_id":76561198022097954,"connected_time":1657000000000,"state":"active","ping":55},{"user_id":196,"name":"Big Yoshi","steam_id":76561199160576376,"connected_time":4208000000000,"state":"active","ping":77},{"user_id":233,"name":"comet sooicidy","steam_id":76561198025173479,"connected_time":2550000000000,"state":"active","ping":118},{"user_id":248,"name":"Bishuhp","steam_id":76561198015062850,"connected_time":1243000000000,"state":"active","ping":85}]},{"server_id":324,"name":"Uncletopia | Los Angeles | 3 | All Maps","name_short":"lax-3","host":"lax-1.us.uncletopia.com","port":27035,"enabled":true,"region":"us-west","cc":"us","latitude":33.94279,"longitude":-118.41004,"reserved":0,"last_update":"0001-01-01T00:00:00Z","name_a2s":"Uncletopia | Los Angeles | 3 | All Maps","protocol":17,"map":"pl_frontier_final","folder":"tf","game":"Team Fortress","app_id":440,"player_count":0,"max_players":24,"Bots":0,"server_type":"Dedicated","server_os":"Linux","password":true,"vac":true,"version":"7757534","steam_id":85568392924510198,"keywords":["nocrits","nodmgspread","payload","uncletopia"],"game_id":440,"stv_port":27036,"stv_name":"Uncletopia | Los Angeles | 3 | All Maps | STV","players":null},{"server_id":25,"name":"Uncletopia | Los Angeles | 4 | Stopwatch Beta","name_short":"lax-4","host":"lax-1.us.uncletopia.com","port":27045,"enabled":true,"region":"us-west","cc":"us","latitude":33.94279,"longitude":-118.41004,"reserved":0,"last_update":"0001-01-01T00:00:00Z","name_a2s":"Uncletopia | Los Angeles | 4 | Stopwatch Beta","protocol":17,"map":"koth_viaduct","folder":"tf","game":"Team Fortress","app_id":440,"player_count":0,"max_players":24,"Bots":0,"server_type":"Dedicated","server_os":"Linux","password":true,"vac":true,"version":"7757534","steam_id":85568392924510199,"keywords":["cp","nocrits","nodmgspread","uncletopia"],"game_id":440,"stv_port":27046,"stv_name":"Uncletopia | Los Angeles | 4 | Stopwatch Beta | STV","players":null},{"server_id":11,"name":"Uncletopia | London | 1 | All Maps","name_short":"lon-1","host":"lon-1.uk.uncletopia.com","port":27015,"enabled":true,"region":"eu","cc":"gb","latitude":51.509865,"longitude":-0.118092,"reserved":0,"last_update":"0001-01-01T00:00:00Z","name_a2s":"Uncletopia | London | 1 | All Maps","protocol":17,"map":"koth_viaduct","folder":"tf","game":"Team Fortress","app_id":440,"player_count":24,"max_players":24,"Bots":0,"server_type":"Dedicated","server_os":"Linux","password":true,"vac":true,"version":"7757534","steam_id":85568392924367362,"keywords":["cp","nocrits","nodmgspread","uncletopia"],"game_id":440,"stv_port":27016,"stv_name":"Uncletopia | London | 1 | All Maps | STV","players":[{"user_id":703,"name":"kon6","steam_id":76561198060038623,"connected_time":135000000000,"state":"active","ping":74},{"user_id":692,"name":"jose.gonzales3848","steam_id":76561198109077451,"connected_time":1332000000000,"state":"active","ping":135},{"user_id":698,"name":"InsectKing","steam_id":76561199013519071,"connected_time":1048000000000,"state":"active","ping":38},{"user_id":684,"name":"YEEET","steam_id":76561198914938199,"connected_time":1813000000000,"state":"active","ping":102},{"user_id":693,"name":"6CO2 + 6H2O → C6H12O6 + 6O2","steam_id":76561198981516715,"connected_time":1313000000000,"state":"active","ping":50},{"user_id":648,"name":"Kahvi","steam_id":76561198723244199,"connected_time":3762000000000,"state":"active","ping":76},{"user_id":677,"name":"KFC Enjoyer","steam_id":76561198840259819,"connected_time":2299000000000,"state":"active","ping":50},{"user_id":704,"name":"白痴の蜘蛛ロマ","steam_id":76561199026097466,"connected_time":8000000000,"state":"spawning","ping":75},{"user_id":685,"name":"Temporon","steam_id":76561198035031928,"connected_time":1682000000000,"state":"active","ping":67},{"user_id":667,"name":"Duke Fishlord","steam_id":76561198079928327,"connected_time":2514000000000,"state":"active","ping":76},{"user_id":697,"name":"hans_chr10™","steam_id":76561198082552666,"connected_time":1065000000000,"state":"active","ping":97},{"user_id":679,"name":"most sane mentalist","steam_id":76561198310095220,"connected_time":2135000000000,"state":"active","ping":35},{"user_id":668,"name":"Caruso","steam_id":76561198053340414,"connected_time":2508000000000,"state":"active","ping":141},{"user_id":680,"name":"SaltBoy","steam_id":76561198112561381,"connected_time":2102000000000,"state":"active","ping":63},{"user_id":656,"name":"presidentialAIDS","steam_id":76561199257284077,"connected_time":2876000000000,"state":"active","ping":145},{"user_id":676,"name":"ZimogorovBy","steam_id":76561199263001661,"connected_time":2324000000000,"state":"active","ping":101},{"user_id":694,"name":"cockwater","steam_id":76561198209101861,"connected_time":1311000000000,"state":"active","ping":79},{"user_id":644,"name":"Joseph Stalin NFT","steam_id":76561198033199746,"connected_time":4202000000000,"state":"active","ping":49},{"user_id":672,"name":"Kapitan Polska","steam_id":76561197968069413,"connected_time":2397000000000,"state":"active","ping":85},{"user_id":695,"name":"ZeeZer0","steam_id":76561198043828441,"connected_time":1174000000000,"state":"active","ping":50},{"user_id":678,"name":"Asgaard","steam_id":76561198026516905,"connected_time":2285000000000,"state":"active","ping":114},{"user_id":675,"name":"Gnarville","steam_id":76561198006373329,"connected_time":2377000000000,"state":"active","ping":51},{"user_id":655,"name":"Rezolt","steam_id":76561198069074807,"connected_time":3103000000000,"state":"active","ping":124},{"user_id":701,"name":"buddy","steam_id":76561197988733568,"connected_time":366000000000,"state":"active","ping":60}]},{"server_id":114,"name":"Uncletopia | London | 2 | All Maps","name_short":"lon-2","host":"lon-1.uk.uncletopia.com","port":27025,"enabled":true,"region":"eu","cc":"gb","latitude":51.509865,"longitude":-0.118092,"reserved":0,"last_update":"0001-01-01T00:00:00Z","name_a2s":"Uncletopia | London | 2 | All Maps","protocol":17,"map":"koth_harvest_final","folder":"tf","game":"Team Fortress","app_id":440,"player_count":17,"max_players":24,"Bots":0,"server_type":"Dedicated","server_os":"Linux","password":true,"vac":true,"version":"7757534","steam_id":85568392924470941,"keywords":["cp","nocrits","nodmgspread","uncletopia"],"game_id":440,"stv_port":27026,"stv_name":"Uncletopia | London | 2 | All Maps | STV","players":[{"user_id":508,"name":"Duncan Idaho","steam_id":76561197988963861,"connected_time":1476000000000,"state":"active","ping":128},{"user_id":420,"name":"Suspicious Cabin","steam_id":76561198083261198,"connected_time":6223000000000,"state":"active","ping":50},{"user_id":523,"name":"L.A. Palm Tree","steam_id":76561199289526521,"connected_time":424000000000,"state":"active","ping":90},{"user_id":521,"name":"IN OCH VEVA","steam_id":76561197995091849,"connected_time":570000000000,"state":"active","ping":71},{"user_id":445,"name":"quak","steam_id":76561198053928976,"connected_time":4271000000000,"state":"active","ping":82},{"user_id":530,"name":"redlix-AA-","steam_id":76561198119413461,"connected_time":4000000000,"state":"spawning","ping":134},{"user_id":487,"name":"Gnome561","steam_id":76561198183771141,"connected_time":2403000000000,"state":"active","ping":62},{"user_id":497,"name":"Videogamer","steam_id":76561198106012909,"connected_time":2022000000000,"state":"active","ping":72},{"user_id":511,"name":"burial","steam_id":76561198009115060,"connected_time":1271000000000,"state":"active","ping":84},{"user_id":495,"name":".quickfast.","steam_id":76561199438900919,"connected_time":2116000000000,"state":"active","ping":51},{"user_id":498,"name":"Thesis","steam_id":76561199308784371,"connected_time":1922000000000,"state":"active","ping":58},{"user_id":467,"name":"Carrot Arc","steam_id":76561198164957006,"connected_time":3595000000000,"state":"active","ping":80},{"user_id":524,"name":"FemboyStar","steam_id":76561199184564693,"connected_time":393000000000,"state":"active","ping":83},{"user_id":527,"name":"Uncle Terry","steam_id":76561198396415736,"connected_time":109000000000,"state":"active","ping":54},{"user_id":518,"name":"a straight white male","steam_id":76561198381120660,"connected_time":740000000000,"state":"active","ping":90},{"user_id":519,"name":"Sacreshiea","steam_id":76561198169853697,"connected_time":670000000000,"state":"active","ping":63},{"user_id":526,"name":"lolmurphyy","steam_id":76561198143068715,"connected_time":129000000000,"state":"active","ping":31}]},{"server_id":320,"name":"Uncletopia | London | 3 | All Maps","name_short":"lon-3","host":"lon-1.uk.uncletopia.com","port":27035,"enabled":true,"region":"eu","cc":"gb","latitude":51.509865,"longitude":-0.118092,"reserved":0,"last_update":"0001-01-01T00:00:00Z","name_a2s":"Uncletopia | London | 3 | All Maps","protocol":17,"map":"pl_barnblitz","folder":"tf","game":"Team Fortress","app_id":440,"player_count":17,"max_players":24,"Bots":0,"server_type":"Dedicated","server_os":"Linux","password":true,"vac":true,"version":"7757534","steam_id":85568392924510192,"keywords":["nocrits","nodmgspread","payload","uncletopia"],"game_id":440,"stv_port":27036,"stv_name":"Uncletopia | London | 3 | All Maps | STV","players":[{"user_id":425,"name":":)","steam_id":76561198103988618,"connected_time":4964000000000,"state":"active","ping":56},{"user_id":479,"name":"Miton","steam_id":76561197970323209,"connected_time":2547000000000,"state":"active","ping":90},{"user_id":504,"name":"Yony","steam_id":76561199070569941,"connected_time":1006000000000,"state":"active","ping":61},{"user_id":497,"name":"Tywhip","steam_id":76561199207545191,"connected_time":1527000000000,"state":"active","ping":65},{"user_id":519,"name":"Svilar","steam_id":76561198828348612,"connected_time":287000000000,"state":"active","ping":75},{"user_id":520,"name":"grrr","steam_id":76561198036486671,"connected_time":241000000000,"state":"active","ping":60},{"user_id":494,"name":"Marko Rutto","steam_id":76561198124226614,"connected_time":1571000000000,"state":"active","ping":45},{"user_id":462,"name":"sleuth","steam_id":76561198102752414,"connected_time":3202000000000,"state":"active","ping":62},{"user_id":515,"name":"LELŐNI MINDENKIT A WESTENDBEN","steam_id":76561198315642032,"connected_time":626000000000,"state":"active","ping":65},{"user_id":409,"name":"Baguette","steam_id":76561199069435825,"connected_time":6011000000000,"state":"active","ping":44},{"user_id":506,"name":"Dakeyras","steam_id":76561198057069564,"connected_time":939000000000,"state":"active","ping":103},{"user_id":499,"name":"Vi","steam_id":76561198036546142,"connected_time":1483000000000,"state":"active","ping":43},{"user_id":512,"name":"Fran","steam_id":76561198339019518,"connected_time":669000000000,"state":"active","ping":71},{"user_id":501,"name":"GEP Gun","steam_id":76561197981821003,"connected_time":1379000000000,"state":"active","ping":47},{"user_id":496,"name":"Deva Path","steam_id":76561198085763542,"connected_time":1540000000000,"state":"active","ping":85},{"user_id":489,"name":"beurgeur","steam_id":76561198872426314,"connected_time":2220000000000,"state":"active","ping":33},{"user_id":508,"name":"america","steam_id":76561199212197300,"connected_time":832000000000,"state":"active","ping":55}]},{"server_id":321,"name":"Uncletopia | London | 4 | All Maps","name_short":"lon-4","host":"lon-1.uk.uncletopia.com","port":27045,"enabled":true,"region":"eu","cc":"gb","latitude":51.509865,"longitude":-0.118092,"reserved":0,"last_update":"0001-01-01T00:00:00Z","name_a2s":"Uncletopia | London | 4 | All Maps","protocol":17,"map":"pl_frontier_final","folder":"tf","game":"Team Fortress","app_id":440,"player_count":24,"max_players":24,"Bots":0,"server_type":"Dedicated","server_os":"Linux","password":true,"vac":true,"version":"7757534","steam_id":85568392924510193,"keywords":["nocrits","nodmgspread","payload","uncletopia"],"game_id":440,"stv_port":27046,"stv_name":"Uncletopia | London | 4 | All Maps | STV","players":[{"user_id":320,"name":"βoᵑiάՇζ","steam_id":76561198232414008,"connected_time":3889000000000,"state":"active","ping":92},{"user_id":346,"name":"eyem","steam_id":76561198169928502,"connected_time":1818000000000,"state":"active","ping":84},{"user_id":381,"name":"Litsuw","steam_id":76561198081785898,"connected_time":201000000000,"state":"active","ping":60},{"user_id":379,"name":"FoxRealGaming","steam_id":76561199363992142,"connected_time":307000000000,"state":"active","ping":78},{"user_id":367,"name":"■Sir SC■","steam_id":76561198114638963,"connected_time":913000000000,"state":"active","ping":57},{"user_id":380,"name":"nepper","steam_id":76561198038992444,"connected_time":277000000000,"state":"active","ping":123},{"user_id":368,"name":"A_Spoopy_Keenkeep1","steam_id":76561198128992159,"connected_time":902000000000,"state":"active","ping":51},{"user_id":369,"name":"muttonmaster","steam_id":76561198309257989,"connected_time":900000000000,"state":"active","ping":65},{"user_id":332,"name":"ricky pee pee","steam_id":76561198152620745,"connected_time":3369000000000,"state":"active","ping":58},{"user_id":349,"name":"king251311","steam_id":76561199063310889,"connected_time":1774000000000,"state":"active","ping":85},{"user_id":359,"name":"SkiTzIe","steam_id":76561198010381798,"connected_time":1338000000000,"state":"active","ping":60},{"user_id":326,"name":"anyád","steam_id":76561198175114914,"connected_time":3656000000000,"state":"active","ping":74},{"user_id":203,"name":"Johnny Cockroach","steam_id":76561198049648277,"connected_time":8853000000000,"state":"active","ping":97},{"user_id":382,"name":"tictak211","steam_id":76561198128091924,"connected_time":191000000000,"state":"active","ping":82},{"user_id":383,"name":"a sticky situation","steam_id":76561198011692496,"connected_time":181000000000,"state":"active","ping":78},{"user_id":350,"name":"Lessoz","steam_id":76561199211572036,"connected_time":1772000000000,"state":"active","ping":91},{"user_id":352,"name":"lesa","steam_id":76561198057915859,"connected_time":1703000000000,"state":"active","ping":73},{"user_id":384,"name":"hshs","steam_id":76561198314562513,"connected_time":177000000000,"state":"active","ping":65},{"user_id":371,"name":"wasto-/-™","steam_id":76561198102888038,"connected_time":885000000000,"state":"active","ping":62},{"user_id":342,"name":"Victoria Wood (as seen on TV)","steam_id":76561198066243851,"connected_time":2606000000000,"state":"active","ping":52},{"user_id":363,"name":"The_Jaystone","steam_id":76561198126280691,"connected_time":1089000000000,"state":"active","ping":39},{"user_id":354,"name":"god of war enjoyer","steam_id":76561199364408165,"connected_time":1694000000000,"state":"active","ping":72},{"user_id":372,"name":"silicon based life form","steam_id":76561199127121346,"connected_time":873000000000,"state":"active","ping":56},{"user_id":373,"name":"CaYeRok22","steam_id":76561198134173706,"connected_time":859000000000,"state":"active","ping":83}]},{"server_id":21,"name":"Uncletopia | London | 5 | All Maps","name_short":"lon-5","host":"lon-1.uk.uncletopia.com","port":27055,"enabled":true,"region":"eu","cc":"gb","latitude":51.509865,"longitude":-0.118092,"reserved":0,"last_update":"0001-01-01T00:00:00Z","name_a2s":"Uncletopia | London | 5 | All Maps","protocol":17,"map":"pl_frontier_final","folder":"tf","game":"Team Fortress","app_id":440,"player_count":24,"max_players":24,"Bots":0,"server_type":"Dedicated","server_os":"Linux","password":true,"vac":true,"version":"7757534","steam_id":85568392924742829,"keywords":["nocrits","nodmgspread","payload","uncletopia"],"game_id":440,"stv_port":27056,"stv_name":"Uncletopia | London | 5 | All Maps | STV","players":[{"user_id":121,"name":"Shawty","steam_id":76561198256704286,"connected_time":3096000000000,"state":"active","ping":65},{"user_id":131,"name":"DecentTurtle","steam_id":76561198411860840,"connected_time":2086000000000,"state":"active","ping":42},{"user_id":159,"name":"CarrierPigeon","steam_id":76561198143126135,"connected_time":240000000000,"state":"active","ping":55},{"user_id":137,"name":"femboy gaming","steam_id":76561198199789938,"connected_time":1919000000000,"state":"active","ping":46},{"user_id":85,"name":"RoXeUr-KaMiKaZe","steam_id":76561197998204782,"connected_time":5164000000000,"state":"active","ping":59},{"user_id":156,"name":"Dr. Funkenstein","steam_id":76561197977816210,"connected_time":846000000000,"state":"active","ping":49},{"user_id":144,"name":"‰Kacu","steam_id":76561198026228672,"connected_time":1355000000000,"state":"active","ping":81},{"user_id":161,"name":"_zipfile","steam_id":76561198066133808,"connected_time":31000000000,"state":"active","ping":83},{"user_id":162,"name":"Dirty Dom","steam_id":76561198043745396,"connected_time":26000000000,"state":"active","ping":74},{"user_id":132,"name":"the squirter","steam_id":76561199008582889,"connected_time":2082000000000,"state":"active","ping":33},{"user_id":160,"name":":3","steam_id":76561198301481739,"connected_time":104000000000,"state":"active","ping":55},{"user_id":157,"name":"SOTONA","steam_id":76561198267418267,"connected_time":831000000000,"state":"active","ping":88},{"user_id":158,"name":"average f2p","steam_id":76561199136308055,"connected_time":787000000000,"state":"active","ping":63},{"user_id":56,"name":"Swayer","steam_id":76561198056192460,"connected_time":6514000000000,"state":"active","ping":66},{"user_id":126,"name":"SeeYouSpaceRobot","steam_id":76561198454018197,"connected_time":2851000000000,"state":"active","ping":64},{"user_id":127,"name":"Shlongulator","steam_id":76561198149779201,"connected_time":2826000000000,"state":"active","ping":57},{"user_id":138,"name":"LOOPER","steam_id":76561199129295376,"connected_time":1845000000000,"state":"active","ping":159},{"user_id":153,"name":"Kraftlos","steam_id":76561198074350350,"connected_time":1136000000000,"state":"active","ping":127},{"user_id":112,"name":"pombang","steam_id":76561199112137762,"connected_time":3779000000000,"state":"active","ping":98},{"user_id":149,"name":"triangle","steam_id":76561198046838168,"connected_time":1285000000000,"state":"active","ping":61},{"user_id":140,"name":"Vanta_BlackLD","steam_id":76561198346271576,"connected_time":1828000000000,"state":"active","ping":68},{"user_id":150,"name":"✧ Luigi Time ✧","steam_id":76561198026903673,"connected_time":1280000000000,"state":"active","ping":69},{"user_id":88,"name":"Klaus Ze Flammenwerfer","steam_id":76561198087840341,"connected_time":4711000000000,"state":"active","ping":92},{"user_id":152,"name":"Boi_mario69","steam_id":76561198830292553,"connected_time":1241000000000,"state":"active","ping":130}]},{"server_id":22,"name":"Uncletopia | London | 6 | All Maps","name_short":"lon-6","host":"lon-1.uk.uncletopia.com","port":27065,"enabled":true,"region":"eu","cc":"gb","latitude":51.509865,"longitude":-0.118092,"reserved":0,"last_update":"0001-01-01T00:00:00Z","name_a2s":"Uncletopia | London | 6 | All Maps","protocol":17,"map":"pl_frontier_final","folder":"tf","game":"Team Fortress","app_id":440,"player_count":19,"max_players":24,"Bots":0,"server_type":"Dedicated","server_os":"Linux","password":true,"vac":true,"version":"7757534","steam_id":85568392924742830,"keywords":["nocrits","nodmgspread","payload","uncletopia"],"game_id":440,"stv_port":27066,"stv_name":"Uncletopia | London | 6 | All Maps | STV","players":[{"user_id":118,"name":"JustMayor","steam_id":76561198050515503,"connected_time":1433000000000,"state":"active","ping":71},{"user_id":127,"name":"Walking Vomit","steam_id":76561198071873301,"connected_time":326000000000,"state":"active","ping":54},{"user_id":72,"name":"Havelyn","steam_id":76561198036159862,"connected_time":4590000000000,"state":"active","ping":135},{"user_id":115,"name":"Washburne","steam_id":76561198032810579,"connected_time":1741000000000,"state":"active","ping":55},{"user_id":61,"name":"maDEMOman","steam_id":76561198018630906,"connected_time":4751000000000,"state":"active","ping":58},{"user_id":62,"name":"bandit tnt","steam_id":76561198169529794,"connected_time":4745000000000,"state":"active","ping":60},{"user_id":63,"name":"John Glacious","steam_id":76561198132240015,"connected_time":4740000000000,"state":"active","ping":140},{"user_id":129,"name":"VolcanicArts","steam_id":76561198063453246,"connected_time":26000000000,"state":"active","ping":52},{"user_id":113,"name":"Adopted?","steam_id":76561198118667043,"connected_time":1788000000000,"state":"active","ping":51},{"user_id":126,"name":"the indomitable human spirit","steam_id":76561198718760200,"connected_time":693000000000,"state":"active","ping":56},{"user_id":112,"name":"Célério","steam_id":76561198088253576,"connected_time":1789000000000,"state":"active","ping":45},{"user_id":97,"name":"NiceBird","steam_id":76561198072118644,"connected_time":3131000000000,"state":"active","ping":40},{"user_id":71,"name":"class1driller","steam_id":76561198029068574,"connected_time":4597000000000,"state":"active","ping":105},{"user_id":73,"name":"Butt Fangs Fetish","steam_id":76561198038130063,"connected_time":4586000000000,"state":"active","ping":88},{"user_id":104,"name":"Uncle Owen","steam_id":76561198157999291,"connected_time":2272000000000,"state":"active","ping":89},{"user_id":128,"name":"ReVerb","steam_id":76561198024949870,"connected_time":102000000000,"state":"active","ping":44},{"user_id":76,"name":"TheWorst","steam_id":76561198968242920,"connected_time":4535000000000,"state":"active","ping":53},{"user_id":78,"name":"Jedder Cheese","steam_id":76561198050735495,"connected_time":4520000000000,"state":"active","ping":68},{"user_id":114,"name":"The Deadly Doughnut","steam_id":76561198079049349,"connected_time":1780000000000,"state":"active","ping":55}]},{"server_id":40,"name":"Uncletopia | London | 7 | No Payload","name_short":"lon-7","host":"lon-1.uk.uncletopia.com","port":27075,"enabled":true,"region":"eu","cc":"gb","latitude":51.509865,"longitude":-0.118092,"reserved":0,"last_update":"0001-01-01T00:00:00Z","name_a2s":"Uncletopia | London | 7 | No Payload","protocol":17,"map":"cp_foundry","folder":"tf","game":"Team Fortress","app_id":440,"player_count":22,"max_players":24,"Bots":0,"server_type":"Dedicated","server_os":"Linux","password":true,"vac":true,"version":"7757534","steam_id":85568392924964314,"keywords":["cp","nocrits","nodmgspread","uncletopia"],"game_id":440,"stv_port":27076,"stv_name":"Uncletopia | London | 7 | No Payload | STV","players":[{"user_id":358,"name":"Lukas","steam_id":76561198009118452,"connected_time":703000000000,"state":"active","ping":65},{"user_id":337,"name":"I Find A Computer Indispensible","steam_id":76561198046152236,"connected_time":2235000000000,"state":"active","ping":80},{"user_id":372,"name":"Farmercy","steam_id":76561198000038039,"connected_time":115000000000,"state":"active","ping":60},{"user_id":373,"name":"ＴrendyＬemon","steam_id":76561198158957324,"connected_time":106000000000,"state":"active","ping":54},{"user_id":359,"name":"MIMI:CS","steam_id":76561198255389232,"connected_time":680000000000,"state":"active","ping":69},{"user_id":374,"name":"stinkyeseses","steam_id":76561198402218127,"connected_time":60000000000,"state":"active","ping":101},{"user_id":295,"name":"mark","steam_id":76561198309246388,"connected_time":6829000000000,"state":"active","ping":52},{"user_id":321,"name":"Bilaterial Newt","steam_id":76561198074655679,"connected_time":5072000000000,"state":"active","ping":84},{"user_id":327,"name":"X-tis","steam_id":76561198043837480,"connected_time":3754000000000,"state":"active","ping":67},{"user_id":364,"name":"Hadmund Gaming","steam_id":76561198119454822,"connected_time":543000000000,"state":"active","ping":74},{"user_id":375,"name":"iPhone 4S","steam_id":76561198281913312,"connected_time":56000000000,"state":"active","ping":47},{"user_id":352,"name":"Duarte™","steam_id":76561198131456324,"connected_time":1241000000000,"state":"active","ping":81},{"user_id":369,"name":"MEDiUM","steam_id":76561198112328561,"connected_time":398000000000,"state":"active","ping":86},{"user_id":218,"name":"LasagnaLarry22","steam_id":76561198089478290,"connected_time":10300000000000,"state":"active","ping":41},{"user_id":376,"name":"Stu","steam_id":76561198131449281,"connected_time":51000000000,"state":"active","ping":51},{"user_id":361,"name":"mummi","steam_id":76561198137614047,"connected_time":633000000000,"state":"active","ping":72},{"user_id":377,"name":"Ivan the Terrible","steam_id":76561198139595241,"connected_time":6000000000,"state":"spawning","ping":73},{"user_id":211,"name":"Topme","steam_id":76561198091734693,"connected_time":10900000000000,"state":"active","ping":63},{"user_id":336,"name":"xXThotSlayerXx","steam_id":76561198141261296,"connected_time":2638000000000,"state":"active","ping":126},{"user_id":208,"name":"Fat Pigeon","steam_id":76561198817940142,"connected_time":11586000000000,"state":"active","ping":45},{"user_id":362,"name":"esence45","steam_id":76561199068546853,"connected_time":618000000000,"state":"active","ping":54},{"user_id":368,"name":"RudiPrico4","steam_id":76561199014381495,"connected_time":447000000000,"state":"active","ping":62}]},{"server_id":41,"name":"Uncletopia | London | 8 | Community","name_short":"lon-8","host":"lon-1.uk.uncletopia.com","port":27085,"enabled":true,"region":"eu","cc":"gb","latitude":51.509865,"longitude":-0.118092,"reserved":0,"last_update":"0001-01-01T00:00:00Z","name_a2s":"Uncletopia | London | 8 | Community","protocol":17,"map":"workshop/koth_synthetic_rc6a.ugc1549817316","folder":"tf","game":"Team Fortress","app_id":440,"player_count":3,"max_players":24,"Bots":0,"server_type":"Dedicated","server_os":"Linux","password":true,"vac":true,"version":"7757534","steam_id":85568392924964315,"keywords":["cp","nocrits","nodmgspread","uncletopia"],"game_id":440,"stv_port":27086,"stv_name":"Uncletopia | London | 8 | Community | STV","players":[{"user_id":38,"name":"Illumi","steam_id":76561199181900458,"connected_time":793000000000,"state":"active","ping":55},{"user_id":39,"name":"polar","steam_id":76561198246748116,"connected_time":792000000000,"state":"active","ping":63}]},{"server_id":300,"name":"Uncletopia | Montréal | 1 | All Maps","name_short":"mtl-1","host":"mtl-1.ca.uncletopia.com","port":27015,"enabled":true,"region":"us-east","cc":"ca","latitude":45.50889,"longitude":-73.56167,"reserved":0,"last_update":"0001-01-01T00:00:00Z","name_a2s":"Uncletopia | Montréal | 1 | All Maps","protocol":17,"map":"koth_cascade","folder":"tf","game":"Team Fortress","app_id":440,"player_count":0,"max_players":24,"Bots":0,"server_type":"Dedicated","server_os":"Linux","password":true,"vac":true,"version":"7757534","steam_id":85568392924500087,"keywords":["cp","nocrits","nodmgspread","uncletopia"],"game_id":440,"stv_port":27016,"stv_name":"Uncletopia | Montréal | 1 | All Maps | STV","players":null},{"server_id":301,"name":"Uncletopia | Montréal | 2 | All Maps","name_short":"mtl-2","host":"mtl-1.ca.uncletopia.com","port":27025,"enabled":true,"region":"us-east","cc":"ca","latitude":45.50889,"longitude":-73.56167,"reserved":0,"last_update":"0001-01-01T00:00:00Z","name_a2s":"Uncletopia | Montréal | 2 | All Maps","protocol":17,"map":"pl_swiftwater_final1","folder":"tf","game":"Team Fortress","app_id":440,"player_count":0,"max_players":24,"Bots":0,"server_type":"Dedicated","server_os":"Linux","password":true,"vac":true,"version":"7757534","steam_id":85568392924500088,"keywords":["nocrits","nodmgspread","payload","uncletopia"],"game_id":440,"stv_port":27026,"stv_name":"Uncletopia | Montréal | 2 | All Maps | STV","players":null},{"server_id":302,"name":"Uncletopia | Montréal | 3 | All Maps","name_short":"mtl-3","host":"mtl-1.ca.uncletopia.com","port":27035,"enabled":true,"region":"us-east","cc":"ca","latitude":45.50889,"longitude":-73.56167,"reserved":0,"last_update":"0001-01-01T00:00:00Z","name_a2s":"Uncletopia | Montréal | 3 | All Maps","protocol":17,"map":"cp_sunshine","folder":"tf","game":"Team Fortress","app_id":440,"player_count":0,"max_players":24,"Bots":0,"server_type":"Dedicated","server_os":"Linux","password":true,"vac":true,"version":"7757534","steam_id":85568392924500089,"keywords":["cp","nocrits","nodmgspread","uncletopia"],"game_id":440,"stv_port":27036,"stv_name":"Uncletopia | Montréal | 3 | All Maps | STV","players":null},{"server_id":303,"name":"Uncletopia | Montréal | 4 | No Payload","name_short":"mtl-4","host":"mtl-1.ca.uncletopia.com","port":27045,"enabled":true,"region":"us-east","cc":"ca","latitude":45.50889,"longitude":-73.56167,"reserved":0,"last_update":"0001-01-01T00:00:00Z","name_a2s":"Uncletopia | Montréal | 4 | No Payload","protocol":17,"map":"koth_lakeside_final","folder":"tf","game":"Team Fortress","app_id":440,"player_count":0,"max_players":24,"Bots":0,"server_type":"Dedicated","server_os":"Linux","password":true,"vac":true,"version":"7757534","steam_id":85568392924500090,"keywords":["cp","nocrits","nodmgspread","uncletopia"],"game_id":440,"stv_port":27046,"stv_name":"Uncletopia | Montréal | 4 | No Payload | STV","players":null},{"server_id":13,"name":"Uncletopia | New York City | 1 | All Maps","name_short":"nyc-1","host":"nyc-1.us.uncletopia.com","port":27015,"enabled":true,"region":"us-east","cc":"us","latitude":40.73061,"longitude":-73.93524,"reserved":0,"last_update":"0001-01-01T00:00:00Z","name_a2s":"Uncletopia | New York City | 1 | All Maps","protocol":17,"map":"cp_mountainlab","folder":"tf","game":"Team Fortress","app_id":440,"player_count":0,"max_players":24,"Bots":0,"server_type":"Dedicated","server_os":"Linux","password":true,"vac":true,"version":"7757534","steam_id":85568392924469993,"keywords":["cp","nocrits","nodmgspread","uncletopia"],"game_id":440,"stv_port":27016,"stv_name":"Uncletopia | New York City | 1 | All Maps | STV","players":null},{"server_id":14,"name":"Uncletopia | New York City | 2 | All Maps","name_short":"nyc-2","host":"nyc-1.us.uncletopia.com","port":27025,"enabled":true,"region":"us-east","cc":"us","latitude":40.73061,"longitude":-73.93524,"reserved":0,"last_update":"0001-01-01T00:00:00Z","name_a2s":"Uncletopia | New York City | 2 | All Maps","protocol":17,"map":"pl_frontier_final","folder":"tf","game":"Team Fortress","app_id":440,"player_count":0,"max_players":24,"Bots":0,"server_type":"Dedicated","server_os":"Linux","password":true,"vac":true,"version":"7757534","steam_id":85568392924469994,"keywords":["nocrits","nodmgspread","payload","uncletopia"],"game_id":440,"stv_port":27026,"stv_name":"Uncletopia | New York City | 2 | All Maps | STV","players":null},{"server_id":15,"name":"Uncletopia | New York City | 3 | Stopwatch Beta","name_short":"nyc-3","host":"nyc-1.us.uncletopia.com","port":27035,"enabled":true,"region":"us-east","cc":"us","latitude":40.73061,"longitude":-73.93524,"reserved":0,"last_update":"0001-01-01T00:00:00Z","name_a2s":"Uncletopia | New York City | 3 | Stopwatch Beta","protocol":17,"map":"koth_lakeside_final","folder":"tf","game":"Team Fortress","app_id":440,"player_count":0,"max_players":24,"Bots":0,"server_type":"Dedicated","server_os":"Linux","password":true,"vac":true,"version":"7757534","steam_id":85568392924742820,"keywords":["cp","nocrits","nodmgspread","uncletopia"],"game_id":440,"stv_port":27036,"stv_name":"Uncletopia | New York City | 3 | Stopwatch Beta | STV","players":null},{"server_id":16,"name":"Uncletopia | New York City | 4 | Community","name_short":"nyc-4","host":"nyc-1.us.uncletopia.com","port":27045,"enabled":true,"region":"us-east","cc":"us","latitude":40.73061,"longitude":-73.93524,"reserved":0,"last_update":"0001-01-01T00:00:00Z","name_a2s":"Uncletopia | New York City | 4 | Community","protocol":17,"map":"pl_borneo","folder":"tf","game":"Team Fortress","app_id":440,"player_count":0,"max_players":24,"Bots":0,"server_type":"Dedicated","server_os":"Linux","password":true,"vac":true,"version":"7757534","steam_id":85568392924742821,"keywords":["nocrits","nodmgspread","payload","uncletopia"],"game_id":440,"stv_port":27046,"stv_name":"Uncletopia | New York City | 4 | Community | STV","players":null},{"server_id":142,"name":"Uncletopia | São Paulo | 1 | All Maps","name_short":"sao-1","host":"sao-1.br.uncletopia.com","port":27015,"enabled":true,"region":"sa","cc":"br","latitude":-23.533773,"longitude":-46.62529,"reserved":0,"last_update":"0001-01-01T00:00:00Z","name_a2s":"Uncletopia | São Paulo | 1 | All Maps","protocol":17,"map":"koth_highpass","folder":"tf","game":"Team Fortress","app_id":440,"player_count":0,"max_players":24,"Bots":0,"server_type":"Dedicated","server_os":"Linux","password":true,"vac":true,"version":"7757534","steam_id":85568392924469996,"keywords":["cp","nocrits","nodmgspread","uncletopia"],"game_id":440,"stv_port":27016,"stv_name":"Uncletopia | São Paulo | 1 | All Maps | STV","players":null},{"server_id":143,"name":"Uncletopia | São Paulo | 2 | All Maps","name_short":"sao-2","host":"sao-2.br.uncletopia.com","port":27015,"enabled":true,"region":"sa","cc":"br","latitude":-23.533773,"longitude":-46.62529,"reserved":0,"last_update":"0001-01-01T00:00:00Z","name_a2s":"Uncletopia | São Paulo | 2 | All Maps","protocol":17,"map":"cp_mountainlab","folder":"tf","game":"Team Fortress","app_id":440,"player_count":0,"max_players":24,"Bots":0,"server_type":"Dedicated","server_os":"Linux","password":true,"vac":true,"version":"7757534","steam_id":85568392924485349,"keywords":["cp","nocrits","nodmgspread","uncletopia"],"game_id":440,"stv_port":27016,"stv_name":"Uncletopia | São Paulo | 2 | All Maps | STV","players":null},{"server_id":7,"name":"Uncletopia | Seattle | 1 | All Maps","name_short":"sea-1","host":"sea-1.us.uncletopia.com","port":27015,"enabled":true,"region":"us-west","cc":"us","latitude":47.608013,"longitude":-122.33517,"reserved":0,"last_update":"0001-01-01T00:00:00Z","name_a2s":"Uncletopia | Seattle | 1 | All Maps","protocol":17,"map":"pl_borneo","folder":"tf","game":"Team Fortress","app_id":440,"player_count":24,"max_players":24,"Bots":0,"server_type":"Dedicated","server_os":"Linux","password":true,"vac":true,"version":"7757534","steam_id":85568392924469997,"keywords":["nocrits","nodmgspread","payload","uncletopia"],"game_id":440,"stv_port":27016,"stv_name":"Uncletopia | Seattle | 1 | All Maps | STV","players":[{"user_id":68,"name":"Bryce Gobo","steam_id":76561199411560141,"connected_time":4009000000000,"state":"active","ping":45},{"user_id":25,"name":"Source Chronicler","steam_id":76561199231728668,"connected_time":5499000000000,"state":"active","ping":104},{"user_id":110,"name":"❤Graphite Muncher❤","steam_id":76561199200969139,"connected_time":543000000000,"state":"active","ping":101},{"user_id":10,"name":"Joe Banana","steam_id":76561198066224724,"connected_time":6331000000000,"state":"active","ping":43},{"user_id":108,"name":"Sloppy Joe (Extra Sauce)","steam_id":76561198359703432,"connected_time":678000000000,"state":"active","ping":104},{"user_id":109,"name":"resting neutral face","steam_id":76561197999259502,"connected_time":668000000000,"state":"active","ping":58},{"user_id":96,"name":"trackpad gaming | f2p","steam_id":76561198840414371,"connected_time":1378000000000,"state":"active","ping":48},{"user_id":84,"name":"a crazy hobo","steam_id":76561198289650060,"connected_time":2149000000000,"state":"active","ping":73},{"user_id":82,"name":"Mr.Thirteen","steam_id":76561198047468836,"connected_time":2182000000000,"state":"active","ping":65},{"user_id":85,"name":"MellowBoy-2354","steam_id":76561199080630632,"connected_time":2145000000000,"state":"active","ping":151},{"user_id":105,"name":"johnman gooberguy","steam_id":76561199014859764,"connected_time":965000000000,"state":"active","ping":88},{"user_id":89,"name":"amagicowl","steam_id":76561199060487814,"connected_time":1877000000000,"state":"active","ping":58},{"user_id":113,"name":"Julien","steam_id":76561199389584938,"connected_time":151000000000,"state":"active","ping":41},{"user_id":63,"name":"Kosmo","steam_id":76561198079015843,"connected_time":4612000000000,"state":"active","ping":115},{"user_id":100,"name":"SandPiperSniper","steam_id":76561199029157088,"connected_time":1193000000000,"state":"active","ping":129},{"user_id":64,"name":"chivalricnine6","steam_id":76561198848720053,"connected_time":4610000000000,"state":"active","ping":61},{"user_id":101,"name":"MaySeaOh_TTV_Youtube_insta_xvid","steam_id":76561198118764367,"connected_time":1170000000000,"state":"active","ping":117},{"user_id":87,"name":"7/11 Gaming","steam_id":76561199091007559,"connected_time":2070000000000,"state":"active","ping":88},{"user_id":106,"name":"Agentnickel","steam_id":76561199186723516,"connected_time":934000000000,"state":"active","ping":69},{"user_id":88,"name":"MochaTheGoat","steam_id":76561198295388936,"connected_time":2063000000000,"state":"active","ping":86},{"user_id":112,"name":"Strikerbolt","steam_id":76561199095622897,"connected_time":309000000000,"state":"active","ping":113},{"user_id":111,"name":"PopcornBucketGames","steam_id":76561199089562026,"connected_time":529000000000,"state":"active","ping":64},{"user_id":52,"name":"Ddot","steam_id":76561198082846392,"connected_time":4988000000000,"state":"active","ping":48},{"user_id":81,"name":"PachucoWaffle","steam_id":76561198051491032,"connected_time":2438000000000,"state":"active","ping":81}]},{"server_id":119,"name":"Uncletopia | Seattle | 2 | All Maps","name_short":"sea-2","host":"sea-1.us.uncletopia.com","port":27025,"enabled":true,"region":"us-west","cc":"us","latitude":47.608013,"longitude":-122.33517,"reserved":0,"last_update":"0001-01-01T00:00:00Z","name_a2s":"Uncletopia | Seattle | 2 | All Maps","protocol":17,"map":"pl_badwater","folder":"tf","game":"Team Fortress","app_id":440,"player_count":0,"max_players":24,"Bots":0,"server_type":"Dedicated","server_os":"Linux","password":true,"vac":true,"version":"7757534","steam_id":85568392924469998,"keywords":["nocrits","nodmgspread","payload","uncletopia"],"game_id":440,"stv_port":27026,"stv_name":"Uncletopia | Seattle | 2 | All Maps | STV","players":null},{"server_id":406,"name":"Uncletopia | Seattle | 3 | Stopwatch Beta","name_short":"sea-3","host":"sea-1.us.uncletopia.com","port":27035,"enabled":true,"region":"us-west","cc":"us","latitude":47.608013,"longitude":-122.33517,"reserved":0,"last_update":"0001-01-01T00:00:00Z","name_a2s":"Uncletopia | Seattle | 3 | Stopwatch Beta","protocol":17,"map":"cp_sunshine","folder":"tf","game":"Team Fortress","app_id":440,"player_count":0,"max_players":24,"Bots":0,"server_type":"Dedicated","server_os":"Linux","password":true,"vac":true,"version":"7757534","steam_id":85568392924515217,"keywords":["cp","nocrits","nodmgspread","uncletopia"],"game_id":440,"stv_port":27036,"stv_name":"Uncletopia | Seattle | 3 | Stopwatch Beta | STV","players":null},{"server_id":17,"name":"Uncletopia | San Francisco | 1 | All Maps","name_short":"sfo-1","host":"sfo-1.us.uncletopia.com","port":27015,"enabled":true,"region":"us-west","cc":"us","latitude":37.77397,"longitude":-122.4313,"reserved":0,"last_update":"0001-01-01T00:00:00Z","name_a2s":"Uncletopia | San Francisco | 1 | All Maps","protocol":17,"map":"pl_pier","folder":"tf","game":"Team Fortress","app_id":440,"player_count":0,"max_players":24,"Bots":0,"server_type":"Dedicated","server_os":"Linux","password":true,"vac":true,"version":"7757534","steam_id":85568392924469999,"keywords":["nocrits","nodmgspread","payload","uncletopia"],"game_id":440,"stv_port":27016,"stv_name":"Uncletopia | San Francisco | 1 | All Maps | STV","players":null},{"server_id":18,"name":"Uncletopia | San Francisco | 2 | All Maps","name_short":"sfo-2","host":"sfo-1.us.uncletopia.com","port":27025,"enabled":true,"region":"us-west","cc":"us","latitude":37.77397,"longitude":-122.4313,"reserved":0,"last_update":"0001-01-01T00:00:00Z","name_a2s":"Uncletopia | San Francisco | 2 | All Maps","protocol":17,"map":"koth_viaduct","folder":"tf","game":"Team Fortress","app_id":440,"player_count":0,"max_players":24,"Bots":0,"server_type":"Dedicated","server_os":"Linux","password":true,"vac":true,"version":"7757534","steam_id":85568392924470000,"keywords":["cp","nocrits","nodmgspread","uncletopia"],"game_id":440,"stv_port":27026,"stv_name":"Uncletopia | San Francisco | 2 | All Maps | STV","players":null},{"server_id":19,"name":"Uncletopia | San Francisco | 3 | Stopwatch Beta","name_short":"sfo-3","host":"sfo-1.us.uncletopia.com","port":27035,"enabled":true,"region":"us-west","cc":"us","latitude":37.77397,"longitude":-122.4313,"reserved":0,"last_update":"0001-01-01T00:00:00Z","name_a2s":"Uncletopia | San Francisco | 3 | Stopwatch Beta","protocol":17,"map":"koth_viaduct","folder":"tf","game":"Team Fortress","app_id":440,"player_count":0,"max_players":24,"Bots":0,"server_type":"Dedicated","server_os":"Linux","password":true,"vac":true,"version":"7757534","steam_id":85568392924742824,"keywords":["cp","nocrits","nodmgspread","uncletopia"],"game_id":440,"stv_port":27036,"stv_name":"Uncletopia | San Francisco | 3 | Stopwatch Beta | STV","players":null},{"server_id":20,"name":"Uncletopia | San Francisco | 4 | Community","name_short":"sfo-4","host":"sfo-1.us.uncletopia.com","port":27045,"enabled":true,"region":"us-west","cc":"us","latitude":37.77397,"longitude":-122.4313,"reserved":0,"last_update":"0001-01-01T00:00:00Z","name_a2s":"Uncletopia | San Francisco | 4 | Community","protocol":17,"map":"workshop/koth_bagel_rc5.ugc2514036946","folder":"tf","game":"Team Fortress","app_id":440,"player_count":0,"max_players":24,"Bots":0,"server_type":"Dedicated","server_os":"Linux","password":true,"vac":true,"version":"7757534","steam_id":85568392924742826,"keywords":["cp","nocrits","nodmgspread","uncletopia"],"game_id":440,"stv_port":27046,"stv_name":"Uncletopia | San Francisco | 4 | Community | STV","players":null},{"server_id":141,"name":"Uncletopia | Sydney | 1 | All Maps","name_short":"syd-1","host":"syd-1.au.uncletopia.com","port":27015,"enabled":true,"region":"au","cc":"au","latitude":-33.865143,"longitude":151.2099,"reserved":0,"last_update":"0001-01-01T00:00:00Z","name_a2s":"Uncletopia | Sydney | 1 | All Maps","protocol":17,"map":"koth_lakeside_final","folder":"tf","game":"Team Fortress","app_id":440,"player_count":0,"max_players":24,"Bots":0,"server_type":"Dedicated","server_os":"Linux","password":true,"vac":true,"version":"7757534","steam_id":85568392924470001,"keywords":["cp","nocrits","nodmgspread","uncletopia"],"game_id":440,"stv_port":27016,"stv_name":"Uncletopia | Sydney | 1 | All Maps | STV","players":null},{"server_id":123,"name":"Uncletopia | Sydney | 2 | All Maps","name_short":"syd-2","host":"syd-1.au.uncletopia.com","port":27025,"enabled":true,"region":"au","cc":"au","latitude":-33.865143,"longitude":151.2099,"reserved":0,"last_update":"0001-01-01T00:00:00Z","name_a2s":"Uncletopia | Sydney | 2 | All Maps","protocol":17,"map":"koth_viaduct","folder":"tf","game":"Team Fortress","app_id":440,"player_count":0,"max_players":24,"Bots":0,"server_type":"Dedicated","server_os":"Linux","password":true,"vac":true,"version":"7757534","steam_id":85568392924470002,"keywords":["cp","nocrits","nodmgspread","uncletopia"],"game_id":440,"stv_port":27026,"stv_name":"Uncletopia | Sydney | 2 | All Maps | STV","players":null},{"server_id":395,"name":"Uncletopia | Sydney | 3 | All Maps","name_short":"syd-3","host":"syd-1.au.uncletopia.com","port":27035,"enabled":true,"region":"au","cc":"au","latitude":-33.865143,"longitude":151.2099,"reserved":0,"last_update":"0001-01-01T00:00:00Z","name_a2s":"Uncletopia | Sydney | 3 | All Maps","protocol":17,"map":"koth_viaduct","folder":"tf","game":"Team Fortress","app_id":440,"player_count":0,"max_players":24,"Bots":0,"server_type":"Dedicated","server_os":"Linux","password":true,"vac":true,"version":"7757534","steam_id":85568392925194467,"keywords":["cp","nocrits","nodmgspread","uncletopia"],"game_id":440,"stv_port":27036,"stv_name":"Uncletopia | Sydney | 3 | All Maps | STV","players":null},{"server_id":396,"name":"Uncletopia | Sydney | 4 | All Maps","name_short":"syd-4","host":"syd-1.au.uncletopia.com","port":27045,"enabled":true,"region":"au","cc":"au","latitude":-33.865143,"longitude":151.2099,"reserved":0,"last_update":"0001-01-01T00:00:00Z","name_a2s":"Uncletopia | Sydney | 4 | All Maps","protocol":17,"map":"cp_snakewater_final1","folder":"tf","game":"Team Fortress","app_id":440,"player_count":0,"max_players":24,"Bots":0,"server_type":"Dedicated","server_os":"Linux","password":true,"vac":true,"version":"7757534","steam_id":85568392925397958,"keywords":["cp","nocrits","nodmgspread","uncletopia"],"game_id":440,"stv_port":27046,"stv_name":"Uncletopia | Sydney | 4 | All Maps | STV","players":null},{"server_id":58,"name":"Uncletopia | Sydney | 5 | Stopwatch Beta","name_short":"syd-5","host":"syd-1.au.uncletopia.com","port":27055,"enabled":true,"region":"au","cc":"au","latitude":-33.865143,"longitude":151.2099,"reserved":0,"last_update":"0001-01-01T00:00:00Z","name_a2s":"Uncletopia | Sydney | 5 | Stopwatch Beta","protocol":17,"map":"pl_barnblitz","folder":"tf","game":"Team Fortress","app_id":440,"player_count":0,"max_players":24,"Bots":0,"server_type":"Dedicated","server_os":"Linux","password":true,"vac":true,"version":"7757534","steam_id":85568392925397959,"keywords":["nocrits","nodmgspread","payload","uncletopia"],"game_id":440,"stv_port":27056,"stv_name":"Uncletopia | Sydney | 5 | Stopwatch Beta | STV","players":null},{"server_id":59,"name":"Uncletopia | Sydney | 6 | Community","name_short":"syd-6","host":"syd-1.au.uncletopia.com","port":27065,"enabled":true,"region":"au","cc":"au","latitude":-33.865143,"longitude":151.2099,"reserved":0,"last_update":"0001-01-01T00:00:00Z","name_a2s":"Uncletopia | Sydney | 6 | Community","protocol":17,"map":"cp_mountainlab","folder":"tf","game":"Team Fortress","app_id":440,"player_count":0,"max_players":24,"Bots":0,"server_type":"Dedicated","server_os":"Linux","password":true,"vac":true,"version":"7757534","steam_id":85568392925397960,"keywords":["cp","nocrits","nodmgspread","uncletopia"],"game_id":440,"stv_port":27066,"stv_name":"Uncletopia | Sydney | 6 | Community | STV","players":null},{"server_id":49,"name":"Uncletopia | Warsaw | 1 | All Maps","name_short":"waw-1","host":"waw-1.pl.uncletopia.com","port":27015,"enabled":true,"region":"eu","cc":"pl","latitude":52.2297,"longitude":21.017532,"reserved":0,"last_update":"0001-01-01T00:00:00Z","name_a2s":"","protocol":0,"map":"","folder":"","game":"","app_id":0,"player_count":0,"max_players":0,"Bots":0,"server_type":"","server_os":"","password":false,"vac":false,"version":"","steam_id":0,"keywords":null,"game_id":0,"stv_port":0,"stv_name":"","players":null},{"server_id":50,"name":"Uncletopia | Warsaw | 2 | All Maps","name_short":"waw-2","host":"waw-1.pl.uncletopia.com","port":27025,"enabled":true,"region":"eu","cc":"pl","latitude":52.2297,"longitude":21.017532,"reserved":0,"last_update":"0001-01-01T00:00:00Z","name_a2s":"Uncletopia | Warsaw | 2 | All Maps","protocol":17,"map":"cp_snakewater_final1","folder":"tf","game":"Team Fortress","app_id":440,"player_count":13,"max_players":24,"Bots":0,"server_type":"Dedicated","server_os":"Linux","password":true,"vac":true,"version":"7757534","steam_id":85568392925397851,"keywords":["cp","nocrits","nodmgspread","uncletopia"],"game_id":440,"stv_port":27026,"stv_name":"Uncletopia | Warsaw | 2 | All Maps | STV","players":[{"user_id":35,"name":"tree__dude","steam_id":76561198975762241,"connected_time":2403000000000,"state":"active","ping":105},{"user_id":27,"name":"Kirschblüte","steam_id":76561198996745313,"connected_time":3356000000000,"state":"active","ping":130},{"user_id":36,"name":"Saul Goodman","steam_id":76561198115131952,"connected_time":1732000000000,"state":"active","ping":109},{"user_id":37,"name":"Von Leining","steam_id":76561198859983504,"connected_time":749000000000,"state":"active","ping":73},{"user_id":41,"name":"atari2029","steam_id":76561199342208055,"connected_time":172000000000,"state":"active","ping":193},{"user_id":38,"name":"Sleepyguy","steam_id":76561198008520542,"connected_time":598000000000,"state":"active","ping":75},{"user_id":39,"name":"nep-nep","steam_id":76561198303149838,"connected_time":595000000000,"state":"active","ping":72},{"user_id":46,"name":"monster","steam_id":76561198272925849,"connected_time":97000000000,"state":"active","ping":115},{"user_id":43,"name":"фурримальчик","steam_id":76561199433913089,"connected_time":157000000000,"state":"active","ping":101},{"user_id":45,"name":"nemśs","steam_id":76561198134203031,"connected_time":125000000000,"state":"active","ping":43},{"user_id":50,"name":"Gen","steam_id":76561198021775885,"connected_time":23000000000,"state":"active","ping":60},{"user_id":48,"name":"Ayfon","steam_id":76561199021556718,"connected_time":78000000000,"state":"active","ping":124},{"user_id":49,"name":"Burak","steam_id":76561198886756387,"connected_time":60000000000,"state":"active","ping":125}]},{"server_id":51,"name":"Uncletopia | Warsaw | 3 | All Maps","name_short":"waw-3","host":"waw-1.pl.uncletopia.com","port":27035,"enabled":true,"region":"eu","cc":"pl","latitude":52.2297,"longitude":21.017532,"reserved":0,"last_update":"0001-01-01T00:00:00Z","name_a2s":"Uncletopia | Warsaw | 3 | All Maps","protocol":17,"map":"pl_badwater","folder":"tf","game":"Team Fortress","app_id":440,"player_count":23,"max_players":24,"Bots":0,"server_type":"Dedicated","server_os":"Linux","password":true,"vac":true,"version":"7757534","steam_id":85568392925397852,"keywords":["nocrits","nodmgspread","payload","uncletopia"],"game_id":440,"stv_port":27036,"stv_name":"Uncletopia | Warsaw | 3 | All Maps | STV","players":[{"user_id":280,"name":"Michamya","steam_id":76561198116338844,"connected_time":621000000000,"state":"active","ping":73},{"user_id":270,"name":"purplecan","steam_id":76561199208283508,"connected_time":848000000000,"state":"active","ping":39},{"user_id":278,"name":"Matael","steam_id":76561198452200894,"connected_time":700000000000,"state":"active","ping":43},{"user_id":205,"name":"sa-d-nes","steam_id":76561198230182724,"connected_time":6110000000000,"state":"active","ping":86},{"user_id":290,"name":"H1DD3 gaming","steam_id":76561198855897385,"connected_time":291000000000,"state":"active","ping":93},{"user_id":236,"name":"T1 (ted1)","steam_id":76561199229022826,"connected_time":4093000000000,"state":"active","ping":118},{"user_id":279,"name":"Mata_FM11","steam_id":76561198044824504,"connected_time":643000000000,"state":"active","ping":75},{"user_id":291,"name":"NUT!!!!!!!!","steam_id":76561199104364015,"connected_time":192000000000,"state":"active","ping":72},{"user_id":272,"name":"Sotviing","steam_id":76561198154311159,"connected_time":820000000000,"state":"active","ping":101},{"user_id":283,"name":"LOBZIK","steam_id":76561198114830120,"connected_time":579000000000,"state":"active","ping":47},{"user_id":273,"name":"Blue","steam_id":76561198846880618,"connected_time":793000000000,"state":"active","ping":48},{"user_id":274,"name":"pepper","steam_id":76561198059782462,"connected_time":764000000000,"state":"active","ping":72},{"user_id":168,"name":"a fleet of maids","steam_id":76561198058012525,"connected_time":8167000000000,"state":"active","ping":99},{"user_id":255,"name":"the joy of recycling","steam_id":76561198415564349,"connected_time":3045000000000,"state":"active","ping":75},{"user_id":259,"name":"Mλrtino #savetf2","steam_id":76561198936164215,"connected_time":2691000000000,"state":"active","ping":72},{"user_id":287,"name":"juan","steam_id":76561199098499873,"connected_time":422000000000,"state":"active","ping":97},{"user_id":275,"name":"ricorno","steam_id":76561199441603388,"connected_time":763000000000,"state":"active","ping":68},{"user_id":276,"name":"ASAP","steam_id":76561198322078500,"connected_time":738000000000,"state":"active","ping":66},{"user_id":289,"name":"NALA","steam_id":76561198039806469,"connected_time":365000000000,"state":"active","ping":54},{"user_id":288,"name":"Spruitje","steam_id":76561198853729746,"connected_time":412000000000,"state":"active","ping":89},{"user_id":266,"name":"Edatz","steam_id":76561199322897765,"connected_time":1757000000000,"state":"active","ping":93},{"user_id":265,"name":"Aneťák","steam_id":76561198159294906,"connected_time":1890000000000,"state":"active","ping":60},{"user_id":257,"name":"sacha","steam_id":76561198098065932,"connected_time":2961000000000,"state":"active","ping":70}]},{"server_id":52,"name":"Uncletopia | Warsaw | 4 | All Maps","name_short":"waw-4","host":"waw-1.pl.uncletopia.com","port":27045,"enabled":true,"region":"eu","cc":"pl","latitude":52.2297,"longitude":21.017532,"reserved":0,"last_update":"0001-01-01T00:00:00Z","name_a2s":"Uncletopia | Warsaw | 4 | All Maps","protocol":17,"map":"pl_swiftwater_final1","folder":"tf","game":"Team Fortress","app_id":440,"player_count":0,"max_players":24,"Bots":0,"server_type":"Dedicated","server_os":"Linux","password":true,"vac":true,"version":"7757534","steam_id":85568392925397853,"keywords":["nocrits","nodmgspread","payload","uncletopia"],"game_id":440,"stv_port":27046,"stv_name":"Uncletopia | Warsaw | 4 | All Maps | STV","players":null},{"server_id":53,"name":"Uncletopia | Warsaw | 5 | Stopwatch Beta","name_short":"waw-5","host":"waw-1.pl.uncletopia.com","port":27055,"enabled":true,"region":"eu","cc":"pl","latitude":52.2297,"longitude":21.017532,"reserved":0,"last_update":"0001-01-01T00:00:00Z","name_a2s":"Uncletopia | Warsaw | 5 | Stopwatch Beta","protocol":17,"map":"cp_gullywash_final1","folder":"tf","game":"Team Fortress","app_id":440,"player_count":0,"max_players":24,"Bots":0,"server_type":"Dedicated","server_os":"Linux","password":true,"vac":true,"version":"7757534","steam_id":85568392925397854,"keywords":["cp","nocrits","nodmgspread","uncletopia"],"game_id":440,"stv_port":27056,"stv_name":"Uncletopia | Warsaw | 5 | Stopwatch Beta | STV","players":null},{"server_id":54,"name":"Uncletopia | Warsaw | 6 | Community","name_short":"waw-6","host":"waw-1.pl.uncletopia.com","port":27065,"enabled":true,"region":"eu","cc":"pl","latitude":52.2297,"longitude":21.017532,"reserved":0,"last_update":"0001-01-01T00:00:00Z","name_a2s":"Uncletopia | Warsaw | 6 | Community","protocol":17,"map":"workshop/pl_vigil_rc9.ugc1266210012","folder":"tf","game":"Team Fortress","app_id":440,"player_count":0,"max_players":24,"Bots":0,"server_type":"Dedicated","server_os":"Linux","password":true,"vac":true,"version":"7757534","steam_id":85568392925397856,"keywords":["nocrits","nodmgspread","payload","uncletopia"],"game_id":440,"stv_port":27066,"stv_name":"Uncletopia | Warsaw | 6 | Community | STV","players":null}]}