{"status":true,"message":"","result":[{"server_id":0,"name_short":"","name":"Uncletopia | Dallas | 4 | Community","host":"","port":0,"enabled":false,"region":"","cc":"","latitude":0,"longitude":0,"reserved":0,"last_update":"0001-01-01T00:00:00Z","protocol":17,"map":"pl_emerge_rc2","folder":"tf","game":"Team Fortress","app_id":440,"player_count":0,"max_players":24,"Bots":0,"server_type":"Dedicated","server_os":"Linux","password":true,"vac":true,"version":"7961495","steam_id":85568392924515220,"keywords":["nocrits","nodmgspread","payload","uncletopia"],"edicts":[779,2048],"game_id":440,"stv_port":27046,"stv_name":"Uncletopia | Dallas | 4 | Community | STV","players":null},{"server_id":0,"name_short":"","name":"Uncletopia | Seattle | 1 | All Maps","host":"","port":0,"enabled":false,"region":"","cc":"","latitude":0,"longitude":0,"reserved":0,"last_update":"0001-01-01T00:00:00Z","protocol":17,"map":"ctf_well","folder":"tf","game":"Team Fortress","app_id":440,"player_count":17,"max_players":24,"Bots":0,"server_type":"Dedicated","server_os":"Linux","password":true,"vac":true,"version":"7961495","steam_id":85568392924469997,"keywords":["ctf","nocrits","nodmgspread","uncletopia"],"edicts":[842,2048],"game_id":440,"stv_port":27016,"stv_name":"Uncletopia | Seattle | 1 | All Maps | STV","players":[{"user_id":829,"name":"Isovaleraldehyde","steam_id":76561198116389072,"connected_time":329000000000,"state":"active","ping":49},{"user_id":827,"name":"Smells","steam_id":76561197985297402,"connected_time":341000000000,"state":"active","ping":125},{"user_id":828,"name":"Puskinti","steam_id":76561198032120688,"connected_time":337000000000,"state":"active","ping":57},{"user_id":825,"name":"rat who can kickflip dot com","steam_id":76561198073620027,"connected_time":511000000000,"state":"active","ping":44},{"user_id":815,"name":"Sailor","steam_id":76561199081983517,"connected_time":1671000000000,"state":"active","ping":99},{"user_id":816,"name":"Necromeleon","steam_id":76561198209393060,"connected_time":1539000000000,"state":"active","ping":54},{"user_id":834,"name":"Sir Grey The Ranger","steam_id":76561198096235582,"connected_time":31000000000,"state":"active","ping":93},{"user_id":830,"name":"Dusk","steam_id":76561198088681558,"connected_time":323000000000,"state":"active","ping":46},{"user_id":831,"name":"nivek","steam_id":76561198056288107,"connected_time":163000000000,"state":"active","ping":45},{"user_id":832,"name":"Umbra","steam_id":76561198267752855,"connected_time":86000000000,"state":"active","ping":48},{"user_id":833,"name":"Spam The Alien","steam_id":76561199122290968,"connected_time":82000000000,"state":"active","ping":55},{"user_id":812,"name":"Villchip","steam_id":76561198198599982,"connected_time":2108000000000,"state":"active","ping":51},{"user_id":797,"name":"Ott-er","steam_id":76561198858227126,"connected_time":3312000000000,"state":"active","ping":101},{"user_id":818,"name":"Neon plush","steam_id":76561198435967167,"connected_time":1103000000000,"state":"active","ping":133},{"user_id":809,"name":"Smuck","steam_id":76561198342427583,"connected_time":2522000000000,"state":"active","ping":81},{"user_id":795,"name":"Finkly","steam_id":76561198049828110,"connected_time":3463000000000,"state":"active","ping":38},{"user_id":822,"name":"Engineer Gaming Live","steam_id":76561198045914603,"connected_time":874000000000,"state":"active","ping":70}]},{"server_id":0,"name_short":"","name":"Uncletopia | San Francisco | 4 | Community","host":"","port":0,"enabled":false,"region":"","cc":"","latitude":0,"longitude":0,"reserved":0,"last_update":"0001-01-01T00:00:00Z","protocol":17,"map":"rd_asteroid_redux_b1","folder":"tf","game":"Team Fortress","app_id":440,"player_count":0,"max_players":24,"Bots":0,"server_type":"Dedicated","server_os":"Linux","password":true,"vac":true,"version":"7961495","steam_id":85568392924742826,"keywords":["beta","nocrits","nodmgspread","rd","uncletopia"],"edicts":[932,2048],"game_id":440,"stv_port":27046,"stv_name":"Uncletopia | San Francisco | 4 | Community | STV","players":null},{"server_id":0,"name_short":"","name":"Uncletopia | Chicago | 6 | All Maps","host":"","port":0,"enabled":false,"region":"","cc":"","latitude":0,"longitude":0,"reserved":0,"last_update":"0001-01-01T00:00:00Z","protocol":17,"map":"cp_snakewater_final1","folder":"tf","game":"Team Fortress","app_id":440,"player_count":0,"max_players":24,"Bots":0,"server_type":"Dedicated","server_os":"Linux","password":true,"vac":true,"version":"7961495","steam_id":85568392924866363,"keywords":["cp","nocrits","nodmgspread","uncletopia"],"edicts":[634,2048],"game_id":440,"stv_port":27026,"stv_name":"Uncletopia | Chicago | 6 | All Maps | STV","players":null},{"server_id":0,"name_short":"","name":"Uncletopia | London | 5 | All Maps","host":"","port":0,"enabled":false,"region":"","cc":"","latitude":0,"longitude":0,"reserved":0,"last_update":"0001-01-01T00:00:00Z","protocol":17,"map":"koth_suijin","folder":"tf","game":"Team Fortress","app_id":440,"player_count":0,"max_players":24,"Bots":0,"server_type":"Dedicated","server_os":"Linux","password":true,"vac":true,"version":"7961495","steam_id":85568392924742829,"keywords":["cp","nocrits","nodmgspread","uncletopia"],"edicts":[421,2048],"game_id":440,"stv_port":27056,"stv_name":"Uncletopia | London | 5 | All Maps | STV","players":null},{"server_id":0,"name_short":"","name":"Uncletopia | Warsaw | 6 | Community","host":"","port":0,"enabled":false,"region":"","cc":"","latitude":0,"longitude":0,"reserved":0,"last_update":"0001-01-01T00:00:00Z","protocol":17,"map":"pl_highwood_b19","folder":"tf","game":"Team Fortress","app_id":440,"player_count":0,"max_players":24,"Bots":0,"server_type":"Dedicated","server_os":"Linux","password":true,"vac":true,"version":"7961495","steam_id":85568392925397856,"keywords":["nocrits","nodmgspread","payload","uncletopia"],"edicts":[709,2048],"game_id":440,"stv_port":27066,"stv_name":"Uncletopia | Warsaw | 6 | Community | STV","players":null},{"server_id":0,"name_short":"","name":"Uncletopia | Chicago | 4 | All Maps","host":"","port":0,"enabled":false,"region":"","cc":"","latitude":0,"longitude":0,"reserved":0,"last_update":"0001-01-01T00:00:00Z","protocol":17,"map":"pl_pier","folder":"tf","game":"Team Fortress","app_id":440,"player_count":0,"max_players":24,"Bots":0,"server_type":"Dedicated","server_os":"Linux","password":true,"vac":true,"version":"7961495","steam_id":85568392924515193,"keywords":["nocrits","nodmgspread","payload","uncletopia"],"edicts":[963,2048],"game_id":440,"stv_port":27046,"stv_name":"Uncletopia | Chicago | 4 | All Maps | STV","players":null},{"server_id":0,"name_short":"","name":"Uncletopia | London | 3 | All Maps","host":"","port":0,"enabled":false,"region":"","cc":"","latitude":0,"longitude":0,"reserved":0,"last_update":"0001-01-01T00:00:00Z","protocol":17,"map":"pl_snowycoast","folder":"tf","game":"Team Fortress","app_id":440,"player_count":24,"max_players":24,"Bots":0,"server_type":"Dedicated","server_os":"Linux","password":true,"vac":true,"version":"7961495","steam_id":85568392924510192,"keywords":["nocrits","nodmgspread","payload","uncletopia"],"edicts":[1204,2048],"game_id":440,"stv_port":27036,"stv_name":"Uncletopia | London | 3 | All Maps | STV","players":[{"user_id":77,"name":"hichem","steam_id":76561198056197307,"connected_time":494000000000,"state":"active","ping":59},{"user_id":35,"name":"akagami","steam_id":76561198277858041,"connected_time":2911000000000,"state":"active","ping":102},{"user_id":65,"name":"MG","steam_id":76561197992591715,"connected_time":1442000000000,"state":"active","ping":73},{"user_id":53,"name":"DrSquat","steam_id":76561199510928398,"connected_time":2003000000000,"state":"active","ping":108},{"user_id":36,"name":"Andreus","steam_id":76561199403926001,"connected_time":2846000000000,"state":"active","ping":78},{"user_id":48,"name":"Volodya","steam_id":76561198124484658,"connected_time":2454000000000,"state":"active","ping":128},{"user_id":69,"name":"Neimon","steam_id":76561198343485710,"connected_time":1139000000000,"state":"active","ping":129},{"user_id":38,"name":"CumbustiblePunda","steam_id":76561197974274677,"connected_time":2733000000000,"state":"active","ping":62},{"user_id":54,"name":"tealoverr.190","steam_id":76561199028497703,"connected_time":1929000000000,"state":"active","ping":101},{"user_id":76,"name":"Cristiano Ronaldo","steam_id":76561199094423561,"connected_time":609000000000,"state":"active","ping":102},{"user_id":40,"name":"Klockbox","steam_id":76561198029149530,"connected_time":2661000000000,"state":"active","ping":76},{"user_id":68,"name":"kirisame","steam_id":76561198273358760,"connected_time":1173000000000,"state":"active","ping":70},{"user_id":81,"name":"taffer","steam_id":76561199480942903,"connected_time":51000000000,"state":"active","ping":75},{"user_id":56,"name":"Andy","steam_id":76561198136364381,"connected_time":1857000000000,"state":"active","ping":65},{"user_id":70,"name":"Sakari","steam_id":76561197997811299,"connected_time":1113000000000,"state":"active","ping":65},{"user_id":47,"name":"epileptick1d","steam_id":76561198930498413,"connected_time":2567000000000,"state":"active","ping":121},{"user_id":62,"name":"eva","steam_id":76561198054474684,"connected_time":1636000000000,"state":"active","ping":84},{"user_id":73,"name":"medium rare chicken enjoyer","steam_id":76561198050214002,"connected_time":835000000000,"state":"active","ping":60},{"user_id":72,"name":"ツFreddYツ","steam_id":76561198018780925,"connected_time":924000000000,"state":"active","ping":70},{"user_id":60,"name":"Saint","steam_id":76561198003296382,"connected_time":1652000000000,"state":"active","ping":75},{"user_id":59,"name":"Usagi Alohaoe","steam_id":76561198981191925,"connected_time":1667000000000,"state":"active","ping":47},{"user_id":79,"name":"RandomName","steam_id":76561198055552108,"connected_time":295000000000,"state":"active","ping":62},{"user_id":63,"name":"I miss Vine","steam_id":76561197999590959,"connected_time":1629000000000,"state":"active","ping":61},{"user_id":80,"name":"Ebling Mis","steam_id":76561198977948250,"connected_time":249000000000,"state":"active","ping":68}]},{"server_id":0,"name_short":"","name":"Uncletopia | San Francisco | 1 | All Maps","host":"","port":0,"enabled":false,"region":"","cc":"","latitude":0,"longitude":0,"reserved":0,"last_update":"0001-01-01T00:00:00Z","protocol":17,"map":"pl_snowycoast","folder":"tf","game":"Team Fortress","app_id":440,"player_count":24,"max_players":24,"Bots":0,"server_type":"Dedicated","server_os":"Linux","password":true,"vac":true,"version":"7961495","steam_id":85568392924469999,"keywords":["nocrits","nodmgspread","payload","uncletopia"],"edicts":[1169,2048],"game_id":440,"stv_port":27016,"stv_name":"Uncletopia | San Francisco | 1 | All Maps | STV","players":[{"user_id":176,"name":"IfYouCantHelium_Barium","steam_id":76561198071247102,"connected_time":3986000000000,"state":"active","ping":114},{"user_id":217,"name":"zoinks","steam_id":76561198127238003,"connected_time":637000000000,"state":"active","ping":69},{"user_id":216,"name":"AzuriousAlex","steam_id":76561198158026405,"connected_time":655000000000,"state":"active","ping":80},{"user_id":211,"name":"Smol Zuzu","steam_id":76561198042446540,"connected_time":918000000000,"state":"active","ping":112},{"user_id":205,"name":"i need u","steam_id":76561198030625151,"connected_time":1463000000000,"state":"active","ping":36},{"user_id":218,"name":"A Pose Scout","steam_id":76561199497004065,"connected_time":629000000000,"state":"active","ping":66},{"user_id":210,"name":"Johnbug1","steam_id":76561198066898527,"connected_time":951000000000,"state":"active","ping":106},{"user_id":212,"name":"PBxJAY","steam_id":76561198402471788,"connected_time":882000000000,"state":"active","ping":83},{"user_id":199,"name":"xdddddddddddddddddddddddddddd","steam_id":76561198842909288,"connected_time":2217000000000,"state":"active","ping":110},{"user_id":201,"name":"moe","steam_id":76561198929586245,"connected_time":2143000000000,"state":"active","ping":55},{"user_id":213,"name":"Sheep","steam_id":76561198161218914,"connected_time":854000000000,"state":"active","ping":44},{"user_id":190,"name":"x","steam_id":76561198359634841,"connected_time":2911000000000,"state":"active","ping":50},{"user_id":165,"name":"❤IDare","steam_id":76561198354655896,"connected_time":4295000000000,"state":"active","ping":58},{"user_id":221,"name":"TimeSnake","steam_id":76561198052098233,"connected_time":580000000000,"state":"active","ping":45},{"user_id":220,"name":"Russell","steam_id":76561198024159373,"connected_time":602000000000,"state":"active","ping":116},{"user_id":175,"name":"Factatac","steam_id":76561198176041003,"connected_time":4061000000000,"state":"active","ping":67},{"user_id":180,"name":"short bus enthusiast","steam_id":76561198069380992,"connected_time":3621000000000,"state":"active","ping":93},{"user_id":186,"name":"dax","steam_id":76561198045335319,"connected_time":3434000000000,"state":"active","ping":121},{"user_id":206,"name":"木狐","steam_id":76561197998622583,"connected_time":1334000000000,"state":"active","ping":118},{"user_id":222,"name":"calliecat","steam_id":76561198131833567,"connected_time":579000000000,"state":"active","ping":62},{"user_id":224,"name":"delight","steam_id":76561197980280272,"connected_time":240000000000,"state":"active","ping":63},{"user_id":223,"name":"Real Neanderthal Shit","steam_id":76561198086991324,"connected_time":344000000000,"state":"active","ping":113},{"user_id":188,"name":"halcyon019","steam_id":76561199339323468,"connected_time":3389000000000,"state":"active","ping":61},{"user_id":149,"name":"dodecadron","steam_id":76561198027397222,"connected_time":6106000000000,"state":"active","ping":90}]},{"server_id":0,"name_short":"","name":"Uncletopia | Frankfurt | 2 | All Maps","host":"","port":0,"enabled":false,"region":"","cc":"","latitude":0,"longitude":0,"reserved":0,"last_update":"0001-01-01T00:00:00Z","protocol":17,"map":"cp_mountainlab","folder":"tf","game":"Team Fortress","app_id":440,"player_count":0,"max_players":24,"Bots":0,"server_type":"Dedicated","server_os":"Linux","password":true,"vac":true,"version":"7961495","steam_id":85568392924469990,"keywords":["cp","nocrits","nodmgspread","uncletopia"],"edicts":[534,2048],"game_id":440,"stv_port":27026,"stv_name":"Uncletopia | Frankfurt | 2 | All Maps | STV","players":null},{"server_id":0,"name_short":"","name":"Uncletopia | Los Angeles | 2 | All Maps","host":"","port":0,"enabled":false,"region":"","cc":"","latitude":0,"longitude":0,"reserved":0,"last_update":"0001-01-01T00:00:00Z","protocol":17,"map":"koth_lazarus","folder":"tf","game":"Team Fortress","app_id":440,"player_count":0,"max_players":24,"Bots":0,"server_type":"Dedicated","server_os":"Linux","password":true,"vac":true,"version":"7961495","steam_id":85568392924469992,"keywords":["cp","nocrits","nodmgspread","uncletopia"],"edicts":[863,2048],"game_id":440,"stv_port":27026,"stv_name":"Uncletopia | Los Angeles | 2 | All Maps | STV","players":null},{"server_id":0,"name_short":"","name":"Uncletopia | Chicago | 1 | All Maps","host":"","port":0,"enabled":false,"region":"","cc":"","latitude":0,"longitude":0,"reserved":0,"last_update":"0001-01-01T00:00:00Z","protocol":17,"map":"pl_swiftwater_final1","folder":"tf","game":"Team Fortress","app_id":440,"player_count":24,"max_players":24,"Bots":0,"server_type":"Dedicated","server_os":"Linux","password":true,"vac":true,"version":"7961495","steam_id":85568392924469984,"keywords":["nocrits","nodmgspread","payload","uncletopia"],"edicts":[1186,2048],"game_id":440,"stv_port":27016,"stv_name":"Uncletopia | Chicago | 1 | All Maps | STV","players":[{"user_id":834,"name":"Kritzburgh","steam_id":76561198149466938,"connected_time":3417000000000,"state":"active","ping":60},{"user_id":772,"name":"zpalmtree","steam_id":76561198134307620,"connected_time":9108000000000,"state":"active","ping":74},{"user_id":815,"name":"OKLOLOM3","steam_id":76561199151881507,"connected_time":5333000000000,"state":"active","ping":50},{"user_id":843,"name":"JustGavan","steam_id":76561198042260171,"connected_time":2730000000000,"state":"active","ping":90},{"user_id":857,"name":"sqnguine","steam_id":76561199481839224,"connected_time":1225000000000,"state":"active","ping":97},{"user_id":814,"name":"subdromeda","steam_id":76561198884351860,"connected_time":5734000000000,"state":"active","ping":66},{"user_id":827,"name":"Hamlindigo Blue™","steam_id":76561198116337540,"connected_time":4173000000000,"state":"active","ping":88},{"user_id":855,"name":"Im High","steam_id":76561198049954886,"connected_time":1304000000000,"state":"active","ping":72},{"user_id":863,"name":"DrScotthew","steam_id":76561198250558482,"connected_time":363000000000,"state":"active","ping":78},{"user_id":854,"name":"Richard","steam_id":76561198044115685,"connected_time":1313000000000,"state":"active","ping":59},{"user_id":866,"name":"Spruce","steam_id":76561198081684676,"connected_time":98000000000,"state":"active","ping":121},{"user_id":862,"name":"Weird Round","steam_id":76561197969205852,"connected_time":374000000000,"state":"active","ping":76},{"user_id":865,"name":"todd howard (real)","steam_id":76561198046650995,"connected_time":312000000000,"state":"active","ping":91},{"user_id":838,"name":"Fredorando","steam_id":76561198242546842,"connected_time":2942000000000,"state":"active","ping":71},{"user_id":792,"name":"Backshot Insurrectionist","steam_id":76561198067176829,"connected_time":6789000000000,"state":"active","ping":110},{"user_id":849,"name":"Bo-dee (she/they)","steam_id":76561198103230995,"connected_time":1836000000000,"state":"active","ping":85},{"user_id":850,"name":"ToroKe","steam_id":76561198078873266,"connected_time":1824000000000,"state":"active","ping":138},{"user_id":830,"name":"Rambly Dambly","steam_id":76561198844496567,"connected_time":3845000000000,"state":"active","ping":56},{"user_id":851,"name":"Artic_Ryuu","steam_id":76561198182194918,"connected_time":1501000000000,"state":"active","ping":98},{"user_id":858,"name":"❤[S'more]❤","steam_id":76561198817361963,"connected_time":1220000000000,"state":"active","ping":106},{"user_id":864,"name":"pizza rat","steam_id":76561198044874072,"connected_time":349000000000,"state":"active","ping":55},{"user_id":841,"name":"ryann","steam_id":76561198042996639,"connected_time":2750000000000,"state":"active","ping":106},{"user_id":761,"name":"shitass | pride \u003c3","steam_id":76561198210572481,"connected_time":10506000000000,"state":"active","ping":81},{"user_id":861,"name":"gayandhigh","steam_id":76561199483951635,"connected_time":379000000000,"state":"active","ping":96}]},{"server_id":0,"name_short":"","name":"Uncletopia | Atlanta | 3 | Stopwatch","host":"","port":0,"enabled":false,"region":"","cc":"","latitude":0,"longitude":0,"reserved":0,"last_update":"0001-01-01T00:00:00Z","protocol":17,"map":"pl_badwater_pro_v12","folder":"tf","game":"Team Fortress","app_id":440,"player_count":0,"max_players":24,"Bots":0,"server_type":"Dedicated","server_os":"Linux","password":true,"vac":true,"version":"7961495","steam_id":85568392924515187,"keywords":["nocrits","nodmgspread","payload","uncletopia"],"edicts":[713,2048],"game_id":440,"stv_port":27036,"stv_name":"Uncletopia | Atlanta | 3 | Stopwatch | STV","players":null},{"server_id":0,"name_short":"","name":"Uncletopia | Frankfurt | 4 | All Maps","host":"","port":0,"enabled":false,"region":"","cc":"","latitude":0,"longitude":0,"reserved":0,"last_update":"0001-01-01T00:00:00Z","protocol":17,"map":"koth_lakeside_final","folder":"tf","game":"Team Fortress","app_id":440,"player_count":0,"max_players":24,"Bots":0,"server_type":"Dedicated","server_os":"Linux","password":true,"vac":true,"version":"7961495","steam_id":85568392924504275,"keywords":["cp","nocrits","nodmgspread","uncletopia"],"edicts":[301,2048],"game_id":440,"stv_port":27046,"stv_name":"Uncletopia | Frankfurt | 4 | All Maps | STV","players":null},{"server_id":0,"name_short":"","name":"Uncletopia | Warsaw | 1 | One Thousand Uncles","host":"","port":0,"enabled":false,"region":"","cc":"","latitude":0,"longitude":0,"reserved":0,"last_update":"0001-01-01T00:00:00Z","protocol":17,"map":"pl_pier","folder":"tf","game":"Team Fortress","app_id":440,"player_count":0,"max_players":32,"Bots":0,"server_type":"Dedicated","server_os":"Linux","password":true,"vac":true,"version":"7961495","steam_id":85568392925397850,"keywords":["alltalk","danepve","increased_maxplayers","norespawntime","payload","uncletopia"],"edicts":[962,2048],"game_id":440,"stv_port":0,"stv_name":"","players":null},{"server_id":0,"name_short":"","name":"Uncletopia | Sydney | 1 | All Maps","host":"","port":0,"enabled":false,"region":"","cc":"","latitude":0,"longitude":0,"reserved":0,"last_update":"0001-01-01T00:00:00Z","protocol":17,"map":"cp_altitude","folder":"tf","game":"Team Fortress","app_id":440,"player_count":4,"max_players":24,"Bots":0,"server_type":"Dedicated","server_os":"Linux","password":true,"vac":true,"version":"7961495","steam_id":85568392924470001,"keywords":["cp","nocrits","nodmgspread","uncletopia"],"edicts":[570,2048],"game_id":440,"stv_port":27016,"stv_name":"Uncletopia | Sydney | 1 | All Maps | STV","players":[{"user_id":30,"name":"Lucky Pineapple","steam_id":76561198880143328,"connected_time":2761000000000,"state":"active","ping":103},{"user_id":47,"name":"Avary","steam_id":76561198055331445,"connected_time":1055000000000,"state":"active","ping":58},{"user_id":40,"name":"Oblivious blob","steam_id":76561198141673936,"connected_time":1979000000000,"state":"active","ping":76},{"user_id":41,"name":"Lambert","steam_id":76561198860155814,"connected_time":1726000000000,"state":"active","ping":83}]},{"server_id":0,"name_short":"","name":"Uncletopia | Chicago | 7 | Stopwatch","host":"","port":0,"enabled":false,"region":"","cc":"","latitude":0,"longitude":0,"reserved":0,"last_update":"0001-01-01T00:00:00Z","protocol":17,"map":"koth_lakeside_final","folder":"tf","game":"Team Fortress","app_id":440,"player_count":0,"max_players":24,"Bots":0,"server_type":"Dedicated","server_os":"Linux","password":true,"vac":true,"version":"7961495","steam_id":85568392924866364,"keywords":["cp","nocrits","nodmgspread","uncletopia"],"edicts":[304,2048],"game_id":440,"stv_port":27036,"stv_name":"Uncletopia | Chicago | 7 | Stopwatch | STV","players":null},{"server_id":0,"name_short":"","name":"Uncletopia | Warsaw | 5 | Stopwatch","host":"","port":0,"enabled":false,"region":"","cc":"","latitude":0,"longitude":0,"reserved":0,"last_update":"0001-01-01T00:00:00Z","protocol":17,"map":"koth_clearcut_b15","folder":"tf","game":"Team Fortress","app_id":440,"player_count":0,"max_players":24,"Bots":0,"server_type":"Dedicated","server_os":"Linux","password":true,"vac":true,"version":"7961495","steam_id":85568392925397854,"keywords":["cp","nocrits","nodmgspread","uncletopia"],"edicts":[445,2048],"game_id":440,"stv_port":27056,"stv_name":"Uncletopia | Warsaw | 5 | Stopwatch | STV","players":null},{"server_id":0,"name_short":"","name":"Uncletopia | Sydney | 2 | All Maps","host":"","port":0,"enabled":false,"region":"","cc":"","latitude":0,"longitude":0,"reserved":0,"last_update":"0001-01-01T00:00:00Z","protocol":17,"map":"cp_snakewater_final1","folder":"tf","game":"Team Fortress","app_id":440,"player_count":24,"max_players":24,"Bots":0,"server_type":"Dedicated","server_os":"Linux","password":true,"vac":true,"version":"7961495","steam_id":85568392924470002,"keywords":["cp","nocrits","nodmgspread","uncletopia"],"edicts":[941,2048],"game_id":440,"stv_port":27026,"stv_name":"Uncletopia | Sydney | 2 | All Maps | STV","players":[{"user_id":59,"name":"precious.","steam_id":76561198054804209,"connected_time":3544000000000,"state":"active","ping":81},{"user_id":65,"name":"COLLINSct","steam_id":76561198045395403,"connected_time":2867000000000,"state":"active","ping":57},{"user_id":85,"name":"michael","steam_id":76561198052848358,"connected_time":478000000000,"state":"active","ping":67},{"user_id":22,"name":"Chemist Warehouse","steam_id":76561198105156291,"connected_time":6692000000000,"state":"active","ping":68},{"user_id":23,"name":"--{Lemon}--","steam_id":76561198029267274,"connected_time":6480000000000,"state":"active","ping":50},{"user_id":84,"name":"qpekejdj","steam_id":76561198933010635,"connected_time":536000000000,"state":"active","ping":44},{"user_id":73,"name":"Elusive","steam_id":76561198038663307,"connected_time":1770000000000,"state":"active","ping":66},{"user_id":94,"name":"ZealotRainn","steam_id":76561198230363464,"connected_time":83000000000,"state":"active","ping":101},{"user_id":86,"name":"Dot","steam_id":76561198064534661,"connected_time":426000000000,"state":"active","ping":54},{"user_id":87,"name":"society for no more society","steam_id":76561198058459622,"connected_time":416000000000,"state":"active","ping":63},{"user_id":58,"name":"FROYO weezer","steam_id":76561199439508788,"connected_time":3671000000000,"state":"active","ping":67},{"user_id":74,"name":"jager","steam_id":76561198009812709,"connected_time":1698000000000,"state":"active","ping":35},{"user_id":79,"name":"Pompadouraus","steam_id":76561198327530525,"connected_time":927000000000,"state":"active","ping":75},{"user_id":60,"name":"good morning","steam_id":76561198895690844,"connected_time":3260000000000,"state":"active","ping":59},{"user_id":41,"name":"Matocake","steam_id":76561198068564316,"connected_time":4823000000000,"state":"active","ping":52},{"user_id":56,"name":"Courier","steam_id":76561198080981482,"connected_time":3956000000000,"state":"active","ping":35},{"user_id":88,"name":"Lando","steam_id":76561198285324017,"connected_time":405000000000,"state":"active","ping":89},{"user_id":89,"name":"michaelterrance@hotmail.com.au","steam_id":76561198137335569,"connected_time":358000000000,"state":"active","ping":58},{"user_id":71,"name":"(1)Macca","steam_id":76561198010207998,"connected_time":2166000000000,"state":"active","ping":59},{"user_id":91,"name":"Daddys Little Cvmslvt Princess","steam_id":76561198152210509,"connected_time":288000000000,"state":"active","ping":35},{"user_id":93,"name":"encre","steam_id":76561198025340290,"connected_time":113000000000,"state":"active","ping":60},{"user_id":72,"name":"lavanderpumpernickle","steam_id":76561199093611800,"connected_time":1988000000000,"state":"active","ping":111},{"user_id":77,"name":"sav","steam_id":76561198058760041,"connected_time":1384000000000,"state":"active","ping":75},{"user_id":63,"name":"sf/k","steam_id":76561198047758776,"connected_time":3104000000000,"state":"active","ping":45}]},{"server_id":0,"name_short":"","name":"Uncletopia | San Francisco | 3 | Stopwatch","host":"","port":0,"enabled":false,"region":"","cc":"","latitude":0,"longitude":0,"reserved":0,"last_update":"0001-01-01T00:00:00Z","protocol":17,"map":"pl_vigil_rc10","folder":"tf","game":"Team Fortress","app_id":440,"player_count":0,"max_players":24,"Bots":0,"server_type":"Dedicated","server_os":"Linux","password":true,"vac":true,"version":"7961495","steam_id":85568392924742824,"keywords":["nocrits","nodmgspread","payload","uncletopia"],"edicts":[960,2048],"game_id":440,"stv_port":27036,"stv_name":"Uncletopia | San Francisco | 3 | Stopwatch | STV","players":null},{"server_id":0,"name_short":"","name":"Uncletopia | Frankfurt | 1 | All Maps","host":"","port":0,"enabled":false,"region":"","cc":"","latitude":0,"longitude":0,"reserved":0,"last_update":"0001-01-01T00:00:00Z","protocol":17,"map":"cp_snakewater_final1","folder":"tf","game":"Team Fortress","app_id":440,"player_count":0,"max_players":24,"Bots":0,"server_type":"Dedicated","server_os":"Linux","password":true,"vac":true,"version":"7961495","steam_id":85568392924469989,"keywords":["cp","nocrits","nodmgspread","uncletopia"],"edicts":[634,2048],"game_id":440,"stv_port":27016,"stv_name":"Uncletopia | Frankfurt | 1 | All Maps | STV","players":null},{"server_id":0,"name_short":"","name":"Uncletopia | New York City | 4 | Community","host":"","port":0,"enabled":false,"region":"","cc":"","latitude":0,"longitude":0,"reserved":0,"last_update":"0001-01-01T00:00:00Z","protocol":17,"map":"cp_villa_b19","folder":"tf","game":"Team Fortress","app_id":440,"player_count":0,"max_players":24,"Bots":0,"server_type":"Dedicated","server_os":"Linux","password":true,"vac":true,"version":"7961495","steam_id":85568392924742821,"keywords":["cp","nocrits","nodmgspread","uncletopia"],"edicts":[441,2048],"game_id":440,"stv_port":27046,"stv_name":"Uncletopia | New York City | 4 | Community | STV","players":null},{"server_id":0,"name_short":"","name":"Uncletopia | Sydney | 5 | Stopwatch","host":"","port":0,"enabled":false,"region":"","cc":"","latitude":0,"longitude":0,"reserved":0,"last_update":"0001-01-01T00:00:00Z","protocol":17,"map":"koth_product_final","folder":"tf","game":"Team Fortress","app_id":440,"player_count":1,"max_players":24,"Bots":0,"server_type":"Dedicated","server_os":"Linux","password":true,"vac":true,"version":"7961495","steam_id":85568392925397959,"keywords":["cp","nocrits","nodmgspread","uncletopia"],"edicts":[355,2048],"game_id":440,"stv_port":27056,"stv_name":"Uncletopia | Sydney | 5 | Stopwatch | STV","players":[{"user_id":4,"name":"Verity","steam_id":76561198994304595,"connected_time":33000000000,"state":"spawning","ping":855}]},{"server_id":0,"name_short":"","name":"Uncletopia | Frankfurt | 8 | Community","host":"","port":0,"enabled":false,"region":"","cc":"","latitude":0,"longitude":0,"reserved":0,"last_update":"0001-01-01T00:00:00Z","protocol":17,"map":"pl_stallberg_rc3","folder":"tf","game":"Team Fortress","app_id":440,"player_count":0,"max_players":24,"Bots":0,"server_type":"Dedicated","server_os":"Linux","password":true,"vac":true,"version":"7961495","steam_id":85568392924742828,"keywords":["nocrits","nodmgspread","payload","uncletopia"],"edicts":[602,2048],"game_id":440,"stv_port":27086,"stv_name":"Uncletopia | Frankfurt | 8 | Community | STV","players":null},{"server_id":0,"name_short":"","name":"Uncletopia | London | 4 | All Maps","host":"","port":0,"enabled":false,"region":"","cc":"","latitude":0,"longitude":0,"reserved":0,"last_update":"0001-01-01T00:00:00Z","protocol":17,"map":"cp_dustbowl","folder":"tf","game":"Team Fortress","app_id":440,"player_count":0,"max_players":24,"Bots":0,"server_type":"Dedicated","server_os":"Linux","password":true,"vac":true,"version":"7961495","steam_id":85568392924510193,"keywords":["cp","nocrits","nodmgspread","uncletopia"],"edicts":[741,2048],"game_id":440,"stv_port":27046,"stv_name":"Uncletopia | London | 4 | All Maps | STV","players":null},{"server_id":0,"name_short":"","name":"Uncletopia | Frankfurt | 5 | All Maps","host":"","port":0,"enabled":false,"region":"","cc":"","latitude":0,"longitude":0,"reserved":0,"last_update":"0001-01-01T00:00:00Z","protocol":17,"map":"ctf_landfall","folder":"tf","game":"Team Fortress","app_id":440,"player_count":0,"max_players":24,"Bots":0,"server_type":"Dedicated","server_os":"Linux","password":true,"vac":true,"version":"7961495","steam_id":85568392924504277,"keywords":["ctf","nocrits","nodmgspread","uncletopia"],"edicts":[522,2048],"game_id":440,"stv_port":27056,"stv_name":"Uncletopia | Frankfurt | 5 | All Maps | STV","players":null},{"server_id":0,"name_short":"","name":"Uncletopia | Sydney | 6 | Community","host":"","port":0,"enabled":false,"region":"","cc":"","latitude":0,"longitude":0,"reserved":0,"last_update":"0001-01-01T00:00:00Z","protocol":17,"map":"koth_soot_final1","folder":"tf","game":"Team Fortress","app_id":440,"player_count":0,"max_players":24,"Bots":0,"server_type":"Dedicated","server_os":"Linux","password":true,"vac":true,"version":"7961495","steam_id":85568392925397960,"keywords":["cp","nocrits","nodmgspread","uncletopia"],"edicts":[240,2048],"game_id":440,"stv_port":27066,"stv_name":"Uncletopia | Sydney | 6 | Community | STV","players":null},{"server_id":0,"name_short":"","name":"Uncletopia | Sydney | 4 | All Maps","host":"","port":0,"enabled":false,"region":"","cc":"","latitude":0,"longitude":0,"reserved":0,"last_update":"0001-01-01T00:00:00Z","protocol":17,"map":"koth_viaduct","folder":"tf","game":"Team Fortress","app_id":440,"player_count":3,"max_players":24,"Bots":0,"server_type":"Dedicated","server_os":"Linux","password":true,"vac":true,"version":"7961495","steam_id":85568392925397958,"keywords":["cp","nocrits","nodmgspread","uncletopia"],"edicts":[244,2048],"game_id":440,"stv_port":27046,"stv_name":"Uncletopia | Sydney | 4 | All Maps | STV","players":[{"user_id":3,"name":"XBER_Bonzy","steam_id":76561199085020605,"connected_time":1690000000000,"state":"active","ping":56},{"user_id":4,"name":"xbdgerxferyfne","steam_id":76561199217980387,"connected_time":1673000000000,"state":"active","ping":81},{"user_id":5,"name":"xeien","steam_id":76561198172463182,"connected_time":98000000000,"state":"active","ping":91}]},{"server_id":0,"name_short":"","name":"Uncletopia | New York City | 3 | Stopwatch","host":"","port":0,"enabled":false,"region":"","cc":"","latitude":0,"longitude":0,"reserved":0,"last_update":"0001-01-01T00:00:00Z","protocol":17,"map":"koth_product_final","folder":"tf","game":"Team Fortress","app_id":440,"player_count":0,"max_players":24,"Bots":0,"server_type":"Dedicated","server_os":"Linux","password":true,"vac":true,"version":"7961495","steam_id":85568392924742820,"keywords":["cp","nocrits","nodmgspread","uncletopia"],"edicts":[352,2048],"game_id":440,"stv_port":27036,"stv_name":"Uncletopia | New York City | 3 | Stopwatch | STV","players":null},{"server_id":0,"name_short":"","name":"Uncletopia | Chicago | 3 | All Maps","host":"","port":0,"enabled":false,"region":"","cc":"","latitude":0,"longitude":0,"reserved":0,"last_update":"0001-01-01T00:00:00Z","protocol":17,"map":"pl_thundermountain","folder":"tf","game":"Team Fortress","app_id":440,"player_count":0,"max_players":24,"Bots":0,"server_type":"Dedicated","server_os":"Linux","password":true,"vac":true,"version":"7961495","steam_id":85568392924515191,"keywords":["nocrits","nodmgspread","payload","uncletopia"],"edicts":[1070,2048],"game_id":440,"stv_port":27036,"stv_name":"Uncletopia | Chicago | 3 | All Maps | STV","players":null},{"server_id":0,"name_short":"","name":"Uncletopia | Chicago | 2 | All Maps","host":"","port":0,"enabled":false,"region":"","cc":"","latitude":0,"longitude":0,"reserved":0,"last_update":"0001-01-01T00:00:00Z","protocol":17,"map":"cp_altitude","folder":"tf","game":"Team Fortress","app_id":440,"player_count":0,"max_players":24,"Bots":0,"server_type":"Dedicated","server_os":"Linux","password":true,"vac":true,"version":"7961495","steam_id":85568392924469985,"keywords":["cp","nocrits","nodmgspread","uncletopia"],"edicts":[499,2048],"game_id":440,"stv_port":27026,"stv_name":"Uncletopia | Chicago | 2 | All Maps | STV","players":null},{"server_id":0,"name_short":"","name":"Uncletopia | Montréal | 1 | One Thousand Uncles","host":"","port":0,"enabled":false,"region":"","cc":"","latitude":0,"longitude":0,"reserved":0,"last_update":"0001-01-01T00:00:00Z","protocol":17,"map":"pl_goldrush","folder":"tf","game":"Team Fortress","app_id":440,"player_count":0,"max_players":32,"Bots":0,"server_type":"Dedicated","server_os":"Linux","password":true,"vac":true,"version":"7961495","steam_id":85568392924500087,"keywords":["alltalk","danepve","increased_maxplayers","norespawntime","payload","uncletopia"],"edicts":[1133,2048],"game_id":440,"stv_port":0,"stv_name":"","players":null},{"server_id":0,"name_short":"","name":"Uncletopia | Dallas | 3 | All Maps","host":"","port":0,"enabled":false,"region":"","cc":"","latitude":0,"longitude":0,"reserved":0,"last_update":"0001-01-01T00:00:00Z","protocol":17,"map":"koth_viaduct","folder":"tf","game":"Team Fortress","app_id":440,"player_count":0,"max_players":24,"Bots":0,"server_type":"Dedicated","server_os":"Linux","password":true,"vac":true,"version":"7961495","steam_id":85568392924515219,"keywords":["cp","nocrits","nodmgspread","uncletopia"],"edicts":[218,2048],"game_id":440,"stv_port":27036,"stv_name":"Uncletopia | Dallas | 3 | All Maps | STV","players":null},{"server_id":0,"name_short":"","name":"Uncletopia | Los Angeles | 4 | Stopwatch","host":"","port":0,"enabled":false,"region":"","cc":"","latitude":0,"longitude":0,"reserved":0,"last_update":"0001-01-01T00:00:00Z","protocol":17,"map":"cp_metalworks","folder":"tf","game":"Team Fortress","app_id":440,"player_count":0,"max_players":24,"Bots":0,"server_type":"Dedicated","server_os":"Linux","password":true,"vac":true,"version":"7961495","steam_id":85568392924510199,"keywords":["cp","nocrits","nodmgspread","uncletopia"],"edicts":[461,2048],"game_id":440,"stv_port":27046,"stv_name":"Uncletopia | Los Angeles | 4 | Stopwatch | STV","players":null},{"server_id":0,"name_short":"","name":"Uncletopia | San Francisco | 2 | All Maps","host":"","port":0,"enabled":false,"region":"","cc":"","latitude":0,"longitude":0,"reserved":0,"last_update":"0001-01-01T00:00:00Z","protocol":17,"map":"cp_mountainlab","folder":"tf","game":"Team Fortress","app_id":440,"player_count":0,"max_players":24,"Bots":0,"server_type":"Dedicated","server_os":"Linux","password":true,"vac":true,"version":"7961495","steam_id":85568392924470000,"keywords":["cp","nocrits","nodmgspread","uncletopia"],"edicts":[534,2048],"game_id":440,"stv_port":27026,"stv_name":"Uncletopia | San Francisco | 2 | All Maps | STV","players":null},{"server_id":0,"name_short":"","name":"Uncletopia | Warsaw | 3 | All Maps","host":"","port":0,"enabled":false,"region":"","cc":"","latitude":0,"longitude":0,"reserved":0,"last_update":"0001-01-01T00:00:00Z","protocol":17,"map":"pl_barnblitz","folder":"tf","game":"Team Fortress","app_id":440,"player_count":0,"max_players":24,"Bots":0,"server_type":"Dedicated","server_os":"Linux","password":true,"vac":true,"version":"7961495","steam_id":85568392925397852,"keywords":["nocrits","nodmgspread","payload","uncletopia"],"edicts":[805,2048],"game_id":440,"stv_port":27036,"stv_name":"Uncletopia | Warsaw | 3 | All Maps | STV","players":null},{"server_id":0,"name_short":"","name":"Uncletopia | Sydney | 3 | All Maps","host":"","port":0,"enabled":false,"region":"","cc":"","latitude":0,"longitude":0,"reserved":0,"last_update":"0001-01-01T00:00:00Z","protocol":17,"map":"koth_brazil","folder":"tf","game":"Team Fortress","app_id":440,"player_count":0,"max_players":24,"Bots":0,"server_type":"Dedicated","server_os":"Linux","password":true,"vac":true,"version":"7961495","steam_id":85568392925194467,"keywords":["cp","nocrits","nodmgspread","uncletopia"],"edicts":[417,2048],"game_id":440,"stv_port":27036,"stv_name":"Uncletopia | Sydney | 3 | All Maps | STV","players":null},{"server_id":0,"name_short":"","name":"Uncletopia | New York City | 2 | All Maps","host":"","port":0,"enabled":false,"region":"","cc":"","latitude":0,"longitude":0,"reserved":0,"last_update":"0001-01-01T00:00:00Z","protocol":17,"map":"cp_mountainlab","folder":"tf","game":"Team Fortress","app_id":440,"player_count":0,"max_players":24,"Bots":0,"server_type":"Dedicated","server_os":"Linux","password":true,"vac":true,"version":"7961495","steam_id":85568392924469994,"keywords":["cp","nocrits","nodmgspread","uncletopia"],"edicts":[534,2048],"game_id":440,"stv_port":27026,"stv_name":"Uncletopia | New York City | 2 | All Maps | STV","players":null},{"server_id":0,"name_short":"","name":"Uncletopia | Seattle | 3 | Stopwatch","host":"","port":0,"enabled":false,"region":"","cc":"","latitude":0,"longitude":0,"reserved":0,"last_update":"0001-01-01T00:00:00Z","protocol":17,"map":"koth_product_final","folder":"tf","game":"Team Fortress","app_id":440,"player_count":0,"max_players":24,"Bots":0,"server_type":"Dedicated","server_os":"Linux","password":true,"vac":true,"version":"7961495","steam_id":85568392924515217,"keywords":["cp","nocrits","nodmgspread","uncletopia"],"edicts":[354,2048],"game_id":440,"stv_port":27036,"stv_name":"Uncletopia | Seattle | 3 | Stopwatch | STV","players":null},{"server_id":0,"name_short":"","name":"Uncletopia | London | 6 | All Maps","host":"","port":0,"enabled":false,"region":"","cc":"","latitude":0,"longitude":0,"reserved":0,"last_update":"0001-01-01T00:00:00Z","protocol":17,"map":"pl_frontier_final","folder":"tf","game":"Team Fortress","app_id":440,"player_count":0,"max_players":24,"Bots":0,"server_type":"Dedicated","server_os":"Linux","password":true,"vac":true,"version":"7961495","steam_id":85568392924742830,"keywords":["nocrits","nodmgspread","payload","uncletopia"],"edicts":[744,2048],"game_id":440,"stv_port":27066,"stv_name":"Uncletopia | London | 6 | All Maps | STV","players":null},{"server_id":0,"name_short":"","name":"Uncletopia | London | 8 | Community","host":"","port":0,"enabled":false,"region":"","cc":"","latitude":0,"longitude":0,"reserved":0,"last_update":"0001-01-01T00:00:00Z","protocol":17,"map":"cp_propaganda_b18","folder":"tf","game":"Team Fortress","app_id":440,"player_count":0,"max_players":24,"Bots":0,"server_type":"Dedicated","server_os":"Linux","password":true,"vac":true,"version":"7961495","steam_id":85568392924964315,"keywords":["cp","nocrits","nodmgspread","uncletopia"],"edicts":[412,2048],"game_id":440,"stv_port":27086,"stv_name":"Uncletopia | London | 8 | Community | STV","players":null},{"server_id":0,"name_short":"","name":"Uncletopia | London | 1 | All Maps","host":"","port":0,"enabled":false,"region":"","cc":"","latitude":0,"longitude":0,"reserved":0,"last_update":"0001-01-01T00:00:00Z","protocol":17,"map":"cp_snakewater_final1","folder":"tf","game":"Team Fortress","app_id":440,"player_count":7,"max_players":24,"Bots":0,"server_type":"Dedicated","server_os":"Linux","password":true,"vac":true,"version":"7961495","steam_id":85568392924367362,"keywords":["cp","nocrits","nodmgspread","uncletopia"],"edicts":[721,2048],"game_id":440,"stv_port":27016,"stv_name":"Uncletopia | London | 1 | All Maps | STV","players":[{"user_id":3,"name":"Milca_11","steam_id":76561198848650365,"connected_time":3658000000000,"state":"active","ping":66},{"user_id":15,"name":"xanderomeister","steam_id":76561198882550389,"connected_time":292000000000,"state":"active","ping":63},{"user_id":10,"name":"Penis Gaming","steam_id":76561199198623988,"connected_time":2341000000000,"state":"active","ping":45},{"user_id":12,"name":"vi","steam_id":76561198303147966,"connected_time":1175000000000,"state":"active","ping":44},{"user_id":13,"name":"susie deltarune is cool","steam_id":76561198125919808,"connected_time":1072000000000,"state":"active","ping":148},{"user_id":14,"name":"Green Guy","steam_id":76561199097172174,"connected_time":361000000000,"state":"active","ping":84},{"user_id":17,"name":"Stuid","steam_id":76561199427506542,"connected_time":155000000000,"state":"active","ping":80}]},{"server_id":0,"name_short":"","name":"Uncletopia | Frankfurt | 6 | All Maps","host":"","port":0,"enabled":false,"region":"","cc":"","latitude":0,"longitude":0,"reserved":0,"last_update":"0001-01-01T00:00:00Z","protocol":17,"map":"cp_steel","folder":"tf","game":"Team Fortress","app_id":440,"player_count":0,"max_players":24,"Bots":0,"server_type":"Dedicated","server_os":"Linux","password":true,"vac":true,"version":"7961495","steam_id":85568392924504278,"keywords":["cp","nocrits","nodmgspread","uncletopia"],"edicts":[837,2048],"game_id":440,"stv_port":27066,"stv_name":"Uncletopia | Frankfurt | 6 | All Maps | STV","players":null},{"server_id":0,"name_short":"","name":"Uncletopia | New York City | 1 | All Maps","host":"","port":0,"enabled":false,"region":"","cc":"","latitude":0,"longitude":0,"reserved":0,"last_update":"0001-01-01T00:00:00Z","protocol":17,"map":"cp_process_final","folder":"tf","game":"Team Fortress","app_id":440,"player_count":0,"max_players":24,"Bots":0,"server_type":"Dedicated","server_os":"Linux","password":true,"vac":true,"version":"7961495","steam_id":85568392924469993,"keywords":["cp","nocrits","nodmgspread","uncletopia"],"edicts":[537,2048],"game_id":440,"stv_port":27016,"stv_name":"Uncletopia | New York City | 1 | All Maps | STV","players":null},{"server_id":0,"name_short":"","name":"Uncletopia | Atlanta | 2 | All Maps","host":"","port":0,"enabled":false,"region":"","cc":"","latitude":0,"longitude":0,"reserved":0,"last_update":"0001-01-01T00:00:00Z","protocol":17,"map":"pl_upward","folder":"tf","game":"Team Fortress","app_id":440,"player_count":12,"max_players":24,"Bots":0,"server_type":"Dedicated","server_os":"Linux","password":true,"vac":true,"version":"7961495","steam_id":85568392924469983,"keywords":["nocrits","nodmgspread","payload","uncletopia"],"edicts":[774,2048],"game_id":440,"stv_port":27026,"stv_name":"Uncletopia | Atlanta | 2 | All Maps | STV","players":[{"user_id":614,"name":"pop :)","steam_id":76561198085278224,"connected_time":1484000000000,"state":"active","ping":72},{"user_id":615,"name":"Dr. Winters","steam_id":76561199076263358,"connected_time":1435000000000,"state":"active","ping":64},{"user_id":602,"name":"Shrebbie","steam_id":76561198875230824,"connected_time":2736000000000,"state":"active","ping":59},{"user_id":634,"name":"Name","steam_id":76561199111748012,"connected_time":29000000000,"state":"active","ping":58},{"user_id":616,"name":"motherfucker 2.0","steam_id":76561198141189209,"connected_time":1400000000000,"state":"active","ping":53},{"user_id":633,"name":"stall","steam_id":76561199152861652,"connected_time":240000000000,"state":"active","ping":49},{"user_id":622,"name":"Pizzaquito","steam_id":76561198333730545,"connected_time":1000000000000,"state":"active","ping":95},{"user_id":608,"name":"Gdawg","steam_id":76561198139937261,"connected_time":2008000000000,"state":"active","ping":71},{"user_id":609,"name":"∰","steam_id":76561198064424202,"connected_time":1932000000000,"state":"active","ping":51},{"user_id":610,"name":"Biden Harris W","steam_id":76561198983838790,"connected_time":1913000000000,"state":"active","ping":80},{"user_id":624,"name":"Fumohuxi Viriphyto","steam_id":76561198369395636,"connected_time":868000000000,"state":"active","ping":82},{"user_id":632,"name":"Elephant Seal","steam_id":76561198065364829,"connected_time":318000000000,"state":"active","ping":80}]},{"server_id":0,"name_short":"","name":"Uncletopia | São Paulo | 1 | All Maps","host":"","port":0,"enabled":false,"region":"","cc":"","latitude":0,"longitude":0,"reserved":0,"last_update":"0001-01-01T00:00:00Z","protocol":17,"map":"koth_viaduct","folder":"tf","game":"Team Fortress","app_id":440,"player_count":0,"max_players":24,"Bots":0,"server_type":"Dedicated","server_os":"Linux","password":true,"vac":true,"version":"7961495","steam_id":85568392924469996,"keywords":["cp","nocrits","nodmgspread","uncletopia"],"edicts":[217,2048],"game_id":440,"stv_port":27016,"stv_name":"Uncletopia | São Paulo | 1 | All Maps | STV","players":null},{"server_id":0,"name_short":"","name":"Uncletopia | Atlanta | 4 | Community","host":"","port":0,"enabled":false,"region":"","cc":"","latitude":0,"longitude":0,"reserved":0,"last_update":"0001-01-01T00:00:00Z","protocol":17,"map":"koth_product_final","folder":"tf","game":"Team Fortress","app_id":440,"player_count":0,"max_players":24,"Bots":0,"server_type":"Dedicated","server_os":"Linux","password":true,"vac":true,"version":"7961495","steam_id":85568392924515188,"keywords":["cp","nocrits","nodmgspread","uncletopia"],"edicts":[352,2048],"game_id":440,"stv_port":27046,"stv_name":"Uncletopia | Atlanta | 4 | Community | STV","players":null},{"server_id":0,"name_short":"","name":"Uncletopia | Los Angeles | 3 | All Maps","host":"","port":0,"enabled":false,"region":"","cc":"","latitude":0,"longitude":0,"reserved":0,"last_update":"0001-01-01T00:00:00Z","protocol":17,"map":"cp_coldfront","folder":"tf","game":"Team Fortress","app_id":440,"player_count":0,"max_players":24,"Bots":0,"server_type":"Dedicated","server_os":"Linux","password":true,"vac":true,"version":"7961495","steam_id":85568392924510198,"keywords":["cp","nocrits","nodmgspread","uncletopia"],"edicts":[812,2048],"game_id":440,"stv_port":27036,"stv_name":"Uncletopia | Los Angeles | 3 | All Maps | STV","players":null},{"server_id":0,"name_short":"","name":"Uncletopia | Chicago | 5 | All Maps","host":"","port":0,"enabled":false,"region":"","cc":"","latitude":0,"longitude":0,"reserved":0,"last_update":"0001-01-01T00:00:00Z","protocol":17,"map":"pl_borneo","folder":"tf","game":"Team Fortress","app_id":440,"player_count":6,"max_players":24,"Bots":0,"server_type":"Dedicated","server_os":"Linux","password":true,"vac":true,"version":"7961495","steam_id":85568392924866362,"keywords":["nocrits","nodmgspread","payload","uncletopia"],"edicts":[786,2048],"game_id":440,"stv_port":27016,"stv_name":"Uncletopia | Chicago | 5 | All Maps | STV","players":[{"user_id":51,"name":"Cyani","steam_id":76561199122123500,"connected_time":5930000000000,"state":"active","ping":54},{"user_id":60,"name":"pudl","steam_id":76561198043726592,"connected_time":117000000000,"state":"active","ping":64},{"user_id":59,"name":"Swamp Trash","steam_id":76561198152532873,"connected_time":417000000000,"state":"active","ping":54},{"user_id":61,"name":"Nukem","steam_id":76561198166236574,"connected_time":75000000000,"state":"active","ping":78},{"user_id":47,"name":"Ядрён батон","steam_id":76561198978262040,"connected_time":7350000000000,"state":"active","ping":158},{"user_id":49,"name":"Caucasian Cockazoid","steam_id":76561198848362267,"connected_time":6910000000000,"state":"active","ping":54}]},{"server_id":0,"name_short":"","name":"Uncletopia | Los Angeles | 1 | All Maps","host":"","port":0,"enabled":false,"region":"","cc":"","latitude":0,"longitude":0,"reserved":0,"last_update":"0001-01-01T00:00:00Z","protocol":17,"map":"pl_barnblitz","folder":"tf","game":"Team Fortress","app_id":440,"player_count":24,"max_players":24,"Bots":0,"server_type":"Dedicated","server_os":"Linux","password":true,"vac":true,"version":"7961495","steam_id":85568392924469991,"keywords":["nocrits","nodmgspread","payload","uncletopia"],"edicts":[1087,2048],"game_id":440,"stv_port":27016,"stv_name":"Uncletopia | Los Angeles | 1 | All Maps | STV","players":[{"user_id":150,"name":"Petpac","steam_id":76561198326941396,"connected_time":6988000000000,"state":"active","ping":51},{"user_id":177,"name":"Ralph Kramden (Slim Charles)","steam_id":76561197981687895,"connected_time":5297000000000,"state":"active","ping":50},{"user_id":312,"name":"dumbeeon","steam_id":76561198059351874,"connected_time":6000000000,"state":"spawning","ping":44},{"user_id":172,"name":"rat","steam_id":76561198130412963,"connected_time":5651000000000,"state":"active","ping":79},{"user_id":228,"name":"rmbl","steam_id":76561198150137369,"connected_time":3327000000000,"state":"active","ping":50},{"user_id":237,"name":"Marley Bennett","steam_id":76561199127408846,"connected_time":2689000000000,"state":"active","ping":54},{"user_id":306,"name":"ena - d","steam_id":76561198072329335,"connected_time":124000000000,"state":"active","ping":116},{"user_id":273,"name":"awakelist","steam_id":76561199129744011,"connected_time":962000000000,"state":"active","ping":163},{"user_id":231,"name":"Ian","steam_id":76561198159334435,"connected_time":3126000000000,"state":"active","ping":171},{"user_id":233,"name":"Cosmic Dunsparce","steam_id":76561199193908496,"connected_time":2966000000000,"state":"active","ping":54},{"user_id":295,"name":"lip","steam_id":76561198043684960,"connected_time":551000000000,"state":"active","ping":85},{"user_id":239,"name":"Axelfreeze14","steam_id":76561198436383913,"connected_time":2664000000000,"state":"active","ping":45},{"user_id":296,"name":"Seraphim","steam_id":76561198831758977,"connected_time":545000000000,"state":"active","ping":87},{"user_id":161,"name":"Chimp of the year","steam_id":76561198114676855,"connected_time":6482000000000,"state":"active","ping":65},{"user_id":294,"name":"Aero","steam_id":76561198856462128,"connected_time":579000000000,"state":"active","ping":58},{"user_id":162,"name":"smallest orc","steam_id":76561198049223356,"connected_time":6470000000000,"state":"active","ping":68},{"user_id":125,"name":"HopeTheNeko","steam_id":76561199159285465,"connected_time":8216000000000,"state":"active","ping":57},{"user_id":152,"name":"Cloey","steam_id":76561199161591235,"connected_time":6779000000000,"state":"active","ping":85},{"user_id":240,"name":"Dr_Minty","steam_id":76561199043644449,"connected_time":2615000000000,"state":"active","ping":57},{"user_id":251,"name":"Scrux","steam_id":76561198129763115,"connected_time":2314000000000,"state":"active","ping":56},{"user_id":274,"name":"countstinkdevil666","steam_id":76561198073914311,"connected_time":943000000000,"state":"active","ping":46},{"user_id":266,"name":"Quimbus","steam_id":76561198106339292,"connected_time":1419000000000,"state":"active","ping":58},{"user_id":293,"name":"cjetson","steam_id":76561198074482272,"connected_time":585000000000,"state":"active","ping":63},{"user_id":277,"name":"RS","steam_id":76561198091659792,"connected_time":898000000000,"state":"active","ping":46},{"user_id":226,"name":"galyxi","steam_id":76561198154388696,"connected_time":3461000000000,"state":"active","ping":65}]},{"server_id":0,"name_short":"","name":"Uncletopia | Seattle | 2 | All Maps","host":"","port":0,"enabled":false,"region":"","cc":"","latitude":0,"longitude":0,"reserved":0,"last_update":"0001-01-01T00:00:00Z","protocol":17,"map":"pl_pier","folder":"tf","game":"Team Fortress","app_id":440,"player_count":24,"max_players":24,"Bots":0,"server_type":"Dedicated","server_os":"Linux","password":true,"vac":true,"version":"7961495","steam_id":85568392924469998,"keywords":["nocrits","nodmgspread","payload","uncletopia"],"edicts":[1278,2048],"game_id":440,"stv_port":27026,"stv_name":"Uncletopia | Seattle | 2 | All Maps | STV","players":[{"user_id":519,"name":"Some rando","steam_id":76561199098031083,"connected_time":3187000000000,"state":"active","ping":79},{"user_id":552,"name":"Sad Dental Man","steam_id":76561198103189993,"connected_time":926000000000,"state":"active","ping":80},{"user_id":554,"name":"frank","steam_id":76561198137777483,"connected_time":856000000000,"state":"active","ping":111},{"user_id":514,"name":"Grand","steam_id":76561198290143399,"connected_time":3487000000000,"state":"active","ping":74},{"user_id":547,"name":"liftin'","steam_id":76561199089515791,"connected_time":1822000000000,"state":"active","ping":76},{"user_id":556,"name":"1000 Ping","steam_id":76561198098330939,"connected_time":661000000000,"state":"active","ping":106},{"user_id":560,"name":"Grill Skills","steam_id":76561198053575147,"connected_time":459000000000,"state":"active","ping":73},{"user_id":540,"name":"Stroop","steam_id":76561198138687730,"connected_time":2039000000000,"state":"active","ping":52},{"user_id":555,"name":"HanakoToast","steam_id":76561198045233131,"connected_time":808000000000,"state":"active","ping":101},{"user_id":558,"name":"Big Booger Bill","steam_id":76561198137856724,"connected_time":562000000000,"state":"active","ping":108},{"user_id":505,"name":"Swee","steam_id":76561198998446307,"connected_time":4556000000000,"state":"active","ping":66},{"user_id":522,"name":"Anghellic","steam_id":76561198254307671,"connected_time":3124000000000,"state":"active","ping":74},{"user_id":559,"name":"Plast","steam_id":76561198059668519,"connected_time":557000000000,"state":"active","ping":109},{"user_id":436,"name":"cream of the crop (hu/man)","steam_id":76561198268581959,"connected_time":9476000000000,"state":"active","ping":63},{"user_id":562,"name":"zee","steam_id":76561198148876424,"connected_time":388000000000,"state":"active","ping":53},{"user_id":549,"name":"Amazing476","steam_id":76561198103937489,"connected_time":1461000000000,"state":"active","ping":98},{"user_id":563,"name":"Bootyclub","steam_id":76561197990154041,"connected_time":373000000000,"state":"active","ping":72},{"user_id":550,"name":"depleted uranium snorter","steam_id":76561198844273999,"connected_time":1112000000000,"state":"active","ping":46},{"user_id":543,"name":"Dogg wader","steam_id":76561199090314340,"connected_time":1990000000000,"state":"active","ping":64},{"user_id":531,"name":"hemaglox (real)","steam_id":76561198023187633,"connected_time":2662000000000,"state":"active","ping":48},{"user_id":544,"name":"slowdance","steam_id":76561198097427947,"connected_time":1985000000000,"state":"active","ping":130},{"user_id":564,"name":"FidelGuevara","steam_id":76561198368296171,"connected_time":352000000000,"state":"active","ping":95},{"user_id":553,"name":"The Caretaker","steam_id":76561198125241411,"connected_time":913000000000,"state":"active","ping":136},{"user_id":528,"name":"samantha","steam_id":76561198049258493,"connected_time":2770000000000,"state":"active","ping":61}]},{"server_id":0,"name_short":"","name":"Uncletopia | Warsaw | 2 | One Thousand Uncles","host":"","port":0,"enabled":false,"region":"","cc":"","latitude":0,"longitude":0,"reserved":0,"last_update":"0001-01-01T00:00:00Z","protocol":17,"map":"pl_pier","folder":"tf","game":"Team Fortress","app_id":440,"player_count":0,"max_players":32,"Bots":0,"server_type":"Dedicated","server_os":"Linux","password":true,"vac":true,"version":"7961495","steam_id":85568392925397851,"keywords":["alltalk","danepve","increased_maxplayers","norespawntime","payload","uncletopia"],"edicts":[961,2048],"game_id":440,"stv_port":0,"stv_name":"","players":null},{"server_id":0,"name_short":"","name":"Uncletopia | São Paulo | 2 | Community","host":"","port":0,"enabled":false,"region":"","cc":"","latitude":0,"longitude":0,"reserved":0,"last_update":"0001-01-01T00:00:00Z","protocol":17,"map":"pl_jinn_rc2","folder":"tf","game":"Team Fortress","app_id":440,"player_count":0,"max_players":24,"Bots":0,"server_type":"Dedicated","server_os":"Linux","password":true,"vac":true,"version":"7961495","steam_id":85568392924485349,"keywords":["nocrits","nodmgspread","payload","uncletopia"],"edicts":[768,2048],"game_id":440,"stv_port":27016,"stv_name":"Uncletopia | São Paulo | 2 | Community | STV","players":null},{"server_id":0,"name_short":"","name":"Uncletopia | Dallas | 2 | All Maps","host":"","port":0,"enabled":false,"region":"","cc":"","latitude":0,"longitude":0,"reserved":0,"last_update":"0001-01-01T00:00:00Z","protocol":17,"map":"pl_frontier_final","folder":"tf","game":"Team Fortress","app_id":440,"player_count":0,"max_players":24,"Bots":0,"server_type":"Dedicated","server_os":"Linux","password":true,"vac":true,"version":"7961495","steam_id":85568392924469988,"keywords":["nocrits","nodmgspread","payload","uncletopia"],"edicts":[744,2048],"game_id":440,"stv_port":27026,"stv_name":"Uncletopia | Dallas | 2 | All Maps | STV","players":null},{"server_id":0,"name_short":"","name":"Uncletopia | London | 2 | All Maps","host":"","port":0,"enabled":false,"region":"","cc":"","latitude":0,"longitude":0,"reserved":0,"last_update":"0001-01-01T00:00:00Z","protocol":17,"map":"cp_mountainlab","folder":"tf","game":"Team Fortress","app_id":440,"player_count":0,"max_players":24,"Bots":0,"server_type":"Dedicated","server_os":"Linux","password":true,"vac":true,"version":"7961495","steam_id":85568392924470941,"keywords":["cp","nocrits","nodmgspread","uncletopia"],"edicts":[533,2048],"game_id":440,"stv_port":27026,"stv_name":"Uncletopia | London | 2 | All Maps | STV","players":null},{"server_id":0,"name_short":"","name":"Uncletopia | Frankfurt | 7 | Stopwatch","host":"","port":0,"enabled":false,"region":"","cc":"","latitude":0,"longitude":0,"reserved":0,"last_update":"0001-01-01T00:00:00Z","protocol":17,"map":"koth_highpass","folder":"tf","game":"Team Fortress","app_id":440,"player_count":0,"max_players":24,"Bots":0,"server_type":"Dedicated","server_os":"Linux","password":true,"vac":true,"version":"7961495","steam_id":85568392924742827,"keywords":["cp","nocrits","nodmgspread","uncletopia"],"edicts":[413,2048],"game_id":440,"stv_port":27076,"stv_name":"Uncletopia | Frankfurt | 7 | Stopwatch | STV","players":null},{"server_id":0,"name_short":"","name":"Uncletopia | Warsaw | 4 | All Maps","host":"","port":0,"enabled":false,"region":"","cc":"","latitude":0,"longitude":0,"reserved":0,"last_update":"0001-01-01T00:00:00Z","protocol":17,"map":"ctf_turbine","folder":"tf","game":"Team Fortress","app_id":440,"player_count":0,"max_players":24,"Bots":0,"server_type":"Dedicated","server_os":"Linux","password":true,"vac":true,"version":"7961495","steam_id":85568392925397853,"keywords":["ctf","nocrits","nodmgspread","uncletopia"],"edicts":[293,2048],"game_id":440,"stv_port":27046,"stv_name":"Uncletopia | Warsaw | 4 | All Maps | STV","players":null},{"server_id":0,"name_short":"","name":"Uncletopia | Dallas | 1 | All Maps","host":"","port":0,"enabled":false,"region":"","cc":"","latitude":0,"longitude":0,"reserved":0,"last_update":"0001-01-01T00:00:00Z","protocol":17,"map":"koth_viaduct","folder":"tf","game":"Team Fortress","app_id":440,"player_count":24,"max_players":24,"Bots":0,"server_type":"Dedicated","server_os":"Linux","password":true,"vac":true,"version":"7961495","steam_id":85568392924469986,"keywords":["cp","nocrits","nodmgspread","uncletopia"],"edicts":[499,2048],"game_id":440,"stv_port":27016,"stv_name":"Uncletopia | Dallas | 1 | All Maps | STV","players":[{"user_id":685,"name":"Ferioth","steam_id":76561197997993090,"connected_time":3396000000000,"state":"active","ping":83},{"user_id":702,"name":"Gwuf","steam_id":76561198091503282,"connected_time":1468000000000,"state":"active","ping":99},{"user_id":707,"name":"cool, low-key kinda guy","steam_id":76561198123475433,"connected_time":1267000000000,"state":"active","ping":115},{"user_id":705,"name":"Default Pistol Only","steam_id":76561198401205345,"connected_time":1450000000000,"state":"active","ping":65},{"user_id":706,"name":"Jax","steam_id":76561198436807464,"connected_time":1447000000000,"state":"active","ping":64},{"user_id":708,"name":"Brendan","steam_id":76561198041079914,"connected_time":1180000000000,"state":"active","ping":85},{"user_id":709,"name":"Nexus","steam_id":76561198156374282,"connected_time":1169000000000,"state":"active","ping":87},{"user_id":710,"name":"KrageSpawn","steam_id":76561199214730628,"connected_time":1131000000000,"state":"active","ping":85},{"user_id":711,"name":"Chumpy","steam_id":76561198010169419,"connected_time":1125000000000,"state":"active","ping":82},{"user_id":631,"name":"jpeghuB","steam_id":76561198826739151,"connected_time":6834000000000,"state":"active","ping":63},{"user_id":699,"name":"Rental","steam_id":76561198027786602,"connected_time":2371000000000,"state":"active","ping":93},{"user_id":696,"name":"who ate the cheese","steam_id":76561198275408467,"connected_time":2718000000000,"state":"active","ping":58},{"user_id":687,"name":"Divio","steam_id":76561197995200088,"connected_time":3374000000000,"state":"active","ping":75},{"user_id":723,"name":"Kermit Da Frog","steam_id":76561199057743526,"connected_time":79000000000,"state":"active","ping":90},{"user_id":713,"name":"beatmania iidx","steam_id":76561198079186867,"connected_time":983000000000,"state":"active","ping":55},{"user_id":719,"name":"Macandchess","steam_id":76561198255783176,"connected_time":823000000000,"state":"active","ping":79},{"user_id":549,"name":"uhooter","steam_id":76561198007829078,"connected_time":14045000000000,"state":"active","ping":79},{"user_id":650,"name":"papersonic","steam_id":76561199052718021,"connected_time":5276000000000,"state":"active","ping":59},{"user_id":720,"name":"tack","steam_id":76561198408477421,"connected_time":795000000000,"state":"active","ping":121},{"user_id":722,"name":"⸸ mommy pestilence ⛧","steam_id":76561198090576796,"connected_time":143000000000,"state":"active","ping":75},{"user_id":674,"name":"Druncle","steam_id":76561198956098725,"connected_time":4327000000000,"state":"active","ping":72},{"user_id":716,"name":"Sunny","steam_id":76561198125892600,"connected_time":898000000000,"state":"active","ping":56},{"user_id":721,"name":"MrNox","steam_id":76561198073449189,"connected_time":548000000000,"state":"active","ping":87},{"user_id":718,"name":"Dog","steam_id":76561198263873491,"connected_time":857000000000,"state":"active","ping":64}]},{"server_id":0,"name_short":"","name":"Uncletopia | Hong Kong | 1 | All Maps","host":"","port":0,"enabled":false,"region":"","cc":"","latitude":0,"longitude":0,"reserved":0,"last_update":"0001-01-01T00:00:00Z","protocol":17,"map":"pl_frontier_final","folder":"tf","game":"Team Fortress","app_id":440,"player_count":26,"max_players":24,"Bots":0,"server_type":"Dedicated","server_os":"Linux","password":true,"vac":true,"version":"7961495","steam_id":85568392924494504,"keywords":["nocrits","nodmgspread","payload","uncletopia"],"edicts":[1027,2048],"game_id":440,"stv_port":27016,"stv_name":"Uncletopia | Hong Kong | 1 | All Maps | STV","players":[{"user_id":16,"name":"MS PowerPoint","steam_id":76561198369523192,"connected_time":12587000000000,"state":"active","ping":67},{"user_id":117,"name":"aLdousy","steam_id":76561198961693972,"connected_time":3983000000000,"state":"active","ping":123},{"user_id":136,"name":"Kyro","steam_id":76561199034546642,"connected_time":1524000000000,"state":"active","ping":99},{"user_id":144,"name":"LEGS","steam_id":76561199111623890,"connected_time":8000000000,"state":"spawning","ping":78},{"user_id":133,"name":"turd'","steam_id":76561199006212966,"connected_time":2152000000000,"state":"active","ping":82},{"user_id":116,"name":"Law","steam_id":76561198136685157,"connected_time":4135000000000,"state":"active","ping":65},{"user_id":91,"name":"a musian","steam_id":76561198152588681,"connected_time":6429000000000,"state":"active","ping":84},{"user_id":77,"name":"v1.","steam_id":76561198037571054,"connected_time":7769000000000,"state":"active","ping":39},{"user_id":142,"name":"BURN PYGMALION!!!","steam_id":76561198074339034,"connected_time":469000000000,"state":"active","ping":76},{"user_id":139,"name":"Sir.Apple","steam_id":76561198065612995,"connected_time":1188000000000,"state":"active","ping":96},{"user_id":140,"name":"kutsumo hitsumo","steam_id":76561197994194946,"connected_time":1132000000000,"state":"active","ping":100},{"user_id":93,"name":"Falfarey","steam_id":76561198185402494,"connected_time":6253000000000,"state":"active","ping":85},{"user_id":98,"name":"water tastes good","steam_id":76561199375947670,"connected_time":5704000000000,"state":"active","ping":74},{"user_id":129,"name":"j_rex","steam_id":76561198132473926,"connected_time":2446000000000,"state":"active","ping":53},{"user_id":99,"name":"E","steam_id":76561199173781370,"connected_time":5542000000000,"state":"active","ping":99},{"user_id":130,"name":"PotTimesTwo","steam_id":76561199405461327,"connected_time":2432000000000,"state":"active","ping":74},{"user_id":132,"name":"Jaysong","steam_id":76561198828599078,"connected_time":2284000000000,"state":"active","ping":132},{"user_id":141,"name":"14","steam_id":76561198113401862,"connected_time":1091000000000,"state":"active","ping":130},{"user_id":123,"name":"Lady D.","steam_id":76561199225360457,"connected_time":3600000000000,"state":"active","ping":66},{"user_id":131,"name":"qingque","steam_id":76561198230213828,"connected_time":2363000000000,"state":"active","ping":63},{"user_id":143,"name":"Nooting time","steam_id":76561198256615819,"connected_time":468000000000,"state":"active","ping":73},{"user_id":126,"name":"jais","steam_id":76561198043801650,"connected_time":3427000000000,"state":"active","ping":121},{"user_id":112,"name":"daffy","steam_id":76561198356316337,"connected_time":4926000000000,"state":"active","ping":90},{"user_id":145,"name":"Corn_Archer","steam_id":76561199185044554,"connected_time":8000000000,"state":"spawning","ping":70},{"user_id":135,"name":"LeMIckey Hater","steam_id":76561199219484527,"connected_time":2058000000000,"state":"active","ping":115},{"user_id":146,"name":"Ivy","steam_id":76561198400698408,"connected_time":8000000000,"state":"spawning","ping":92}]},{"server_id":0,"name_short":"","name":"Uncletopia | Montréal | 2 | One Thousand Uncles","host":"","port":0,"enabled":false,"region":"","cc":"","latitude":0,"longitude":0,"reserved":0,"last_update":"0001-01-01T00:00:00Z","protocol":17,"map":"pl_barnblitz","folder":"tf","game":"Team Fortress","app_id":440,"player_count":0,"max_players":32,"Bots":0,"server_type":"Dedicated","server_os":"Linux","password":true,"vac":true,"version":"7961495","steam_id":85568392924500088,"keywords":["alltalk","danepve","increased_maxplayers","norespawntime","payload","uncletopia"],"edicts":[803,2048],"game_id":440,"stv_port":0,"stv_name":"","players":null},{"server_id":0,"name_short":"","name":"Uncletopia | Chicago | 8 | Community","host":"","port":0,"enabled":false,"region":"","cc":"","latitude":0,"longitude":0,"reserved":0,"last_update":"0001-01-01T00:00:00Z","protocol":17,"map":"koth_bagel_rc6","folder":"tf","game":"Team Fortress","app_id":440,"player_count":0,"max_players":24,"Bots":0,"server_type":"Dedicated","server_os":"Linux","password":true,"vac":true,"version":"7961495","steam_id":85568392924866365,"keywords":["cp","nocrits","nodmgspread","uncletopia"],"edicts":[598,2048],"game_id":440,"stv_port":27046,"stv_name":"Uncletopia | Chicago | 8 | Community | STV","players":null},{"server_id":0,"name_short":"","name":"Uncletopia | Atlanta | 1 | All Maps","host":"","port":0,"enabled":false,"region":"","cc":"","latitude":0,"longitude":0,"reserved":0,"last_update":"0001-01-01T00:00:00Z","protocol":17,"map":"koth_cascade","folder":"tf","game":"Team Fortress","app_id":440,"player_count":0,"max_players":24,"Bots":0,"server_type":"Dedicated","server_os":"Linux","password":true,"vac":true,"version":"7961495","steam_id":85568392924469982,"keywords":["cp","nocrits","nodmgspread","uncletopia"],"edicts":[546,2048],"game_id":440,"stv_port":27016,"stv_name":"Uncletopia | Atlanta | 1 | All Maps | STV","players":null},{"server_id":0,"name_short":"","name":"Uncletopia | London | 7 | Stopwatch","host":"","port":0,"enabled":false,"region":"","cc":"","latitude":0,"longitude":0,"reserved":0,"last_update":"0001-01-01T00:00:00Z","protocol":17,"map":"pl_swiftwater_final1","folder":"tf","game":"Team Fortress","app_id":440,"player_count":0,"max_players":24,"Bots":0,"server_type":"Dedicated","server_os":"Linux","password":true,"vac":true,"version":"7961495","steam_id":85568392924964314,"keywords":["nocrits","nodmgspread","payload","uncletopia"],"edicts":[902,2048],"game_id":440,"stv_port":27076,"stv_name":"Uncletopia | London | 7 | Stopwatch | STV","players":null},{"server_id":0,"name_short":"","name":"Uncletopia | Frankfurt | 3 | All Maps","host":"","port":0,"enabled":false,"region":"","cc":"","latitude":0,"longitude":0,"reserved":0,"last_update":"0001-01-01T00:00:00Z","protocol":17,"map":"plr_pipeline","folder":"tf","game":"Team Fortress","app_id":440,"player_count":0,"max_players":24,"Bots":0,"server_type":"Dedicated","server_os":"Linux","password":true,"vac":true,"version":"7961495","steam_id":85568392924504274,"keywords":["nocrits","nodmgspread","payload","uncletopia"],"edicts":[933,2048],"game_id":440,"stv_port":27036,"stv_name":"Uncletopia | Frankfurt | 3 | All Maps | STV","players":null},{"server_id":0,"name_short":"","name":"Uncletopia | Montréal | 3 | One Thousand Uncles","host":"","port":0,"enabled":false,"region":"","cc":"","latitude":0,"longitude":0,"reserved":0,"last_update":"0001-01-01T00:00:00Z","protocol":17,"map":"cp_dustbowl","folder":"tf","game":"Team Fortress","app_id":440,"player_count":0,"max_players":32,"Bots":0,"server_type":"Dedicated","server_os":"Linux","password":true,"vac":true,"version":"7961495","steam_id":85568392924500089,"keywords":["alltalk","cp","danepve","increased_maxplayers","norespawntime","uncletopia"],"edicts":[736,2048],"game_id":440,"stv_port":0,"stv_name":"","players":null}]}