{"status":true,"message":"","result":[{"server_id":9,"name":"Uncletopia | Atlanta | 1 | All Maps","name_short":"atl-1","host":"atl-1.us.uncletopia.com","port":27015,"enabled":true,"region":"us-east","cc":"us","latitude":33.753746,"longitude":-84.38633,"reserved":0,"last_update":"0001-01-01T00:00:00Z","name_a2s":"Uncletopia | Atlanta | 1 | All Maps","protocol":17,"map":"pl_badwater","folder":"tf","game":"Team Fortress","app_id":440,"player_count":24,"max_players":24,"Bots":0,"server_type":"Dedicated","server_os":"Linux","password":true,"vac":true,"version":"7961495","steam_id":85568392924469982,"keywords":["nocrits","nodmgspread","payload","uncletopia"],"game_id":440,"stv_port":27016,"stv_name":"Uncletopia | Atlanta | 1 | All Maps | STV","players":null},{"server_id":104,"name":"Uncletopia | Atlanta | 2 | All Maps","name_short":"atl-2","host":"atl-1.us.uncletopia.com","port":27025,"enabled":true,"region":"us-east","cc":"us","latitude":33.753746,"longitude":-84.38633,"reserved":0,"last_update":"0001-01-01T00:00:00Z","name_a2s":"Uncletopia | Atlanta | 2 | All Maps","protocol":17,"map":"pl_snowycoast","folder":"tf","game":"Team Fortress","app_id":440,"player_count":24,"max_players":24,"Bots":0,"server_type":"Dedicated","server_os":"Linux","password":true,"vac":true,"version":"7961495","steam_id":85568392924469983,"keywords":["nocrits","nodmgspread","payload","uncletopia"],"game_id":440,"stv_port":27026,"stv_name":"Uncletopia | Atlanta | 2 | All Maps | STV","players":null},{"server_id":400,"name":"Uncletopia | Atlanta | 3 | Stopwatch","name_short":"atl-3","host":"atl-1.us.uncletopia.com","port":27035,"enabled":true,"region":"us-east","cc":"us","latitude":33.753746,"longitude":-84.38633,"reserved":0,"last_update":"0001-01-01T00:00:00Z","name_a2s":"Uncletopia | Atlanta | 3 | Stopwatch","protocol":17,"map":"pl_vigil_rc10","folder":"tf","game":"Team Fortress","app_id":440,"player_count":0,"max_players":24,"Bots":0,"server_type":"Dedicated","server_os":"Linux","password":true,"vac":true,"version":"7961495","steam_id":85568392924515187,"keywords":["nocrits","nodmgspread","payload","uncletopia"],"game_id":440,"stv_port":27036,"stv_name":"Uncletopia | Atlanta | 3 | Stopwatch | STV","players":null},{"server_id":401,"name":"Uncletopia | Atlanta | 4 | Community","name_short":"atl-4","host":"atl-1.us.uncletopia.com","port":27045,"enabled":true,"region":"us-east","cc":"us","latitude":33.753746,"longitude":-84.38633,"reserved":0,"last_update":"0001-01-01T00:00:00Z","name_a2s":"Uncletopia | Atlanta | 4 | Community","protocol":17,"map":"cp_propaganda_b18","folder":"tf","game":"Team Fortress","app_id":440,"player_count":2,"max_players":24,"Bots":0,"server_type":"Dedicated","server_os":"Linux","password":true,"vac":true,"version":"7961495","steam_id":85568392924515188,"keywords":["cp","nocrits","nodmgspread","uncletopia"],"game_id":440,"stv_port":27046,"stv_name":"Uncletopia | Atlanta | 4 | Community | STV","players":null},{"server_id":2,"name":"Uncletopia | Chicago | 1 | All Maps","name_short":"chi-1","host":"chi-1.us.uncletopia.com","port":27015,"enabled":true,"region":"us-central","cc":"us","latitude":41.881832,"longitude":-87.62318,"reserved":0,"last_update":"0001-01-01T00:00:00Z","name_a2s":"Uncletopia | Chicago | 1 | All Maps","protocol":17,"map":"pl_borneo","folder":"tf","game":"Team Fortress","app_id":440,"player_count":14,"max_players":24,"Bots":0,"server_type":"Dedicated","server_os":"Linux","password":true,"vac":true,"version":"7961495","steam_id":85568392924469984,"keywords":["nocrits","nodmgspread","payload","uncletopia"],"game_id":440,"stv_port":27016,"stv_name":"Uncletopia | Chicago | 1 | All Maps | STV","players":[{"user_id":768,"name":"Tommy Pickles (Very Cool)","steam_id":76561198391261463,"connected_time":3037000000000,"state":"active","ping":63},{"user_id":789,"name":"d4 f4rt f4ce kill4","steam_id":76561198046130544,"connected_time":53000000000,"state":"active","ping":59},{"user_id":790,"name":"crunch","steam_id":76561198058209703,"connected_time":39000000000,"state":"active","ping":56},{"user_id":740,"name":"WheelockWarlock","steam_id":76561198171456553,"connected_time":5188000000000,"state":"active","ping":82},{"user_id":791,"name":"i'm sleepy!","steam_id":76561198016826181,"connected_time":13000000000,"state":"spawning","ping":72},{"user_id":755,"name":"Bottom Trans Cowgirl","steam_id":76561198304239680,"connected_time":3879000000000,"state":"active","ping":73},{"user_id":715,"name":"Furry Saul Goodman","steam_id":76561198069580305,"connected_time":6444000000000,"state":"active","ping":46},{"user_id":752,"name":"Mank","steam_id":76561198189421005,"connected_time":3947000000000,"state":"active","ping":59},{"user_id":701,"name":"Your Local Queer Librarian","steam_id":76561198013077080,"connected_time":7519000000000,"state":"active","ping":55},{"user_id":658,"name":"hej","steam_id":76561197996366940,"connected_time":12081000000000,"state":"active","ping":60},{"user_id":777,"name":"Jango","steam_id":76561198084589742,"connected_time":1818000000000,"state":"active","ping":78},{"user_id":788,"name":"dunk","steam_id":76561198132476501,"connected_time":143000000000,"state":"active","ping":51},{"user_id":774,"name":"Rtx Fred ●","steam_id":76561198999217575,"connected_time":1959000000000,"state":"active","ping":57},{"user_id":786,"name":"Spy Gaming","steam_id":76561198453295613,"connected_time":338000000000,"state":"active","ping":107}]},{"server_id":106,"name":"Uncletopia | Chicago | 2 | All Maps","name_short":"chi-2","host":"chi-1.us.uncletopia.com","port":27025,"enabled":true,"region":"us-central","cc":"us","latitude":41.881832,"longitude":-87.62318,"reserved":0,"last_update":"0001-01-01T00:00:00Z","name_a2s":"Uncletopia | Chicago | 2 | All Maps","protocol":17,"map":"pl_enclosure_final","folder":"tf","game":"Team Fortress","app_id":440,"player_count":17,"max_players":24,"Bots":0,"server_type":"Dedicated","server_os":"Linux","password":true,"vac":true,"version":"7961495","steam_id":85568392924469985,"keywords":["nocrits","nodmgspread","payload","uncletopia"],"game_id":440,"stv_port":27026,"stv_name":"Uncletopia | Chicago | 2 | All Maps | STV","players":[{"user_id":572,"name":"c00kie","steam_id":76561198418178297,"connected_time":3172000000000,"state":"spawning","ping":39},{"user_id":520,"name":"salty like Lot's wife","steam_id":76561197998619845,"connected_time":6229000000000,"state":"spawning","ping":64},{"user_id":586,"name":"STEVE","steam_id":76561198063475894,"connected_time":1793000000000,"state":"spawning","ping":68},{"user_id":598,"name":"Cyndaquil Fan","steam_id":76561198799205521,"connected_time":1079000000000,"state":"spawning","ping":66},{"user_id":609,"name":"JJ","steam_id":76561198040955086,"connected_time":42000000000,"state":"spawning","ping":79},{"user_id":607,"name":"_Ati","steam_id":76561198339777801,"connected_time":531000000000,"state":"spawning","ping":70},{"user_id":567,"name":"Kent C Straight","steam_id":76561198056190259,"connected_time":3428000000000,"state":"spawning","ping":68},{"user_id":571,"name":"Susan Wetwinky","steam_id":76561198119483989,"connected_time":3256000000000,"state":"spawning","ping":164},{"user_id":595,"name":"scoshar","steam_id":76561198056769956,"connected_time":1319000000000,"state":"spawning","ping":97},{"user_id":597,"name":"SSBM Pelican","steam_id":76561198040697907,"connected_time":1125000000000,"state":"spawning","ping":64},{"user_id":570,"name":"puppy :3","steam_id":76561198011196264,"connected_time":3375000000000,"state":"spawning","ping":32},{"user_id":608,"name":"Tattletails","steam_id":76561198055690341,"connected_time":312000000000,"state":"spawning","ping":147},{"user_id":561,"name":"Plasmie{ylo}","steam_id":76561198083513154,"connected_time":3775000000000,"state":"spawning","ping":62},{"user_id":566,"name":"UNCLE RUCKUS","steam_id":76561199380604147,"connected_time":3659000000000,"state":"spawning","ping":47},{"user_id":589,"name":"WhiteRabbit","steam_id":76561198027579538,"connected_time":1732000000000,"state":"spawning","ping":56},{"user_id":596,"name":"Riggatoni","steam_id":76561198203745763,"connected_time":1281000000000,"state":"spawning","ping":57},{"user_id":590,"name":"Trundle","steam_id":76561198005548044,"connected_time":1729000000000,"state":"spawning","ping":55}]},{"server_id":402,"name":"Uncletopia | Chicago | 3 | All Maps","name_short":"chi-3","host":"chi-1.us.uncletopia.com","port":27035,"enabled":true,"region":"us-central","cc":"us","latitude":41.881832,"longitude":-87.62318,"reserved":0,"last_update":"0001-01-01T00:00:00Z","name_a2s":"Uncletopia | Chicago | 3 | All Maps","protocol":17,"map":"pl_barnblitz","folder":"tf","game":"Team Fortress","app_id":440,"player_count":24,"max_players":24,"Bots":0,"server_type":"Dedicated","server_os":"Linux","password":true,"vac":true,"version":"7961495","steam_id":85568392924515191,"keywords":["nocrits","nodmgspread","payload","uncletopia"],"game_id":440,"stv_port":27036,"stv_name":"Uncletopia | Chicago | 3 | All Maps | STV","players":[{"user_id":449,"name":"MjrMovnTARGET","steam_id":76561199125908849,"connected_time":969000000000,"state":"active","ping":73},{"user_id":453,"name":"suds","steam_id":76561198157331724,"connected_time":579000000000,"state":"active","ping":42},{"user_id":447,"name":"Doubie","steam_id":76561198104492019,"connected_time":1176000000000,"state":"active","ping":83},{"user_id":435,"name":"Six Piece Chicken McNobody","steam_id":76561198129848222,"connected_time":1530000000000,"state":"active","ping":72},{"user_id":417,"name":"RAWRWAIFU","steam_id":76561198032118386,"connected_time":3431000000000,"state":"active","ping":87},{"user_id":436,"name":"localize","steam_id":76561198135559825,"connected_time":1506000000000,"state":"active","ping":63},{"user_id":459,"name":"Glue Gulper","steam_id":76561198158014525,"connected_time":20000000000,"state":"active","ping":62},{"user_id":437,"name":"LVL","steam_id":76561198334403617,"connected_time":1502000000000,"state":"active","ping":57},{"user_id":419,"name":"Egg","steam_id":76561198028157625,"connected_time":3147000000000,"state":"active","ping":90},{"user_id":450,"name":"FluorescentDome","steam_id":76561198046897504,"connected_time":960000000000,"state":"active","ping":61},{"user_id":399,"name":"Nefy","steam_id":76561198030017316,"connected_time":5008000000000,"state":"active","ping":90},{"user_id":412,"name":"badboy6996","steam_id":76561197969386201,"connected_time":4366000000000,"state":"active","ping":45},{"user_id":443,"name":"liaaammm","steam_id":76561198124069244,"connected_time":1352000000000,"state":"active","ping":68},{"user_id":424,"name":"totally not a pile of beans","steam_id":76561198119851931,"connected_time":2606000000000,"state":"active","ping":84},{"user_id":403,"name":"-W3E- grim10465","steam_id":76561198045698581,"connected_time":4803000000000,"state":"active","ping":46},{"user_id":430,"name":"Motreir","steam_id":76561198151717946,"connected_time":2061000000000,"state":"active","ping":101},{"user_id":405,"name":"HOW2TAKEASHIT@ABITCHCRIB","steam_id":76561198144766439,"connected_time":4786000000000,"state":"active","ping":47},{"user_id":458,"name":"relay","steam_id":76561198314662811,"connected_time":268000000000,"state":"active","ping":103},{"user_id":456,"name":"Red Metal","steam_id":76561198362722560,"connected_time":305000000000,"state":"active","ping":90},{"user_id":457,"name":"oppenheimer style","steam_id":76561198026664629,"connected_time":296000000000,"state":"active","ping":56},{"user_id":440,"name":"Team Fartpiss Poo","steam_id":76561199163591880,"connected_time":1452000000000,"state":"active","ping":97},{"user_id":441,"name":"wintermint","steam_id":76561198013735714,"connected_time":1452000000000,"state":"active","ping":68},{"user_id":442,"name":"Huntsman noob.","steam_id":76561198988215601,"connected_time":1427000000000,"state":"active","ping":183},{"user_id":429,"name":"DatBackflipTho","steam_id":76561198083062587,"connected_time":2170000000000,"state":"active","ping":83}]},{"server_id":403,"name":"Uncletopia | Chicago | 4 | All Maps","name_short":"chi-4","host":"chi-1.us.uncletopia.com","port":27045,"enabled":true,"region":"us-central","cc":"us","latitude":41.881832,"longitude":-87.62318,"reserved":0,"last_update":"0001-01-01T00:00:00Z","name_a2s":"Uncletopia | Chicago | 4 | All Maps","protocol":17,"map":"koth_sawmill","folder":"tf","game":"Team Fortress","app_id":440,"player_count":24,"max_players":24,"Bots":0,"server_type":"Dedicated","server_os":"Linux","password":true,"vac":true,"version":"7961495","steam_id":85568392924515193,"keywords":["cp","nocrits","nodmgspread","uncletopia"],"game_id":440,"stv_port":27046,"stv_name":"Uncletopia | Chicago | 4 | All Maps | STV","players":[{"user_id":281,"name":"ramrod","steam_id":76561197972297003,"connected_time":1069000000000,"state":"active","ping":75},{"user_id":284,"name":"Bingleton","steam_id":76561198020364188,"connected_time":275000000000,"state":"active","ping":74},{"user_id":280,"name":"newport menthol 100s CEO","steam_id":76561198050976060,"connected_time":1185000000000,"state":"active","ping":56},{"user_id":242,"name":"Boboblin:)","steam_id":76561199030131717,"connected_time":3756000000000,"state":"active","ping":88},{"user_id":264,"name":"THE STINK","steam_id":76561199226110975,"connected_time":2024000000000,"state":"active","ping":91},{"user_id":262,"name":"Cat doin laundry","steam_id":76561198063895852,"connected_time":2052000000000,"state":"active","ping":62},{"user_id":265,"name":"shadow wizard money gang","steam_id":76561198042298511,"connected_time":2007000000000,"state":"active","ping":45},{"user_id":245,"name":"King","steam_id":76561198039763676,"connected_time":3621000000000,"state":"active","ping":60},{"user_id":266,"name":"angel","steam_id":76561198991768686,"connected_time":1996000000000,"state":"active","ping":113},{"user_id":267,"name":"lobb","steam_id":76561198346041205,"connected_time":1994000000000,"state":"active","ping":108},{"user_id":268,"name":"Sam","steam_id":76561198069948353,"connected_time":1989000000000,"state":"active","ping":81},{"user_id":283,"name":"Chestnnut","steam_id":76561198077782729,"connected_time":603000000000,"state":"active","ping":69},{"user_id":285,"name":"SES3","steam_id":76561198054380259,"connected_time":99000000000,"state":"active","ping":71},{"user_id":282,"name":"Comic","steam_id":76561198391882145,"connected_time":1002000000000,"state":"active","ping":36},{"user_id":272,"name":"The Great and Mighty Kiku","steam_id":76561198057590164,"connected_time":1971000000000,"state":"active","ping":91},{"user_id":270,"name":"Ojen","steam_id":76561197998414482,"connected_time":1984000000000,"state":"active","ping":67},{"user_id":271,"name":"Charmy","steam_id":76561198069969998,"connected_time":1982000000000,"state":"active","ping":83},{"user_id":273,"name":"OddSlaush","steam_id":76561198043898488,"connected_time":1969000000000,"state":"active","ping":109},{"user_id":279,"name":"i^Marmot","steam_id":76561197972379514,"connected_time":1350000000000,"state":"active","ping":84},{"user_id":216,"name":"qt pa 2t","steam_id":76561198066867150,"connected_time":6386000000000,"state":"active","ping":68},{"user_id":277,"name":"Skeleton Hotel","steam_id":76561198041704727,"connected_time":1760000000000,"state":"active","ping":57},{"user_id":190,"name":"Dr Oshawott","steam_id":76561198042021629,"connected_time":7460000000000,"state":"active","ping":69},{"user_id":275,"name":"cheese burger","steam_id":76561199100034198,"connected_time":1809000000000,"state":"active","ping":73},{"user_id":276,"name":"boffo","steam_id":76561198096978718,"connected_time":1803000000000,"state":"active","ping":88}]},{"server_id":36,"name":"Uncletopia | Chicago | 5 | All Maps","name_short":"chi-5","host":"chi-2.us.uncletopia.com","port":27015,"enabled":true,"region":"us-central","cc":"us","latitude":41.881832,"longitude":-87.62318,"reserved":0,"last_update":"0001-01-01T00:00:00Z","name_a2s":"Uncletopia | Chicago | 5 | All Maps","protocol":17,"map":"pl_pier","folder":"tf","game":"Team Fortress","app_id":440,"player_count":24,"max_players":24,"Bots":0,"server_type":"Dedicated","server_os":"Linux","password":true,"vac":true,"version":"7961495","steam_id":85568392924866362,"keywords":["nocrits","nodmgspread","payload","uncletopia"],"game_id":440,"stv_port":27016,"stv_name":"Uncletopia | Chicago | 5 | All Maps | STV","players":[{"user_id":471,"name":"Spy Among Us","steam_id":76561198027487285,"connected_time":1671000000000,"state":"active","ping":81},{"user_id":445,"name":"[NAME-REDACTED]","steam_id":76561198035682975,"connected_time":3382000000000,"state":"active","ping":71},{"user_id":472,"name":"Warmerfall","steam_id":76561198812218923,"connected_time":1615000000000,"state":"active","ping":84},{"user_id":452,"name":"Horrific Necktie","steam_id":76561197999439391,"connected_time":2593000000000,"state":"active","ping":78},{"user_id":473,"name":"ビーナー","steam_id":76561199196918355,"connected_time":1603000000000,"state":"active","ping":46},{"user_id":474,"name":"DenDa","steam_id":76561198321944154,"connected_time":1576000000000,"state":"active","ping":48},{"user_id":491,"name":"At","steam_id":76561198381841894,"connected_time":594000000000,"state":"active","ping":57},{"user_id":485,"name":"GibbusGod","steam_id":76561199232436690,"connected_time":903000000000,"state":"active","ping":74},{"user_id":453,"name":"Onerish","steam_id":76561198042057889,"connected_time":2528000000000,"state":"active","ping":84},{"user_id":489,"name":"Lord Cutler Beckett","steam_id":76561198091356047,"connected_time":616000000000,"state":"active","ping":52},{"user_id":476,"name":"Tom the Necromancer","steam_id":76561198048895288,"connected_time":1568000000000,"state":"active","ping":54},{"user_id":454,"name":"Isaac","steam_id":76561198293250121,"connected_time":2518000000000,"state":"active","ping":87},{"user_id":493,"name":"Female Gamer","steam_id":76561199366482682,"connected_time":402000000000,"state":"active","ping":102},{"user_id":479,"name":"Candy Sparkles","steam_id":76561198126871264,"connected_time":1419000000000,"state":"active","ping":86},{"user_id":490,"name":"wise","steam_id":76561198030066204,"connected_time":609000000000,"state":"active","ping":56},{"user_id":494,"name":"Viren","steam_id":76561198012636897,"connected_time":289000000000,"state":"active","ping":72},{"user_id":492,"name":"spaceboots","steam_id":76561197977322319,"connected_time":571000000000,"state":"active","ping":65},{"user_id":458,"name":"yoodle doodle","steam_id":76561198054897884,"connected_time":2452000000000,"state":"active","ping":79},{"user_id":488,"name":"Hope","steam_id":76561199201900779,"connected_time":647000000000,"state":"active","ping":75},{"user_id":484,"name":"Deep Curly","steam_id":76561197981290558,"connected_time":997000000000,"state":"active","ping":72},{"user_id":460,"name":"Queen Frau the Round","steam_id":76561197999942134,"connected_time":2432000000000,"state":"active","ping":48},{"user_id":483,"name":"Publix Spring Water","steam_id":76561198188537819,"connected_time":1138000000000,"state":"active","ping":94},{"user_id":482,"name":"TikkTakks","steam_id":76561198353995917,"connected_time":1318000000000,"state":"active","ping":64},{"user_id":463,"name":"Scorpie Doodle","steam_id":76561198021845763,"connected_time":2397000000000,"state":"active","ping":59}]},{"server_id":37,"name":"Uncletopia | Chicago | 6 | All Maps","name_short":"chi-6","host":"chi-2.us.uncletopia.com","port":27025,"enabled":true,"region":"us-central","cc":"us","latitude":41.881832,"longitude":-87.62318,"reserved":0,"last_update":"0001-01-01T00:00:00Z","name_a2s":"Uncletopia | Chicago | 6 | All Maps","protocol":17,"map":"koth_cascade","folder":"tf","game":"Team Fortress","app_id":440,"player_count":20,"max_players":24,"Bots":0,"server_type":"Dedicated","server_os":"Linux","password":true,"vac":true,"version":"7961495","steam_id":85568392924866363,"keywords":["cp","nocrits","nodmgspread","uncletopia"],"game_id":440,"stv_port":27026,"stv_name":"Uncletopia | Chicago | 6 | All Maps | STV","players":[{"user_id":290,"name":"French Fry Burrito!","steam_id":76561198103496593,"connected_time":960000000000,"state":"active","ping":61},{"user_id":301,"name":"Pain Elemental","steam_id":76561198433044023,"connected_time":441000000000,"state":"active","ping":52},{"user_id":291,"name":"honey lemon tea!","steam_id":76561198406252824,"connected_time":949000000000,"state":"active","ping":111},{"user_id":295,"name":"QuakAtack","steam_id":76561198870770157,"connected_time":555000000000,"state":"active","ping":86},{"user_id":296,"name":"The_RainbowTrout","steam_id":76561199309554436,"connected_time":554000000000,"state":"active","ping":97},{"user_id":299,"name":"Sunshine","steam_id":76561198085837469,"connected_time":465000000000,"state":"active","ping":89},{"user_id":311,"name":"Big Unck","steam_id":76561198024658073,"connected_time":107000000000,"state":"active","ping":69},{"user_id":300,"name":"MegaKEKER","steam_id":76561199485792353,"connected_time":457000000000,"state":"active","ping":152},{"user_id":302,"name":"IanTheAwsm","steam_id":76561198093031738,"connected_time":361000000000,"state":"active","ping":60},{"user_id":303,"name":"monsterkill4567","steam_id":76561198272986367,"connected_time":347000000000,"state":"active","ping":111},{"user_id":264,"name":"eepy kitty :3","steam_id":76561198106313563,"connected_time":3513000000000,"state":"active","ping":60},{"user_id":279,"name":"♥ alixei! ♥","steam_id":76561198014557455,"connected_time":2107000000000,"state":"active","ping":65},{"user_id":304,"name":"Thequirka","steam_id":76561198968058652,"connected_time":340000000000,"state":"active","ping":111},{"user_id":305,"name":"riSygneD","steam_id":76561198331618687,"connected_time":215000000000,"state":"active","ping":91},{"user_id":309,"name":"CombatCarl","steam_id":76561198404278779,"connected_time":133000000000,"state":"active","ping":126},{"user_id":307,"name":"[ 7 ]","steam_id":76561199229668733,"connected_time":188000000000,"state":"active","ping":61},{"user_id":310,"name":"Wilfred Carr","steam_id":76561198039149060,"connected_time":127000000000,"state":"active","ping":66},{"user_id":312,"name":"cooljohn1130","steam_id":76561199198864006,"connected_time":102000000000,"state":"active","ping":285},{"user_id":259,"name":"mersaults","steam_id":76561198079927127,"connected_time":3870000000000,"state":"active","ping":43},{"user_id":313,"name":"Ace Chromatica","steam_id":76561198042211131,"connected_time":96000000000,"state":"active","ping":53}]},{"server_id":38,"name":"Uncletopia | Chicago | 7 | Stopwatch","name_short":"chi-7","host":"chi-2.us.uncletopia.com","port":27035,"enabled":true,"region":"us-central","cc":"us","latitude":41.881832,"longitude":-87.62318,"reserved":0,"last_update":"0001-01-01T00:00:00Z","name_a2s":"Uncletopia | Chicago | 7 | Stopwatch","protocol":17,"map":"cp_process_final","folder":"tf","game":"Team Fortress","app_id":440,"player_count":0,"max_players":24,"Bots":0,"server_type":"Dedicated","server_os":"Linux","password":true,"vac":true,"version":"7961495","steam_id":85568392924866364,"keywords":["cp","nocrits","nodmgspread","uncletopia"],"game_id":440,"stv_port":27036,"stv_name":"Uncletopia | Chicago | 7 | Stopwatch | STV","players":null},{"server_id":39,"name":"Uncletopia | Chicago | 8 | Community","name_short":"chi-8","host":"chi-2.us.uncletopia.com","port":27045,"enabled":true,"region":"us-central","cc":"us","latitude":41.881832,"longitude":-87.62318,"reserved":0,"last_update":"0001-01-01T00:00:00Z","name_a2s":"Uncletopia | Chicago | 8 | Community","protocol":17,"map":"workshop/koth_trenchfoot_b1a.ugc731436616","folder":"tf","game":"Team Fortress","app_id":440,"player_count":0,"max_players":24,"Bots":0,"server_type":"Dedicated","server_os":"Linux","password":true,"vac":true,"version":"7961495","steam_id":85568392924866365,"keywords":["cp","nocrits","nodmgspread","uncletopia"],"game_id":440,"stv_port":27046,"stv_name":"Uncletopia | Chicago | 8 | Community | STV","players":null},{"server_id":8,"name":"Uncletopia | Dallas | 1 | All Maps","name_short":"dal-1","host":"dal-1.us.uncletopia.com","port":27015,"enabled":true,"region":"us-central","cc":"us","latitude":32.779167,"longitude":-96.80889,"reserved":0,"last_update":"0001-01-01T00:00:00Z","name_a2s":"Uncletopia | Dallas | 1 | All Maps","protocol":17,"map":"cp_5gorge","folder":"tf","game":"Team Fortress","app_id":440,"player_count":24,"max_players":24,"Bots":0,"server_type":"Dedicated","server_os":"Linux","password":true,"vac":true,"version":"7961495","steam_id":85568392924469986,"keywords":["cp","nocrits","nodmgspread","uncletopia"],"game_id":440,"stv_port":27016,"stv_name":"Uncletopia | Dallas | 1 | All Maps | STV","players":[{"user_id":491,"name":"Golurk with some bitches","steam_id":76561198085888959,"connected_time":439000000000,"state":"active","ping":59},{"user_id":474,"name":"brewkey","steam_id":76561198057896324,"connected_time":1292000000000,"state":"active","ping":51},{"user_id":503,"name":"ChErrY","steam_id":76561198045614766,"connected_time":99000000000,"state":"active","ping":122},{"user_id":439,"name":"sih3","steam_id":76561198081462396,"connected_time":3325000000000,"state":"active","ping":53},{"user_id":475,"name":"Sentinel","steam_id":76561199061395953,"connected_time":1285000000000,"state":"active","ping":113},{"user_id":484,"name":"tsz","steam_id":76561199246231090,"connected_time":498000000000,"state":"active","ping":82},{"user_id":448,"name":"Smug´s","steam_id":76561198071493707,"connected_time":2320000000000,"state":"active","ping":143},{"user_id":504,"name":"Lore","steam_id":76561198098407538,"connected_time":77000000000,"state":"active","ping":72},{"user_id":488,"name":"Levi","steam_id":76561198089832776,"connected_time":462000000000,"state":"active","ping":55},{"user_id":458,"name":"rAnch","steam_id":76561198024562587,"connected_time":1984000000000,"state":"active","ping":41},{"user_id":502,"name":"Name","steam_id":76561199111748012,"connected_time":140000000000,"state":"active","ping":85},{"user_id":480,"name":"floofy","steam_id":76561198389769098,"connected_time":1052000000000,"state":"active","ping":85},{"user_id":483,"name":"Silvermace","steam_id":76561198090696843,"connected_time":671000000000,"state":"active","ping":59},{"user_id":505,"name":"FI LO","steam_id":76561198976530881,"connected_time":54000000000,"state":"active","ping":60},{"user_id":494,"name":"Squids023","steam_id":76561199013031576,"connected_time":380000000000,"state":"active","ping":100},{"user_id":468,"name":"LampMan","steam_id":76561198079857527,"connected_time":1739000000000,"state":"active","ping":61},{"user_id":485,"name":"cringeass nae-nae girl","steam_id":76561198108753857,"connected_time":483000000000,"state":"active","ping":69},{"user_id":498,"name":"aqua","steam_id":76561199407709552,"connected_time":301000000000,"state":"active","ping":78},{"user_id":478,"name":"Grand Champion of Cyrodiil","steam_id":76561198029072412,"connected_time":1161000000000,"state":"active","ping":59},{"user_id":499,"name":"damiankiller1243","steam_id":76561198868885090,"connected_time":244000000000,"state":"active","ping":63},{"user_id":472,"name":"pim","steam_id":76561198095163441,"connected_time":1490000000000,"state":"active","ping":55},{"user_id":481,"name":"u4me","steam_id":76561198001669743,"connected_time":1050000000000,"state":"active","ping":82},{"user_id":446,"name":"Roken","steam_id":76561198037836282,"connected_time":2465000000000,"state":"active","ping":89},{"user_id":501,"name":"intek","steam_id":76561198052705291,"connected_time":179000000000,"state":"active","ping":88}]},{"server_id":108,"name":"Uncletopia | Dallas | 2 | All Maps","name_short":"dal-2","host":"dal-1.us.uncletopia.com","port":27025,"enabled":true,"region":"us-central","cc":"us","latitude":32.779167,"longitude":-96.80889,"reserved":0,"last_update":"0001-01-01T00:00:00Z","name_a2s":"Uncletopia | Dallas | 2 | All Maps","protocol":17,"map":"pl_frontier_final","folder":"tf","game":"Team Fortress","app_id":440,"player_count":23,"max_players":24,"Bots":0,"server_type":"Dedicated","server_os":"Linux","password":true,"vac":true,"version":"7961495","steam_id":85568392924469988,"keywords":["nocrits","nodmgspread","payload","uncletopia"],"game_id":440,"stv_port":27026,"stv_name":"Uncletopia | Dallas | 2 | All Maps | STV","players":[{"user_id":711,"name":"lp","steam_id":76561198058469527,"connected_time":1404000000000,"state":"active","ping":97},{"user_id":732,"name":"PocketTieAMPLFY","steam_id":76561199080485881,"connected_time":492000000000,"state":"active","ping":118},{"user_id":733,"name":"Kaluka","steam_id":76561198036861445,"connected_time":482000000000,"state":"active","ping":91},{"user_id":703,"name":"A Can of AriZona Green Tea","steam_id":76561198062481133,"connected_time":2396000000000,"state":"active","ping":78},{"user_id":708,"name":"Engideer","steam_id":76561198145733164,"connected_time":1673000000000,"state":"active","ping":46},{"user_id":672,"name":"Quick-Fix","steam_id":76561198295501978,"connected_time":4354000000000,"state":"active","ping":56},{"user_id":712,"name":"bald man on a plane to turkey","steam_id":76561198060296782,"connected_time":1331000000000,"state":"active","ping":91},{"user_id":727,"name":"Hermit_","steam_id":76561198013807290,"connected_time":779000000000,"state":"active","ping":59},{"user_id":679,"name":"BlancaLamb","steam_id":76561198025646073,"connected_time":3842000000000,"state":"active","ping":77},{"user_id":710,"name":"7thelden","steam_id":76561198297428761,"connected_time":1533000000000,"state":"active","ping":86},{"user_id":728,"name":"EvilPigglet","steam_id":76561197987243470,"connected_time":722000000000,"state":"active","ping":75},{"user_id":720,"name":"what da dog doin","steam_id":76561198090573639,"connected_time":1108000000000,"state":"active","ping":79},{"user_id":742,"name":"LEAN \u003c3","steam_id":76561198185286203,"connected_time":297000000000,"state":"active","ping":73},{"user_id":743,"name":"leumas","steam_id":76561198240408540,"connected_time":279000000000,"state":"active","ping":76},{"user_id":706,"name":"Jag_Samurott","steam_id":76561198262036126,"connected_time":2074000000000,"state":"active","ping":79},{"user_id":745,"name":"[ØWQJØ]chubacaalatake","steam_id":76561198136201697,"connected_time":93000000000,"state":"active","ping":137},{"user_id":736,"name":"2L84U","steam_id":76561198079176017,"connected_time":469000000000,"state":"active","ping":109},{"user_id":664,"name":"Howell at the Moon","steam_id":76561198060827426,"connected_time":5515000000000,"state":"active","ping":76},{"user_id":744,"name":"craxyt","steam_id":76561198050192689,"connected_time":251000000000,"state":"active","ping":87},{"user_id":721,"name":"Boba T","steam_id":76561198012278650,"connected_time":1086000000000,"state":"active","ping":115},{"user_id":724,"name":"k1tty","steam_id":76561198869348268,"connected_time":1029000000000,"state":"active","ping":75},{"user_id":584,"name":"Anon","steam_id":76561198109740776,"connected_time":12319000000000,"state":"active","ping":100},{"user_id":723,"name":"mr.edderkopper","steam_id":76561198152614478,"connected_time":1085000000000,"state":"active","ping":69}]},{"server_id":404,"name":"Uncletopia | Dallas | 3 | All Maps","name_short":"dal-3","host":"dal-1.us.uncletopia.com","port":27035,"enabled":true,"region":"us-central","cc":"us","latitude":32.779167,"longitude":-96.80889,"reserved":0,"last_update":"0001-01-01T00:00:00Z","name_a2s":"Uncletopia | Dallas | 3 | All Maps","protocol":17,"map":"pl_barnblitz","folder":"tf","game":"Team Fortress","app_id":440,"player_count":24,"max_players":24,"Bots":0,"server_type":"Dedicated","server_os":"Linux","password":true,"vac":true,"version":"7961495","steam_id":85568392924515219,"keywords":["nocrits","nodmgspread","payload","uncletopia"],"game_id":440,"stv_port":27036,"stv_name":"Uncletopia | Dallas | 3 | All Maps | STV","players":[{"user_id":256,"name":"magnanimity","steam_id":76561198242842394,"connected_time":1542000000000,"state":"active","ping":49},{"user_id":285,"name":"Mythical Lag","steam_id":76561198347031281,"connected_time":437000000000,"state":"active","ping":53},{"user_id":288,"name":"WesyUWU (The mini crit pig)","steam_id":76561198069188177,"connected_time":57000000000,"state":"active","ping":73},{"user_id":230,"name":"Nightmare","steam_id":76561198409907417,"connected_time":3468000000000,"state":"active","ping":89},{"user_id":280,"name":"A Shiny Meat Bicycle","steam_id":76561198358757709,"connected_time":534000000000,"state":"active","ping":92},{"user_id":259,"name":"smooth brain","steam_id":76561198049253541,"connected_time":1444000000000,"state":"active","ping":64},{"user_id":286,"name":"ElectronX","steam_id":76561198116034988,"connected_time":368000000000,"state":"active","ping":83},{"user_id":284,"name":"Chilis 2 for 20","steam_id":76561198121544531,"connected_time":453000000000,"state":"active","ping":77},{"user_id":267,"name":"Magma","steam_id":76561197995793614,"connected_time":809000000000,"state":"active","ping":71},{"user_id":215,"name":"Ket","steam_id":76561198241951244,"connected_time":4034000000000,"state":"active","ping":60},{"user_id":274,"name":"LargeBigboy","steam_id":76561198089293265,"connected_time":623000000000,"state":"active","ping":70},{"user_id":240,"name":"Big Inch","steam_id":76561198052513500,"connected_time":2988000000000,"state":"active","ping":67},{"user_id":281,"name":"caca sniffer","steam_id":76561199099914725,"connected_time":530000000000,"state":"active","ping":94},{"user_id":282,"name":"Fargo","steam_id":76561198044703931,"connected_time":524000000000,"state":"active","ping":61},{"user_id":283,"name":"Grandpa 1MinecraftEmpire","steam_id":76561198069046338,"connected_time":491000000000,"state":"active","ping":69},{"user_id":273,"name":"The Horny","steam_id":76561198863639459,"connected_time":650000000000,"state":"active","ping":115},{"user_id":265,"name":"b","steam_id":76561198156336213,"connected_time":962000000000,"state":"active","ping":90},{"user_id":275,"name":"CatLike Pigeon","steam_id":76561198171716030,"connected_time":621000000000,"state":"active","ping":106},{"user_id":276,"name":"ElBentz","steam_id":76561199059582221,"connected_time":612000000000,"state":"active","ping":82},{"user_id":250,"name":"caliecat","steam_id":76561198075902571,"connected_time":1888000000000,"state":"active","ping":85},{"user_id":269,"name":"raya","steam_id":76561198051504581,"connected_time":795000000000,"state":"active","ping":45},{"user_id":289,"name":"WM1 PYRO","steam_id":76561198045893896,"connected_time":9000000000,"state":"active","ping":108},{"user_id":287,"name":"TPScout","steam_id":76561198353808504,"connected_time":301000000000,"state":"active","ping":88},{"user_id":277,"name":"Steven","steam_id":76561198075526342,"connected_time":599000000000,"state":"active","ping":51}]},{"server_id":405,"name":"Uncletopia | Dallas | 4 | Community","name_short":"dal-4","host":"dal-1.us.uncletopia.com","port":27045,"enabled":true,"region":"us-central","cc":"us","latitude":32.779167,"longitude":-96.80889,"reserved":0,"last_update":"0001-01-01T00:00:00Z","name_a2s":"Uncletopia | Dallas | 4 | Community","protocol":17,"map":"workshop/koth_trenchfoot_b1a.ugc731436616","folder":"tf","game":"Team Fortress","app_id":440,"player_count":0,"max_players":24,"Bots":0,"server_type":"Dedicated","server_os":"Linux","password":true,"vac":true,"version":"7961495","steam_id":85568392924515220,"keywords":["cp","nocrits","nodmgspread","uncletopia"],"game_id":440,"stv_port":27046,"stv_name":"Uncletopia | Dallas | 4 | Community | STV","players":null},{"server_id":5,"name":"Uncletopia | Frankfurt | 1 | All Maps","name_short":"frk-1","host":"frk-1.de.uncletopia.com","port":27015,"enabled":true,"region":"eu","cc":"de","latitude":50.110924,"longitude":8.682127,"reserved":0,"last_update":"0001-01-01T00:00:00Z","name_a2s":"Uncletopia | Frankfurt | 1 | All Maps","protocol":17,"map":"koth_highpass","folder":"tf","game":"Team Fortress","app_id":440,"player_count":0,"max_players":24,"Bots":0,"server_type":"Dedicated","server_os":"Linux","password":true,"vac":true,"version":"7961495","steam_id":85568392924469989,"keywords":["cp","nocrits","nodmgspread","uncletopia"],"game_id":440,"stv_port":27016,"stv_name":"Uncletopia | Frankfurt | 1 | All Maps | STV","players":null},{"server_id":110,"name":"Uncletopia | Frankfurt | 2 | All Maps","name_short":"frk-2","host":"frk-1.de.uncletopia.com","port":27025,"enabled":true,"region":"eu","cc":"de","latitude":50.110924,"longitude":8.682127,"reserved":0,"last_update":"0001-01-01T00:00:00Z","name_a2s":"Uncletopia | Frankfurt | 2 | All Maps","protocol":17,"map":"cp_dustbowl","folder":"tf","game":"Team Fortress","app_id":440,"player_count":0,"max_players":24,"Bots":0,"server_type":"Dedicated","server_os":"Linux","password":true,"vac":true,"version":"7961495","steam_id":85568392924469990,"keywords":["cp","nocrits","nodmgspread","uncletopia"],"game_id":440,"stv_port":27026,"stv_name":"Uncletopia | Frankfurt | 2 | All Maps | STV","players":null},{"server_id":308,"name":"Uncletopia | Frankfurt | 3 | All Maps","name_short":"frk-3","host":"frk-1.de.uncletopia.com","port":27035,"enabled":true,"region":"eu","cc":"de","latitude":50.110924,"longitude":8.682127,"reserved":0,"last_update":"0001-01-01T00:00:00Z","name_a2s":"Uncletopia | Frankfurt | 3 | All Maps","protocol":17,"map":"pl_barnblitz","folder":"tf","game":"Team Fortress","app_id":440,"player_count":0,"max_players":24,"Bots":0,"server_type":"Dedicated","server_os":"Linux","password":true,"vac":true,"version":"7961495","steam_id":85568392924504274,"keywords":["nocrits","nodmgspread","payload","uncletopia"],"game_id":440,"stv_port":27036,"stv_name":"Uncletopia | Frankfurt | 3 | All Maps | STV","players":null},{"server_id":309,"name":"Uncletopia | Frankfurt | 4 | All Maps","name_short":"frk-4","host":"frk-1.de.uncletopia.com","port":27045,"enabled":true,"region":"eu","cc":"de","latitude":50.110924,"longitude":8.682127,"reserved":0,"last_update":"0001-01-01T00:00:00Z","name_a2s":"Uncletopia | Frankfurt | 4 | All Maps","protocol":17,"map":"koth_highpass","folder":"tf","game":"Team Fortress","app_id":440,"player_count":0,"max_players":24,"Bots":0,"server_type":"Dedicated","server_os":"Linux","password":true,"vac":true,"version":"7961495","steam_id":85568392924504275,"keywords":["cp","nocrits","nodmgspread","uncletopia"],"game_id":440,"stv_port":27046,"stv_name":"Uncletopia | Frankfurt | 4 | All Maps | STV","players":null},{"server_id":310,"name":"Uncletopia | Frankfurt | 5 | All Maps","name_short":"frk-5","host":"frk-1.de.uncletopia.com","port":27055,"enabled":true,"region":"eu","cc":"de","latitude":50.110924,"longitude":8.682127,"reserved":0,"last_update":"0001-01-01T00:00:00Z","name_a2s":"Uncletopia | Frankfurt | 5 | All Maps","protocol":17,"map":"pl_badwater","folder":"tf","game":"Team Fortress","app_id":440,"player_count":0,"max_players":24,"Bots":0,"server_type":"Dedicated","server_os":"Linux","password":true,"vac":true,"version":"7961495","steam_id":85568392924504277,"keywords":["nocrits","nodmgspread","payload","uncletopia"],"game_id":440,"stv_port":27056,"stv_name":"Uncletopia | Frankfurt | 5 | All Maps | STV","players":null},{"server_id":311,"name":"Uncletopia | Frankfurt | 6 | All Maps","name_short":"frk-6","host":"frk-1.de.uncletopia.com","port":27065,"enabled":true,"region":"eu","cc":"de","latitude":50.110924,"longitude":8.682127,"reserved":0,"last_update":"0001-01-01T00:00:00Z","name_a2s":"Uncletopia | Frankfurt | 6 | All Maps","protocol":17,"map":"cp_altitude","folder":"tf","game":"Team Fortress","app_id":440,"player_count":0,"max_players":24,"Bots":0,"server_type":"Dedicated","server_os":"Linux","password":true,"vac":true,"version":"7961495","steam_id":85568392924504278,"keywords":["cp","nocrits","nodmgspread","uncletopia"],"game_id":440,"stv_port":27066,"stv_name":"Uncletopia | Frankfurt | 6 | All Maps | STV","players":null},{"server_id":23,"name":"Uncletopia | Frankfurt | 7 | Stopwatch","name_short":"frk-7","host":"frk-1.de.uncletopia.com","port":27075,"enabled":true,"region":"eu","cc":"de","latitude":50.110924,"longitude":8.682127,"reserved":0,"last_update":"0001-01-01T00:00:00Z","name_a2s":"Uncletopia | Frankfurt | 7 | Stopwatch","protocol":17,"map":"pl_frontier_final","folder":"tf","game":"Team Fortress","app_id":440,"player_count":0,"max_players":24,"Bots":0,"server_type":"Dedicated","server_os":"Linux","password":true,"vac":true,"version":"7961495","steam_id":85568392924742827,"keywords":["nocrits","nodmgspread","payload","uncletopia"],"game_id":440,"stv_port":27076,"stv_name":"Uncletopia | Frankfurt | 7 | Stopwatch | STV","players":null},{"server_id":24,"name":"Uncletopia | Frankfurt | 8 | Community","name_short":"frk-8","host":"frk-1.de.uncletopia.com","port":27085,"enabled":true,"region":"eu","cc":"de","latitude":50.110924,"longitude":8.682127,"reserved":0,"last_update":"0001-01-01T00:00:00Z","name_a2s":"Uncletopia | Frankfurt | 8 | Community","protocol":17,"map":"cp_mountainlab","folder":"tf","game":"Team Fortress","app_id":440,"player_count":0,"max_players":24,"Bots":0,"server_type":"Dedicated","server_os":"Linux","password":true,"vac":true,"version":"7961495","steam_id":85568392924742828,"keywords":["cp","nocrits","nodmgspread","uncletopia"],"game_id":440,"stv_port":27086,"stv_name":"Uncletopia | Frankfurt | 8 | Community | STV","players":null},{"server_id":202,"name":"Uncletopia | Hong Kong | 1 | All Maps","name_short":"hgk-1","host":"hgk-1.hk.uncletopia.com","port":27015,"enabled":true,"region":"asia","cc":"hk","latitude":22.302711,"longitude":114.177216,"reserved":0,"last_update":"0001-01-01T00:00:00Z","name_a2s":"Uncletopia | Hong Kong | 1 | All Maps","protocol":17,"map":"pl_badwater","folder":"tf","game":"Team Fortress","app_id":440,"player_count":0,"max_players":24,"Bots":0,"server_type":"Dedicated","server_os":"Linux","password":true,"vac":true,"version":"7961495","steam_id":85568392924494504,"keywords":["nocrits","nodmgspread","payload","uncletopia"],"game_id":440,"stv_port":27016,"stv_name":"Uncletopia | Hong Kong | 1 | All Maps | STV","players":null},{"server_id":1,"name":"Uncletopia | Los Angeles | 1 | All Maps","name_short":"lax-1","host":"lax-1.us.uncletopia.com","port":27015,"enabled":true,"region":"us-west","cc":"us","latitude":33.94279,"longitude":-118.41004,"reserved":0,"last_update":"0001-01-01T00:00:00Z","name_a2s":"Uncletopia | Los Angeles | 1 | All Maps","protocol":17,"map":"pl_snowycoast","folder":"tf","game":"Team Fortress","app_id":440,"player_count":20,"max_players":24,"Bots":0,"server_type":"Dedicated","server_os":"Linux","password":true,"vac":true,"version":"7961495","steam_id":85568392924469991,"keywords":["nocrits","nodmgspread","payload","uncletopia"],"game_id":440,"stv_port":27016,"stv_name":"Uncletopia | Los Angeles | 1 | All Maps | STV","players":[{"user_id":320,"name":"mudd","steam_id":76561198114968340,"connected_time":1420000000000,"state":"active","ping":70},{"user_id":301,"name":"Chinaski","steam_id":76561198092218594,"connected_time":3086000000000,"state":"active","ping":63},{"user_id":328,"name":"☢(XJ)","steam_id":76561198102189618,"connected_time":148000000000,"state":"active","ping":39},{"user_id":331,"name":"female twink","steam_id":76561198057884377,"connected_time":2000000000,"state":"spawning","ping":85},{"user_id":295,"name":"squart guy","steam_id":76561199411560141,"connected_time":3573000000000,"state":"active","ping":73},{"user_id":329,"name":"The_Pacific_gamer","steam_id":76561198089491446,"connected_time":106000000000,"state":"active","ping":78},{"user_id":296,"name":"Obersteuermann","steam_id":76561198044468707,"connected_time":3564000000000,"state":"active","ping":72},{"user_id":275,"name":"Tim","steam_id":76561198126844549,"connected_time":4486000000000,"state":"active","ping":45},{"user_id":326,"name":"cringy","steam_id":76561198323000455,"connected_time":403000000000,"state":"active","ping":66},{"user_id":324,"name":"Juice","steam_id":76561198085001331,"connected_time":940000000000,"state":"active","ping":63},{"user_id":330,"name":"Scorpianswag","steam_id":76561198260651036,"connected_time":97000000000,"state":"active","ping":37},{"user_id":323,"name":"sola venereum","steam_id":76561198368179166,"connected_time":1111000000000,"state":"active","ping":56},{"user_id":332,"name":"Borgor Boi","steam_id":76561199061388107,"connected_time":1000000000,"state":"spawning","ping":104},{"user_id":325,"name":"Peppino","steam_id":76561199139504199,"connected_time":574000000000,"state":"active","ping":58},{"user_id":258,"name":"rad killl raccoon","steam_id":76561198980975595,"connected_time":5890000000000,"state":"active","ping":97},{"user_id":327,"name":"vioxynteris","steam_id":76561198161428666,"connected_time":183000000000,"state":"active","ping":30},{"user_id":308,"name":"Green_GarBear","steam_id":76561199468912415,"connected_time":2592000000000,"state":"active","ping":55},{"user_id":303,"name":"Hefty Scout","steam_id":76561198255257967,"connected_time":2863000000000,"state":"active","ping":85},{"user_id":322,"name":"Eggs","steam_id":76561198060148916,"connected_time":1414000000000,"state":"active","ping":50},{"user_id":300,"name":"BrockSpread","steam_id":76561198145924402,"connected_time":3205000000000,"state":"active","ping":83}]},{"server_id":112,"name":"Uncletopia | Los Angeles | 2 | All Maps","name_short":"lax-2","host":"lax-1.us.uncletopia.com","port":27025,"enabled":true,"region":"us-west","cc":"us","latitude":33.94279,"longitude":-118.41004,"reserved":0,"last_update":"0001-01-01T00:00:00Z","name_a2s":"Uncletopia | Los Angeles | 2 | All Maps","protocol":17,"map":"pl_goldrush","folder":"tf","game":"Team Fortress","app_id":440,"player_count":23,"max_players":24,"Bots":0,"server_type":"Dedicated","server_os":"Linux","password":true,"vac":true,"version":"7961495","steam_id":85568392924469992,"keywords":["nocrits","nodmgspread","payload","uncletopia"],"game_id":440,"stv_port":27026,"stv_name":"Uncletopia | Los Angeles | 2 | All Maps | STV","players":[{"user_id":528,"name":"Major_Pippy","steam_id":76561198004482878,"connected_time":1462000000000,"state":"active","ping":71},{"user_id":517,"name":"Space360","steam_id":76561198106743284,"connected_time":1982000000000,"state":"active","ping":82},{"user_id":546,"name":"poopy joe","steam_id":76561198007742906,"connected_time":465000000000,"state":"active","ping":38},{"user_id":486,"name":"Monki","steam_id":76561198964210411,"connected_time":4048000000000,"state":"active","ping":57},{"user_id":523,"name":"Idiotden","steam_id":76561199340950135,"connected_time":1520000000000,"state":"active","ping":50},{"user_id":520,"name":"lol","steam_id":76561198026491738,"connected_time":1676000000000,"state":"active","ping":62},{"user_id":521,"name":"xD","steam_id":76561198149683030,"connected_time":1656000000000,"state":"active","ping":71},{"user_id":540,"name":"Soulja Boy","steam_id":76561198066091050,"connected_time":685000000000,"state":"active","ping":79},{"user_id":551,"name":"erutoumo","steam_id":76561198093146919,"connected_time":35000000000,"state":"active","ping":70},{"user_id":529,"name":"cielael","steam_id":76561198043971956,"connected_time":1445000000000,"state":"active","ping":46},{"user_id":502,"name":"Lord","steam_id":76561198303081758,"connected_time":2966000000000,"state":"active","ping":44},{"user_id":538,"name":"anakin ballstomper","steam_id":76561198184814466,"connected_time":719000000000,"state":"active","ping":71},{"user_id":541,"name":"SneekiCheekiQbone","steam_id":76561198045077980,"connected_time":657000000000,"state":"active","ping":43},{"user_id":549,"name":"silvanae324","steam_id":76561199150642573,"connected_time":317000000000,"state":"active","ping":90},{"user_id":492,"name":"AAAAAAAAAAAAAAAAAAAAAAAAAAAAAAA","steam_id":76561198125467937,"connected_time":3585000000000,"state":"active","ping":68},{"user_id":494,"name":"Jazpy","steam_id":76561198036872545,"connected_time":3448000000000,"state":"active","ping":76},{"user_id":524,"name":"Ralph Kramden (Slim Charles)","steam_id":76561197981687895,"connected_time":1515000000000,"state":"active","ping":58},{"user_id":504,"name":"fresh prince of citadel","steam_id":76561198420237035,"connected_time":2962000000000,"state":"active","ping":76},{"user_id":542,"name":"OH JIMMY I'M HOME #SavedTf2","steam_id":76561198396658806,"connected_time":641000000000,"state":"active","ping":67},{"user_id":547,"name":"Brain damage squirrel","steam_id":76561198846344452,"connected_time":443000000000,"state":"active","ping":50},{"user_id":548,"name":"Titan Exodos","steam_id":76561198063852935,"connected_time":439000000000,"state":"active","ping":90},{"user_id":532,"name":"DeratedDesign","steam_id":76561199078779967,"connected_time":1278000000000,"state":"active","ping":92},{"user_id":545,"name":"enveloped powertrip","steam_id":76561198011675372,"connected_time":571000000000,"state":"active","ping":87}]},{"server_id":324,"name":"Uncletopia | Los Angeles | 3 | All Maps","name_short":"lax-3","host":"lax-1.us.uncletopia.com","port":27035,"enabled":true,"region":"us-west","cc":"us","latitude":33.94279,"longitude":-118.41004,"reserved":0,"last_update":"0001-01-01T00:00:00Z","name_a2s":"Uncletopia | Los Angeles | 3 | All Maps","protocol":17,"map":"koth_viaduct","folder":"tf","game":"Team Fortress","app_id":440,"player_count":0,"max_players":24,"Bots":0,"server_type":"Dedicated","server_os":"Linux","password":true,"vac":true,"version":"7961495","steam_id":85568392924510198,"keywords":["cp","nocrits","nodmgspread","uncletopia"],"game_id":440,"stv_port":27036,"stv_name":"Uncletopia | Los Angeles | 3 | All Maps | STV","players":null},{"server_id":25,"name":"Uncletopia | Los Angeles | 4 | Stopwatch","name_short":"lax-4","host":"lax-1.us.uncletopia.com","port":27045,"enabled":true,"region":"us-west","cc":"us","latitude":33.94279,"longitude":-118.41004,"reserved":0,"last_update":"0001-01-01T00:00:00Z","name_a2s":"Uncletopia | Los Angeles | 4 | Stopwatch","protocol":17,"map":"workshop/pl_badwater_pro_v12.ugc2142942074","folder":"tf","game":"Team Fortress","app_id":440,"player_count":0,"max_players":24,"Bots":0,"server_type":"Dedicated","server_os":"Linux","password":true,"vac":true,"version":"7961495","steam_id":85568392924510199,"keywords":["nocrits","nodmgspread","payload","uncletopia"],"game_id":440,"stv_port":27046,"stv_name":"Uncletopia | Los Angeles | 4 | Stopwatch | STV","players":null},{"server_id":11,"name":"Uncletopia | London | 1 | All Maps","name_short":"lon-1","host":"lon-1.uk.uncletopia.com","port":27015,"enabled":true,"region":"eu","cc":"gb","latitude":51.509865,"longitude":-0.118092,"reserved":0,"last_update":"0001-01-01T00:00:00Z","name_a2s":"Uncletopia | London | 1 | All Maps","protocol":17,"map":"koth_lakeside_final","folder":"tf","game":"Team Fortress","app_id":440,"player_count":0,"max_players":24,"Bots":0,"server_type":"Dedicated","server_os":"Linux","password":true,"vac":true,"version":"7961495","steam_id":85568392924367362,"keywords":["cp","nocrits","nodmgspread","uncletopia"],"game_id":440,"stv_port":27016,"stv_name":"Uncletopia | London | 1 | All Maps | STV","players":null},{"server_id":114,"name":"Uncletopia | London | 2 | All Maps","name_short":"lon-2","host":"lon-1.uk.uncletopia.com","port":27025,"enabled":true,"region":"eu","cc":"gb","latitude":51.509865,"longitude":-0.118092,"reserved":0,"last_update":"0001-01-01T00:00:00Z","name_a2s":"Uncletopia | London | 2 | All Maps","protocol":17,"map":"koth_viaduct","folder":"tf","game":"Team Fortress","app_id":440,"player_count":0,"max_players":24,"Bots":0,"server_type":"Dedicated","server_os":"Linux","password":true,"vac":true,"version":"7961495","steam_id":85568392924470941,"keywords":["cp","nocrits","nodmgspread","uncletopia"],"game_id":440,"stv_port":27026,"stv_name":"Uncletopia | London | 2 | All Maps | STV","players":null},{"server_id":320,"name":"Uncletopia | London | 3 | All Maps","name_short":"lon-3","host":"lon-1.uk.uncletopia.com","port":27035,"enabled":true,"region":"eu","cc":"gb","latitude":51.509865,"longitude":-0.118092,"reserved":0,"last_update":"0001-01-01T00:00:00Z","name_a2s":"Uncletopia | London | 3 | All Maps","protocol":17,"map":"pl_barnblitz","folder":"tf","game":"Team Fortress","app_id":440,"player_count":0,"max_players":24,"Bots":0,"server_type":"Dedicated","server_os":"Linux","password":true,"vac":true,"version":"7961495","steam_id":85568392924510192,"keywords":["nocrits","nodmgspread","payload","uncletopia"],"game_id":440,"stv_port":27036,"stv_name":"Uncletopia | London | 3 | All Maps | STV","players":null},{"server_id":321,"name":"Uncletopia | London | 4 | All Maps","name_short":"lon-4","host":"lon-1.uk.uncletopia.com","port":27045,"enabled":true,"region":"eu","cc":"gb","latitude":51.509865,"longitude":-0.118092,"reserved":0,"last_update":"0001-01-01T00:00:00Z","name_a2s":"Uncletopia | London | 4 | All Maps","protocol":17,"map":"koth_cascade","folder":"tf","game":"Team Fortress","app_id":440,"player_count":0,"max_players":24,"Bots":0,"server_type":"Dedicated","server_os":"Linux","password":true,"vac":true,"version":"7961495","steam_id":85568392924510193,"keywords":["cp","nocrits","nodmgspread","uncletopia"],"game_id":440,"stv_port":27046,"stv_name":"Uncletopia | London | 4 | All Maps | STV","players":null},{"server_id":21,"name":"Uncletopia | London | 5 | All Maps","name_short":"lon-5","host":"lon-1.uk.uncletopia.com","port":27055,"enabled":true,"region":"eu","cc":"gb","latitude":51.509865,"longitude":-0.118092,"reserved":0,"last_update":"0001-01-01T00:00:00Z","name_a2s":"Uncletopia | London | 5 | All Maps","protocol":17,"map":"pl_swiftwater_final1","folder":"tf","game":"Team Fortress","app_id":440,"player_count":0,"max_players":24,"Bots":0,"server_type":"Dedicated","server_os":"Linux","password":true,"vac":true,"version":"7961495","steam_id":85568392924742829,"keywords":["nocrits","nodmgspread","payload","uncletopia"],"game_id":440,"stv_port":27056,"stv_name":"Uncletopia | London | 5 | All Maps | STV","players":null},{"server_id":22,"name":"Uncletopia | London | 6 | All Maps","name_short":"lon-6","host":"lon-1.uk.uncletopia.com","port":27065,"enabled":true,"region":"eu","cc":"gb","latitude":51.509865,"longitude":-0.118092,"reserved":0,"last_update":"0001-01-01T00:00:00Z","name_a2s":"Uncletopia | London | 6 | All Maps","protocol":17,"map":"pl_borneo","folder":"tf","game":"Team Fortress","app_id":440,"player_count":0,"max_players":24,"Bots":0,"server_type":"Dedicated","server_os":"Linux","password":true,"vac":true,"version":"7961495","steam_id":85568392924742830,"keywords":["nocrits","nodmgspread","payload","uncletopia"],"game_id":440,"stv_port":27066,"stv_name":"Uncletopia | London | 6 | All Maps | STV","players":null},{"server_id":40,"name":"Uncletopia | London | 7 | Stopwatch","name_short":"lon-7","host":"lon-1.uk.uncletopia.com","port":27075,"enabled":true,"region":"eu","cc":"gb","latitude":51.509865,"longitude":-0.118092,"reserved":0,"last_update":"0001-01-01T00:00:00Z","name_a2s":"Uncletopia | London | 7 | Stopwatch","protocol":17,"map":"workshop/koth_ramjam_rc1.ugc459778887","folder":"tf","game":"Team Fortress","app_id":440,"player_count":0,"max_players":24,"Bots":0,"server_type":"Dedicated","server_os":"Linux","password":true,"vac":true,"version":"7961495","steam_id":85568392924964314,"keywords":["cp","nocrits","nodmgspread","uncletopia"],"game_id":440,"stv_port":27076,"stv_name":"Uncletopia | London | 7 | Stopwatch | STV","players":null},{"server_id":41,"name":"Uncletopia | London | 8 | Community","name_short":"lon-8","host":"lon-1.uk.uncletopia.com","port":27085,"enabled":true,"region":"eu","cc":"gb","latitude":51.509865,"longitude":-0.118092,"reserved":0,"last_update":"0001-01-01T00:00:00Z","name_a2s":"Uncletopia | London | 8 | Community","protocol":17,"map":"workshop/cp_caldera_rc2.ugc2834196889","folder":"tf","game":"Team Fortress","app_id":440,"player_count":0,"max_players":24,"Bots":0,"server_type":"Dedicated","server_os":"Linux","password":true,"vac":true,"version":"7961495","steam_id":85568392924964315,"keywords":["cp","nocrits","nodmgspread","uncletopia"],"game_id":440,"stv_port":27086,"stv_name":"Uncletopia | London | 8 | Community | STV","players":null},{"server_id":300,"name":"Uncletopia | Montréal | 1 | All Maps","name_short":"mtl-1","host":"mtl-1.ca.uncletopia.com","port":27015,"enabled":true,"region":"us-east","cc":"ca","latitude":45.50889,"longitude":-73.56167,"reserved":0,"last_update":"0001-01-01T00:00:00Z","name_a2s":"","protocol":0,"map":"","folder":"","game":"","app_id":0,"player_count":0,"max_players":0,"Bots":0,"server_type":"","server_os":"","password":false,"vac":false,"version":"","steam_id":0,"keywords":null,"game_id":0,"stv_port":0,"stv_name":"","players":null},{"server_id":301,"name":"Uncletopia | Montréal | 2 | All Maps","name_short":"mtl-2","host":"mtl-1.ca.uncletopia.com","port":27025,"enabled":true,"region":"us-east","cc":"ca","latitude":45.50889,"longitude":-73.56167,"reserved":0,"last_update":"0001-01-01T00:00:00Z","name_a2s":"","protocol":0,"map":"","folder":"","game":"","app_id":0,"player_count":0,"max_players":0,"Bots":0,"server_type":"","server_os":"","password":false,"vac":false,"version":"","steam_id":0,"keywords":null,"game_id":0,"stv_port":0,"stv_name":"","players":null},{"server_id":302,"name":"Uncletopia | Montréal | 3 | All Maps","name_short":"mtl-3","host":"mtl-1.ca.uncletopia.com","port":27035,"enabled":true,"region":"us-east","cc":"ca","latitude":45.50889,"longitude":-73.56167,"reserved":0,"last_update":"0001-01-01T00:00:00Z","name_a2s":"","protocol":0,"map":"","folder":"","game":"","app_id":0,"player_count":0,"max_players":0,"Bots":0,"server_type":"","server_os":"","password":false,"vac":false,"version":"","steam_id":0,"keywords":null,"game_id":0,"stv_port":0,"stv_name":"","players":null},{"server_id":303,"name":"Uncletopia | Montréal | 4 | No Payload","name_short":"mtl-4","host":"mtl-1.ca.uncletopia.com","port":27045,"enabled":true,"region":"us-east","cc":"ca","latitude":45.50889,"longitude":-73.56167,"reserved":0,"last_update":"0001-01-01T00:00:00Z","name_a2s":"","protocol":0,"map":"","folder":"","game":"","app_id":0,"player_count":0,"max_players":0,"Bots":0,"server_type":"","server_os":"","password":false,"vac":false,"version":"","steam_id":0,"keywords":null,"game_id":0,"stv_port":0,"stv_name":"","players":null},{"server_id":13,"name":"Uncletopia | New York City | 1 | All Maps","name_short":"nyc-1","host":"nyc-1.us.uncletopia.com","port":27015,"enabled":true,"region":"us-east","cc":"us","latitude":40.73061,"longitude":-73.93524,"reserved":0,"last_update":"0001-01-01T00:00:00Z","name_a2s":"Uncletopia | New York City | 1 | All Maps","protocol":17,"map":"cp_dustbowl","folder":"tf","game":"Team Fortress","app_id":440,"player_count":24,"max_players":24,"Bots":0,"server_type":"Dedicated","server_os":"Linux","password":true,"vac":true,"version":"7961495","steam_id":85568392924469993,"keywords":["cp","nocrits","nodmgspread","uncletopia"],"game_id":440,"stv_port":27016,"stv_name":"Uncletopia | New York City | 1 | All Maps | STV","players":[{"user_id":401,"name":"googa","steam_id":76561198133130452,"connected_time":10917000000000,"state":"active","ping":46},{"user_id":525,"name":"joe iroh","steam_id":76561198173105270,"connected_time":698000000000,"state":"active","ping":53},{"user_id":521,"name":"lightduck","steam_id":76561197987768292,"connected_time":812000000000,"state":"active","ping":118},{"user_id":522,"name":"Trucks N' Cocaine","steam_id":76561198117286868,"connected_time":790000000000,"state":"active","ping":164},{"user_id":517,"name":"Machine Girl - SAD CLAPS","steam_id":76561198294013916,"connected_time":971000000000,"state":"active","ping":45},{"user_id":464,"name":"Two-Teste Tommy","steam_id":76561198064308936,"connected_time":6360000000000,"state":"active","ping":56},{"user_id":520,"name":"bnnnnanna","steam_id":76561198157455741,"connected_time":886000000000,"state":"active","ping":45},{"user_id":523,"name":"Herdez Hot Salsa","steam_id":76561197991740906,"connected_time":784000000000,"state":"active","ping":68},{"user_id":532,"name":"Lore64","steam_id":76561198886206908,"connected_time":115000000000,"state":"active","ping":70},{"user_id":505,"name":"MrLonelySlayer","steam_id":76561198061793470,"connected_time":1469000000000,"state":"active","ping":55},{"user_id":506,"name":"917-258-3609","steam_id":76561198174436329,"connected_time":1463000000000,"state":"active","ping":62},{"user_id":507,"name":"Maxyyt","steam_id":76561198062309005,"connected_time":1350000000000,"state":"active","ping":57},{"user_id":529,"name":"hashmap","steam_id":76561198043794014,"connected_time":381000000000,"state":"active","ping":53},{"user_id":442,"name":"Bert.","steam_id":76561198140666346,"connected_time":7544000000000,"state":"active","ping":49},{"user_id":488,"name":"Dr. Mosquito, M.D.","steam_id":76561198292258115,"connected_time":5013000000000,"state":"active","ping":77},{"user_id":526,"name":"не бери в голову","steam_id":76561198066716670,"connected_time":686000000000,"state":"active","ping":88},{"user_id":510,"name":"Jean Deere","steam_id":76561198105101309,"connected_time":1245000000000,"state":"active","ping":60},{"user_id":512,"name":"Doofenshmirtz Evil Inc.","steam_id":76561198439793697,"connected_time":1124000000000,"state":"active","ping":88},{"user_id":527,"name":"GrahamisGood","steam_id":76561198988396980,"connected_time":540000000000,"state":"active","ping":53},{"user_id":477,"name":"SnickerNoodle","steam_id":76561198064359644,"connected_time":5521000000000,"state":"active","ping":60},{"user_id":514,"name":"enzowolf10","steam_id":76561198028696728,"connected_time":1094000000000,"state":"active","ping":52},{"user_id":533,"name":"plutonium isotope","steam_id":76561198319442494,"connected_time":80000000000,"state":"active","ping":132},{"user_id":528,"name":"Θουντρους","steam_id":76561198192752793,"connected_time":397000000000,"state":"active","ping":53},{"user_id":519,"name":"truck freak","steam_id":76561198062712676,"connected_time":913000000000,"state":"active","ping":126}]},{"server_id":14,"name":"Uncletopia | New York City | 2 | All Maps","name_short":"nyc-2","host":"nyc-1.us.uncletopia.com","port":27025,"enabled":true,"region":"us-east","cc":"us","latitude":40.73061,"longitude":-73.93524,"reserved":0,"last_update":"0001-01-01T00:00:00Z","name_a2s":"Uncletopia | New York City | 2 | All Maps","protocol":17,"map":"koth_highpass","folder":"tf","game":"Team Fortress","app_id":440,"player_count":6,"max_players":24,"Bots":0,"server_type":"Dedicated","server_os":"Linux","password":true,"vac":true,"version":"7961495","steam_id":85568392924469994,"keywords":["cp","nocrits","nodmgspread","uncletopia"],"game_id":440,"stv_port":27026,"stv_name":"Uncletopia | New York City | 2 | All Maps | STV","players":[{"user_id":685,"name":"amaricantanker#574","steam_id":76561198343584037,"connected_time":783000000000,"state":"active","ping":119},{"user_id":689,"name":"BoyKisser","steam_id":76561199200969139,"connected_time":268000000000,"state":"active","ping":125},{"user_id":687,"name":"bleach65","steam_id":76561198115270571,"connected_time":352000000000,"state":"active","ping":73},{"user_id":690,"name":"NotTony69","steam_id":76561199122717140,"connected_time":174000000000,"state":"active","ping":115},{"user_id":654,"name":"♡⌠Wiffle⌡♡","steam_id":76561198251951402,"connected_time":2809000000000,"state":"active","ping":76},{"user_id":676,"name":"schalldämpfer","steam_id":76561198178303726,"connected_time":1575000000000,"state":"active","ping":41}]},{"server_id":15,"name":"Uncletopia | New York City | 3 | Stopwatch","name_short":"nyc-3","host":"nyc-1.us.uncletopia.com","port":27035,"enabled":true,"region":"us-east","cc":"us","latitude":40.73061,"longitude":-73.93524,"reserved":0,"last_update":"0001-01-01T00:00:00Z","name_a2s":"Uncletopia | New York City | 3 | Stopwatch","protocol":17,"map":"cp_gullywash_final1","folder":"tf","game":"Team Fortress","app_id":440,"player_count":22,"max_players":24,"Bots":0,"server_type":"Dedicated","server_os":"Linux","password":true,"vac":true,"version":"7961495","steam_id":85568392924742820,"keywords":["cp","nocrits","nodmgspread","uncletopia"],"game_id":440,"stv_port":27036,"stv_name":"Uncletopia | New York City | 3 | Stopwatch | STV","players":[{"user_id":263,"name":"GoldtoothFour","steam_id":76561198055529332,"connected_time":2859000000000,"state":"active","ping":69},{"user_id":307,"name":"cheetaz","steam_id":76561198224614084,"connected_time":457000000000,"state":"active","ping":59},{"user_id":308,"name":"crayonnipple","steam_id":76561198070253331,"connected_time":234000000000,"state":"active","ping":71},{"user_id":305,"name":"Rexi","steam_id":76561198029094190,"connected_time":573000000000,"state":"active","ping":107},{"user_id":303,"name":"Meurik","steam_id":76561198078032795,"connected_time":848000000000,"state":"active","ping":178},{"user_id":259,"name":"DarkEmpireOne","steam_id":76561198106849547,"connected_time":3255000000000,"state":"active","ping":60},{"user_id":304,"name":"0","steam_id":76561198046065237,"connected_time":844000000000,"state":"active","ping":61},{"user_id":291,"name":"Smuggs","steam_id":76561197999456003,"connected_time":1551000000000,"state":"active","ping":109},{"user_id":285,"name":"Bartholomew GlydenBollock","steam_id":76561198356409012,"connected_time":1928000000000,"state":"active","ping":57},{"user_id":256,"name":"Chhaam","steam_id":76561198058508132,"connected_time":3388000000000,"state":"active","ping":44},{"user_id":294,"name":"toastman","steam_id":76561198207073088,"connected_time":1342000000000,"state":"active","ping":76},{"user_id":289,"name":"fun","steam_id":76561199469712812,"connected_time":1701000000000,"state":"active","ping":131},{"user_id":276,"name":"Captain Demytri","steam_id":76561198097998607,"connected_time":2513000000000,"state":"active","ping":53},{"user_id":286,"name":"Nagao Kagetora","steam_id":76561198798176670,"connected_time":1906000000000,"state":"active","ping":63},{"user_id":180,"name":"lazily","steam_id":76561198051127715,"connected_time":8293000000000,"state":"active","ping":59},{"user_id":306,"name":"staks","steam_id":76561198059570070,"connected_time":553000000000,"state":"active","ping":59},{"user_id":309,"name":"womthedom","steam_id":76561198088768287,"connected_time":80000000000,"state":"active","ping":72},{"user_id":280,"name":"John Taxenfraud","steam_id":76561199011358805,"connected_time":2282000000000,"state":"active","ping":68},{"user_id":272,"name":"mrappledumb","steam_id":76561199133590774,"connected_time":2561000000000,"state":"active","ping":86},{"user_id":295,"name":"dansal","steam_id":76561197997042510,"connected_time":1319000000000,"state":"active","ping":96},{"user_id":288,"name":"psyk0smurf","steam_id":76561199077856919,"connected_time":1801000000000,"state":"active","ping":76},{"user_id":238,"name":"Aldinach","steam_id":76561198079912615,"connected_time":4642000000000,"state":"active","ping":59}]},{"server_id":16,"name":"Uncletopia | New York City | 4 | Community","name_short":"nyc-4","host":"nyc-1.us.uncletopia.com","port":27045,"enabled":true,"region":"us-east","cc":"us","latitude":40.73061,"longitude":-73.93524,"reserved":0,"last_update":"0001-01-01T00:00:00Z","name_a2s":"Uncletopia | New York City | 4 | Community","protocol":17,"map":"workshop/cp_reckoner_rc6.ugc674719999","folder":"tf","game":"Team Fortress","app_id":440,"player_count":0,"max_players":24,"Bots":0,"server_type":"Dedicated","server_os":"Linux","password":true,"vac":true,"version":"7961495","steam_id":85568392924742821,"keywords":["cp","nocrits","nodmgspread","uncletopia"],"game_id":440,"stv_port":27046,"stv_name":"Uncletopia | New York City | 4 | Community | STV","players":null},{"server_id":142,"name":"Uncletopia | São Paulo | 1 | All Maps","name_short":"sao-1","host":"sao-1.br.uncletopia.com","port":27015,"enabled":true,"region":"sa","cc":"br","latitude":-23.533773,"longitude":-46.62529,"reserved":0,"last_update":"0001-01-01T00:00:00Z","name_a2s":"Uncletopia | São Paulo | 1 | All Maps","protocol":17,"map":"koth_cascade","folder":"tf","game":"Team Fortress","app_id":440,"player_count":0,"max_players":24,"Bots":0,"server_type":"Dedicated","server_os":"Linux","password":true,"vac":true,"version":"7961495","steam_id":85568392924469996,"keywords":["cp","nocrits","nodmgspread","uncletopia"],"game_id":440,"stv_port":27016,"stv_name":"Uncletopia | São Paulo | 1 | All Maps | STV","players":null},{"server_id":143,"name":"Uncletopia | São Paulo | 2 | Community","name_short":"sao-2","host":"sao-2.br.uncletopia.com","port":27015,"enabled":true,"region":"sa","cc":"br","latitude":-23.533773,"longitude":-46.62529,"reserved":0,"last_update":"0001-01-01T00:00:00Z","name_a2s":"Uncletopia | São Paulo | 2 | Community","protocol":17,"map":"workshop/koth_ramjam_rc1.ugc459778887","folder":"tf","game":"Team Fortress","app_id":440,"player_count":0,"max_players":24,"Bots":0,"server_type":"Dedicated","server_os":"Linux","password":true,"vac":true,"version":"7961495","steam_id":85568392924485349,"keywords":["cp","nocrits","nodmgspread","uncletopia"],"game_id":440,"stv_port":27016,"stv_name":"Uncletopia | São Paulo | 2 | Community | STV","players":null},{"server_id":7,"name":"Uncletopia | Seattle | 1 | All Maps","name_short":"sea-1","host":"sea-1.us.uncletopia.com","port":27015,"enabled":true,"region":"us-west","cc":"us","latitude":47.608013,"longitude":-122.33517,"reserved":0,"last_update":"0001-01-01T00:00:00Z","name_a2s":"Uncletopia | Seattle | 1 | All Maps","protocol":17,"map":"koth_highpass","folder":"tf","game":"Team Fortress","app_id":440,"player_count":23,"max_players":24,"Bots":0,"server_type":"Dedicated","server_os":"Linux","password":true,"vac":true,"version":"7961495","steam_id":85568392924469997,"keywords":["cp","nocrits","nodmgspread","uncletopia"],"game_id":440,"stv_port":27016,"stv_name":"Uncletopia | Seattle | 1 | All Maps | STV","players":[{"user_id":741,"name":"Bocchi The Rock Johnson","steam_id":76561198216017952,"connected_time":145000000000,"state":"active","ping":70},{"user_id":738,"name":"https://fr.wikipedia.org/","steam_id":76561198051834684,"connected_time":296000000000,"state":"active","ping":59},{"user_id":739,"name":"BlazedBunny","steam_id":76561198243610560,"connected_time":293000000000,"state":"active","ping":76},{"user_id":726,"name":"oh god i'm gonna CHUM","steam_id":76561198019210187,"connected_time":1841000000000,"state":"active","ping":105},{"user_id":712,"name":"REAL Wizard","steam_id":76561198097178599,"connected_time":2802000000000,"state":"active","ping":59},{"user_id":733,"name":"fart thief","steam_id":76561198046073848,"connected_time":883000000000,"state":"active","ping":47},{"user_id":740,"name":"sleepy","steam_id":76561198288663776,"connected_time":278000000000,"state":"active","ping":53},{"user_id":696,"name":"Ayayayayayahuasca","steam_id":76561199002906056,"connected_time":4565000000000,"state":"active","ping":45},{"user_id":737,"name":"Ducks","steam_id":76561198130038345,"connected_time":307000000000,"state":"active","ping":65},{"user_id":727,"name":"Flops","steam_id":76561197961030141,"connected_time":1394000000000,"state":"active","ping":46},{"user_id":736,"name":"tr","steam_id":76561198046944222,"connected_time":328000000000,"state":"active","ping":44},{"user_id":732,"name":"Sniff","steam_id":76561198010270922,"connected_time":914000000000,"state":"active","ping":56},{"user_id":697,"name":"CORGI.EXE","steam_id":76561198077093432,"connected_time":4544000000000,"state":"active","ping":130},{"user_id":730,"name":"Petrivus","steam_id":76561198202152453,"connected_time":1036000000000,"state":"active","ping":55},{"user_id":683,"name":"pepe warlord","steam_id":76561198080819197,"connected_time":5802000000000,"state":"active","ping":73},{"user_id":728,"name":"squash","steam_id":76561198150281353,"connected_time":1366000000000,"state":"active","ping":52},{"user_id":722,"name":"William P. Ennis","steam_id":76561198073464877,"connected_time":2349000000000,"state":"active","ping":104},{"user_id":735,"name":"orbisg","steam_id":76561198004133638,"connected_time":561000000000,"state":"active","ping":85},{"user_id":640,"name":"Level 99 Mudcrab","steam_id":76561198077452771,"connected_time":6666000000000,"state":"active","ping":85},{"user_id":491,"name":"NEBULA","steam_id":76561198086878595,"connected_time":8559000000000,"state":"active","ping":75},{"user_id":701,"name":"jorts","steam_id":76561199041179985,"connected_time":3740000000000,"state":"active","ping":53},{"user_id":705,"name":"Day Man","steam_id":76561198067154807,"connected_time":3565000000000,"state":"active","ping":55}]},{"server_id":119,"name":"Uncletopia | Seattle | 2 | All Maps","name_short":"sea-2","host":"sea-1.us.uncletopia.com","port":27025,"enabled":true,"region":"us-west","cc":"us","latitude":47.608013,"longitude":-122.33517,"reserved":0,"last_update":"0001-01-01T00:00:00Z","name_a2s":"Uncletopia | Seattle | 2 | All Maps","protocol":17,"map":"pl_rumford_event","folder":"tf","game":"Team Fortress","app_id":440,"player_count":24,"max_players":24,"Bots":0,"server_type":"Dedicated","server_os":"Linux","password":true,"vac":true,"version":"7961495","steam_id":85568392924469998,"keywords":["nocrits","nodmgspread","payload","uncletopia"],"game_id":440,"stv_port":27026,"stv_name":"Uncletopia | Seattle | 2 | All Maps | STV","players":[{"user_id":330,"name":"sex haver trade.tf","steam_id":76561198256575672,"connected_time":320000000000,"state":"active","ping":46},{"user_id":267,"name":"mizurush","steam_id":76561198039595304,"connected_time":7860000000000,"state":"active","ping":135},{"user_id":309,"name":"ToddStool","steam_id":76561198338144919,"connected_time":2127000000000,"state":"active","ping":72},{"user_id":262,"name":"mooney","steam_id":76561199110622484,"connected_time":8414000000000,"state":"active","ping":65},{"user_id":244,"name":"slushy :))","steam_id":76561198135281802,"connected_time":9720000000000,"state":"active","ping":39},{"user_id":326,"name":"Ahzain","steam_id":76561198035894333,"connected_time":863000000000,"state":"active","ping":84},{"user_id":247,"name":"c a l l i e ↟ ↟","steam_id":76561198058199952,"connected_time":9154000000000,"state":"active","ping":54},{"user_id":333,"name":"EpicTommyGun","steam_id":76561198301497385,"connected_time":136000000000,"state":"active","ping":134},{"user_id":300,"name":"PsyKe","steam_id":76561198055486345,"connected_time":2866000000000,"state":"active","ping":90},{"user_id":323,"name":"dewey.","steam_id":76561198138325039,"connected_time":1154000000000,"state":"active","ping":56},{"user_id":289,"name":"Integral","steam_id":76561198158225481,"connected_time":4943000000000,"state":"active","ping":86},{"user_id":317,"name":"wiwu","steam_id":76561198180189799,"connected_time":1823000000000,"state":"active","ping":42},{"user_id":273,"name":"The King of Piss World","steam_id":76561198082806956,"connected_time":6815000000000,"state":"active","ping":162},{"user_id":322,"name":"Otis the Winter Dog","steam_id":76561198023301866,"connected_time":1293000000000,"state":"active","ping":95},{"user_id":324,"name":"Atomic_Rooster","steam_id":76561197992862398,"connected_time":916000000000,"state":"active","ping":70},{"user_id":287,"name":"A UsedNom","steam_id":76561198402832756,"connected_time":5636000000000,"state":"active","ping":58},{"user_id":246,"name":"mub","steam_id":76561197961943948,"connected_time":9171000000000,"state":"active","ping":47},{"user_id":319,"name":"Inflight","steam_id":76561198920049475,"connected_time":1453000000000,"state":"active","ping":118},{"user_id":277,"name":"dougrocks421","steam_id":76561198165063918,"connected_time":6266000000000,"state":"active","ping":40},{"user_id":304,"name":"STAROID","steam_id":76561198069740897,"connected_time":2548000000000,"state":"active","ping":94},{"user_id":248,"name":"CashGordon","steam_id":76561197975594096,"connected_time":9133000000000,"state":"active","ping":41},{"user_id":305,"name":"General Fisticuffs","steam_id":76561198255721392,"connected_time":2502000000000,"state":"active","ping":131},{"user_id":256,"name":"sadlaxx","steam_id":76561198061354919,"connected_time":8595000000000,"state":"active","ping":94},{"user_id":332,"name":"dirtboy2","steam_id":76561198085038915,"connected_time":175000000000,"state":"active","ping":50}]},{"server_id":406,"name":"Uncletopia | Seattle | 3 | Stopwatch","name_short":"sea-3","host":"sea-1.us.uncletopia.com","port":27035,"enabled":true,"region":"us-west","cc":"us","latitude":47.608013,"longitude":-122.33517,"reserved":0,"last_update":"0001-01-01T00:00:00Z","name_a2s":"Uncletopia | Seattle | 3 | Stopwatch","protocol":17,"map":"workshop/koth_ashville_final.ugc2130459942","folder":"tf","game":"Team Fortress","app_id":440,"player_count":0,"max_players":24,"Bots":0,"server_type":"Dedicated","server_os":"Linux","password":true,"vac":true,"version":"7961495","steam_id":85568392924515217,"keywords":["cp","nocrits","nodmgspread","uncletopia"],"game_id":440,"stv_port":27036,"stv_name":"Uncletopia | Seattle | 3 | Stopwatch | STV","players":null},{"server_id":17,"name":"Uncletopia | San Francisco | 1 | All Maps","name_short":"sfo-1","host":"sfo-1.us.uncletopia.com","port":27015,"enabled":true,"region":"us-west","cc":"us","latitude":37.77397,"longitude":-122.4313,"reserved":0,"last_update":"0001-01-01T00:00:00Z","name_a2s":"Uncletopia | San Francisco | 1 | All Maps","protocol":17,"map":"pl_badwater","folder":"tf","game":"Team Fortress","app_id":440,"player_count":24,"max_players":24,"Bots":0,"server_type":"Dedicated","server_os":"Linux","password":true,"vac":true,"version":"7961495","steam_id":85568392924469999,"keywords":["nocrits","nodmgspread","payload","uncletopia"],"game_id":440,"stv_port":27016,"stv_name":"Uncletopia | San Francisco | 1 | All Maps | STV","players":[{"user_id":341,"name":"Kawi","steam_id":76561198099696751,"connected_time":175000000000,"state":"active","ping":84},{"user_id":333,"name":"Meekz","steam_id":76561198012562373,"connected_time":1494000000000,"state":"active","ping":66},{"user_id":342,"name":"SilverRapier","steam_id":76561198005071314,"connected_time":170000000000,"state":"active","ping":55},{"user_id":305,"name":"małię","steam_id":76561198337705174,"connected_time":4084000000000,"state":"active","ping":75},{"user_id":343,"name":"ungureito うんぐれいと","steam_id":76561198063521721,"connected_time":169000000000,"state":"active","ping":92},{"user_id":338,"name":"zinqi","steam_id":76561198376838848,"connected_time":727000000000,"state":"active","ping":140},{"user_id":335,"name":"DistantJragon","steam_id":76561198117563641,"connected_time":963000000000,"state":"active","ping":114},{"user_id":309,"name":"Higuma","steam_id":76561198375229012,"connected_time":3601000000000,"state":"active","ping":55},{"user_id":329,"name":"guy","steam_id":76561198196443262,"connected_time":1596000000000,"state":"active","ping":54},{"user_id":332,"name":"californjoe","steam_id":76561197965047795,"connected_time":1518000000000,"state":"active","ping":52},{"user_id":258,"name":"paypur -rng","steam_id":76561198214370515,"connected_time":7182000000000,"state":"active","ping":111},{"user_id":313,"name":"The Muffin Man","steam_id":76561198988065564,"connected_time":3564000000000,"state":"active","ping":109},{"user_id":337,"name":"Lumberjane37 (She/Her)","steam_id":76561198014841793,"connected_time":872000000000,"state":"active","ping":76},{"user_id":320,"name":"Clorox Chugger 69","steam_id":76561198049508548,"connected_time":3136000000000,"state":"active","ping":65},{"user_id":344,"name":"Soda","steam_id":76561198219209367,"connected_time":151000000000,"state":"active","ping":62},{"user_id":318,"name":"jay","steam_id":76561198022374405,"connected_time":3150000000000,"state":"active","ping":75},{"user_id":345,"name":"JellyParrot","steam_id":76561199190990163,"connected_time":131000000000,"state":"active","ping":112},{"user_id":339,"name":"welder mask","steam_id":76561198207881077,"connected_time":726000000000,"state":"active","ping":83},{"user_id":346,"name":"Final_MarioXD","steam_id":76561199184862419,"connected_time":126000000000,"state":"active","ping":120},{"user_id":334,"name":"The Smell of Jazz","steam_id":76561198005860388,"connected_time":1418000000000,"state":"active","ping":57},{"user_id":317,"name":"Backwardsdog","steam_id":76561198002374945,"connected_time":3181000000000,"state":"active","ping":43},{"user_id":347,"name":"SOS Brigade Member","steam_id":76561198331134294,"connected_time":120000000000,"state":"active","ping":71},{"user_id":315,"name":"papi Chulo","steam_id":76561198126274984,"connected_time":3500000000000,"state":"active","ping":89},{"user_id":348,"name":"on some lowkey chill shi","steam_id":76561198293589738,"connected_time":95000000000,"state":"active","ping":60}]},{"server_id":18,"name":"Uncletopia | San Francisco | 2 | All Maps","name_short":"sfo-2","host":"sfo-1.us.uncletopia.com","port":27025,"enabled":true,"region":"us-west","cc":"us","latitude":37.77397,"longitude":-122.4313,"reserved":0,"last_update":"0001-01-01T00:00:00Z","name_a2s":"Uncletopia | San Francisco | 2 | All Maps","protocol":17,"map":"pl_badwater","folder":"tf","game":"Team Fortress","app_id":440,"player_count":24,"max_players":24,"Bots":0,"server_type":"Dedicated","server_os":"Linux","password":true,"vac":true,"version":"7961495","steam_id":85568392924470000,"keywords":["nocrits","nodmgspread","payload","uncletopia"],"game_id":440,"stv_port":27026,"stv_name":"Uncletopia | San Francisco | 2 | All Maps | STV","players":[{"user_id":609,"name":"mechanicvirus","steam_id":76561198038161480,"connected_time":1187000000000,"state":"active","ping":67},{"user_id":532,"name":"ratthew","steam_id":76561198418172095,"connected_time":6435000000000,"state":"active","ping":87},{"user_id":574,"name":"Culprit Shy","steam_id":76561198206506481,"connected_time":4159000000000,"state":"active","ping":43},{"user_id":602,"name":"Im Groot","steam_id":76561198294943420,"connected_time":1997000000000,"state":"active","ping":77},{"user_id":560,"name":"Fgtfv567","steam_id":76561198071022525,"connected_time":5383000000000,"state":"active","ping":54},{"user_id":613,"name":"Jolly Wolly","steam_id":76561198087571347,"connected_time":774000000000,"state":"active","ping":68},{"user_id":580,"name":"Tesman James","steam_id":76561199093793428,"connected_time":3457000000000,"state":"active","ping":103},{"user_id":615,"name":"(0.0)","steam_id":76561198217747041,"connected_time":600000000000,"state":"active","ping":57},{"user_id":603,"name":"eBay","steam_id":76561198061214569,"connected_time":1992000000000,"state":"active","ping":89},{"user_id":588,"name":"Igrium","steam_id":76561198119549811,"connected_time":3152000000000,"state":"active","ping":54},{"user_id":611,"name":"PCR","steam_id":76561198048748102,"connected_time":887000000000,"state":"active","ping":100},{"user_id":597,"name":"Creature","steam_id":76561198194585781,"connected_time":2123000000000,"state":"active","ping":58},{"user_id":484,"name":"Swag5","steam_id":76561198065311356,"connected_time":10475000000000,"state":"active","ping":52},{"user_id":571,"name":"summer ant","steam_id":76561198340389876,"connected_time":4814000000000,"state":"active","ping":74},{"user_id":586,"name":"Drive-By-Fish-Guy","steam_id":76561198105513652,"connected_time":3224000000000,"state":"active","ping":73},{"user_id":504,"name":"freyja","steam_id":76561198012480197,"connected_time":8766000000000,"state":"active","ping":43},{"user_id":587,"name":"medium Mike","steam_id":76561198111645213,"connected_time":3196000000000,"state":"active","ping":52},{"user_id":540,"name":"Blanke","steam_id":76561198064100364,"connected_time":6247000000000,"state":"active","ping":112},{"user_id":612,"name":"guy who stares at GOOD players","steam_id":76561198065662025,"connected_time":861000000000,"state":"active","ping":53},{"user_id":614,"name":"warren","steam_id":76561198136331136,"connected_time":663000000000,"state":"active","ping":120},{"user_id":598,"name":"Weed Dealer","steam_id":76561198418604400,"connected_time":2114000000000,"state":"active","ping":75},{"user_id":600,"name":"WillieMakit","steam_id":76561197985391684,"connected_time":2027000000000,"state":"active","ping":74},{"user_id":610,"name":"Karg","steam_id":76561198091387866,"connected_time":986000000000,"state":"active","ping":61},{"user_id":592,"name":"iLordy","steam_id":76561198084357623,"connected_time":2950000000000,"state":"active","ping":152}]},{"server_id":19,"name":"Uncletopia | San Francisco | 3 | Stopwatch","name_short":"sfo-3","host":"sfo-1.us.uncletopia.com","port":27035,"enabled":true,"region":"us-west","cc":"us","latitude":37.77397,"longitude":-122.4313,"reserved":0,"last_update":"0001-01-01T00:00:00Z","name_a2s":"Uncletopia | San Francisco | 3 | Stopwatch","protocol":17,"map":"workshop/cp_reckoner_rc6.ugc674719999","folder":"tf","game":"Team Fortress","app_id":440,"player_count":0,"max_players":24,"Bots":0,"server_type":"Dedicated","server_os":"Linux","password":true,"vac":true,"version":"7961495","steam_id":85568392924742824,"keywords":["cp","nocrits","nodmgspread","uncletopia"],"game_id":440,"stv_port":27036,"stv_name":"Uncletopia | San Francisco | 3 | Stopwatch | STV","players":null},{"server_id":20,"name":"Uncletopia | San Francisco | 4 | Community","name_short":"sfo-4","host":"sfo-1.us.uncletopia.com","port":27045,"enabled":true,"region":"us-west","cc":"us","latitude":37.77397,"longitude":-122.4313,"reserved":0,"last_update":"0001-01-01T00:00:00Z","name_a2s":"Uncletopia | San Francisco | 4 | Community","protocol":17,"map":"workshop/cp_logjam_rc12.ugc454812035","folder":"tf","game":"Team Fortress","app_id":440,"player_count":0,"max_players":24,"Bots":0,"server_type":"Dedicated","server_os":"Linux","password":true,"vac":true,"version":"7961495","steam_id":85568392924742826,"keywords":["cp","nocrits","nodmgspread","uncletopia"],"game_id":440,"stv_port":27046,"stv_name":"Uncletopia | San Francisco | 4 | Community | STV","players":null},{"server_id":141,"name":"Uncletopia | Sydney | 1 | All Maps","name_short":"syd-1","host":"syd-1.au.uncletopia.com","port":27015,"enabled":true,"region":"au","cc":"au","latitude":-33.865143,"longitude":151.2099,"reserved":0,"last_update":"0001-01-01T00:00:00Z","name_a2s":"Uncletopia | Sydney | 1 | All Maps","protocol":17,"map":"pl_snowycoast","folder":"tf","game":"Team Fortress","app_id":440,"player_count":24,"max_players":24,"Bots":0,"server_type":"Dedicated","server_os":"Linux","password":true,"vac":true,"version":"7961495","steam_id":85568392924470001,"keywords":["nocrits","nodmgspread","payload","uncletopia"],"game_id":440,"stv_port":27016,"stv_name":"Uncletopia | Sydney | 1 | All Maps | STV","players":[{"user_id":100,"name":"flayed corpse","steam_id":76561198048064049,"connected_time":1481000000000,"state":"active","ping":84},{"user_id":76,"name":"Pickled Cow","steam_id":76561198292517991,"connected_time":3446000000000,"state":"active","ping":41},{"user_id":102,"name":"horrid webbon ᘛ⁐̤ᕐᐷ","steam_id":76561198061998379,"connected_time":1408000000000,"state":"active","ping":50},{"user_id":78,"name":"Nutri-Grain Scream Team","steam_id":76561198000568803,"connected_time":3290000000000,"state":"active","ping":42},{"user_id":110,"name":"...","steam_id":76561198309750355,"connected_time":636000000000,"state":"active","ping":58},{"user_id":83,"name":"lavanderpumpernickle(Del Davis)","steam_id":76561199093611800,"connected_time":3149000000000,"state":"active","ping":63},{"user_id":103,"name":"Saturn-Based Hooliganism","steam_id":76561198072845816,"connected_time":1328000000000,"state":"active","ping":59},{"user_id":92,"name":"horblongmoid splorgoingus","steam_id":76561198063481761,"connected_time":2498000000000,"state":"active","ping":44},{"user_id":41,"name":"make like a tree and Keith","steam_id":76561198301282416,"connected_time":5994000000000,"state":"active","ping":54},{"user_id":108,"name":"Calsaintski","steam_id":76561199081848498,"connected_time":767000000000,"state":"active","ping":66},{"user_id":113,"name":"Greggorah","steam_id":76561198115925330,"connected_time":485000000000,"state":"active","ping":70},{"user_id":90,"name":"Tiblyat","steam_id":76561198093077688,"connected_time":2632000000000,"state":"active","ping":73},{"user_id":115,"name":"ly","steam_id":76561198303878229,"connected_time":438000000000,"state":"active","ping":58},{"user_id":117,"name":"Selling Anti-Matter for $543","steam_id":76561198070708382,"connected_time":22000000000,"state":"spawning","ping":48},{"user_id":57,"name":"Zeppy","steam_id":76561198074766231,"connected_time":4892000000000,"state":"active","ping":66},{"user_id":61,"name":"alqwnq","steam_id":76561198133867907,"connected_time":4391000000000,"state":"active","ping":84},{"user_id":109,"name":"zise","steam_id":76561198079210881,"connected_time":660000000000,"state":"active","ping":52},{"user_id":73,"name":"Phibs","steam_id":76561199323730865,"connected_time":3644000000000,"state":"active","ping":41},{"user_id":68,"name":"buggybones jones","steam_id":76561198025099660,"connected_time":3854000000000,"state":"active","ping":32},{"user_id":106,"name":"cosmic girl","steam_id":76561198151087184,"connected_time":978000000000,"state":"active","ping":44},{"user_id":96,"name":"alex","steam_id":76561198053382248,"connected_time":1867000000000,"state":"active","ping":49},{"user_id":101,"name":"JP","steam_id":76561198026221737,"connected_time":1424000000000,"state":"active","ping":50},{"user_id":116,"name":"Meat","steam_id":76561198021812511,"connected_time":302000000000,"state":"active","ping":56}]},{"server_id":123,"name":"Uncletopia | Sydney | 2 | All Maps","name_short":"syd-2","host":"syd-1.au.uncletopia.com","port":27025,"enabled":true,"region":"au","cc":"au","latitude":-33.865143,"longitude":151.2099,"reserved":0,"last_update":"0001-01-01T00:00:00Z","name_a2s":"Uncletopia | Sydney | 2 | All Maps","protocol":17,"map":"koth_lakeside_final","folder":"tf","game":"Team Fortress","app_id":440,"player_count":0,"max_players":24,"Bots":0,"server_type":"Dedicated","server_os":"Linux","password":true,"vac":true,"version":"7961495","steam_id":85568392924470002,"keywords":["cp","nocrits","nodmgspread","uncletopia"],"game_id":440,"stv_port":27026,"stv_name":"Uncletopia | Sydney | 2 | All Maps | STV","players":null},{"server_id":395,"name":"Uncletopia | Sydney | 3 | All Maps","name_short":"syd-3","host":"syd-1.au.uncletopia.com","port":27035,"enabled":true,"region":"au","cc":"au","latitude":-33.865143,"longitude":151.2099,"reserved":0,"last_update":"0001-01-01T00:00:00Z","name_a2s":"Uncletopia | Sydney | 3 | All Maps","protocol":17,"map":"cp_process_final","folder":"tf","game":"Team Fortress","app_id":440,"player_count":0,"max_players":24,"Bots":0,"server_type":"Dedicated","server_os":"Linux","password":true,"vac":true,"version":"7961495","steam_id":85568392925194467,"keywords":["cp","nocrits","nodmgspread","uncletopia"],"game_id":440,"stv_port":27036,"stv_name":"Uncletopia | Sydney | 3 | All Maps | STV","players":null},{"server_id":396,"name":"Uncletopia | Sydney | 4 | All Maps","name_short":"syd-4","host":"syd-1.au.uncletopia.com","port":27045,"enabled":true,"region":"au","cc":"au","latitude":-33.865143,"longitude":151.2099,"reserved":0,"last_update":"0001-01-01T00:00:00Z","name_a2s":"Uncletopia | Sydney | 4 | All Maps","protocol":17,"map":"koth_lakeside_final","folder":"tf","game":"Team Fortress","app_id":440,"player_count":2,"max_players":24,"Bots":0,"server_type":"Dedicated","server_os":"Linux","password":true,"vac":true,"version":"7961495","steam_id":85568392925397958,"keywords":["cp","nocrits","nodmgspread","uncletopia"],"game_id":440,"stv_port":27046,"stv_name":"Uncletopia | Sydney | 4 | All Maps | STV","players":[{"user_id":10,"name":"Turret","steam_id":76561198054728921,"connected_time":1492000000000,"state":"active","ping":30},{"user_id":11,"name":"quite","steam_id":76561199085719869,"connected_time":505000000000,"state":"active","ping":70}]},{"server_id":58,"name":"Uncletopia | Sydney | 5 | Stopwatch","name_short":"syd-5","host":"syd-1.au.uncletopia.com","port":27055,"enabled":true,"region":"au","cc":"au","latitude":-33.865143,"longitude":151.2099,"reserved":0,"last_update":"0001-01-01T00:00:00Z","name_a2s":"Uncletopia | Sydney | 5 | Stopwatch","protocol":17,"map":"workshop/koth_ramjam_rc1.ugc459778887","folder":"tf","game":"Team Fortress","app_id":440,"player_count":0,"max_players":24,"Bots":0,"server_type":"Dedicated","server_os":"Linux","password":true,"vac":true,"version":"7961495","steam_id":85568392925397959,"keywords":["cp","nocrits","nodmgspread","uncletopia"],"game_id":440,"stv_port":27056,"stv_name":"Uncletopia | Sydney | 5 | Stopwatch | STV","players":null},{"server_id":59,"name":"Uncletopia | Sydney | 6 | Community","name_short":"syd-6","host":"syd-1.au.uncletopia.com","port":27065,"enabled":true,"region":"au","cc":"au","latitude":-33.865143,"longitude":151.2099,"reserved":0,"last_update":"0001-01-01T00:00:00Z","name_a2s":"Uncletopia | Sydney | 6 | Community","protocol":17,"map":"workshop/rd_asteroid_redux_b1.ugc2154902912","folder":"tf","game":"Team Fortress","app_id":440,"player_count":0,"max_players":24,"Bots":0,"server_type":"Dedicated","server_os":"Linux","password":true,"vac":true,"version":"7961495","steam_id":85568392925397960,"keywords":["beta","nocrits","nodmgspread","rd","uncletopia"],"game_id":440,"stv_port":27066,"stv_name":"Uncletopia | Sydney | 6 | Community | STV","players":null},{"server_id":49,"name":"Uncletopia | Warsaw | 1 | All Maps","name_short":"waw-1","host":"waw-1.pl.uncletopia.com","port":27015,"enabled":true,"region":"eu","cc":"pl","latitude":52.2297,"longitude":21.017532,"reserved":0,"last_update":"0001-01-01T00:00:00Z","name_a2s":"Uncletopia | Warsaw | 1 | All Maps","protocol":17,"map":"koth_lakeside_final","folder":"tf","game":"Team Fortress","app_id":440,"player_count":0,"max_players":24,"Bots":0,"server_type":"Dedicated","server_os":"Linux","password":true,"vac":true,"version":"7961495","steam_id":85568392925397850,"keywords":["cp","nocrits","nodmgspread","uncletopia"],"game_id":440,"stv_port":27016,"stv_name":"Uncletopia | Warsaw | 1 | All Maps | STV","players":null},{"server_id":50,"name":"Uncletopia | Warsaw | 2 | All Maps","name_short":"waw-2","host":"waw-1.pl.uncletopia.com","port":27025,"enabled":true,"region":"eu","cc":"pl","latitude":52.2297,"longitude":21.017532,"reserved":0,"last_update":"0001-01-01T00:00:00Z","name_a2s":"Uncletopia | Warsaw | 2 | All Maps","protocol":17,"map":"pl_borneo","folder":"tf","game":"Team Fortress","app_id":440,"player_count":0,"max_players":24,"Bots":0,"server_type":"Dedicated","server_os":"Linux","password":true,"vac":true,"version":"7961495","steam_id":85568392925397851,"keywords":["nocrits","nodmgspread","payload","uncletopia"],"game_id":440,"stv_port":27026,"stv_name":"Uncletopia | Warsaw | 2 | All Maps | STV","players":null},{"server_id":51,"name":"Uncletopia | Warsaw | 3 | All Maps","name_short":"waw-3","host":"waw-1.pl.uncletopia.com","port":27035,"enabled":true,"region":"eu","cc":"pl","latitude":52.2297,"longitude":21.017532,"reserved":0,"last_update":"0001-01-01T00:00:00Z","name_a2s":"Uncletopia | Warsaw | 3 | All Maps","protocol":17,"map":"pl_barnblitz","folder":"tf","game":"Team Fortress","app_id":440,"player_count":0,"max_players":24,"Bots":0,"server_type":"Dedicated","server_os":"Linux","password":true,"vac":true,"version":"7961495","steam_id":85568392925397852,"keywords":["nocrits","nodmgspread","payload","uncletopia"],"game_id":440,"stv_port":27036,"stv_name":"Uncletopia | Warsaw | 3 | All Maps | STV","players":null},{"server_id":52,"name":"Uncletopia | Warsaw | 4 | All Maps","name_short":"waw-4","host":"waw-1.pl.uncletopia.com","port":27045,"enabled":true,"region":"eu","cc":"pl","latitude":52.2297,"longitude":21.017532,"reserved":0,"last_update":"0001-01-01T00:00:00Z","name_a2s":"Uncletopia | Warsaw | 4 | All Maps","protocol":17,"map":"pl_borneo","folder":"tf","game":"Team Fortress","app_id":440,"player_count":0,"max_players":24,"Bots":0,"server_type":"Dedicated","server_os":"Linux","password":true,"vac":true,"version":"7961495","steam_id":85568392925397853,"keywords":["nocrits","nodmgspread","payload","uncletopia"],"game_id":440,"stv_port":27046,"stv_name":"Uncletopia | Warsaw | 4 | All Maps | STV","players":null},{"server_id":53,"name":"Uncletopia | Warsaw | 5 | Stopwatch","name_short":"waw-5","host":"waw-1.pl.uncletopia.com","port":27055,"enabled":true,"region":"eu","cc":"pl","latitude":52.2297,"longitude":21.017532,"reserved":0,"last_update":"0001-01-01T00:00:00Z","name_a2s":"Uncletopia | Warsaw | 5 | Stopwatch","protocol":17,"map":"pl_barnblitz","folder":"tf","game":"Team Fortress","app_id":440,"player_count":0,"max_players":24,"Bots":0,"server_type":"Dedicated","server_os":"Linux","password":true,"vac":true,"version":"7961495","steam_id":85568392925397854,"keywords":["nocrits","nodmgspread","payload","uncletopia"],"game_id":440,"stv_port":27056,"stv_name":"Uncletopia | Warsaw | 5 | Stopwatch | STV","players":null},{"server_id":54,"name":"Uncletopia | Warsaw | 6 | Community","name_short":"waw-6","host":"waw-1.pl.uncletopia.com","port":27065,"enabled":true,"region":"eu","cc":"pl","latitude":52.2297,"longitude":21.017532,"reserved":0,"last_update":"0001-01-01T00:00:00Z","name_a2s":"Uncletopia | Warsaw | 6 | Community","protocol":17,"map":"cp_altitude","folder":"tf","game":"Team Fortress","app_id":440,"player_count":0,"max_players":24,"Bots":0,"server_type":"Dedicated","server_os":"Linux","password":true,"vac":true,"version":"7961495","steam_id":85568392925397856,"keywords":["cp","nocrits","nodmgspread","uncletopia"],"game_id":440,"stv_port":27066,"stv_name":"Uncletopia | Warsaw | 6 | Community | STV","players":null}]}