{"status":true,"message":"","result":[{"server_id":9,"name":"Uncletopia | Atlanta | 1 | All Maps","name_short":"atl-1","host":"atl-1.us.uncletopia.com","port":27015,"enabled":true,"region":"us-east","cc":"us","latitude":33.753746,"longitude":-84.38633,"reserved":0,"last_update":"0001-01-01T00:00:00Z","name_a2s":"Uncletopia | Atlanta | 1 | All Maps","protocol":17,"map":"pl_snowycoast","folder":"tf","game":"Team Fortress","app_id":440,"player_count":24,"max_players":24,"Bots":0,"server_type":"Dedicated","server_os":"Linux","password":true,"vac":true,"version":"7961495","steam_id":85568392924469982,"keywords":["nocrits","nodmgspread","payload","uncletopia"],"game_id":440,"stv_port":27016,"stv_name":"Uncletopia | Atlanta | 1 | All Maps | STV","players":[{"user_id":217,"name":"Orange","steam_id":76561198282214019,"connected_time":433000000000,"state":"active","ping":54},{"user_id":198,"name":"ECCO","steam_id":76561198002821513,"connected_time":2912000000000,"state":"active","ping":71},{"user_id":222,"name":"Ajax","steam_id":76561197962240140,"connected_time":345000000000,"state":"active","ping":62},{"user_id":184,"name":"shane938","steam_id":76561198117541261,"connected_time":4099000000000,"state":"active","ping":53},{"user_id":223,"name":"The Power","steam_id":76561198060566884,"connected_time":329000000000,"state":"active","ping":136},{"user_id":219,"name":"Cheese","steam_id":76561199207081299,"connected_time":379000000000,"state":"active","ping":85},{"user_id":199,"name":"Oldwest1234","steam_id":76561198079594993,"connected_time":2888000000000,"state":"active","ping":59},{"user_id":193,"name":"uthgarthegiant","steam_id":76561198348616230,"connected_time":3127000000000,"state":"active","ping":51},{"user_id":220,"name":"Mog","steam_id":76561198025575870,"connected_time":376000000000,"state":"active","ping":75},{"user_id":218,"name":"Bunt","steam_id":76561198124477567,"connected_time":408000000000,"state":"active","ping":41},{"user_id":168,"name":"zacmattsmith","steam_id":76561199027704149,"connected_time":5200000000000,"state":"active","ping":81},{"user_id":189,"name":"strategic dier","steam_id":76561197999257178,"connected_time":3663000000000,"state":"active","ping":75},{"user_id":225,"name":"Trenbolone Acetate","steam_id":76561198353869378,"connected_time":295000000000,"state":"active","ping":47},{"user_id":216,"name":"Freyja","steam_id":76561198207412177,"connected_time":776000000000,"state":"active","ping":89},{"user_id":206,"name":"jras","steam_id":76561198159797901,"connected_time":1521000000000,"state":"active","ping":70},{"user_id":144,"name":"Killbasa","steam_id":76561198064868400,"connected_time":5878000000000,"state":"active","ping":77},{"user_id":212,"name":"twizted","steam_id":76561197960407274,"connected_time":1000000000000,"state":"active","ping":70},{"user_id":215,"name":"mrappledumb","steam_id":76561199133590774,"connected_time":785000000000,"state":"active","ping":83},{"user_id":145,"name":"Ashes!","steam_id":76561197998475441,"connected_time":5736000000000,"state":"active","ping":69},{"user_id":221,"name":"The Kansas Crack Addict","steam_id":76561199022178492,"connected_time":376000000000,"state":"active","ping":41},{"user_id":173,"name":"Twisty Fresh Pretzel","steam_id":76561198137027826,"connected_time":4906000000000,"state":"active","ping":45},{"user_id":52,"name":"Aku+","steam_id":76561198813782795,"connected_time":15049000000000,"state":"active","ping":165},{"user_id":208,"name":"ChocoMcFudgeCake","steam_id":76561197994591295,"connected_time":1519000000000,"state":"active","ping":76},{"user_id":209,"name":"AMistake","steam_id":76561199379196708,"connected_time":1514000000000,"state":"active","ping":44}]},{"server_id":104,"name":"Uncletopia | Atlanta | 2 | All Maps","name_short":"atl-2","host":"atl-1.us.uncletopia.com","port":27025,"enabled":true,"region":"us-east","cc":"us","latitude":33.753746,"longitude":-84.38633,"reserved":0,"last_update":"0001-01-01T00:00:00Z","name_a2s":"Uncletopia | Atlanta | 2 | All Maps","protocol":17,"map":"koth_badlands","folder":"tf","game":"Team Fortress","app_id":440,"player_count":21,"max_players":24,"Bots":0,"server_type":"Dedicated","server_os":"Linux","password":true,"vac":true,"version":"7961495","steam_id":85568392924469983,"keywords":["cp","nocrits","nodmgspread","uncletopia"],"game_id":440,"stv_port":27026,"stv_name":"Uncletopia | Atlanta | 2 | All Maps | STV","players":[{"user_id":76,"name":"Fudgely","steam_id":76561198039425862,"connected_time":272000000000,"state":"active","ping":74},{"user_id":79,"name":"HollyBlocky","steam_id":76561198030156100,"connected_time":55000000000,"state":"connecting","ping":89},{"user_id":22,"name":"smile4","steam_id":76561199506818749,"connected_time":4071000000000,"state":"active","ping":74},{"user_id":14,"name":"ALonelyGhostE","steam_id":76561198184787290,"connected_time":4676000000000,"state":"active","ping":75},{"user_id":80,"name":"ATL1 | to4st","steam_id":76561198981009008,"connected_time":17000000000,"state":"active","ping":69},{"user_id":81,"name":"BIG LION","steam_id":76561198091880358,"connected_time":2000000000,"state":"spawning","ping":56},{"user_id":77,"name":"The Grim Heaper","steam_id":76561197987759101,"connected_time":255000000000,"state":"active","ping":103},{"user_id":62,"name":"Yam Jazzy Jim","steam_id":76561198000788950,"connected_time":2134000000000,"state":"active","ping":76},{"user_id":78,"name":"smartguyt12","steam_id":76561198847036042,"connected_time":166000000000,"state":"active","ping":101},{"user_id":68,"name":"kermitcreeper(ZAZA)","steam_id":76561199222829972,"connected_time":1525000000000,"state":"active","ping":62},{"user_id":75,"name":"Penrose42","steam_id":76561198288577396,"connected_time":379000000000,"state":"active","ping":56},{"user_id":54,"name":"basilberry","steam_id":76561198145275937,"connected_time":2451000000000,"state":"active","ping":81},{"user_id":66,"name":"Bim","steam_id":76561198155979811,"connected_time":1637000000000,"state":"active","ping":49},{"user_id":46,"name":"Yummy Kabobz","steam_id":76561198067661705,"connected_time":2715000000000,"state":"active","ping":51},{"user_id":48,"name":"Lolxdloldx","steam_id":76561198136887125,"connected_time":2574000000000,"state":"active","ping":92},{"user_id":74,"name":"An Engineer","steam_id":76561198110381643,"connected_time":516000000000,"state":"active","ping":46},{"user_id":52,"name":"MrRedRandom","steam_id":76561199476645213,"connected_time":2475000000000,"state":"active","ping":64},{"user_id":67,"name":"Boxxed","steam_id":76561198255787237,"connected_time":1596000000000,"state":"active","ping":77},{"user_id":71,"name":"D(b) Hell","steam_id":76561198067869016,"connected_time":1483000000000,"state":"active","ping":63},{"user_id":57,"name":"Anomet","steam_id":76561198060246255,"connected_time":2440000000000,"state":"active","ping":47},{"user_id":61,"name":"Monkey Mode","steam_id":76561197961267543,"connected_time":2163000000000,"state":"active","ping":46}]},{"server_id":400,"name":"Uncletopia | Atlanta | 3 | Stopwatch","name_short":"atl-3","host":"atl-1.us.uncletopia.com","port":27035,"enabled":true,"region":"us-east","cc":"us","latitude":33.753746,"longitude":-84.38633,"reserved":0,"last_update":"0001-01-01T00:00:00Z","name_a2s":"Uncletopia | Atlanta | 3 | Stopwatch","protocol":17,"map":"workshop/koth_clearcut_b15.ugc2107050255","folder":"tf","game":"Team Fortress","app_id":440,"player_count":0,"max_players":24,"Bots":0,"server_type":"Dedicated","server_os":"Linux","password":true,"vac":true,"version":"7961495","steam_id":85568392924515187,"keywords":["cp","nocrits","nodmgspread","uncletopia"],"game_id":440,"stv_port":27036,"stv_name":"Uncletopia | Atlanta | 3 | Stopwatch | STV","players":null},{"server_id":401,"name":"Uncletopia | Atlanta | 4 | Community","name_short":"atl-4","host":"atl-1.us.uncletopia.com","port":27045,"enabled":true,"region":"us-east","cc":"us","latitude":33.753746,"longitude":-84.38633,"reserved":0,"last_update":"0001-01-01T00:00:00Z","name_a2s":"Uncletopia | Atlanta | 4 | Community","protocol":17,"map":"workshop/koth_slaughter_rc1.ugc1712845210","folder":"tf","game":"Team Fortress","app_id":440,"player_count":0,"max_players":24,"Bots":0,"server_type":"Dedicated","server_os":"Linux","password":true,"vac":true,"version":"7961495","steam_id":85568392924515188,"keywords":["cp","nocrits","nodmgspread","uncletopia"],"game_id":440,"stv_port":27046,"stv_name":"Uncletopia | Atlanta | 4 | Community | STV","players":null},{"server_id":2,"name":"Uncletopia | Chicago | 1 | All Maps","name_short":"chi-1","host":"chi-1.us.uncletopia.com","port":27015,"enabled":true,"region":"us-central","cc":"us","latitude":41.881832,"longitude":-87.62318,"reserved":0,"last_update":"0001-01-01T00:00:00Z","name_a2s":"Uncletopia | Chicago | 1 | All Maps","protocol":17,"map":"pl_frontier_final","folder":"tf","game":"Team Fortress","app_id":440,"player_count":24,"max_players":24,"Bots":0,"server_type":"Dedicated","server_os":"Linux","password":true,"vac":true,"version":"7961495","steam_id":85568392924469984,"keywords":["nocrits","nodmgspread","payload","uncletopia"],"game_id":440,"stv_port":27016,"stv_name":"Uncletopia | Chicago | 1 | All Maps | STV","players":[{"user_id":449,"name":"Digit","steam_id":76561198156589157,"connected_time":134000000000,"state":"active","ping":63},{"user_id":438,"name":"Cy4nideCutie\u003c3","steam_id":76561198126686695,"connected_time":596000000000,"state":"active","ping":63},{"user_id":439,"name":"m9","steam_id":76561198125732157,"connected_time":592000000000,"state":"active","ping":58},{"user_id":395,"name":"mootier","steam_id":76561198030365192,"connected_time":3472000000000,"state":"active","ping":75},{"user_id":433,"name":"chok","steam_id":76561198242016100,"connected_time":930000000000,"state":"active","ping":90},{"user_id":390,"name":"spire lft noobcomer","steam_id":76561198367664346,"connected_time":3493000000000,"state":"active","ping":53},{"user_id":450,"name":"Bshirel","steam_id":76561198331588153,"connected_time":113000000000,"state":"active","ping":74},{"user_id":446,"name":"Maxxycat","steam_id":76561198194062681,"connected_time":363000000000,"state":"active","ping":59},{"user_id":424,"name":"costum","steam_id":76561198197086561,"connected_time":1893000000000,"state":"active","ping":56},{"user_id":448,"name":"Soy King","steam_id":76561198263025614,"connected_time":271000000000,"state":"active","ping":91},{"user_id":430,"name":"Housecoat Hero","steam_id":76561197981290558,"connected_time":1182000000000,"state":"active","ping":56},{"user_id":382,"name":"troll","steam_id":76561198082680563,"connected_time":4134000000000,"state":"active","ping":47},{"user_id":397,"name":"TƎC","steam_id":76561198237180318,"connected_time":3434000000000,"state":"active","ping":61},{"user_id":451,"name":"YOU ARE S L E E P Y","steam_id":76561198133858463,"connected_time":111000000000,"state":"active","ping":51},{"user_id":406,"name":"jb","steam_id":76561198038607085,"connected_time":2829000000000,"state":"active","ping":61},{"user_id":434,"name":"FinnaBust","steam_id":76561198397669078,"connected_time":811000000000,"state":"active","ping":70},{"user_id":425,"name":"women fish me","steam_id":76561198153245906,"connected_time":1691000000000,"state":"active","ping":58},{"user_id":441,"name":"capybara","steam_id":76561198798828328,"connected_time":559000000000,"state":"active","ping":53},{"user_id":447,"name":"Dzhoshua","steam_id":76561198071915251,"connected_time":352000000000,"state":"active","ping":57},{"user_id":365,"name":"Ball Juggler","steam_id":76561198031675881,"connected_time":5462000000000,"state":"active","ping":45},{"user_id":453,"name":"Ligh3t","steam_id":76561198179178533,"connected_time":77000000000,"state":"active","ping":70},{"user_id":407,"name":"THORNFIELDGAMER","steam_id":76561199087167473,"connected_time":2306000000000,"state":"active","ping":66},{"user_id":423,"name":"Siz","steam_id":76561198072962154,"connected_time":1929000000000,"state":"active","ping":61},{"user_id":452,"name":"Sandman","steam_id":76561199383375534,"connected_time":95000000000,"state":"active","ping":69}]},{"server_id":106,"name":"Uncletopia | Chicago | 2 | All Maps","name_short":"chi-2","host":"chi-1.us.uncletopia.com","port":27025,"enabled":true,"region":"us-central","cc":"us","latitude":41.881832,"longitude":-87.62318,"reserved":0,"last_update":"0001-01-01T00:00:00Z","name_a2s":"Uncletopia | Chicago | 2 | All Maps","protocol":17,"map":"cp_dustbowl","folder":"tf","game":"Team Fortress","app_id":440,"player_count":1,"max_players":24,"Bots":0,"server_type":"Dedicated","server_os":"Linux","password":true,"vac":true,"version":"7961495","steam_id":85568392924469985,"keywords":["cp","nocrits","nodmgspread","uncletopia"],"game_id":440,"stv_port":27026,"stv_name":"Uncletopia | Chicago | 2 | All Maps | STV","players":[{"user_id":22,"name":"XIV ♂ I R O N ♂ M I K E ♂","steam_id":76561199405378993,"connected_time":22000000000,"state":"active","ping":65}]},{"server_id":402,"name":"Uncletopia | Chicago | 3 | All Maps","name_short":"chi-3","host":"chi-1.us.uncletopia.com","port":27035,"enabled":true,"region":"us-central","cc":"us","latitude":41.881832,"longitude":-87.62318,"reserved":0,"last_update":"0001-01-01T00:00:00Z","name_a2s":"Uncletopia | Chicago | 3 | All Maps","protocol":17,"map":"plr_pipeline","folder":"tf","game":"Team Fortress","app_id":440,"player_count":0,"max_players":24,"Bots":0,"server_type":"Dedicated","server_os":"Linux","password":true,"vac":true,"version":"7961495","steam_id":85568392924515191,"keywords":["nocrits","nodmgspread","payload","uncletopia"],"game_id":440,"stv_port":27036,"stv_name":"Uncletopia | Chicago | 3 | All Maps | STV","players":null},{"server_id":403,"name":"Uncletopia | Chicago | 4 | All Maps","name_short":"chi-4","host":"chi-1.us.uncletopia.com","port":27045,"enabled":true,"region":"us-central","cc":"us","latitude":41.881832,"longitude":-87.62318,"reserved":0,"last_update":"0001-01-01T00:00:00Z","name_a2s":"Uncletopia | Chicago | 4 | All Maps","protocol":17,"map":"pl_rumford_event","folder":"tf","game":"Team Fortress","app_id":440,"player_count":0,"max_players":24,"Bots":0,"server_type":"Dedicated","server_os":"Linux","password":true,"vac":true,"version":"7961495","steam_id":85568392924515193,"keywords":["nocrits","nodmgspread","payload","uncletopia"],"game_id":440,"stv_port":27046,"stv_name":"Uncletopia | Chicago | 4 | All Maps | STV","players":null},{"server_id":36,"name":"Uncletopia | Chicago | 5 | All Maps","name_short":"chi-5","host":"chi-2.us.uncletopia.com","port":27015,"enabled":true,"region":"us-central","cc":"us","latitude":41.881832,"longitude":-87.62318,"reserved":0,"last_update":"0001-01-01T00:00:00Z","name_a2s":"Uncletopia | Chicago | 5 | All Maps","protocol":17,"map":"cp_sunshine","folder":"tf","game":"Team Fortress","app_id":440,"player_count":0,"max_players":24,"Bots":0,"server_type":"Dedicated","server_os":"Linux","password":true,"vac":true,"version":"7961495","steam_id":85568392924866362,"keywords":["cp","nocrits","nodmgspread","uncletopia"],"game_id":440,"stv_port":27016,"stv_name":"Uncletopia | Chicago | 5 | All Maps | STV","players":null},{"server_id":37,"name":"Uncletopia | Chicago | 6 | All Maps","name_short":"chi-6","host":"chi-2.us.uncletopia.com","port":27025,"enabled":true,"region":"us-central","cc":"us","latitude":41.881832,"longitude":-87.62318,"reserved":0,"last_update":"0001-01-01T00:00:00Z","name_a2s":"Uncletopia | Chicago | 6 | All Maps","protocol":17,"map":"koth_cascade","folder":"tf","game":"Team Fortress","app_id":440,"player_count":21,"max_players":24,"Bots":0,"server_type":"Dedicated","server_os":"Linux","password":true,"vac":true,"version":"7961495","steam_id":85568392924866363,"keywords":["cp","nocrits","nodmgspread","uncletopia"],"game_id":440,"stv_port":27026,"stv_name":"Uncletopia | Chicago | 6 | All Maps | STV","players":[{"user_id":313,"name":"Piss God","steam_id":76561198090504334,"connected_time":1940000000000,"state":"active","ping":47},{"user_id":340,"name":"'LaxAttack","steam_id":76561198044129346,"connected_time":41000000000,"state":"active","ping":79},{"user_id":341,"name":"-.-","steam_id":76561199239412094,"connected_time":30000000000,"state":"spawning","ping":128},{"user_id":342,"name":"Lactose ๑ﭥ","steam_id":76561198208256987,"connected_time":28000000000,"state":"active","ping":85},{"user_id":333,"name":"M249 | Spectre","steam_id":76561198118334485,"connected_time":624000000000,"state":"active","ping":62},{"user_id":301,"name":"Hovg9000","steam_id":76561199191556710,"connected_time":2631000000000,"state":"active","ping":66},{"user_id":253,"name":"Fresnel","steam_id":76561198266960876,"connected_time":6230000000000,"state":"spawning","ping":34},{"user_id":307,"name":"Java_Siege_","steam_id":76561199090000728,"connected_time":2383000000000,"state":"active","ping":87},{"user_id":314,"name":"donnie | iysmitl.xyz","steam_id":76561198148956323,"connected_time":1871000000000,"state":"active","ping":60},{"user_id":309,"name":"I'mWalkerHere","steam_id":76561199310055450,"connected_time":2207000000000,"state":"active","ping":72},{"user_id":339,"name":"Jokergamma","steam_id":76561198807984541,"connected_time":117000000000,"state":"active","ping":60},{"user_id":293,"name":"absurdly high number of gecs","steam_id":76561198022806102,"connected_time":3321000000000,"state":"active","ping":41},{"user_id":343,"name":"dave.exe","steam_id":76561198046668598,"connected_time":24000000000,"state":"active","ping":66},{"user_id":336,"name":"pinglefingle","steam_id":76561198216580197,"connected_time":266000000000,"state":"active","ping":65},{"user_id":344,"name":"phrog","steam_id":76561198870687570,"connected_time":18000000000,"state":"active","ping":55},{"user_id":345,"name":"love you!","steam_id":76561198061966425,"connected_time":15000000000,"state":"active","ping":181},{"user_id":346,"name":"flarifier","steam_id":76561198315072848,"connected_time":13000000000,"state":"spawning","ping":45},{"user_id":337,"name":"forgy","steam_id":76561198079405234,"connected_time":256000000000,"state":"active","ping":60},{"user_id":231,"name":"Kerpal45","steam_id":76561198153340350,"connected_time":8482000000000,"state":"active","ping":104},{"user_id":325,"name":"Tony Slark","steam_id":76561198151256410,"connected_time":1039000000000,"state":"active","ping":153},{"user_id":297,"name":"Defender hunter","steam_id":76561198041458028,"connected_time":3080000000000,"state":"active","ping":185}]},{"server_id":38,"name":"Uncletopia | Chicago | 7 | Stopwatch","name_short":"chi-7","host":"chi-2.us.uncletopia.com","port":27035,"enabled":true,"region":"us-central","cc":"us","latitude":41.881832,"longitude":-87.62318,"reserved":0,"last_update":"0001-01-01T00:00:00Z","name_a2s":"Uncletopia | Chicago | 7 | Stopwatch","protocol":17,"map":"cp_snakewater_final1","folder":"tf","game":"Team Fortress","app_id":440,"player_count":0,"max_players":24,"Bots":0,"server_type":"Dedicated","server_os":"Linux","password":true,"vac":true,"version":"7961495","steam_id":85568392924866364,"keywords":["cp","nocrits","nodmgspread","uncletopia"],"game_id":440,"stv_port":27036,"stv_name":"Uncletopia | Chicago | 7 | Stopwatch | STV","players":null},{"server_id":39,"name":"Uncletopia | Chicago | 8 | Community","name_short":"chi-8","host":"chi-2.us.uncletopia.com","port":27045,"enabled":true,"region":"us-central","cc":"us","latitude":41.881832,"longitude":-87.62318,"reserved":0,"last_update":"0001-01-01T00:00:00Z","name_a2s":"Uncletopia | Chicago | 8 | Community","protocol":17,"map":"workshop/koth_slaughter_rc1.ugc1712845210","folder":"tf","game":"Team Fortress","app_id":440,"player_count":0,"max_players":24,"Bots":0,"server_type":"Dedicated","server_os":"Linux","password":true,"vac":true,"version":"7961495","steam_id":85568392924866365,"keywords":["cp","nocrits","nodmgspread","uncletopia"],"game_id":440,"stv_port":27046,"stv_name":"Uncletopia | Chicago | 8 | Community | STV","players":null},{"server_id":8,"name":"Uncletopia | Dallas | 1 | All Maps","name_short":"dal-1","host":"dal-1.us.uncletopia.com","port":27015,"enabled":true,"region":"us-central","cc":"us","latitude":32.779167,"longitude":-96.80889,"reserved":0,"last_update":"0001-01-01T00:00:00Z","name_a2s":"Uncletopia | Dallas | 1 | All Maps","protocol":17,"map":"pl_pier","folder":"tf","game":"Team Fortress","app_id":440,"player_count":24,"max_players":24,"Bots":0,"server_type":"Dedicated","server_os":"Linux","password":true,"vac":true,"version":"7961495","steam_id":85568392924469986,"keywords":["nocrits","nodmgspread","payload","uncletopia"],"game_id":440,"stv_port":27016,"stv_name":"Uncletopia | Dallas | 1 | All Maps | STV","players":[{"user_id":276,"name":"righty","steam_id":76561198045260412,"connected_time":1106000000000,"state":"active","ping":78},{"user_id":216,"name":"Pancho","steam_id":76561198155847264,"connected_time":6283000000000,"state":"active","ping":49},{"user_id":261,"name":"Goldensliv","steam_id":76561198161673891,"connected_time":2349000000000,"state":"active","ping":70},{"user_id":275,"name":"freesia","steam_id":76561198127525888,"connected_time":1132000000000,"state":"active","ping":46},{"user_id":255,"name":"get scrongled, idiot","steam_id":76561198115874625,"connected_time":2975000000000,"state":"active","ping":98},{"user_id":278,"name":"SAGE(सगे*)","steam_id":76561198811114074,"connected_time":886000000000,"state":"active","ping":59},{"user_id":279,"name":"DMM","steam_id":76561198065426171,"connected_time":745000000000,"state":"active","ping":58},{"user_id":285,"name":"Granny from Hoodwinked","steam_id":76561198116389072,"connected_time":346000000000,"state":"active","ping":107},{"user_id":281,"name":"PTR","steam_id":76561198237253772,"connected_time":594000000000,"state":"active","ping":45},{"user_id":284,"name":"Stupid? Probably :(","steam_id":76561198298310744,"connected_time":511000000000,"state":"active","ping":89},{"user_id":270,"name":"Brandino!","steam_id":76561198000446932,"connected_time":1661000000000,"state":"active","ping":99},{"user_id":264,"name":"Crλf227","steam_id":76561198196211121,"connected_time":1914000000000,"state":"active","ping":65},{"user_id":269,"name":"darrell","steam_id":76561199108915133,"connected_time":1699000000000,"state":"active","ping":63},{"user_id":165,"name":"mrpineapple070","steam_id":76561199088278757,"connected_time":9788000000000,"state":"active","ping":69},{"user_id":272,"name":"T. Bombadil","steam_id":76561198364152168,"connected_time":1506000000000,"state":"active","ping":136},{"user_id":218,"name":"Anonymoose","steam_id":76561198862312405,"connected_time":6070000000000,"state":"active","ping":60},{"user_id":246,"name":"HeroOfTime","steam_id":76561199096218001,"connected_time":3657000000000,"state":"active","ping":86},{"user_id":228,"name":"Glühbirne","steam_id":76561198189278869,"connected_time":5287000000000,"state":"active","ping":72},{"user_id":262,"name":"Sprit ♥","steam_id":76561198268780781,"connected_time":2205000000000,"state":"active","ping":75},{"user_id":248,"name":"gretchling","steam_id":76561198046111695,"connected_time":3555000000000,"state":"active","ping":54},{"user_id":282,"name":"Tomoscones","steam_id":76561198813586588,"connected_time":554000000000,"state":"active","ping":93},{"user_id":267,"name":"Shattered Glass","steam_id":76561198116835391,"connected_time":1738000000000,"state":"active","ping":90},{"user_id":221,"name":"motherfucker 2.0","steam_id":76561198141189209,"connected_time":6033000000000,"state":"active","ping":57},{"user_id":283,"name":"Jolot","steam_id":76561198027776270,"connected_time":531000000000,"state":"active","ping":65}]},{"server_id":108,"name":"Uncletopia | Dallas | 2 | All Maps","name_short":"dal-2","host":"dal-1.us.uncletopia.com","port":27025,"enabled":true,"region":"us-central","cc":"us","latitude":32.779167,"longitude":-96.80889,"reserved":0,"last_update":"0001-01-01T00:00:00Z","name_a2s":"Uncletopia | Dallas | 2 | All Maps","protocol":17,"map":"pl_borneo","folder":"tf","game":"Team Fortress","app_id":440,"player_count":24,"max_players":24,"Bots":0,"server_type":"Dedicated","server_os":"Linux","password":true,"vac":true,"version":"7961495","steam_id":85568392924469988,"keywords":["nocrits","nodmgspread","payload","uncletopia"],"game_id":440,"stv_port":27026,"stv_name":"Uncletopia | Dallas | 2 | All Maps | STV","players":[{"user_id":35,"name":"Cresant Ape","steam_id":76561198127425559,"connected_time":331000000000,"state":"active","ping":46},{"user_id":10,"name":"Shisho","steam_id":76561198800199201,"connected_time":1588000000000,"state":"active","ping":41},{"user_id":12,"name":"RPGnoob","steam_id":76561198384913758,"connected_time":1478000000000,"state":"active","ping":50},{"user_id":13,"name":"Temujin","steam_id":76561198030936583,"connected_time":1295000000000,"state":"active","ping":75},{"user_id":14,"name":"uncletopia dallas 2 player","steam_id":76561198412786186,"connected_time":1294000000000,"state":"active","ping":49},{"user_id":15,"name":"Noire","steam_id":76561198149370109,"connected_time":1280000000000,"state":"active","ping":91},{"user_id":16,"name":"aisu","steam_id":76561198043768507,"connected_time":1066000000000,"state":"active","ping":86},{"user_id":17,"name":"Lex","steam_id":76561198069948353,"connected_time":993000000000,"state":"active","ping":56},{"user_id":40,"name":"JaccNakk","steam_id":76561198397685615,"connected_time":169000000000,"state":"active","ping":94},{"user_id":22,"name":"frenemy","steam_id":76561198011363677,"connected_time":846000000000,"state":"active","ping":62},{"user_id":26,"name":"mkl","steam_id":76561197986401685,"connected_time":650000000000,"state":"active","ping":52},{"user_id":21,"name":"Chocolate","steam_id":76561198133253767,"connected_time":938000000000,"state":"active","ping":47},{"user_id":28,"name":"FallingEcos","steam_id":76561199495039850,"connected_time":548000000000,"state":"active","ping":85},{"user_id":27,"name":"MTGbigdog","steam_id":76561198838760637,"connected_time":638000000000,"state":"active","ping":91},{"user_id":25,"name":"Trashgaming","steam_id":76561199184268442,"connected_time":704000000000,"state":"active","ping":95},{"user_id":29,"name":"TamerMushroom64","steam_id":76561199128190180,"connected_time":511000000000,"state":"active","ping":137},{"user_id":30,"name":"Puro Scout","steam_id":76561199186496740,"connected_time":495000000000,"state":"active","ping":97},{"user_id":31,"name":"creeeeeee","steam_id":76561198392539722,"connected_time":484000000000,"state":"active","ping":85},{"user_id":32,"name":"Splexiey","steam_id":76561199122155213,"connected_time":444000000000,"state":"active","ping":114},{"user_id":33,"name":"Renota","steam_id":76561198058224488,"connected_time":441000000000,"state":"active","ping":92},{"user_id":36,"name":"Reiner","steam_id":76561199201762178,"connected_time":313000000000,"state":"active","ping":99},{"user_id":37,"name":"Strike Force Lightning","steam_id":76561198271519776,"connected_time":301000000000,"state":"active","ping":76},{"user_id":38,"name":"amaz","steam_id":76561198386233160,"connected_time":283000000000,"state":"active","ping":61},{"user_id":39,"name":"Majoras","steam_id":76561199228369854,"connected_time":227000000000,"state":"active","ping":189}]},{"server_id":404,"name":"Uncletopia | Dallas | 3 | All Maps","name_short":"dal-3","host":"dal-1.us.uncletopia.com","port":27035,"enabled":true,"region":"us-central","cc":"us","latitude":32.779167,"longitude":-96.80889,"reserved":0,"last_update":"0001-01-01T00:00:00Z","name_a2s":"Uncletopia | Dallas | 3 | All Maps","protocol":17,"map":"cp_coldfront","folder":"tf","game":"Team Fortress","app_id":440,"player_count":0,"max_players":24,"Bots":0,"server_type":"Dedicated","server_os":"Linux","password":true,"vac":true,"version":"7961495","steam_id":85568392924515219,"keywords":["cp","nocrits","nodmgspread","uncletopia"],"game_id":440,"stv_port":27036,"stv_name":"Uncletopia | Dallas | 3 | All Maps | STV","players":null},{"server_id":405,"name":"Uncletopia | Dallas | 4 | Community","name_short":"dal-4","host":"dal-1.us.uncletopia.com","port":27045,"enabled":true,"region":"us-central","cc":"us","latitude":32.779167,"longitude":-96.80889,"reserved":0,"last_update":"0001-01-01T00:00:00Z","name_a2s":"Uncletopia | Dallas | 4 | Community","protocol":17,"map":"workshop/pl_fifthcurve_rc1.ugc648227046","folder":"tf","game":"Team Fortress","app_id":440,"player_count":0,"max_players":24,"Bots":0,"server_type":"Dedicated","server_os":"Linux","password":true,"vac":true,"version":"7961495","steam_id":85568392924515220,"keywords":["nocrits","nodmgspread","payload","uncletopia"],"game_id":440,"stv_port":27046,"stv_name":"Uncletopia | Dallas | 4 | Community | STV","players":null},{"server_id":5,"name":"Uncletopia | Frankfurt | 1 | All Maps","name_short":"frk-1","host":"frk-1.de.uncletopia.com","port":27015,"enabled":true,"region":"eu","cc":"de","latitude":50.110924,"longitude":8.682127,"reserved":0,"last_update":"0001-01-01T00:00:00Z","name_a2s":"Uncletopia | Frankfurt | 1 | All Maps","protocol":17,"map":"cp_altitude","folder":"tf","game":"Team Fortress","app_id":440,"player_count":12,"max_players":24,"Bots":0,"server_type":"Dedicated","server_os":"Linux","password":true,"vac":true,"version":"7961495","steam_id":85568392924469989,"keywords":["cp","nocrits","nodmgspread","uncletopia"],"game_id":440,"stv_port":27016,"stv_name":"Uncletopia | Frankfurt | 1 | All Maps | STV","players":[{"user_id":484,"name":"CONAH","steam_id":76561198227685876,"connected_time":173000000000,"state":"active","ping":60},{"user_id":463,"name":"b0g","steam_id":76561198051124946,"connected_time":2488000000000,"state":"active","ping":65},{"user_id":458,"name":"Master coitus","steam_id":76561198050416948,"connected_time":2796000000000,"state":"active","ping":44},{"user_id":486,"name":"Pietro Badoglio","steam_id":76561198302435743,"connected_time":57000000000,"state":"active","ping":53},{"user_id":487,"name":"Hecko❤","steam_id":76561198089125205,"connected_time":51000000000,"state":"spawning","ping":100},{"user_id":473,"name":"Carl","steam_id":76561198045638738,"connected_time":1626000000000,"state":"active","ping":58},{"user_id":477,"name":"MoistMomMauler","steam_id":76561198069359049,"connected_time":1474000000000,"state":"active","ping":76},{"user_id":471,"name":"Finnish Farmer","steam_id":76561198205366043,"connected_time":1882000000000,"state":"active","ping":70},{"user_id":474,"name":"cheriberry","steam_id":76561198093577036,"connected_time":1624000000000,"state":"active","ping":59},{"user_id":445,"name":"The SPy","steam_id":76561198392505656,"connected_time":4392000000000,"state":"active","ping":47},{"user_id":454,"name":"manure merchant","steam_id":76561198010109316,"connected_time":3115000000000,"state":"active","ping":53},{"user_id":449,"name":"Mayor Wank from Wanker Town","steam_id":76561197998253588,"connected_time":4126000000000,"state":"active","ping":45}]},{"server_id":110,"name":"Uncletopia | Frankfurt | 2 | All Maps","name_short":"frk-2","host":"frk-1.de.uncletopia.com","port":27025,"enabled":true,"region":"eu","cc":"de","latitude":50.110924,"longitude":8.682127,"reserved":0,"last_update":"0001-01-01T00:00:00Z","name_a2s":"Uncletopia | Frankfurt | 2 | All Maps","protocol":17,"map":"cp_gorge","folder":"tf","game":"Team Fortress","app_id":440,"player_count":24,"max_players":24,"Bots":0,"server_type":"Dedicated","server_os":"Linux","password":true,"vac":true,"version":"7961495","steam_id":85568392924469990,"keywords":["cp","nocrits","nodmgspread","uncletopia"],"game_id":440,"stv_port":27026,"stv_name":"Uncletopia | Frankfurt | 2 | All Maps | STV","players":[{"user_id":470,"name":"Der Geist des Hans Rosling","steam_id":76561198049231109,"connected_time":673000000000,"state":"active","ping":47},{"user_id":401,"name":"Ash","steam_id":76561198272001890,"connected_time":5929000000000,"state":"active","ping":47},{"user_id":380,"name":"fifionet","steam_id":76561198026618085,"connected_time":7292000000000,"state":"active","ping":62},{"user_id":447,"name":"Blake","steam_id":76561198034050682,"connected_time":2548000000000,"state":"active","ping":62},{"user_id":460,"name":"Random Crit","steam_id":76561198066978791,"connected_time":1128000000000,"state":"active","ping":54},{"user_id":462,"name":"Kolodziej","steam_id":76561198088672385,"connected_time":1007000000000,"state":"active","ping":59},{"user_id":402,"name":"TrippyPerson","steam_id":76561198805044643,"connected_time":5909000000000,"state":"active","ping":69},{"user_id":421,"name":"Keke","steam_id":76561198161351567,"connected_time":4546000000000,"state":"active","ping":55},{"user_id":471,"name":"Rejdory","steam_id":76561198416604100,"connected_time":471000000000,"state":"active","ping":50},{"user_id":422,"name":"Pahvi-Make","steam_id":76561198126135559,"connected_time":4535000000000,"state":"active","ping":96},{"user_id":381,"name":"maslowski02","steam_id":76561199410835527,"connected_time":7290000000000,"state":"active","ping":52},{"user_id":448,"name":"Siegmeyer","steam_id":76561198328543549,"connected_time":2535000000000,"state":"active","ping":88},{"user_id":474,"name":"Ptahotep","steam_id":76561198008708645,"connected_time":137000000000,"state":"active","ping":46},{"user_id":416,"name":"asd_","steam_id":76561198060417920,"connected_time":4653000000000,"state":"active","ping":78},{"user_id":468,"name":"Dies Irae","steam_id":76561198949138533,"connected_time":821000000000,"state":"active","ping":86},{"user_id":469,"name":"_Pinki00","steam_id":76561198981500931,"connected_time":809000000000,"state":"active","ping":83},{"user_id":473,"name":"Kimmo","steam_id":76561198090432850,"connected_time":274000000000,"state":"active","ping":109},{"user_id":475,"name":"BlackSuperhero","steam_id":76561199500033132,"connected_time":105000000000,"state":"active","ping":102},{"user_id":476,"name":"U;j5ua;YB2_amRe3","steam_id":76561198068429874,"connected_time":96000000000,"state":"active","ping":169},{"user_id":477,"name":"cuddles","steam_id":76561198805181599,"connected_time":61000000000,"state":"active","ping":54},{"user_id":478,"name":"Egor Pomidor","steam_id":76561199175688390,"connected_time":23000000000,"state":"active","ping":75},{"user_id":479,"name":"Denton","steam_id":76561198367991717,"connected_time":18000000000,"state":"active","ping":69},{"user_id":446,"name":"Uncle Ben","steam_id":76561198032568298,"connected_time":2564000000000,"state":"active","ping":70},{"user_id":409,"name":"DiracDeltaFunction","steam_id":76561199201624841,"connected_time":5789000000000,"state":"active","ping":65}]},{"server_id":308,"name":"Uncletopia | Frankfurt | 3 | All Maps","name_short":"frk-3","host":"frk-1.de.uncletopia.com","port":27035,"enabled":true,"region":"eu","cc":"de","latitude":50.110924,"longitude":8.682127,"reserved":0,"last_update":"0001-01-01T00:00:00Z","name_a2s":"Uncletopia | Frankfurt | 3 | All Maps","protocol":17,"map":"cp_mountainlab","folder":"tf","game":"Team Fortress","app_id":440,"player_count":12,"max_players":24,"Bots":0,"server_type":"Dedicated","server_os":"Linux","password":true,"vac":true,"version":"7961495","steam_id":85568392924504274,"keywords":["cp","nocrits","nodmgspread","uncletopia"],"game_id":440,"stv_port":27036,"stv_name":"Uncletopia | Frankfurt | 3 | All Maps | STV","players":[{"user_id":208,"name":"kana","steam_id":76561198002343512,"connected_time":1024000000000,"state":"active","ping":75},{"user_id":202,"name":"Sir Kiops","steam_id":76561198022769275,"connected_time":1332000000000,"state":"active","ping":83},{"user_id":209,"name":"Witcher","steam_id":76561198073550998,"connected_time":903000000000,"state":"active","ping":60},{"user_id":210,"name":"inV AsuX TF2Cases.com","steam_id":76561197990333289,"connected_time":882000000000,"state":"active","ping":60},{"user_id":219,"name":"Gibus Gang","steam_id":76561198150755391,"connected_time":296000000000,"state":"active","ping":48},{"user_id":221,"name":"ultim8","steam_id":76561198201501691,"connected_time":162000000000,"state":"active","ping":51},{"user_id":214,"name":"MR BUBBLES","steam_id":76561198019005259,"connected_time":794000000000,"state":"active","ping":86},{"user_id":215,"name":"Lemon","steam_id":76561198188535947,"connected_time":779000000000,"state":"active","ping":60},{"user_id":168,"name":"DEFENDOR62","steam_id":76561199386703896,"connected_time":3796000000000,"state":"active","ping":57},{"user_id":213,"name":"Real (Real)","steam_id":76561198323425034,"connected_time":839000000000,"state":"active","ping":60},{"user_id":216,"name":"Carlo","steam_id":76561198276491098,"connected_time":778000000000,"state":"active","ping":46},{"user_id":185,"name":"Towercat","steam_id":76561198013141793,"connected_time":1929000000000,"state":"active","ping":54}]},{"server_id":309,"name":"Uncletopia | Frankfurt | 4 | All Maps","name_short":"frk-4","host":"frk-1.de.uncletopia.com","port":27045,"enabled":true,"region":"eu","cc":"de","latitude":50.110924,"longitude":8.682127,"reserved":0,"last_update":"0001-01-01T00:00:00Z","name_a2s":"Uncletopia | Frankfurt | 4 | All Maps","protocol":17,"map":"cp_dustbowl","folder":"tf","game":"Team Fortress","app_id":440,"player_count":24,"max_players":24,"Bots":0,"server_type":"Dedicated","server_os":"Linux","password":true,"vac":true,"version":"7961495","steam_id":85568392924504275,"keywords":["cp","nocrits","nodmgspread","uncletopia"],"game_id":440,"stv_port":27046,"stv_name":"Uncletopia | Frankfurt | 4 | All Maps | STV","players":[{"user_id":275,"name":"chillrend_morphs_high_lod6","steam_id":76561198452963141,"connected_time":359000000000,"state":"active","ping":76},{"user_id":276,"name":"dmtstar羟考酮 B","steam_id":76561198207675585,"connected_time":345000000000,"state":"active","ping":119},{"user_id":239,"name":"Kenny","steam_id":76561198994898206,"connected_time":2291000000000,"state":"active","ping":73},{"user_id":252,"name":"Rumpiel","steam_id":76561198254303347,"connected_time":1930000000000,"state":"active","ping":65},{"user_id":216,"name":"Hey, I´m Andy!","steam_id":76561198060337777,"connected_time":4619000000000,"state":"active","ping":60},{"user_id":280,"name":"Chicken pot pie","steam_id":76561198084997090,"connected_time":139000000000,"state":"active","ping":47},{"user_id":272,"name":"bAdmon","steam_id":76561197961785793,"connected_time":887000000000,"state":"active","ping":53},{"user_id":90,"name":"DocTwoEight","steam_id":76561198153488940,"connected_time":13863000000000,"state":"active","ping":60},{"user_id":278,"name":"Dawwg","steam_id":76561198174156277,"connected_time":291000000000,"state":"active","ping":145},{"user_id":264,"name":"Jahusi!*","steam_id":76561197992445165,"connected_time":1164000000000,"state":"active","ping":51},{"user_id":274,"name":"Frazzle","steam_id":76561198262577951,"connected_time":444000000000,"state":"active","ping":67},{"user_id":242,"name":"Ecton","steam_id":76561198025103720,"connected_time":2220000000000,"state":"active","ping":59},{"user_id":281,"name":"tomydjoh","steam_id":76561198077421906,"connected_time":97000000000,"state":"active","ping":51},{"user_id":266,"name":"Accident","steam_id":76561198115160396,"connected_time":1103000000000,"state":"active","ping":72},{"user_id":231,"name":"Tre3","steam_id":76561198054795379,"connected_time":2932000000000,"state":"active","ping":49},{"user_id":249,"name":"Yodawg","steam_id":76561198261933946,"connected_time":2027000000000,"state":"active","ping":48},{"user_id":267,"name":"BD[PL]","steam_id":76561198115995871,"connected_time":1073000000000,"state":"active","ping":73},{"user_id":268,"name":"Retarded Asian Programmer","steam_id":76561198852826853,"connected_time":1071000000000,"state":"active","ping":59},{"user_id":145,"name":"sticks","steam_id":76561198127099299,"connected_time":10607000000000,"state":"active","ping":50},{"user_id":269,"name":"Onion Drugs","steam_id":76561198441194331,"connected_time":1070000000000,"state":"active","ping":105},{"user_id":270,"name":"Roblin24","steam_id":76561198991674513,"connected_time":1037000000000,"state":"active","ping":56},{"user_id":248,"name":"Mega","steam_id":76561197970389664,"connected_time":2104000000000,"state":"active","ping":45},{"user_id":273,"name":"bigeon","steam_id":76561198078601337,"connected_time":725000000000,"state":"active","ping":77},{"user_id":235,"name":"gaming (official)","steam_id":76561198106012909,"connected_time":2917000000000,"state":"active","ping":60}]},{"server_id":310,"name":"Uncletopia | Frankfurt | 5 | All Maps","name_short":"frk-5","host":"frk-1.de.uncletopia.com","port":27055,"enabled":true,"region":"eu","cc":"de","latitude":50.110924,"longitude":8.682127,"reserved":0,"last_update":"0001-01-01T00:00:00Z","name_a2s":"Uncletopia | Frankfurt | 5 | All Maps","protocol":17,"map":"koth_highpass","folder":"tf","game":"Team Fortress","app_id":440,"player_count":4,"max_players":24,"Bots":0,"server_type":"Dedicated","server_os":"Linux","password":true,"vac":true,"version":"7961495","steam_id":85568392924504277,"keywords":["cp","nocrits","nodmgspread","uncletopia"],"game_id":440,"stv_port":27056,"stv_name":"Uncletopia | Frankfurt | 5 | All Maps | STV","players":[{"user_id":52,"name":"Grog the caveman","steam_id":76561199040975062,"connected_time":326000000000,"state":"active","ping":68},{"user_id":53,"name":"Lemonade ඞ","steam_id":76561198813183893,"connected_time":238000000000,"state":"active","ping":63},{"user_id":55,"name":"Jetty","steam_id":76561198004885583,"connected_time":18000000000,"state":"spawning","ping":148},{"user_id":56,"name":"Tispy","steam_id":76561199207410049,"connected_time":12000000000,"state":"spawning","ping":91}]},{"server_id":311,"name":"Uncletopia | Frankfurt | 6 | All Maps","name_short":"frk-6","host":"frk-1.de.uncletopia.com","port":27065,"enabled":true,"region":"eu","cc":"de","latitude":50.110924,"longitude":8.682127,"reserved":0,"last_update":"0001-01-01T00:00:00Z","name_a2s":"Uncletopia | Frankfurt | 6 | All Maps","protocol":17,"map":"cp_standin_final","folder":"tf","game":"Team Fortress","app_id":440,"player_count":24,"max_players":24,"Bots":0,"server_type":"Dedicated","server_os":"Linux","password":true,"vac":true,"version":"7961495","steam_id":85568392924504278,"keywords":["cp","nocrits","nodmgspread","uncletopia"],"game_id":440,"stv_port":27066,"stv_name":"Uncletopia | Frankfurt | 6 | All Maps | STV","players":[{"user_id":497,"name":"rgb4","steam_id":76561198267916695,"connected_time":341000000000,"state":"active","ping":57},{"user_id":443,"name":"HaylingZar","steam_id":76561198053559897,"connected_time":3230000000000,"state":"active","ping":74},{"user_id":488,"name":"SunZi","steam_id":76561198139243535,"connected_time":1207000000000,"state":"active","ping":69},{"user_id":414,"name":"sokige","steam_id":76561198167112371,"connected_time":4725000000000,"state":"active","ping":91},{"user_id":492,"name":"☆bladee☆dior☆f/w2016☆","steam_id":76561198082352159,"connected_time":836000000000,"state":"active","ping":75},{"user_id":472,"name":"Isak","steam_id":76561198085959762,"connected_time":1733000000000,"state":"active","ping":75},{"user_id":493,"name":"disabled chimp","steam_id":76561198132062857,"connected_time":814000000000,"state":"active","ping":61},{"user_id":494,"name":"Tiad","steam_id":76561198283421457,"connected_time":784000000000,"state":"active","ping":44},{"user_id":495,"name":"Cloud","steam_id":76561198271785898,"connected_time":722000000000,"state":"active","ping":65},{"user_id":461,"name":"ay","steam_id":76561198033695429,"connected_time":2195000000000,"state":"active","ping":55},{"user_id":496,"name":"Peint","steam_id":76561198162930300,"connected_time":463000000000,"state":"active","ping":50},{"user_id":498,"name":"PAX","steam_id":76561198046692146,"connected_time":318000000000,"state":"active","ping":70},{"user_id":503,"name":"_420_StopItDudeCmon","steam_id":76561197997146481,"connected_time":28000000000,"state":"active","ping":52},{"user_id":478,"name":"Tony","steam_id":76561198128993838,"connected_time":1625000000000,"state":"active","ping":75},{"user_id":499,"name":"R8N - Obismal","steam_id":76561198007482714,"connected_time":290000000000,"state":"active","ping":74},{"user_id":479,"name":"Waltism","steam_id":76561199447676489,"connected_time":1563000000000,"state":"active","ping":69},{"user_id":481,"name":"Lådan :3","steam_id":76561198071000575,"connected_time":1484000000000,"state":"active","ping":64},{"user_id":500,"name":"froglids","steam_id":76561198045466919,"connected_time":249000000000,"state":"active","ping":60},{"user_id":501,"name":"MONEY","steam_id":76561198010924611,"connected_time":202000000000,"state":"active","ping":112},{"user_id":504,"name":"Jangli","steam_id":76561198103923652,"connected_time":28000000000,"state":"spawning","ping":165},{"user_id":466,"name":"Cosmetic brain","steam_id":76561198055936410,"connected_time":2019000000000,"state":"active","ping":87},{"user_id":464,"name":"Skatnaset","steam_id":76561198298457353,"connected_time":2051000000000,"state":"active","ping":64},{"user_id":470,"name":"Why?","steam_id":76561199102201832,"connected_time":1825000000000,"state":"active","ping":64},{"user_id":502,"name":"ashsillygoober","steam_id":76561199454622997,"connected_time":160000000000,"state":"active","ping":155}]},{"server_id":23,"name":"Uncletopia | Frankfurt | 7 | Stopwatch","name_short":"frk-7","host":"frk-1.de.uncletopia.com","port":27075,"enabled":true,"region":"eu","cc":"de","latitude":50.110924,"longitude":8.682127,"reserved":0,"last_update":"0001-01-01T00:00:00Z","name_a2s":"Uncletopia | Frankfurt | 7 | Stopwatch","protocol":17,"map":"workshop/koth_bagel_rc6.ugc2514036946","folder":"tf","game":"Team Fortress","app_id":440,"player_count":0,"max_players":24,"Bots":0,"server_type":"Dedicated","server_os":"Linux","password":true,"vac":true,"version":"7961495","steam_id":85568392924742827,"keywords":["cp","nocrits","nodmgspread","uncletopia"],"game_id":440,"stv_port":27076,"stv_name":"Uncletopia | Frankfurt | 7 | Stopwatch | STV","players":null},{"server_id":24,"name":"Uncletopia | Frankfurt | 8 | Community","name_short":"frk-8","host":"frk-1.de.uncletopia.com","port":27085,"enabled":true,"region":"eu","cc":"de","latitude":50.110924,"longitude":8.682127,"reserved":0,"last_update":"0001-01-01T00:00:00Z","name_a2s":"Uncletopia | Frankfurt | 8 | Community","protocol":17,"map":"workshop/cp_snowbase_b21.ugc2081770490","folder":"tf","game":"Team Fortress","app_id":440,"player_count":0,"max_players":24,"Bots":0,"server_type":"Dedicated","server_os":"Linux","password":true,"vac":true,"version":"7961495","steam_id":85568392924742828,"keywords":["cp","nocrits","nodmgspread","uncletopia"],"game_id":440,"stv_port":27086,"stv_name":"Uncletopia | Frankfurt | 8 | Community | STV","players":null},{"server_id":202,"name":"Uncletopia | Hong Kong | 1 | All Maps","name_short":"hgk-1","host":"hgk-1.hk.uncletopia.com","port":27015,"enabled":true,"region":"asia","cc":"hk","latitude":22.302711,"longitude":114.177216,"reserved":0,"last_update":"0001-01-01T00:00:00Z","name_a2s":"Uncletopia | Hong Kong | 1 | All Maps","protocol":17,"map":"pl_swiftwater_final1","folder":"tf","game":"Team Fortress","app_id":440,"player_count":0,"max_players":24,"Bots":0,"server_type":"Dedicated","server_os":"Linux","password":true,"vac":true,"version":"7961495","steam_id":85568392924494504,"keywords":["nocrits","nodmgspread","payload","uncletopia"],"game_id":440,"stv_port":27016,"stv_name":"Uncletopia | Hong Kong | 1 | All Maps | STV","players":null},{"server_id":1,"name":"Uncletopia | Los Angeles | 1 | All Maps","name_short":"lax-1","host":"lax-1.us.uncletopia.com","port":27015,"enabled":true,"region":"us-west","cc":"us","latitude":33.94279,"longitude":-118.41004,"reserved":0,"last_update":"0001-01-01T00:00:00Z","name_a2s":"Uncletopia | Los Angeles | 1 | All Maps","protocol":17,"map":"cp_process_final","folder":"tf","game":"Team Fortress","app_id":440,"player_count":22,"max_players":24,"Bots":0,"server_type":"Dedicated","server_os":"Linux","password":true,"vac":true,"version":"7961495","steam_id":85568392924469991,"keywords":["cp","nocrits","nodmgspread","uncletopia"],"game_id":440,"stv_port":27016,"stv_name":"Uncletopia | Los Angeles | 1 | All Maps | STV","players":[{"user_id":49,"name":"Typh","steam_id":76561198315344079,"connected_time":8964000000000,"state":"active","ping":95},{"user_id":136,"name":"Boxcars","steam_id":76561198120978767,"connected_time":478000000000,"state":"active","ping":44},{"user_id":128,"name":"batt","steam_id":76561198150007983,"connected_time":937000000000,"state":"active","ping":45},{"user_id":113,"name":"SunkenSole9132","steam_id":76561198359562446,"connected_time":2788000000000,"state":"active","ping":58},{"user_id":121,"name":"life","steam_id":76561198227112556,"connected_time":1933000000000,"state":"active","ping":47},{"user_id":138,"name":"Shame","steam_id":76561198100490994,"connected_time":383000000000,"state":"active","ping":93},{"user_id":141,"name":"Alps","steam_id":76561198408132384,"connected_time":23000000000,"state":"spawning","ping":60},{"user_id":61,"name":"you just got dyked on","steam_id":76561198018977723,"connected_time":8007000000000,"state":"active","ping":76},{"user_id":94,"name":"June","steam_id":76561198141803658,"connected_time":4421000000000,"state":"active","ping":42},{"user_id":18,"name":"aBigPoo","steam_id":76561198425027856,"connected_time":10421000000000,"state":"active","ping":49},{"user_id":132,"name":"GamingDude","steam_id":76561199079200901,"connected_time":694000000000,"state":"active","ping":75},{"user_id":123,"name":"Lucky","steam_id":76561198124910662,"connected_time":1909000000000,"state":"active","ping":57},{"user_id":124,"name":"American freedom bird","steam_id":76561198366142388,"connected_time":1889000000000,"state":"active","ping":46},{"user_id":135,"name":"MegaBitmap","steam_id":76561198086027059,"connected_time":568000000000,"state":"active","ping":72},{"user_id":125,"name":"K1ngBurrito","steam_id":76561198134344529,"connected_time":1885000000000,"state":"active","ping":60},{"user_id":85,"name":"Eden","steam_id":76561198081284664,"connected_time":6096000000000,"state":"active","ping":59},{"user_id":55,"name":"HopeTheNeko","steam_id":76561199159285465,"connected_time":8692000000000,"state":"active","ping":46},{"user_id":93,"name":"Sir BrainDamage the V of Serbia","steam_id":76561198846344452,"connected_time":4754000000000,"state":"active","ping":58},{"user_id":137,"name":"Danny DeVito with a Gun","steam_id":76561198043358828,"connected_time":468000000000,"state":"active","ping":59},{"user_id":140,"name":"TheBrocklobster","steam_id":76561198039682984,"connected_time":214000000000,"state":"active","ping":56},{"user_id":133,"name":"Mel","steam_id":76561198086844531,"connected_time":678000000000,"state":"active","ping":92},{"user_id":116,"name":"BigBubble42","steam_id":76561198136286123,"connected_time":2001000000000,"state":"active","ping":58}]},{"server_id":112,"name":"Uncletopia | Los Angeles | 2 | All Maps","name_short":"lax-2","host":"lax-1.us.uncletopia.com","port":27025,"enabled":true,"region":"us-west","cc":"us","latitude":33.94279,"longitude":-118.41004,"reserved":0,"last_update":"0001-01-01T00:00:00Z","name_a2s":"Uncletopia | Los Angeles | 2 | All Maps","protocol":17,"map":"koth_cascade","folder":"tf","game":"Team Fortress","app_id":440,"player_count":0,"max_players":24,"Bots":0,"server_type":"Dedicated","server_os":"Linux","password":true,"vac":true,"version":"7961495","steam_id":85568392924469992,"keywords":["cp","nocrits","nodmgspread","uncletopia"],"game_id":440,"stv_port":27026,"stv_name":"Uncletopia | Los Angeles | 2 | All Maps | STV","players":null},{"server_id":324,"name":"Uncletopia | Los Angeles | 3 | All Maps","name_short":"lax-3","host":"lax-1.us.uncletopia.com","port":27035,"enabled":true,"region":"us-west","cc":"us","latitude":33.94279,"longitude":-118.41004,"reserved":0,"last_update":"0001-01-01T00:00:00Z","name_a2s":"Uncletopia | Los Angeles | 3 | All Maps","protocol":17,"map":"pl_badwater","folder":"tf","game":"Team Fortress","app_id":440,"player_count":0,"max_players":24,"Bots":0,"server_type":"Dedicated","server_os":"Linux","password":true,"vac":true,"version":"7961495","steam_id":85568392924510198,"keywords":["nocrits","nodmgspread","payload","uncletopia"],"game_id":440,"stv_port":27036,"stv_name":"Uncletopia | Los Angeles | 3 | All Maps | STV","players":null},{"server_id":25,"name":"Uncletopia | Los Angeles | 4 | Stopwatch","name_short":"lax-4","host":"lax-1.us.uncletopia.com","port":27045,"enabled":true,"region":"us-west","cc":"us","latitude":33.94279,"longitude":-118.41004,"reserved":0,"last_update":"0001-01-01T00:00:00Z","name_a2s":"Uncletopia | Los Angeles | 4 | Stopwatch","protocol":17,"map":"pl_upward","folder":"tf","game":"Team Fortress","app_id":440,"player_count":0,"max_players":24,"Bots":0,"server_type":"Dedicated","server_os":"Linux","password":true,"vac":true,"version":"7961495","steam_id":85568392924510199,"keywords":["nocrits","nodmgspread","payload","uncletopia"],"game_id":440,"stv_port":27046,"stv_name":"Uncletopia | Los Angeles | 4 | Stopwatch | STV","players":null},{"server_id":11,"name":"Uncletopia | London | 1 | All Maps","name_short":"lon-1","host":"lon-1.uk.uncletopia.com","port":27015,"enabled":true,"region":"eu","cc":"gb","latitude":51.509865,"longitude":-0.118092,"reserved":0,"last_update":"0001-01-01T00:00:00Z","name_a2s":"Uncletopia | London | 1 | All Maps","protocol":17,"map":"pl_frontier_final","folder":"tf","game":"Team Fortress","app_id":440,"player_count":24,"max_players":24,"Bots":0,"server_type":"Dedicated","server_os":"Linux","password":true,"vac":true,"version":"7961495","steam_id":85568392924367362,"keywords":["nocrits","nodmgspread","payload","uncletopia"],"game_id":440,"stv_port":27016,"stv_name":"Uncletopia | London | 1 | All Maps | STV","players":[{"user_id":455,"name":"scott steiners strongest warrio","steam_id":76561198148888622,"connected_time":119000000000,"state":"active","ping":58},{"user_id":366,"name":"Czechmated","steam_id":76561198075648001,"connected_time":5729000000000,"state":"active","ping":58},{"user_id":448,"name":"Smilo","steam_id":76561198841481172,"connected_time":348000000000,"state":"active","ping":92},{"user_id":450,"name":"Stefman","steam_id":76561199025104038,"connected_time":246000000000,"state":"active","ping":41},{"user_id":451,"name":"etc","steam_id":76561197998394797,"connected_time":212000000000,"state":"active","ping":49},{"user_id":456,"name":"scarypeep","steam_id":76561198027738546,"connected_time":112000000000,"state":"active","ping":40},{"user_id":457,"name":"MaTiN","steam_id":76561198066867362,"connected_time":108000000000,"state":"active","ping":44},{"user_id":458,"name":"maniac-baker","steam_id":76561198076966730,"connected_time":95000000000,"state":"active","ping":42},{"user_id":367,"name":"impossible whopper eater","steam_id":76561198058641805,"connected_time":5722000000000,"state":"active","ping":46},{"user_id":459,"name":"Haha?","steam_id":76561198056882245,"connected_time":89000000000,"state":"active","ping":31},{"user_id":460,"name":"Joe12000","steam_id":76561198160817969,"connected_time":85000000000,"state":"active","ping":74},{"user_id":417,"name":"Gym teacher","steam_id":76561198382706733,"connected_time":1794000000000,"state":"active","ping":61},{"user_id":454,"name":"yourcollectivemothers","steam_id":76561198875958142,"connected_time":152000000000,"state":"active","ping":115},{"user_id":438,"name":"Monkey","steam_id":76561198048385029,"connected_time":1107000000000,"state":"active","ping":53},{"user_id":443,"name":"jermany!","steam_id":76561198126599355,"connected_time":753000000000,"state":"active","ping":52},{"user_id":461,"name":"Fallen_Scholar","steam_id":76561198055468709,"connected_time":72000000000,"state":"active","ping":50},{"user_id":434,"name":"mr.resetti","steam_id":76561198974520642,"connected_time":1213000000000,"state":"active","ping":68},{"user_id":445,"name":"Dookin","steam_id":76561198124348177,"connected_time":433000000000,"state":"active","ping":78},{"user_id":427,"name":"Turek","steam_id":76561198280066503,"connected_time":1334000000000,"state":"active","ping":75},{"user_id":441,"name":"Bill_nye_epic","steam_id":76561199216249214,"connected_time":881000000000,"state":"active","ping":138},{"user_id":436,"name":"MENTABETAI","steam_id":76561198049728799,"connected_time":1204000000000,"state":"active","ping":75},{"user_id":462,"name":"syms","steam_id":76561198066679812,"connected_time":64000000000,"state":"active","ping":78},{"user_id":444,"name":"mertefe","steam_id":76561199237126613,"connected_time":611000000000,"state":"active","ping":90},{"user_id":435,"name":"Lers","steam_id":76561198061619788,"connected_time":1212000000000,"state":"active","ping":44}]},{"server_id":114,"name":"Uncletopia | London | 2 | All Maps","name_short":"lon-2","host":"lon-1.uk.uncletopia.com","port":27025,"enabled":true,"region":"eu","cc":"gb","latitude":51.509865,"longitude":-0.118092,"reserved":0,"last_update":"0001-01-01T00:00:00Z","name_a2s":"Uncletopia | London | 2 | All Maps","protocol":17,"map":"pl_snowycoast","folder":"tf","game":"Team Fortress","app_id":440,"player_count":24,"max_players":24,"Bots":0,"server_type":"Dedicated","server_os":"Linux","password":true,"vac":true,"version":"7961495","steam_id":85568392924470941,"keywords":["nocrits","nodmgspread","payload","uncletopia"],"game_id":440,"stv_port":27026,"stv_name":"Uncletopia | London | 2 | All Maps | STV","players":[{"user_id":452,"name":"-","steam_id":76561198382509396,"connected_time":3245000000000,"state":"active","ping":52},{"user_id":440,"name":"SynthBox3","steam_id":76561199094075745,"connected_time":3817000000000,"state":"active","ping":92},{"user_id":476,"name":"Joo ♦","steam_id":76561197987609203,"connected_time":1223000000000,"state":"active","ping":69},{"user_id":508,"name":"s0ulful","steam_id":76561198109721532,"connected_time":35000000000,"state":"spawning","ping":119},{"user_id":492,"name":"Urfangonultasadana","steam_id":76561199389286151,"connected_time":941000000000,"state":"active","ping":81},{"user_id":475,"name":"AftiksPL","steam_id":76561198875182686,"connected_time":1229000000000,"state":"active","ping":92},{"user_id":500,"name":"Mimt1111","steam_id":76561198392370897,"connected_time":395000000000,"state":"active","ping":145},{"user_id":505,"name":"Omyskull","steam_id":76561198131711758,"connected_time":128000000000,"state":"active","ping":55},{"user_id":509,"name":"ssx tricky \\\\\\ dryg","steam_id":76561197994299134,"connected_time":1000000000,"state":"spawning","ping":70},{"user_id":428,"name":"[FP] Shiken","steam_id":76561198257905663,"connected_time":4851000000000,"state":"active","ping":61},{"user_id":496,"name":"V@nn1e","steam_id":76561199099194994,"connected_time":606000000000,"state":"active","ping":160},{"user_id":477,"name":"Purrplehaze","steam_id":76561198297604298,"connected_time":1208000000000,"state":"active","ping":66},{"user_id":263,"name":"Marcel","steam_id":76561198348686648,"connected_time":15306000000000,"state":"active","ping":45},{"user_id":458,"name":"mirek CASEDROP eu *******","steam_id":76561198226673084,"connected_time":2907000000000,"state":"active","ping":80},{"user_id":466,"name":"Saucisse","steam_id":76561198119955969,"connected_time":1688000000000,"state":"active","ping":45},{"user_id":418,"name":"Beep","steam_id":76561198120500488,"connected_time":5445000000000,"state":"active","ping":47},{"user_id":479,"name":"Brian","steam_id":76561198077756206,"connected_time":1175000000000,"state":"active","ping":39},{"user_id":502,"name":"Joejee","steam_id":76561199122423976,"connected_time":335000000000,"state":"active","ping":52},{"user_id":506,"name":"Lyell","steam_id":76561198350329389,"connected_time":106000000000,"state":"active","ping":68},{"user_id":460,"name":"TOP G","steam_id":76561198138928548,"connected_time":2903000000000,"state":"active","ping":61},{"user_id":507,"name":"Pats (Gifted items Collector)","steam_id":76561198418538887,"connected_time":105000000000,"state":"active","ping":87},{"user_id":487,"name":"Locke","steam_id":76561198339408300,"connected_time":1093000000000,"state":"active","ping":63},{"user_id":419,"name":"[FP] Rune","steam_id":76561198030842879,"connected_time":5439000000000,"state":"active","ping":45},{"user_id":484,"name":"Karahu","steam_id":76561198060426885,"connected_time":1127000000000,"state":"active","ping":75}]},{"server_id":320,"name":"Uncletopia | London | 3 | All Maps","name_short":"lon-3","host":"lon-1.uk.uncletopia.com","port":27035,"enabled":true,"region":"eu","cc":"gb","latitude":51.509865,"longitude":-0.118092,"reserved":0,"last_update":"0001-01-01T00:00:00Z","name_a2s":"Uncletopia | London | 3 | All Maps","protocol":17,"map":"pl_upward","folder":"tf","game":"Team Fortress","app_id":440,"player_count":24,"max_players":24,"Bots":0,"server_type":"Dedicated","server_os":"Linux","password":true,"vac":true,"version":"7961495","steam_id":85568392924510192,"keywords":["nocrits","nodmgspread","payload","uncletopia"],"game_id":440,"stv_port":27036,"stv_name":"Uncletopia | London | 3 | All Maps | STV","players":[{"user_id":206,"name":"compact disc","steam_id":76561198154677956,"connected_time":1976000000000,"state":"active","ping":65},{"user_id":223,"name":"Dr. Crowley","steam_id":76561199132175560,"connected_time":718000000000,"state":"active","ping":45},{"user_id":220,"name":"Fkc","steam_id":76561198007018507,"connected_time":839000000000,"state":"active","ping":47},{"user_id":222,"name":"dudes who can juggle","steam_id":76561198188642265,"connected_time":788000000000,"state":"active","ping":49},{"user_id":217,"name":"Malikov","steam_id":76561198242904600,"connected_time":1134000000000,"state":"active","ping":119},{"user_id":219,"name":"God is serb","steam_id":76561198966246028,"connected_time":873000000000,"state":"active","ping":86},{"user_id":224,"name":"Heavy Gaming","steam_id":76561198059100041,"connected_time":711000000000,"state":"active","ping":41},{"user_id":225,"name":"Ghostface","steam_id":76561198946129616,"connected_time":707000000000,"state":"active","ping":62},{"user_id":235,"name":"Vanilla Autismotron","steam_id":76561198278604277,"connected_time":269000000000,"state":"active","ping":46},{"user_id":233,"name":"Bayek","steam_id":76561198260860905,"connected_time":430000000000,"state":"active","ping":54},{"user_id":148,"name":"yuno appreciator","steam_id":76561198083286511,"connected_time":6223000000000,"state":"active","ping":43},{"user_id":169,"name":"Sugardaddy_pep","steam_id":76561198807512589,"connected_time":4788000000000,"state":"active","ping":76},{"user_id":226,"name":"Tplinky","steam_id":76561198074722470,"connected_time":667000000000,"state":"active","ping":60},{"user_id":199,"name":"LizaЯdlЧ","steam_id":76561198176750238,"connected_time":2973000000000,"state":"active","ping":71},{"user_id":192,"name":"Pterodactyl P. Jones","steam_id":76561198017513012,"connected_time":3206000000000,"state":"active","ping":53},{"user_id":227,"name":"[T]aKer","steam_id":76561198001778013,"connected_time":655000000000,"state":"active","ping":46},{"user_id":231,"name":"mary","steam_id":76561198014828037,"connected_time":449000000000,"state":"active","ping":58},{"user_id":212,"name":"MattJettskie","steam_id":76561199229493583,"connected_time":1479000000000,"state":"active","ping":152},{"user_id":196,"name":"Faris NyanNyan","steam_id":76561198044604742,"connected_time":3094000000000,"state":"active","ping":44},{"user_id":228,"name":"kheiroallah","steam_id":76561199499432413,"connected_time":579000000000,"state":"active","ping":152},{"user_id":230,"name":"James","steam_id":76561198168882012,"connected_time":556000000000,"state":"active","ping":45},{"user_id":234,"name":"waj","steam_id":76561198053628243,"connected_time":417000000000,"state":"active","ping":46},{"user_id":183,"name":"rainman","steam_id":76561198059761822,"connected_time":3454000000000,"state":"active","ping":55},{"user_id":211,"name":"bug","steam_id":76561198118412910,"connected_time":1663000000000,"state":"active","ping":45}]},{"server_id":321,"name":"Uncletopia | London | 4 | All Maps","name_short":"lon-4","host":"lon-1.uk.uncletopia.com","port":27045,"enabled":true,"region":"eu","cc":"gb","latitude":51.509865,"longitude":-0.118092,"reserved":0,"last_update":"0001-01-01T00:00:00Z","name_a2s":"Uncletopia | London | 4 | All Maps","protocol":17,"map":"cp_process_final","folder":"tf","game":"Team Fortress","app_id":440,"player_count":24,"max_players":24,"Bots":0,"server_type":"Dedicated","server_os":"Linux","password":true,"vac":true,"version":"7961495","steam_id":85568392924510193,"keywords":["cp","nocrits","nodmgspread","uncletopia"],"game_id":440,"stv_port":27046,"stv_name":"Uncletopia | London | 4 | All Maps | STV","players":[{"user_id":374,"name":"Woman (Real)","steam_id":76561199151823932,"connected_time":8322000000000,"state":"active","ping":63},{"user_id":473,"name":"khjohnson721","steam_id":76561199039350928,"connected_time":228000000000,"state":"active","ping":152},{"user_id":475,"name":"GMAN_L@ver_6978 [GMF][Priest]","steam_id":76561199461851882,"connected_time":214000000000,"state":"active","ping":45},{"user_id":376,"name":"xavier","steam_id":76561198076494034,"connected_time":8132000000000,"state":"active","ping":52},{"user_id":476,"name":"Henchman 21","steam_id":76561198864308852,"connected_time":213000000000,"state":"active","ping":58},{"user_id":466,"name":"KnugenIV","steam_id":76561198127091993,"connected_time":778000000000,"state":"active","ping":85},{"user_id":464,"name":"sowakarana","steam_id":76561199405633261,"connected_time":826000000000,"state":"active","ping":46},{"user_id":487,"name":"Henchman 24","steam_id":76561198199681930,"connected_time":97000000000,"state":"active","ping":122},{"user_id":453,"name":"D4NTheProtogen","steam_id":76561198206460789,"connected_time":1630000000000,"state":"active","ping":51},{"user_id":426,"name":"BTD","steam_id":76561199046044993,"connected_time":4545000000000,"state":"active","ping":62},{"user_id":477,"name":"landon01","steam_id":76561199078773928,"connected_time":186000000000,"state":"active","ping":166},{"user_id":478,"name":"mossad sponsored intel backdoor","steam_id":76561198071882999,"connected_time":175000000000,"state":"active","ping":80},{"user_id":467,"name":"IJN Amagi","steam_id":76561198090874324,"connected_time":763000000000,"state":"active","ping":97},{"user_id":468,"name":"sanctioned","steam_id":76561198851157897,"connected_time":752000000000,"state":"active","ping":60},{"user_id":479,"name":"Amyxts36","steam_id":76561198872232094,"connected_time":150000000000,"state":"active","ping":153},{"user_id":469,"name":"Bobirulez","steam_id":76561198009125458,"connected_time":708000000000,"state":"active","ping":75},{"user_id":480,"name":"ave","steam_id":76561198218866451,"connected_time":148000000000,"state":"active","ping":58},{"user_id":481,"name":"I Love Filtered Water","steam_id":76561198016042113,"connected_time":144000000000,"state":"active","ping":89},{"user_id":482,"name":"GooseberryGarry27","steam_id":76561198089478290,"connected_time":140000000000,"state":"active","ping":38},{"user_id":484,"name":"Swip3r","steam_id":76561198039789772,"connected_time":123000000000,"state":"active","ping":38},{"user_id":485,"name":"FrayTheSundered","steam_id":76561198448468163,"connected_time":123000000000,"state":"active","ping":149},{"user_id":400,"name":"Bajas","steam_id":76561198179339326,"connected_time":6248000000000,"state":"active","ping":86},{"user_id":450,"name":"Udinese Dion","steam_id":76561198067931573,"connected_time":2088000000000,"state":"active","ping":64},{"user_id":486,"name":"SpilledMilk","steam_id":76561198174123971,"connected_time":122000000000,"state":"active","ping":55}]},{"server_id":21,"name":"Uncletopia | London | 5 | All Maps","name_short":"lon-5","host":"lon-1.uk.uncletopia.com","port":27055,"enabled":true,"region":"eu","cc":"gb","latitude":51.509865,"longitude":-0.118092,"reserved":0,"last_update":"0001-01-01T00:00:00Z","name_a2s":"Uncletopia | London | 5 | All Maps","protocol":17,"map":"pl_borneo","folder":"tf","game":"Team Fortress","app_id":440,"player_count":24,"max_players":24,"Bots":0,"server_type":"Dedicated","server_os":"Linux","password":true,"vac":true,"version":"7961495","steam_id":85568392924742829,"keywords":["nocrits","nodmgspread","payload","uncletopia"],"game_id":440,"stv_port":27056,"stv_name":"Uncletopia | London | 5 | All Maps | STV","players":[{"user_id":311,"name":"Scrungly Bingus","steam_id":76561198106868468,"connected_time":2377000000000,"state":"active","ping":56},{"user_id":344,"name":"Space Rimmer","steam_id":76561198069243201,"connected_time":689000000000,"state":"active","ping":48},{"user_id":357,"name":"hbdie_","steam_id":76561198109996675,"connected_time":167000000000,"state":"active","ping":32},{"user_id":361,"name":"Zelax","steam_id":76561198143948255,"connected_time":37000000000,"state":"active","ping":70},{"user_id":345,"name":"MrKampfCookie","steam_id":76561198085490175,"connected_time":646000000000,"state":"active","ping":57},{"user_id":248,"name":"Mysterious Stranger","steam_id":76561199029796289,"connected_time":6365000000000,"state":"active","ping":156},{"user_id":324,"name":"Morale -10","steam_id":76561198046932043,"connected_time":1809000000000,"state":"active","ping":65},{"user_id":337,"name":"flamingosaurus","steam_id":76561198051455397,"connected_time":1139000000000,"state":"active","ping":37},{"user_id":360,"name":"Jack","steam_id":76561198397105421,"connected_time":68000000000,"state":"active","ping":71},{"user_id":326,"name":"3L","steam_id":76561198007208996,"connected_time":1777000000000,"state":"active","ping":54},{"user_id":358,"name":"Hitotsume","steam_id":76561198129157178,"connected_time":90000000000,"state":"active","ping":80},{"user_id":283,"name":"hauntaholic ☆","steam_id":76561198315371425,"connected_time":4468000000000,"state":"active","ping":44},{"user_id":285,"name":"SirVitek","steam_id":76561198142961758,"connected_time":4464000000000,"state":"active","ping":49},{"user_id":359,"name":"JetPackM","steam_id":76561199496973010,"connected_time":88000000000,"state":"active","ping":56},{"user_id":347,"name":"Markein","steam_id":76561198360754280,"connected_time":631000000000,"state":"active","ping":52},{"user_id":348,"name":"Dirgodno","steam_id":76561199066932493,"connected_time":616000000000,"state":"active","ping":91},{"user_id":270,"name":"Shapeshifter","steam_id":76561198052898368,"connected_time":5464000000000,"state":"active","ping":89},{"user_id":340,"name":"Scr0b ʕᵔᴥᵔʔ","steam_id":76561198100855323,"connected_time":853000000000,"state":"active","ping":63},{"user_id":350,"name":"Yimir","steam_id":76561198122584400,"connected_time":461000000000,"state":"active","ping":34},{"user_id":352,"name":"my mom","steam_id":76561199225201569,"connected_time":439000000000,"state":"active","ping":109},{"user_id":331,"name":"Kentucky Fried Crab","steam_id":76561198035586715,"connected_time":1630000000000,"state":"active","ping":122},{"user_id":354,"name":"A literal heavy","steam_id":76561199219233587,"connected_time":393000000000,"state":"active","ping":74},{"user_id":362,"name":"After8","steam_id":76561198090750865,"connected_time":18000000000,"state":"active","ping":71},{"user_id":288,"name":"7-8 венерологов","steam_id":76561199149307190,"connected_time":4344000000000,"state":"active","ping":81}]},{"server_id":22,"name":"Uncletopia | London | 6 | All Maps","name_short":"lon-6","host":"lon-1.uk.uncletopia.com","port":27065,"enabled":true,"region":"eu","cc":"gb","latitude":51.509865,"longitude":-0.118092,"reserved":0,"last_update":"0001-01-01T00:00:00Z","name_a2s":"Uncletopia | London | 6 | All Maps","protocol":17,"map":"cp_powerhouse","folder":"tf","game":"Team Fortress","app_id":440,"player_count":24,"max_players":24,"Bots":0,"server_type":"Dedicated","server_os":"Linux","password":true,"vac":true,"version":"7961495","steam_id":85568392924742830,"keywords":["cp","nocrits","nodmgspread","uncletopia"],"game_id":440,"stv_port":27066,"stv_name":"Uncletopia | London | 6 | All Maps | STV","players":[{"user_id":370,"name":"Diamhair","steam_id":76561198109020178,"connected_time":1463000000000,"state":"active","ping":57},{"user_id":350,"name":"new chair who dis","steam_id":76561198105348049,"connected_time":4304000000000,"state":"active","ping":73},{"user_id":337,"name":"Violet","steam_id":76561198079388610,"connected_time":4808000000000,"state":"active","ping":60},{"user_id":351,"name":"BigZZZ","steam_id":76561197998461614,"connected_time":4288000000000,"state":"active","ping":48},{"user_id":346,"name":"Nuko_atlantic_flame","steam_id":76561199143922333,"connected_time":4322000000000,"state":"active","ping":51},{"user_id":347,"name":"man of wealth and taste","steam_id":76561198047828651,"connected_time":4315000000000,"state":"active","ping":57},{"user_id":377,"name":"Snowmotion","steam_id":76561198075022454,"connected_time":1151000000000,"state":"active","ping":59},{"user_id":388,"name":"Fran","steam_id":76561199070516960,"connected_time":155000000000,"state":"active","ping":72},{"user_id":375,"name":"petit eucalyptus","steam_id":76561198009695107,"connected_time":1256000000000,"state":"active","ping":60},{"user_id":356,"name":"heavy sings (real)","steam_id":76561199023804405,"connected_time":4050000000000,"state":"active","ping":66},{"user_id":386,"name":"Forsén","steam_id":76561199131971501,"connected_time":250000000000,"state":"active","ping":72},{"user_id":348,"name":"kuno","steam_id":76561198068081430,"connected_time":4313000000000,"state":"active","ping":41},{"user_id":361,"name":"Iris","steam_id":76561198430295815,"connected_time":2956000000000,"state":"active","ping":60},{"user_id":387,"name":"cisgender clown","steam_id":76561199469909295,"connected_time":236000000000,"state":"active","ping":62},{"user_id":384,"name":"Frank Horrigan","steam_id":76561198209184131,"connected_time":501000000000,"state":"active","ping":60},{"user_id":340,"name":"finbar","steam_id":76561198056812396,"connected_time":4716000000000,"state":"active","ping":81},{"user_id":364,"name":"Markass","steam_id":76561198840047682,"connected_time":2692000000000,"state":"active","ping":63},{"user_id":389,"name":"Spligbo","steam_id":76561198412491145,"connected_time":111000000000,"state":"active","ping":148},{"user_id":376,"name":"Arc","steam_id":76561198805049375,"connected_time":1210000000000,"state":"active","ping":56},{"user_id":366,"name":"...","steam_id":76561199102883421,"connected_time":2624000000000,"state":"active","ping":121},{"user_id":328,"name":"niandits","steam_id":76561198419798900,"connected_time":5443000000000,"state":"active","ping":113},{"user_id":349,"name":"heatburn","steam_id":76561198019001992,"connected_time":4311000000000,"state":"active","ping":47},{"user_id":385,"name":"Vorkytaka","steam_id":76561198002998620,"connected_time":448000000000,"state":"active","ping":90},{"user_id":309,"name":"tapeworms!","steam_id":76561198069649097,"connected_time":6971000000000,"state":"active","ping":48}]},{"server_id":40,"name":"Uncletopia | London | 7 | Stopwatch","name_short":"lon-7","host":"lon-1.uk.uncletopia.com","port":27075,"enabled":true,"region":"eu","cc":"gb","latitude":51.509865,"longitude":-0.118092,"reserved":0,"last_update":"0001-01-01T00:00:00Z","name_a2s":"Uncletopia | London | 7 | Stopwatch","protocol":17,"map":"workshop/koth_clearcut_b15.ugc2107050255","folder":"tf","game":"Team Fortress","app_id":440,"player_count":2,"max_players":24,"Bots":0,"server_type":"Dedicated","server_os":"Linux","password":true,"vac":true,"version":"7961495","steam_id":85568392924964314,"keywords":["cp","nocrits","nodmgspread","uncletopia"],"game_id":440,"stv_port":27076,"stv_name":"Uncletopia | London | 7 | Stopwatch | STV","players":[{"user_id":22,"name":"Deemaské","steam_id":76561199225833593,"connected_time":1846000000000,"state":"active","ping":48},{"user_id":20,"name":"Tx_madmash \u0026 knuckles","steam_id":76561198924656512,"connected_time":2929000000000,"state":"active","ping":81}]},{"server_id":41,"name":"Uncletopia | London | 8 | Community","name_short":"lon-8","host":"lon-1.uk.uncletopia.com","port":27085,"enabled":true,"region":"eu","cc":"gb","latitude":51.509865,"longitude":-0.118092,"reserved":0,"last_update":"0001-01-01T00:00:00Z","name_a2s":"Uncletopia | London | 8 | Community","protocol":17,"map":"workshop/cp_croissant_final.ugc458840209","folder":"tf","game":"Team Fortress","app_id":440,"player_count":0,"max_players":24,"Bots":0,"server_type":"Dedicated","server_os":"Linux","password":true,"vac":true,"version":"7961495","steam_id":85568392924964315,"keywords":["cp","nocrits","nodmgspread","uncletopia"],"game_id":440,"stv_port":27086,"stv_name":"Uncletopia | London | 8 | Community | STV","players":null},{"server_id":300,"name":"Uncletopia | Montréal | 1 | One Thousand Uncles","name_short":"mtl-1","host":"mtl-1.ca.uncletopia.com","port":27015,"enabled":true,"region":"us-east","cc":"ca","latitude":45.50889,"longitude":-73.56167,"reserved":0,"last_update":"0001-01-01T00:00:00Z","name_a2s":"Uncletopia | Montréal | 1 | One Thousand Uncles","protocol":17,"map":"pl_chilly","folder":"tf","game":"Team Fortress","app_id":440,"player_count":0,"max_players":32,"Bots":0,"server_type":"Dedicated","server_os":"Linux","password":true,"vac":true,"version":"7961495","steam_id":85568392924500087,"keywords":["alltalk","danepve","increased_maxplayers","norespawntime","payload","uncletopia"],"game_id":440,"stv_port":0,"stv_name":"","players":null},{"server_id":301,"name":"Uncletopia | Montréal | 2 | One Thousand Uncles","name_short":"mtl-2","host":"mtl-1.ca.uncletopia.com","port":27025,"enabled":true,"region":"us-east","cc":"ca","latitude":45.50889,"longitude":-73.56167,"reserved":0,"last_update":"0001-01-01T00:00:00Z","name_a2s":"Uncletopia | Montréal | 2 | One Thousand Uncles","protocol":17,"map":"pl_chilly","folder":"tf","game":"Team Fortress","app_id":440,"player_count":0,"max_players":32,"Bots":0,"server_type":"Dedicated","server_os":"Linux","password":true,"vac":true,"version":"7961495","steam_id":85568392924500088,"keywords":["alltalk","danepve","increased_maxplayers","norespawntime","payload","uncletopia"],"game_id":440,"stv_port":0,"stv_name":"","players":null},{"server_id":302,"name":"Uncletopia | Montréal | 3 | One Thousand Uncles","name_short":"mtl-3","host":"mtl-1.ca.uncletopia.com","port":27035,"enabled":true,"region":"us-east","cc":"ca","latitude":45.50889,"longitude":-73.56167,"reserved":0,"last_update":"0001-01-01T00:00:00Z","name_a2s":"Uncletopia | Montréal | 3 | One Thousand Uncles","protocol":17,"map":"cp_egypt_final","folder":"tf","game":"Team Fortress","app_id":440,"player_count":18,"max_players":32,"Bots":16,"server_type":"Dedicated","server_os":"Linux","password":true,"vac":true,"version":"7961495","steam_id":85568392924500089,"keywords":["alltalk","bots","cp","danepve","increased_maxplayers","norespawntime","uncletopia"],"game_id":440,"stv_port":0,"stv_name":"","players":[{"user_id":130,"name":"Why not Zoidberg?","steam_id":76561197982207556,"connected_time":966000000000,"state":"active","ping":74},{"user_id":120,"name":"４０ ＦＰＳ","steam_id":76561198272394965,"connected_time":2800000000000,"state":"active","ping":150}]},{"server_id":13,"name":"Uncletopia | New York City | 1 | All Maps","name_short":"nyc-1","host":"nyc-1.us.uncletopia.com","port":27015,"enabled":true,"region":"us-east","cc":"us","latitude":40.73061,"longitude":-73.93524,"reserved":0,"last_update":"0001-01-01T00:00:00Z","name_a2s":"Uncletopia | New York City | 1 | All Maps","protocol":17,"map":"pl_badwater","folder":"tf","game":"Team Fortress","app_id":440,"player_count":24,"max_players":24,"Bots":0,"server_type":"Dedicated","server_os":"Linux","password":true,"vac":true,"version":"7961495","steam_id":85568392924469993,"keywords":["nocrits","nodmgspread","payload","uncletopia"],"game_id":440,"stv_port":27016,"stv_name":"Uncletopia | New York City | 1 | All Maps | STV","players":[{"user_id":106,"name":"Squiddysquibbles","steam_id":76561198268476001,"connected_time":859000000000,"state":"active","ping":75},{"user_id":108,"name":"ToyBox","steam_id":76561199074735423,"connected_time":807000000000,"state":"active","ping":55},{"user_id":84,"name":"YuhFukingGoatMoutMuduhSkuntYuh","steam_id":76561198057472334,"connected_time":2963000000000,"state":"active","ping":62},{"user_id":71,"name":"NaughtyLink","steam_id":76561198003958657,"connected_time":3971000000000,"state":"active","ping":89},{"user_id":112,"name":"Pockets","steam_id":76561198001742296,"connected_time":363000000000,"state":"active","ping":67},{"user_id":14,"name":"dicksnip","steam_id":76561198356515396,"connected_time":7771000000000,"state":"active","ping":95},{"user_id":75,"name":"chrissweep","steam_id":76561198072826791,"connected_time":3420000000000,"state":"active","ping":54},{"user_id":38,"name":"emotional suppport e-cigarette","steam_id":76561198172120615,"connected_time":6651000000000,"state":"active","ping":38},{"user_id":52,"name":"ndvr (femboy (REAL))","steam_id":76561199379200102,"connected_time":5875000000000,"state":"active","ping":43},{"user_id":118,"name":"PumpkinThink","steam_id":76561198393830529,"connected_time":157000000000,"state":"active","ping":109},{"user_id":59,"name":"Raizen","steam_id":76561199092445367,"connected_time":4794000000000,"state":"active","ping":60},{"user_id":103,"name":"castronaut2000","steam_id":76561198263221039,"connected_time":1086000000000,"state":"active","ping":51},{"user_id":107,"name":"BumpofNight","steam_id":76561198011581312,"connected_time":818000000000,"state":"active","ping":72},{"user_id":93,"name":"Young Sheldon Tik-Tok Clip","steam_id":76561198253927199,"connected_time":2009000000000,"state":"active","ping":159},{"user_id":120,"name":"leumas","steam_id":76561198240408540,"connected_time":85000000000,"state":"active","ping":45},{"user_id":87,"name":"Fredrick","steam_id":76561197981419964,"connected_time":2599000000000,"state":"active","ping":42},{"user_id":79,"name":"Bother","steam_id":76561198336750909,"connected_time":3188000000000,"state":"active","ping":42},{"user_id":72,"name":"Shack","steam_id":76561198035503322,"connected_time":3655000000000,"state":"active","ping":59},{"user_id":68,"name":"Kritzburgh","steam_id":76561198149466938,"connected_time":4119000000000,"state":"active","ping":56},{"user_id":100,"name":"Hazeyboi","steam_id":76561198130687838,"connected_time":1491000000000,"state":"active","ping":138},{"user_id":110,"name":"Tlaloc","steam_id":76561198375215983,"connected_time":742000000000,"state":"active","ping":120},{"user_id":119,"name":"heheheheheh","steam_id":76561198884486994,"connected_time":87000000000,"state":"active","ping":70},{"user_id":101,"name":"Whimsical Bruh","steam_id":76561199069973423,"connected_time":1411000000000,"state":"active","ping":75},{"user_id":111,"name":"CDBeans","steam_id":76561198046990367,"connected_time":737000000000,"state":"active","ping":76}]},{"server_id":14,"name":"Uncletopia | New York City | 2 | All Maps","name_short":"nyc-2","host":"nyc-1.us.uncletopia.com","port":27025,"enabled":true,"region":"us-east","cc":"us","latitude":40.73061,"longitude":-73.93524,"reserved":0,"last_update":"0001-01-01T00:00:00Z","name_a2s":"Uncletopia | New York City | 2 | All Maps","protocol":17,"map":"cp_dustbowl","folder":"tf","game":"Team Fortress","app_id":440,"player_count":0,"max_players":24,"Bots":0,"server_type":"Dedicated","server_os":"Linux","password":true,"vac":true,"version":"7961495","steam_id":85568392924469994,"keywords":["cp","nocrits","nodmgspread","uncletopia"],"game_id":440,"stv_port":27026,"stv_name":"Uncletopia | New York City | 2 | All Maps | STV","players":null},{"server_id":15,"name":"Uncletopia | New York City | 3 | Stopwatch","name_short":"nyc-3","host":"nyc-1.us.uncletopia.com","port":27035,"enabled":true,"region":"us-east","cc":"us","latitude":40.73061,"longitude":-73.93524,"reserved":0,"last_update":"0001-01-01T00:00:00Z","name_a2s":"Uncletopia | New York City | 3 | Stopwatch","protocol":17,"map":"cp_snakewater_final1","folder":"tf","game":"Team Fortress","app_id":440,"player_count":0,"max_players":24,"Bots":0,"server_type":"Dedicated","server_os":"Linux","password":true,"vac":true,"version":"7961495","steam_id":85568392924742820,"keywords":["cp","nocrits","nodmgspread","uncletopia"],"game_id":440,"stv_port":27036,"stv_name":"Uncletopia | New York City | 3 | Stopwatch | STV","players":null},{"server_id":16,"name":"Uncletopia | New York City | 4 | Community","name_short":"nyc-4","host":"nyc-1.us.uncletopia.com","port":27045,"enabled":true,"region":"us-east","cc":"us","latitude":40.73061,"longitude":-73.93524,"reserved":0,"last_update":"0001-01-01T00:00:00Z","name_a2s":"Uncletopia | New York City | 4 | Community","protocol":17,"map":"workshop/pl_highwood_b13.ugc1769496557","folder":"tf","game":"Team Fortress","app_id":440,"player_count":0,"max_players":24,"Bots":0,"server_type":"Dedicated","server_os":"Linux","password":true,"vac":true,"version":"7961495","steam_id":85568392924742821,"keywords":["nocrits","nodmgspread","payload","uncletopia"],"game_id":440,"stv_port":27046,"stv_name":"Uncletopia | New York City | 4 | Community | STV","players":null},{"server_id":142,"name":"Uncletopia | São Paulo | 1 | All Maps","name_short":"sao-1","host":"sao-1.br.uncletopia.com","port":27015,"enabled":true,"region":"sa","cc":"br","latitude":-23.533773,"longitude":-46.62529,"reserved":0,"last_update":"0001-01-01T00:00:00Z","name_a2s":"Uncletopia | São Paulo | 1 | All Maps","protocol":17,"map":"cp_granary","folder":"tf","game":"Team Fortress","app_id":440,"player_count":0,"max_players":24,"Bots":0,"server_type":"Dedicated","server_os":"Linux","password":true,"vac":true,"version":"7961495","steam_id":85568392924469996,"keywords":["cp","nocrits","nodmgspread","uncletopia"],"game_id":440,"stv_port":27016,"stv_name":"Uncletopia | São Paulo | 1 | All Maps | STV","players":null},{"server_id":143,"name":"Uncletopia | São Paulo | 2 | Community","name_short":"sao-2","host":"sao-2.br.uncletopia.com","port":27015,"enabled":true,"region":"sa","cc":"br","latitude":-23.533773,"longitude":-46.62529,"reserved":0,"last_update":"0001-01-01T00:00:00Z","name_a2s":"Uncletopia | São Paulo | 2 | Community","protocol":17,"map":"workshop/cp_mannbase_rc2a.ugc1900737467","folder":"tf","game":"Team Fortress","app_id":440,"player_count":0,"max_players":24,"Bots":0,"server_type":"Dedicated","server_os":"Linux","password":true,"vac":true,"version":"7961495","steam_id":85568392924485349,"keywords":["cp","nocrits","nodmgspread","uncletopia"],"game_id":440,"stv_port":27016,"stv_name":"Uncletopia | São Paulo | 2 | Community | STV","players":null},{"server_id":7,"name":"Uncletopia | Seattle | 1 | All Maps","name_short":"sea-1","host":"sea-1.us.uncletopia.com","port":27015,"enabled":true,"region":"us-west","cc":"us","latitude":47.608013,"longitude":-122.33517,"reserved":0,"last_update":"0001-01-01T00:00:00Z","name_a2s":"Uncletopia | Seattle | 1 | All Maps","protocol":17,"map":"pl_upward","folder":"tf","game":"Team Fortress","app_id":440,"player_count":20,"max_players":24,"Bots":0,"server_type":"Dedicated","server_os":"Linux","password":true,"vac":true,"version":"7961495","steam_id":85568392924469997,"keywords":["nocrits","nodmgspread","payload","uncletopia"],"game_id":440,"stv_port":27016,"stv_name":"Uncletopia | Seattle | 1 | All Maps | STV","players":[{"user_id":132,"name":"I AM A SURGEON","steam_id":76561198881144114,"connected_time":13000000000,"state":"active","ping":46},{"user_id":120,"name":"Trapilicious","steam_id":76561198061430457,"connected_time":926000000000,"state":"active","ping":107},{"user_id":130,"name":"engineer gaming","steam_id":76561199069628392,"connected_time":199000000000,"state":"active","ping":110},{"user_id":127,"name":"Thexx ❤","steam_id":76561198113823050,"connected_time":378000000000,"state":"active","ping":76},{"user_id":128,"name":"P.C. Baby","steam_id":76561198067011379,"connected_time":343000000000,"state":"active","ping":70},{"user_id":100,"name":"Captain Underbelly","steam_id":76561198811270935,"connected_time":2145000000000,"state":"active","ping":51},{"user_id":40,"name":"FOX News goblin","steam_id":76561198167648580,"connected_time":6735000000000,"state":"spawning","ping":68},{"user_id":129,"name":"[Industrial] A_HUMBLEBUMBLED","steam_id":76561198064771878,"connected_time":257000000000,"state":"active","ping":35},{"user_id":106,"name":"Curse of the Blackened Eye","steam_id":76561198097175164,"connected_time":1802000000000,"state":"spawning","ping":106},{"user_id":101,"name":"The Caretaker","steam_id":76561198125241411,"connected_time":2142000000000,"state":"active","ping":287},{"user_id":115,"name":"es","steam_id":76561198006892337,"connected_time":1340000000000,"state":"active","ping":53},{"user_id":60,"name":"Nom Skirrett","steam_id":76561198014600788,"connected_time":5547000000000,"state":"active","ping":70},{"user_id":122,"name":"Shark Sandwich","steam_id":76561198025007938,"connected_time":913000000000,"state":"active","ping":45},{"user_id":62,"name":"tmm (theManMan)","steam_id":76561199488457138,"connected_time":5477000000000,"state":"active","ping":53},{"user_id":90,"name":"Linus","steam_id":76561198084279797,"connected_time":3607000000000,"state":"active","ping":64},{"user_id":97,"name":"Vincent Van Bro","steam_id":76561197966919802,"connected_time":2426000000000,"state":"active","ping":30},{"user_id":95,"name":"Byte The Protogen","steam_id":76561199229871383,"connected_time":3003000000000,"state":"active","ping":81},{"user_id":124,"name":"ARMORED CORE 6 IS REAAAAAAAAAL","steam_id":76561198013513217,"connected_time":862000000000,"state":"active","ping":100},{"user_id":131,"name":"Soda","steam_id":76561198219209367,"connected_time":118000000000,"state":"active","ping":55},{"user_id":125,"name":"CLASHER WIZ","steam_id":76561198079026982,"connected_time":637000000000,"state":"active","ping":36}]},{"server_id":119,"name":"Uncletopia | Seattle | 2 | All Maps","name_short":"sea-2","host":"sea-1.us.uncletopia.com","port":27025,"enabled":true,"region":"us-west","cc":"us","latitude":47.608013,"longitude":-122.33517,"reserved":0,"last_update":"0001-01-01T00:00:00Z","name_a2s":"Uncletopia | Seattle | 2 | All Maps","protocol":17,"map":"koth_lakeside_final","folder":"tf","game":"Team Fortress","app_id":440,"player_count":0,"max_players":24,"Bots":0,"server_type":"Dedicated","server_os":"Linux","password":true,"vac":true,"version":"7961495","steam_id":85568392924469998,"keywords":["cp","nocrits","nodmgspread","uncletopia"],"game_id":440,"stv_port":27026,"stv_name":"Uncletopia | Seattle | 2 | All Maps | STV","players":null},{"server_id":406,"name":"Uncletopia | Seattle | 3 | Stopwatch","name_short":"sea-3","host":"sea-1.us.uncletopia.com","port":27035,"enabled":true,"region":"us-west","cc":"us","latitude":47.608013,"longitude":-122.33517,"reserved":0,"last_update":"0001-01-01T00:00:00Z","name_a2s":"Uncletopia | Seattle | 3 | Stopwatch","protocol":17,"map":"workshop/pl_barnblitz_pro7.ugc582280235","folder":"tf","game":"Team Fortress","app_id":440,"player_count":0,"max_players":24,"Bots":0,"server_type":"Dedicated","server_os":"Linux","password":true,"vac":true,"version":"7961495","steam_id":85568392924515217,"keywords":["nocrits","nodmgspread","payload","uncletopia"],"game_id":440,"stv_port":27036,"stv_name":"Uncletopia | Seattle | 3 | Stopwatch | STV","players":null},{"server_id":17,"name":"Uncletopia | San Francisco | 1 | All Maps","name_short":"sfo-1","host":"sfo-1.us.uncletopia.com","port":27015,"enabled":true,"region":"us-west","cc":"us","latitude":37.77397,"longitude":-122.4313,"reserved":0,"last_update":"0001-01-01T00:00:00Z","name_a2s":"Uncletopia | San Francisco | 1 | All Maps","protocol":17,"map":"koth_highpass","folder":"tf","game":"Team Fortress","app_id":440,"player_count":0,"max_players":24,"Bots":0,"server_type":"Dedicated","server_os":"Linux","password":true,"vac":true,"version":"7961495","steam_id":85568392924469999,"keywords":["cp","nocrits","nodmgspread","uncletopia"],"game_id":440,"stv_port":27016,"stv_name":"Uncletopia | San Francisco | 1 | All Maps | STV","players":null},{"server_id":18,"name":"Uncletopia | San Francisco | 2 | All Maps","name_short":"sfo-2","host":"sfo-1.us.uncletopia.com","port":27025,"enabled":true,"region":"us-west","cc":"us","latitude":37.77397,"longitude":-122.4313,"reserved":0,"last_update":"0001-01-01T00:00:00Z","name_a2s":"Uncletopia | San Francisco | 2 | All Maps","protocol":17,"map":"pl_badwater","folder":"tf","game":"Team Fortress","app_id":440,"player_count":0,"max_players":24,"Bots":0,"server_type":"Dedicated","server_os":"Linux","password":true,"vac":true,"version":"7961495","steam_id":85568392924470000,"keywords":["nocrits","nodmgspread","payload","uncletopia"],"game_id":440,"stv_port":27026,"stv_name":"Uncletopia | San Francisco | 2 | All Maps | STV","players":null},{"server_id":19,"name":"Uncletopia | San Francisco | 3 | Stopwatch","name_short":"sfo-3","host":"sfo-1.us.uncletopia.com","port":27035,"enabled":true,"region":"us-west","cc":"us","latitude":37.77397,"longitude":-122.4313,"reserved":0,"last_update":"0001-01-01T00:00:00Z","name_a2s":"Uncletopia | San Francisco | 3 | Stopwatch","protocol":17,"map":"workshop/koth_product_final.ugc454272353","folder":"tf","game":"Team Fortress","app_id":440,"player_count":0,"max_players":24,"Bots":0,"server_type":"Dedicated","server_os":"Linux","password":true,"vac":true,"version":"7961495","steam_id":85568392924742824,"keywords":["cp","nocrits","nodmgspread","uncletopia"],"game_id":440,"stv_port":27036,"stv_name":"Uncletopia | San Francisco | 3 | Stopwatch | STV","players":null},{"server_id":20,"name":"Uncletopia | San Francisco | 4 | Community","name_short":"sfo-4","host":"sfo-1.us.uncletopia.com","port":27045,"enabled":true,"region":"us-west","cc":"us","latitude":37.77397,"longitude":-122.4313,"reserved":0,"last_update":"0001-01-01T00:00:00Z","name_a2s":"Uncletopia | San Francisco | 4 | Community","protocol":17,"map":"workshop/pl_cactuscanyon_redux_final2.ugc2579644293","folder":"tf","game":"Team Fortress","app_id":440,"player_count":0,"max_players":24,"Bots":0,"server_type":"Dedicated","server_os":"Linux","password":true,"vac":true,"version":"7961495","steam_id":85568392924742826,"keywords":["nocrits","nodmgspread","payload","uncletopia"],"game_id":440,"stv_port":27046,"stv_name":"Uncletopia | San Francisco | 4 | Community | STV","players":null},{"server_id":141,"name":"Uncletopia | Sydney | 1 | All Maps","name_short":"syd-1","host":"syd-1.au.uncletopia.com","port":27015,"enabled":true,"region":"au","cc":"au","latitude":-33.865143,"longitude":151.2099,"reserved":0,"last_update":"0001-01-01T00:00:00Z","name_a2s":"Uncletopia | Sydney | 1 | All Maps","protocol":17,"map":"koth_highpass","folder":"tf","game":"Team Fortress","app_id":440,"player_count":0,"max_players":24,"Bots":0,"server_type":"Dedicated","server_os":"Linux","password":true,"vac":true,"version":"7961495","steam_id":85568392924470001,"keywords":["cp","nocrits","nodmgspread","uncletopia"],"game_id":440,"stv_port":27016,"stv_name":"Uncletopia | Sydney | 1 | All Maps | STV","players":null},{"server_id":123,"name":"Uncletopia | Sydney | 2 | All Maps","name_short":"syd-2","host":"syd-1.au.uncletopia.com","port":27025,"enabled":true,"region":"au","cc":"au","latitude":-33.865143,"longitude":151.2099,"reserved":0,"last_update":"0001-01-01T00:00:00Z","name_a2s":"Uncletopia | Sydney | 2 | All Maps","protocol":17,"map":"cp_fastlane","folder":"tf","game":"Team Fortress","app_id":440,"player_count":0,"max_players":24,"Bots":0,"server_type":"Dedicated","server_os":"Linux","password":true,"vac":true,"version":"7961495","steam_id":85568392924470002,"keywords":["cp","nocrits","nodmgspread","uncletopia"],"game_id":440,"stv_port":27026,"stv_name":"Uncletopia | Sydney | 2 | All Maps | STV","players":null},{"server_id":395,"name":"Uncletopia | Sydney | 3 | All Maps","name_short":"syd-3","host":"syd-1.au.uncletopia.com","port":27035,"enabled":true,"region":"au","cc":"au","latitude":-33.865143,"longitude":151.2099,"reserved":0,"last_update":"0001-01-01T00:00:00Z","name_a2s":"Uncletopia | Sydney | 3 | All Maps","protocol":17,"map":"cp_metalworks","folder":"tf","game":"Team Fortress","app_id":440,"player_count":0,"max_players":24,"Bots":0,"server_type":"Dedicated","server_os":"Linux","password":true,"vac":true,"version":"7961495","steam_id":85568392925194467,"keywords":["cp","nocrits","nodmgspread","uncletopia"],"game_id":440,"stv_port":27036,"stv_name":"Uncletopia | Sydney | 3 | All Maps | STV","players":null},{"server_id":396,"name":"Uncletopia | Sydney | 4 | All Maps","name_short":"syd-4","host":"syd-1.au.uncletopia.com","port":27045,"enabled":true,"region":"au","cc":"au","latitude":-33.865143,"longitude":151.2099,"reserved":0,"last_update":"0001-01-01T00:00:00Z","name_a2s":"Uncletopia | Sydney | 4 | All Maps","protocol":17,"map":"koth_cascade","folder":"tf","game":"Team Fortress","app_id":440,"player_count":0,"max_players":24,"Bots":0,"server_type":"Dedicated","server_os":"Linux","password":true,"vac":true,"version":"7961495","steam_id":85568392925397958,"keywords":["cp","nocrits","nodmgspread","uncletopia"],"game_id":440,"stv_port":27046,"stv_name":"Uncletopia | Sydney | 4 | All Maps | STV","players":null},{"server_id":58,"name":"Uncletopia | Sydney | 5 | Stopwatch","name_short":"syd-5","host":"syd-1.au.uncletopia.com","port":27055,"enabled":true,"region":"au","cc":"au","latitude":-33.865143,"longitude":151.2099,"reserved":0,"last_update":"0001-01-01T00:00:00Z","name_a2s":"Uncletopia | Sydney | 5 | Stopwatch","protocol":17,"map":"workshop/koth_product_final.ugc454272353","folder":"tf","game":"Team Fortress","app_id":440,"player_count":0,"max_players":24,"Bots":0,"server_type":"Dedicated","server_os":"Linux","password":true,"vac":true,"version":"7961495","steam_id":85568392925397959,"keywords":["cp","nocrits","nodmgspread","uncletopia"],"game_id":440,"stv_port":27056,"stv_name":"Uncletopia | Sydney | 5 | Stopwatch | STV","players":null},{"server_id":59,"name":"Uncletopia | Sydney | 6 | Community","name_short":"syd-6","host":"syd-1.au.uncletopia.com","port":27065,"enabled":true,"region":"au","cc":"au","latitude":-33.865143,"longitude":151.2099,"reserved":0,"last_update":"0001-01-01T00:00:00Z","name_a2s":"Uncletopia | Sydney | 6 | Community","protocol":17,"map":"workshop/koth_trenchfoot_ab1.ugc731436616","folder":"tf","game":"Team Fortress","app_id":440,"player_count":0,"max_players":24,"Bots":0,"server_type":"Dedicated","server_os":"Linux","password":true,"vac":true,"version":"7961495","steam_id":85568392925397960,"keywords":["cp","nocrits","nodmgspread","uncletopia"],"game_id":440,"stv_port":27066,"stv_name":"Uncletopia | Sydney | 6 | Community | STV","players":null},{"server_id":49,"name":"Uncletopia | Warsaw | 1 | One Thousand Uncles","name_short":"waw-1","host":"waw-1.pl.uncletopia.com","port":27015,"enabled":true,"region":"eu","cc":"pl","latitude":52.2297,"longitude":21.017532,"reserved":0,"last_update":"0001-01-01T00:00:00Z","name_a2s":"Uncletopia | Warsaw | 1 | One Thousand Uncles","protocol":17,"map":"pl_thundermountain","folder":"tf","game":"Team Fortress","app_id":440,"player_count":28,"max_players":32,"Bots":16,"server_type":"Dedicated","server_os":"Linux","password":true,"vac":true,"version":"7961495","steam_id":85568392925397850,"keywords":["alltalk","bots","danepve","increased_maxplayers","norespawntime","payload","uncletopia"],"game_id":440,"stv_port":0,"stv_name":"","players":[{"user_id":519,"name":"Red wine gaming","steam_id":76561198134378108,"connected_time":4789000000000,"state":"active","ping":91},{"user_id":501,"name":"åldepth","steam_id":76561198427965963,"connected_time":4919000000000,"state":"active","ping":98},{"user_id":590,"name":"Stefan012","steam_id":76561198351832492,"connected_time":171000000000,"state":"active","ping":91},{"user_id":591,"name":"OutOfDucks","steam_id":76561198166376227,"connected_time":79000000000,"state":"active","ping":82},{"user_id":567,"name":"The f2p enjoyer","steam_id":76561199100077788,"connected_time":1161000000000,"state":"active","ping":73},{"user_id":569,"name":"Matbanan","steam_id":76561198228537672,"connected_time":841000000000,"state":"active","ping":81},{"user_id":550,"name":"DENON{MK}","steam_id":76561198031664819,"connected_time":2685000000000,"state":"active","ping":120},{"user_id":564,"name":"Lucas096br","steam_id":76561198350760997,"connected_time":1446000000000,"state":"active","ping":300},{"user_id":532,"name":"aaaaaa","steam_id":76561198086304421,"connected_time":3713000000000,"state":"active","ping":84},{"user_id":556,"name":"Swati","steam_id":76561198051360169,"connected_time":1957000000000,"state":"active","ping":204},{"user_id":558,"name":"Lukas","steam_id":76561198009118452,"connected_time":1641000000000,"state":"active","ping":62},{"user_id":563,"name":"Valoxi","steam_id":76561197995042938,"connected_time":1467000000000,"state":"active","ping":79}]},{"server_id":50,"name":"Uncletopia | Warsaw | 2 | One Thousand Uncles","name_short":"waw-2","host":"waw-1.pl.uncletopia.com","port":27025,"enabled":true,"region":"eu","cc":"pl","latitude":52.2297,"longitude":21.017532,"reserved":0,"last_update":"0001-01-01T00:00:00Z","name_a2s":"Uncletopia | Warsaw | 2 | One Thousand Uncles","protocol":17,"map":"pl_thundermountain","folder":"tf","game":"Team Fortress","app_id":440,"player_count":0,"max_players":32,"Bots":0,"server_type":"Dedicated","server_os":"Linux","password":true,"vac":true,"version":"7961495","steam_id":85568392925397851,"keywords":["alltalk","danepve","increased_maxplayers","norespawntime","payload","uncletopia"],"game_id":440,"stv_port":0,"stv_name":"","players":null},{"server_id":51,"name":"Uncletopia | Warsaw | 3 | All Maps","name_short":"waw-3","host":"waw-1.pl.uncletopia.com","port":27035,"enabled":true,"region":"eu","cc":"pl","latitude":52.2297,"longitude":21.017532,"reserved":0,"last_update":"0001-01-01T00:00:00Z","name_a2s":"Uncletopia | Warsaw | 3 | All Maps","protocol":17,"map":"cp_sunshine","folder":"tf","game":"Team Fortress","app_id":440,"player_count":0,"max_players":24,"Bots":0,"server_type":"Dedicated","server_os":"Linux","password":true,"vac":true,"version":"7961495","steam_id":85568392925397852,"keywords":["cp","nocrits","nodmgspread","uncletopia"],"game_id":440,"stv_port":27036,"stv_name":"Uncletopia | Warsaw | 3 | All Maps | STV","players":null},{"server_id":52,"name":"Uncletopia | Warsaw | 4 | All Maps","name_short":"waw-4","host":"waw-1.pl.uncletopia.com","port":27045,"enabled":true,"region":"eu","cc":"pl","latitude":52.2297,"longitude":21.017532,"reserved":0,"last_update":"0001-01-01T00:00:00Z","name_a2s":"Uncletopia | Warsaw | 4 | All Maps","protocol":17,"map":"koth_cascade","folder":"tf","game":"Team Fortress","app_id":440,"player_count":0,"max_players":24,"Bots":0,"server_type":"Dedicated","server_os":"Linux","password":true,"vac":true,"version":"7961495","steam_id":85568392925397853,"keywords":["cp","nocrits","nodmgspread","uncletopia"],"game_id":440,"stv_port":27046,"stv_name":"Uncletopia | Warsaw | 4 | All Maps | STV","players":null},{"server_id":53,"name":"Uncletopia | Warsaw | 5 | Stopwatch","name_short":"waw-5","host":"waw-1.pl.uncletopia.com","port":27055,"enabled":true,"region":"eu","cc":"pl","latitude":52.2297,"longitude":21.017532,"reserved":0,"last_update":"0001-01-01T00:00:00Z","name_a2s":"Uncletopia | Warsaw | 5 | Stopwatch","protocol":17,"map":"koth_highpass","folder":"tf","game":"Team Fortress","app_id":440,"player_count":0,"max_players":24,"Bots":0,"server_type":"Dedicated","server_os":"Linux","password":true,"vac":true,"version":"7961495","steam_id":85568392925397854,"keywords":["cp","nocrits","nodmgspread","uncletopia"],"game_id":440,"stv_port":27056,"stv_name":"Uncletopia | Warsaw | 5 | Stopwatch | STV","players":null},{"server_id":54,"name":"Uncletopia | Warsaw | 6 | Community","name_short":"waw-6","host":"waw-1.pl.uncletopia.com","port":27065,"enabled":true,"region":"eu","cc":"pl","latitude":52.2297,"longitude":21.017532,"reserved":0,"last_update":"0001-01-01T00:00:00Z","name_a2s":"Uncletopia | Warsaw | 6 | Community","protocol":17,"map":"workshop/rd_asteroid_redux_b1.ugc2154902912","folder":"tf","game":"Team Fortress","app_id":440,"player_count":0,"max_players":24,"Bots":0,"server_type":"Dedicated","server_os":"Linux","password":true,"vac":true,"version":"7961495","steam_id":85568392925397856,"keywords":["beta","nocrits","nodmgspread","rd","uncletopia"],"game_id":440,"stv_port":27066,"stv_name":"Uncletopia | Warsaw | 6 | Community | STV","players":null}]}