{"status":true,"message":"","result":[{"server_id":9,"name":"Uncletopia | Atlanta | 1 | All Maps","name_short":"atl-1","host":"atl-1.us.uncletopia.com","port":27015,"enabled":true,"region":"us-east","cc":"us","latitude":33.753746,"longitude":-84.38633,"reserved":0,"last_update":"0001-01-01T00:00:00Z","name_a2s":"Uncletopia | Atlanta | 1 | All Maps","protocol":17,"map":"koth_harvest_final","folder":"tf","game":"Team Fortress","app_id":440,"player_count":1,"max_players":24,"Bots":0,"server_type":"Dedicated","server_os":"Linux","password":true,"vac":true,"version":"7882260","steam_id":85568392924469982,"keywords":["cp","nocrits","nodmgspread","uncletopia"],"game_id":440,"stv_port":27016,"stv_name":"Uncletopia | Atlanta | 1 | All Maps | STV","players":[{"user_id":552,"name":"highschool drop-out","steam_id":76561198366299848,"connected_time":7992000000000,"state":"active","ping":48}]},{"server_id":104,"name":"Uncletopia | Atlanta | 2 | All Maps","name_short":"atl-2","host":"atl-1.us.uncletopia.com","port":27025,"enabled":true,"region":"us-east","cc":"us","latitude":33.753746,"longitude":-84.38633,"reserved":0,"last_update":"0001-01-01T00:00:00Z","name_a2s":"Uncletopia | Atlanta | 2 | All Maps","protocol":17,"map":"cp_altitude","folder":"tf","game":"Team Fortress","app_id":440,"player_count":0,"max_players":24,"Bots":0,"server_type":"Dedicated","server_os":"Linux","password":true,"vac":true,"version":"7882260","steam_id":85568392924469983,"keywords":["cp","nocrits","nodmgspread","uncletopia"],"game_id":440,"stv_port":27026,"stv_name":"Uncletopia | Atlanta | 2 | All Maps | STV","players":null},{"server_id":400,"name":"Uncletopia | Atlanta | 3 | Community","name_short":"atl-3","host":"atl-1.us.uncletopia.com","port":27035,"enabled":true,"region":"us-east","cc":"us","latitude":33.753746,"longitude":-84.38633,"reserved":0,"last_update":"0001-01-01T00:00:00Z","name_a2s":"Uncletopia | Atlanta | 3 | Community","protocol":17,"map":"workshop/rd_asteroid_redux_b1.ugc2154902912","folder":"tf","game":"Team Fortress","app_id":440,"player_count":0,"max_players":24,"Bots":0,"server_type":"Dedicated","server_os":"Linux","password":true,"vac":true,"version":"7882260","steam_id":85568392924515187,"keywords":["beta","nocrits","nodmgspread","rd","uncletopia"],"game_id":440,"stv_port":27036,"stv_name":"Uncletopia | Atlanta | 3 | Community | STV","players":null},{"server_id":401,"name":"Uncletopia | Atlanta | 4 | No Payload","name_short":"atl-4","host":"atl-1.us.uncletopia.com","port":27045,"enabled":true,"region":"us-east","cc":"us","latitude":33.753746,"longitude":-84.38633,"reserved":0,"last_update":"0001-01-01T00:00:00Z","name_a2s":"","protocol":0,"map":"","folder":"","game":"","app_id":0,"player_count":0,"max_players":0,"Bots":0,"server_type":"","server_os":"","password":false,"vac":false,"version":"","steam_id":0,"keywords":null,"game_id":0,"stv_port":0,"stv_name":"","players":null},{"server_id":2,"name":"Uncletopia | Chicago | 1 | All Maps","name_short":"chi-1","host":"chi-1.us.uncletopia.com","port":27015,"enabled":true,"region":"us-central","cc":"us","latitude":41.881832,"longitude":-87.62318,"reserved":0,"last_update":"0001-01-01T00:00:00Z","name_a2s":"Uncletopia | Chicago | 1 | All Maps","protocol":17,"map":"cp_process_final","folder":"tf","game":"Team Fortress","app_id":440,"player_count":0,"max_players":24,"Bots":0,"server_type":"Dedicated","server_os":"Linux","password":true,"vac":true,"version":"7882260","steam_id":85568392924469984,"keywords":["cp","nocrits","nodmgspread","uncletopia"],"game_id":440,"stv_port":27016,"stv_name":"Uncletopia | Chicago | 1 | All Maps | STV","players":null},{"server_id":106,"name":"Uncletopia | Chicago | 2 | All Maps","name_short":"chi-2","host":"chi-1.us.uncletopia.com","port":27025,"enabled":true,"region":"us-central","cc":"us","latitude":41.881832,"longitude":-87.62318,"reserved":0,"last_update":"0001-01-01T00:00:00Z","name_a2s":"Uncletopia | Chicago | 2 | All Maps","protocol":17,"map":"koth_cascade","folder":"tf","game":"Team Fortress","app_id":440,"player_count":3,"max_players":24,"Bots":0,"server_type":"Dedicated","server_os":"Linux","password":true,"vac":true,"version":"7882260","steam_id":85568392924469985,"keywords":["cp","nocrits","nodmgspread","uncletopia"],"game_id":440,"stv_port":27026,"stv_name":"Uncletopia | Chicago | 2 | All Maps | STV","players":[{"user_id":862,"name":"Phoenix","steam_id":76561199465534945,"connected_time":5110000000000,"state":"active","ping":119},{"user_id":874,"name":"Dusk","steam_id":76561198034631363,"connected_time":1956000000000,"state":"active","ping":124},{"user_id":861,"name":"THEQUIRKA (ALL CAPS ARC)","steam_id":76561198968058652,"connected_time":6313000000000,"state":"active","ping":92}]},{"server_id":402,"name":"Uncletopia | Chicago | 3 | All Maps","name_short":"chi-3","host":"chi-1.us.uncletopia.com","port":27035,"enabled":true,"region":"us-central","cc":"us","latitude":41.881832,"longitude":-87.62318,"reserved":0,"last_update":"0001-01-01T00:00:00Z","name_a2s":"Uncletopia | Chicago | 3 | All Maps","protocol":17,"map":"cp_altitude","folder":"tf","game":"Team Fortress","app_id":440,"player_count":0,"max_players":24,"Bots":0,"server_type":"Dedicated","server_os":"Linux","password":true,"vac":true,"version":"7882260","steam_id":85568392924515191,"keywords":["cp","nocrits","nodmgspread","uncletopia"],"game_id":440,"stv_port":27036,"stv_name":"Uncletopia | Chicago | 3 | All Maps | STV","players":null},{"server_id":403,"name":"Uncletopia | Chicago | 4 | All Maps","name_short":"chi-4","host":"chi-1.us.uncletopia.com","port":27045,"enabled":true,"region":"us-central","cc":"us","latitude":41.881832,"longitude":-87.62318,"reserved":0,"last_update":"0001-01-01T00:00:00Z","name_a2s":"Uncletopia | Chicago | 4 | All Maps","protocol":17,"map":"cp_mountainlab","folder":"tf","game":"Team Fortress","app_id":440,"player_count":7,"max_players":24,"Bots":0,"server_type":"Dedicated","server_os":"Linux","password":true,"vac":true,"version":"7882260","steam_id":85568392924515193,"keywords":["cp","nocrits","nodmgspread","uncletopia"],"game_id":440,"stv_port":27046,"stv_name":"Uncletopia | Chicago | 4 | All Maps | STV","players":[{"user_id":733,"name":"grey14u2","steam_id":76561199144906047,"connected_time":42000000000,"state":"active","ping":71},{"user_id":720,"name":"MILKY","steam_id":76561199261620682,"connected_time":1701000000000,"state":"active","ping":150},{"user_id":725,"name":"{FITH}‚Ñ¢ Tnega Libram","steam_id":76561197997973526,"connected_time":874000000000,"state":"active","ping":88},{"user_id":722,"name":"Lud","steam_id":76561198359217809,"connected_time":1619000000000,"state":"active","ping":192},{"user_id":710,"name":"Line","steam_id":76561198086222096,"connected_time":2213000000000,"state":"active","ping":41},{"user_id":732,"name":"me oh my","steam_id":76561199421933900,"connected_time":82000000000,"state":"active","ping":116},{"user_id":623,"name":"blossom","steam_id":76561198042735130,"connected_time":10054000000000,"state":"active","ping":104}]},{"server_id":36,"name":"Uncletopia | Chicago | 5 | All Maps","name_short":"chi-5","host":"chi-2.us.uncletopia.com","port":27015,"enabled":true,"region":"us-central","cc":"us","latitude":41.881832,"longitude":-87.62318,"reserved":0,"last_update":"0001-01-01T00:00:00Z","name_a2s":"Uncletopia | Chicago | 5 | All Maps","protocol":17,"map":"koth_nucleus","folder":"tf","game":"Team Fortress","app_id":440,"player_count":0,"max_players":24,"Bots":0,"server_type":"Dedicated","server_os":"Linux","password":true,"vac":true,"version":"7882260","steam_id":85568392924866362,"keywords":["cp","nocrits","nodmgspread","uncletopia"],"game_id":440,"stv_port":27016,"stv_name":"Uncletopia | Chicago | 5 | All Maps | STV","players":null},{"server_id":37,"name":"Uncletopia | Chicago | 6 | All Maps","name_short":"chi-6","host":"chi-2.us.uncletopia.com","port":27025,"enabled":true,"region":"us-central","cc":"us","latitude":41.881832,"longitude":-87.62318,"reserved":0,"last_update":"0001-01-01T00:00:00Z","name_a2s":"Uncletopia | Chicago | 6 | All Maps","protocol":17,"map":"pl_barnblitz","folder":"tf","game":"Team Fortress","app_id":440,"player_count":12,"max_players":24,"Bots":0,"server_type":"Dedicated","server_os":"Linux","password":true,"vac":true,"version":"7882260","steam_id":85568392924866363,"keywords":["nocrits","nodmgspread","payload","uncletopia"],"game_id":440,"stv_port":27026,"stv_name":"Uncletopia | Chicago | 6 | All Maps | STV","players":[{"user_id":473,"name":"Huey","steam_id":76561198972816386,"connected_time":596000000000,"state":"active","ping":78},{"user_id":447,"name":"Kotneip","steam_id":76561198041347874,"connected_time":2838000000000,"state":"active","ping":59},{"user_id":475,"name":"Chrisjongun","steam_id":76561198331685904,"connected_time":247000000000,"state":"active","ping":81},{"user_id":418,"name":"Rei Ayanami","steam_id":76561198853092631,"connected_time":4854000000000,"state":"active","ping":87},{"user_id":476,"name":"jussy","steam_id":76561198056047829,"connected_time":227000000000,"state":"active","ping":75},{"user_id":477,"name":"sunny","steam_id":76561198069380992,"connected_time":116000000000,"state":"active","ping":75},{"user_id":456,"name":"Engiqueer","steam_id":76561198214080773,"connected_time":1709000000000,"state":"active","ping":87},{"user_id":426,"name":"Flaming O'Gaming","steam_id":76561198044185725,"connected_time":3838000000000,"state":"active","ping":84},{"user_id":389,"name":"Career","steam_id":76561198028542212,"connected_time":6946000000000,"state":"active","ping":67},{"user_id":467,"name":"Chaos","steam_id":76561199068325065,"connected_time":1078000000000,"state":"active","ping":94},{"user_id":417,"name":"FireQuiz","steam_id":76561198107357249,"connected_time":4935000000000,"state":"active","ping":104},{"user_id":472,"name":"Gabinator32","steam_id":76561198872467183,"connected_time":675000000000,"state":"active","ping":45}]},{"server_id":38,"name":"Uncletopia | Chicago | 7 | Stopwatch Beta","name_short":"chi-7","host":"chi-2.us.uncletopia.com","port":27035,"enabled":true,"region":"us-central","cc":"us","latitude":41.881832,"longitude":-87.62318,"reserved":0,"last_update":"0001-01-01T00:00:00Z","name_a2s":"Uncletopia | Chicago | 7 | Stopwatch Beta","protocol":17,"map":"koth_lakeside_final","folder":"tf","game":"Team Fortress","app_id":440,"player_count":0,"max_players":24,"Bots":0,"server_type":"Dedicated","server_os":"Linux","password":true,"vac":true,"version":"7882260","steam_id":85568392924866364,"keywords":["cp","nocrits","nodmgspread","uncletopia"],"game_id":440,"stv_port":27036,"stv_name":"Uncletopia | Chicago | 7 | Stopwatch Beta | STV","players":null},{"server_id":39,"name":"Uncletopia | Chicago | 8 | Community","name_short":"chi-8","host":"chi-2.us.uncletopia.com","port":27045,"enabled":true,"region":"us-central","cc":"us","latitude":41.881832,"longitude":-87.62318,"reserved":0,"last_update":"0001-01-01T00:00:00Z","name_a2s":"Uncletopia | Chicago | 8 | Community","protocol":17,"map":"workshop/cp_logjam_rc12.ugc454812035","folder":"tf","game":"Team Fortress","app_id":440,"player_count":4,"max_players":24,"Bots":0,"server_type":"Dedicated","server_os":"Linux","password":true,"vac":true,"version":"7882260","steam_id":85568392924866365,"keywords":["cp","nocrits","nodmgspread","uncletopia"],"game_id":440,"stv_port":27046,"stv_name":"Uncletopia | Chicago | 8 | Community | STV","players":[{"user_id":255,"name":"The Broken Lightbulb","steam_id":76561198141566312,"connected_time":1317000000000,"state":"active","ping":104},{"user_id":249,"name":"CringeIsaac","steam_id":76561199082217398,"connected_time":4845000000000,"state":"active","ping":196},{"user_id":252,"name":"Lilith","steam_id":76561197994007085,"connected_time":4337000000000,"state":"active","ping":111},{"user_id":209,"name":"Leke","steam_id":76561198058817463,"connected_time":10083000000000,"state":"active","ping":77}]},{"server_id":8,"name":"Uncletopia | Dallas | 1 | All Maps","name_short":"dal-1","host":"dal-1.us.uncletopia.com","port":27015,"enabled":true,"region":"us-central","cc":"us","latitude":32.779167,"longitude":-96.80889,"reserved":0,"last_update":"0001-01-01T00:00:00Z","name_a2s":"Uncletopia | Dallas | 1 | All Maps","protocol":17,"map":"pl_swiftwater_final1","folder":"tf","game":"Team Fortress","app_id":440,"player_count":23,"max_players":24,"Bots":0,"server_type":"Dedicated","server_os":"Linux","password":true,"vac":true,"version":"7882260","steam_id":85568392924469986,"keywords":["nocrits","nodmgspread","payload","uncletopia"],"game_id":440,"stv_port":27016,"stv_name":"Uncletopia | Dallas | 1 | All Maps | STV","players":[{"user_id":907,"name":"TheXenoKing","steam_id":76561198127424141,"connected_time":3368000000000,"state":"active","ping":164},{"user_id":903,"name":"lentil","steam_id":76561198079359870,"connected_time":3574000000000,"state":"active","ping":85},{"user_id":924,"name":"Debiru","steam_id":76561198044924051,"connected_time":2396000000000,"state":"active","ping":71},{"user_id":944,"name":"CHIKN","steam_id":76561198277792665,"connected_time":1325000000000,"state":"active","ping":87},{"user_id":957,"name":"nettune99","steam_id":76561199135372756,"connected_time":24000000000,"state":"active","ping":103},{"user_id":945,"name":"catgirl giantess in heat","steam_id":76561198439042583,"connected_time":1277000000000,"state":"active","ping":58},{"user_id":923,"name":"TheDieeg","steam_id":76561199443116996,"connected_time":2731000000000,"state":"active","ping":72},{"user_id":926,"name":"shrimp","steam_id":76561198092401427,"connected_time":2303000000000,"state":"active","ping":58},{"user_id":954,"name":"stiiizy pod","steam_id":76561199093733603,"connected_time":233000000000,"state":"active","ping":91},{"user_id":946,"name":"Defcon","steam_id":76561198079458315,"connected_time":1267000000000,"state":"active","ping":98},{"user_id":902,"name":"ClutchSR","steam_id":76561199018366378,"connected_time":3647000000000,"state":"active","ping":81},{"user_id":955,"name":"grey","steam_id":76561198050618142,"connected_time":95000000000,"state":"active","ping":98},{"user_id":948,"name":"Wildmoo","steam_id":76561198074478554,"connected_time":952000000000,"state":"active","ping":112},{"user_id":929,"name":"Quietsharp","steam_id":76561198277968438,"connected_time":2253000000000,"state":"active","ping":91},{"user_id":951,"name":"CFGU || RAWRWAFL","steam_id":76561198032118386,"connected_time":831000000000,"state":"active","ping":64},{"user_id":952,"name":"demon high","steam_id":76561198144909435,"connected_time":809000000000,"state":"active","ping":90},{"user_id":933,"name":"DinkyStink","steam_id":76561198309373876,"connected_time":2175000000000,"state":"active","ping":89},{"user_id":939,"name":"milo","steam_id":76561199061380038,"connected_time":2013000000000,"state":"active","ping":62},{"user_id":956,"name":"Paolo","steam_id":76561198048134549,"connected_time":93000000000,"state":"active","ping":78},{"user_id":916,"name":"Soda Drink Shartblast","steam_id":76561198134187113,"connected_time":3019000000000,"state":"active","ping":105},{"user_id":892,"name":"Musica Universalis","steam_id":76561198184794174,"connected_time":4004000000000,"state":"active","ping":100},{"user_id":935,"name":"the smiling zombie","steam_id":76561199246231090,"connected_time":2169000000000,"state":"active","ping":70},{"user_id":937,"name":"FakePercMan","steam_id":76561199446858029,"connected_time":2152000000000,"state":"active","ping":84}]},{"server_id":108,"name":"Uncletopia | Dallas | 2 | All Maps","name_short":"dal-2","host":"dal-1.us.uncletopia.com","port":27025,"enabled":true,"region":"us-central","cc":"us","latitude":32.779167,"longitude":-96.80889,"reserved":0,"last_update":"0001-01-01T00:00:00Z","name_a2s":"Uncletopia | Dallas | 2 | All Maps","protocol":17,"map":"cp_dustbowl","folder":"tf","game":"Team Fortress","app_id":440,"player_count":23,"max_players":24,"Bots":0,"server_type":"Dedicated","server_os":"Linux","password":true,"vac":true,"version":"7882260","steam_id":85568392924469988,"keywords":["cp","nocrits","nodmgspread","uncletopia"],"game_id":440,"stv_port":27026,"stv_name":"Uncletopia | Dallas | 2 | All Maps | STV","players":[{"user_id":733,"name":"Notation","steam_id":76561198119509319,"connected_time":2934000000000,"state":"active","ping":59},{"user_id":772,"name":"BiggestOunce69","steam_id":76561199402949491,"connected_time":421000000000,"state":"active","ping":94},{"user_id":742,"name":"lokm","steam_id":76561198030374238,"connected_time":2198000000000,"state":"active","ping":95},{"user_id":690,"name":"tupac alive in serbia","steam_id":76561198035695976,"connected_time":6184000000000,"state":"active","ping":102},{"user_id":778,"name":"Modeus","steam_id":76561199228751836,"connected_time":117000000000,"state":"active","ping":84},{"user_id":744,"name":"Average Caber Fan","steam_id":76561199451299044,"connected_time":2197000000000,"state":"active","ping":76},{"user_id":746,"name":"eau:","steam_id":76561198110020262,"connected_time":1944000000000,"state":"active","ping":75},{"user_id":769,"name":"manz","steam_id":76561198059065906,"connected_time":635000000000,"state":"active","ping":85},{"user_id":708,"name":"DeckofDragons","steam_id":76561198057398213,"connected_time":4537000000000,"state":"active","ping":73},{"user_id":739,"name":"Jacket","steam_id":76561198125415247,"connected_time":2386000000000,"state":"active","ping":67},{"user_id":536,"name":"—Å—á–∏–∑—è—≥","steam_id":76561199182960322,"connected_time":23009000000000,"state":"active","ping":64},{"user_id":745,"name":"Dumb Kid","steam_id":76561198304180941,"connected_time":2104000000000,"state":"active","ping":63},{"user_id":775,"name":"CheeseCake488","steam_id":76561199407617942,"connected_time":291000000000,"state":"active","ping":108},{"user_id":776,"name":"Dairy Queen","steam_id":76561198285298576,"connected_time":257000000000,"state":"active","ping":88},{"user_id":777,"name":"Mokaaaa","steam_id":76561198043659301,"connected_time":252000000000,"state":"active","ping":55},{"user_id":762,"name":"Billy zane","steam_id":76561198413386212,"connected_time":1442000000000,"state":"active","ping":72},{"user_id":678,"name":"meggie","steam_id":76561198038291026,"connected_time":7167000000000,"state":"active","ping":31},{"user_id":755,"name":"PinHeadLarry","steam_id":76561198055672706,"connected_time":1650000000000,"state":"active","ping":74},{"user_id":771,"name":"k3nny11","steam_id":76561198182533757,"connected_time":610000000000,"state":"active","ping":68},{"user_id":774,"name":"Regular Uncletopia Player","steam_id":76561198069735882,"connected_time":336000000000,"state":"active","ping":84},{"user_id":773,"name":"robbae","steam_id":76561198049253541,"connected_time":372000000000,"state":"active","ping":61},{"user_id":760,"name":"Okas8","steam_id":76561198100697096,"connected_time":1571000000000,"state":"active","ping":147}]},{"server_id":5,"name":"Uncletopia | Frankfurt | 1 | All Maps","name_short":"frk-1","host":"frk-1.de.uncletopia.com","port":27015,"enabled":true,"region":"eu","cc":"de","latitude":50.110924,"longitude":8.682127,"reserved":0,"last_update":"0001-01-01T00:00:00Z","name_a2s":"Uncletopia | Frankfurt | 1 | All Maps","protocol":17,"map":"cp_process_final","folder":"tf","game":"Team Fortress","app_id":440,"player_count":0,"max_players":24,"Bots":0,"server_type":"Dedicated","server_os":"Linux","password":true,"vac":true,"version":"7882260","steam_id":85568392924469989,"keywords":["cp","nocrits","nodmgspread","uncletopia"],"game_id":440,"stv_port":27016,"stv_name":"Uncletopia | Frankfurt | 1 | All Maps | STV","players":null},{"server_id":110,"name":"Uncletopia | Frankfurt | 2 | All Maps","name_short":"frk-2","host":"frk-1.de.uncletopia.com","port":27025,"enabled":true,"region":"eu","cc":"de","latitude":50.110924,"longitude":8.682127,"reserved":0,"last_update":"0001-01-01T00:00:00Z","name_a2s":"Uncletopia | Frankfurt | 2 | All Maps","protocol":17,"map":"koth_lakeside_final","folder":"tf","game":"Team Fortress","app_id":440,"player_count":0,"max_players":24,"Bots":0,"server_type":"Dedicated","server_os":"Linux","password":true,"vac":true,"version":"7882260","steam_id":85568392924469990,"keywords":["cp","nocrits","nodmgspread","uncletopia"],"game_id":440,"stv_port":27026,"stv_name":"Uncletopia | Frankfurt | 2 | All Maps | STV","players":null},{"server_id":308,"name":"Uncletopia | Frankfurt | 3 | All Maps","name_short":"frk-3","host":"frk-1.de.uncletopia.com","port":27035,"enabled":true,"region":"eu","cc":"de","latitude":50.110924,"longitude":8.682127,"reserved":0,"last_update":"0001-01-01T00:00:00Z","name_a2s":"Uncletopia | Frankfurt | 3 | All Maps","protocol":17,"map":"pl_snowycoast","folder":"tf","game":"Team Fortress","app_id":440,"player_count":0,"max_players":24,"Bots":0,"server_type":"Dedicated","server_os":"Linux","password":true,"vac":true,"version":"7882260","steam_id":85568392924504274,"keywords":["nocrits","nodmgspread","payload","uncletopia"],"game_id":440,"stv_port":27036,"stv_name":"Uncletopia | Frankfurt | 3 | All Maps | STV","players":null},{"server_id":309,"name":"Uncletopia | Frankfurt | 4 | All Maps","name_short":"frk-4","host":"frk-1.de.uncletopia.com","port":27045,"enabled":true,"region":"eu","cc":"de","latitude":50.110924,"longitude":8.682127,"reserved":0,"last_update":"0001-01-01T00:00:00Z","name_a2s":"Uncletopia | Frankfurt | 4 | All Maps","protocol":17,"map":"pl_upward","folder":"tf","game":"Team Fortress","app_id":440,"player_count":0,"max_players":24,"Bots":0,"server_type":"Dedicated","server_os":"Linux","password":true,"vac":true,"version":"7882260","steam_id":85568392924504275,"keywords":["nocrits","nodmgspread","payload","uncletopia"],"game_id":440,"stv_port":27046,"stv_name":"Uncletopia | Frankfurt | 4 | All Maps | STV","players":null},{"server_id":310,"name":"Uncletopia | Frankfurt | 5 | All Maps","name_short":"frk-5","host":"frk-1.de.uncletopia.com","port":27055,"enabled":true,"region":"eu","cc":"de","latitude":50.110924,"longitude":8.682127,"reserved":0,"last_update":"0001-01-01T00:00:00Z","name_a2s":"Uncletopia | Frankfurt | 5 | All Maps","protocol":17,"map":"cp_mountainlab","folder":"tf","game":"Team Fortress","app_id":440,"player_count":0,"max_players":24,"Bots":0,"server_type":"Dedicated","server_os":"Linux","password":true,"vac":true,"version":"7882260","steam_id":85568392924504277,"keywords":["cp","nocrits","nodmgspread","uncletopia"],"game_id":440,"stv_port":27056,"stv_name":"Uncletopia | Frankfurt | 5 | All Maps | STV","players":null},{"server_id":311,"name":"Uncletopia | Frankfurt | 6 | All Maps","name_short":"frk-6","host":"frk-1.de.uncletopia.com","port":27065,"enabled":true,"region":"eu","cc":"de","latitude":50.110924,"longitude":8.682127,"reserved":0,"last_update":"0001-01-01T00:00:00Z","name_a2s":"Uncletopia | Frankfurt | 6 | All Maps","protocol":17,"map":"cp_altitude","folder":"tf","game":"Team Fortress","app_id":440,"player_count":0,"max_players":24,"Bots":0,"server_type":"Dedicated","server_os":"Linux","password":true,"vac":true,"version":"7882260","steam_id":85568392924504278,"keywords":["cp","nocrits","nodmgspread","uncletopia"],"game_id":440,"stv_port":27066,"stv_name":"Uncletopia | Frankfurt | 6 | All Maps | STV","players":null},{"server_id":23,"name":"Uncletopia | Frankfurt | 7 | Stopwatch Beta","name_short":"frk-7","host":"frk-1.de.uncletopia.com","port":27075,"enabled":true,"region":"eu","cc":"de","latitude":50.110924,"longitude":8.682127,"reserved":0,"last_update":"0001-01-01T00:00:00Z","name_a2s":"Uncletopia | Frankfurt | 7 | Stopwatch Beta","protocol":17,"map":"cp_dustbowl","folder":"tf","game":"Team Fortress","app_id":440,"player_count":0,"max_players":24,"Bots":0,"server_type":"Dedicated","server_os":"Linux","password":true,"vac":true,"version":"7882260","steam_id":85568392924742827,"keywords":["cp","nocrits","nodmgspread","uncletopia"],"game_id":440,"stv_port":27076,"stv_name":"Uncletopia | Frankfurt | 7 | Stopwatch Beta | STV","players":null},{"server_id":24,"name":"Uncletopia | Frankfurt | 8 | Community","name_short":"frk-8","host":"frk-1.de.uncletopia.com","port":27085,"enabled":true,"region":"eu","cc":"de","latitude":50.110924,"longitude":8.682127,"reserved":0,"last_update":"0001-01-01T00:00:00Z","name_a2s":"Uncletopia | Frankfurt | 8 | Community","protocol":17,"map":"koth_cascade","folder":"tf","game":"Team Fortress","app_id":440,"player_count":0,"max_players":24,"Bots":0,"server_type":"Dedicated","server_os":"Linux","password":true,"vac":true,"version":"7882260","steam_id":85568392924742828,"keywords":["cp","nocrits","nodmgspread","uncletopia"],"game_id":440,"stv_port":27086,"stv_name":"Uncletopia | Frankfurt | 8 | Community | STV","players":null},{"server_id":202,"name":"Uncletopia | Hong Kong | 1 | All Maps","name_short":"hgk-1","host":"hgk-1.hk.uncletopia.com","port":27015,"enabled":true,"region":"asia","cc":"hk","latitude":22.302711,"longitude":114.177216,"reserved":0,"last_update":"0001-01-01T00:00:00Z","name_a2s":"Uncletopia | Hong Kong | 1 | All Maps","protocol":17,"map":"pl_thundermountain","folder":"tf","game":"Team Fortress","app_id":440,"player_count":24,"max_players":24,"Bots":0,"server_type":"Dedicated","server_os":"Linux","password":true,"vac":true,"version":"7882260","steam_id":85568392924494504,"keywords":["nocrits","nodmgspread","payload","uncletopia"],"game_id":440,"stv_port":27016,"stv_name":"Uncletopia | Hong Kong | 1 | All Maps | STV","players":[{"user_id":325,"name":"Shaoshao_tw","steam_id":76561198904171192,"connected_time":41000000000,"state":"active","ping":63},{"user_id":279,"name":"no vc no c","steam_id":76561197989503095,"connected_time":2759000000000,"state":"active","ping":91},{"user_id":272,"name":"tiden2000","steam_id":76561198092969425,"connected_time":3754000000000,"state":"active","ping":103},{"user_id":320,"name":"All_Anson","steam_id":76561198314178753,"connected_time":112000000000,"state":"active","ping":53},{"user_id":295,"name":"screaming sniper","steam_id":76561199085568674,"connected_time":1387000000000,"state":"active","ping":79},{"user_id":308,"name":"Mystery cheese üßÄ","steam_id":76561198304002409,"connected_time":735000000000,"state":"active","ping":88},{"user_id":212,"name":"PocoLoco","steam_id":76561198834044246,"connected_time":5031000000000,"state":"active","ping":109},{"user_id":297,"name":"German 1939","steam_id":76561199231294382,"connected_time":1238000000000,"state":"active","ping":113},{"user_id":304,"name":"ItsAMeWilfred","steam_id":76561198965171490,"connected_time":948000000000,"state":"active","ping":80},{"user_id":305,"name":"Senthysio_Dragon","steam_id":76561199056980132,"connected_time":932000000000,"state":"active","ping":77},{"user_id":318,"name":"dax.","steam_id":76561198321885643,"connected_time":194000000000,"state":"active","ping":43},{"user_id":306,"name":"Shalin Sky","steam_id":76561199182859639,"connected_time":864000000000,"state":"active","ping":103},{"user_id":296,"name":"killman47","steam_id":76561198348487408,"connected_time":1353000000000,"state":"active","ping":43},{"user_id":278,"name":"Andrew Tate","steam_id":76561199198221353,"connected_time":2931000000000,"state":"active","ping":62},{"user_id":300,"name":"Lynax","steam_id":76561198384987334,"connected_time":1202000000000,"state":"active","ping":130},{"user_id":313,"name":"westover.","steam_id":76561198451007900,"connected_time":402000000000,"state":"active","ping":108},{"user_id":309,"name":"@RealWattson22542","steam_id":76561198239125304,"connected_time":655000000000,"state":"active","ping":93},{"user_id":311,"name":"ivoangelozocca","steam_id":76561199419790359,"connected_time":561000000000,"state":"active","ping":91},{"user_id":319,"name":"u/Plencers2","steam_id":76561198311052198,"connected_time":181000000000,"state":"active","ping":86},{"user_id":250,"name":"urotsuki with da doobie","steam_id":76561198074339034,"connected_time":4414000000000,"state":"active","ping":76},{"user_id":321,"name":"Kozupy","steam_id":76561198404352831,"connected_time":93000000000,"state":"active","ping":71},{"user_id":322,"name":"Asiacooki","steam_id":76561198083876212,"connected_time":92000000000,"state":"active","ping":101},{"user_id":323,"name":"Kedra","steam_id":76561198103724571,"connected_time":79000000000,"state":"active","ping":406},{"user_id":324,"name":"silverhouse7","steam_id":76561198349634906,"connected_time":62000000000,"state":"active","ping":97}]},{"server_id":1,"name":"Uncletopia | Los Angeles | 1 | All Maps","name_short":"lax-1","host":"lax-1.us.uncletopia.com","port":27015,"enabled":true,"region":"us-west","cc":"us","latitude":33.94279,"longitude":-118.41004,"reserved":0,"last_update":"0001-01-01T00:00:00Z","name_a2s":"Uncletopia | Los Angeles | 1 | All Maps","protocol":17,"map":"cp_steel","folder":"tf","game":"Team Fortress","app_id":440,"player_count":24,"max_players":24,"Bots":0,"server_type":"Dedicated","server_os":"Linux","password":true,"vac":true,"version":"7882260","steam_id":85568392924469991,"keywords":["cp","nocrits","nodmgspread","uncletopia"],"game_id":440,"stv_port":27016,"stv_name":"Uncletopia | Los Angeles | 1 | All Maps | STV","players":[{"user_id":424,"name":"big fish","steam_id":76561198186479818,"connected_time":3226000000000,"state":"active","ping":54},{"user_id":467,"name":"Emm","steam_id":76561198114140235,"connected_time":502000000000,"state":"active","ping":59},{"user_id":468,"name":"JohnnyGitGud","steam_id":76561198401455467,"connected_time":480000000000,"state":"active","ping":53},{"user_id":459,"name":"Mordekaiser Gaming","steam_id":76561198060155858,"connected_time":835000000000,"state":"active","ping":34},{"user_id":458,"name":"dare","steam_id":76561197960977496,"connected_time":1091000000000,"state":"active","ping":63},{"user_id":434,"name":"Cuno Doesn't Care!","steam_id":76561198007372782,"connected_time":2927000000000,"state":"active","ping":60},{"user_id":465,"name":"WAnker","steam_id":76561198366451484,"connected_time":533000000000,"state":"active","ping":55},{"user_id":462,"name":"Mexican Kirby","steam_id":76561198802266898,"connected_time":591000000000,"state":"active","ping":42},{"user_id":407,"name":"K-2","steam_id":76561198322606535,"connected_time":4862000000000,"state":"active","ping":68},{"user_id":456,"name":"Spring Beans","steam_id":76561197978546259,"connected_time":1230000000000,"state":"active","ping":87},{"user_id":381,"name":"ProbiusSC","steam_id":76561198379167322,"connected_time":7541000000000,"state":"active","ping":93},{"user_id":429,"name":"InfiniteEl235","steam_id":76561198382579853,"connected_time":3166000000000,"state":"active","ping":45},{"user_id":457,"name":"sonicatdrpepper2 | crabber.net","steam_id":76561199051768452,"connected_time":1229000000000,"state":"active","ping":75},{"user_id":472,"name":"TheRealChizz","steam_id":76561198016055769,"connected_time":5000000000,"state":"active","ping":43},{"user_id":464,"name":"nescoceo","steam_id":76561198040801160,"connected_time":568000000000,"state":"active","ping":45},{"user_id":440,"name":"segway cop","steam_id":76561198225609936,"connected_time":2347000000000,"state":"active","ping":109},{"user_id":453,"name":"Joey Diaz","steam_id":76561198194796010,"connected_time":1611000000000,"state":"active","ping":132},{"user_id":469,"name":"Lt. Dan \"magic legs\"","steam_id":76561198058587501,"connected_time":478000000000,"state":"active","ping":62},{"user_id":359,"name":"TacticalFluke","steam_id":76561198403291862,"connected_time":8806000000000,"state":"active","ping":82},{"user_id":460,"name":"Jitterskull","steam_id":76561198060461871,"connected_time":825000000000,"state":"active","ping":45},{"user_id":449,"name":"Shamrock Shake Oct.10.2020 @8pm","steam_id":76561198833313201,"connected_time":2053000000000,"state":"active","ping":57},{"user_id":461,"name":"Tatoski","steam_id":76561198292388540,"connected_time":641000000000,"state":"active","ping":36},{"user_id":470,"name":"BIG HOG","steam_id":76561198079923652,"connected_time":454000000000,"state":"active","ping":91},{"user_id":416,"name":"RandomBrute","steam_id":76561198383618776,"connected_time":4633000000000,"state":"active","ping":70}]},{"server_id":112,"name":"Uncletopia | Los Angeles | 2 | All Maps","name_short":"lax-2","host":"lax-1.us.uncletopia.com","port":27025,"enabled":true,"region":"us-west","cc":"us","latitude":33.94279,"longitude":-118.41004,"reserved":0,"last_update":"0001-01-01T00:00:00Z","name_a2s":"Uncletopia | Los Angeles | 2 | All Maps","protocol":17,"map":"cp_steel","folder":"tf","game":"Team Fortress","app_id":440,"player_count":16,"max_players":24,"Bots":0,"server_type":"Dedicated","server_os":"Linux","password":true,"vac":true,"version":"7882260","steam_id":85568392924469992,"keywords":["cp","nocrits","nodmgspread","uncletopia"],"game_id":440,"stv_port":27026,"stv_name":"Uncletopia | Los Angeles | 2 | All Maps | STV","players":[{"user_id":320,"name":"Ian","steam_id":76561198159334435,"connected_time":2271000000000,"state":"active","ping":168},{"user_id":322,"name":"Sir Grey The Ranger","steam_id":76561198096235582,"connected_time":1397000000000,"state":"active","ping":90},{"user_id":332,"name":"zaza2k","steam_id":76561198393760567,"connected_time":478000000000,"state":"active","ping":45},{"user_id":313,"name":"Zizen","steam_id":76561199011832069,"connected_time":2714000000000,"state":"active","ping":58},{"user_id":300,"name":"Kastaling","steam_id":76561198067347356,"connected_time":3368000000000,"state":"active","ping":33},{"user_id":336,"name":"Offset4","steam_id":76561198143051326,"connected_time":102000000000,"state":"active","ping":83},{"user_id":301,"name":"berry nice","steam_id":76561198010173227,"connected_time":3294000000000,"state":"active","ping":40},{"user_id":302,"name":"Peter, what are you doing?","steam_id":76561198066452726,"connected_time":3282000000000,"state":"active","ping":48},{"user_id":334,"name":"scamchez","steam_id":76561198447562701,"connected_time":178000000000,"state":"active","ping":65},{"user_id":304,"name":"15inchcamboy","steam_id":76561199136651289,"connected_time":3208000000000,"state":"active","ping":75},{"user_id":329,"name":"Windfall","steam_id":76561198046500859,"connected_time":1005000000000,"state":"active","ping":46},{"user_id":286,"name":"Amogous Supreme","steam_id":76561198025476774,"connected_time":5032000000000,"state":"active","ping":58},{"user_id":317,"name":"StarManMatt","steam_id":76561198125513574,"connected_time":2369000000000,"state":"active","ping":130},{"user_id":328,"name":"LovingKindne2z","steam_id":76561199064932372,"connected_time":1104000000000,"state":"active","ping":45},{"user_id":292,"name":"Bald Rice","steam_id":76561199019142767,"connected_time":4683000000000,"state":"active","ping":60},{"user_id":228,"name":"ena - d","steam_id":76561198072329335,"connected_time":11531000000000,"state":"active","ping":99}]},{"server_id":324,"name":"Uncletopia | Los Angeles | 3 | All Maps","name_short":"lax-3","host":"lax-1.us.uncletopia.com","port":27035,"enabled":true,"region":"us-west","cc":"us","latitude":33.94279,"longitude":-118.41004,"reserved":0,"last_update":"0001-01-01T00:00:00Z","name_a2s":"Uncletopia | Los Angeles | 3 | All Maps","protocol":17,"map":"cp_sunshine","folder":"tf","game":"Team Fortress","app_id":440,"player_count":0,"max_players":24,"Bots":0,"server_type":"Dedicated","server_os":"Linux","password":true,"vac":true,"version":"7882260","steam_id":85568392924510198,"keywords":["cp","nocrits","nodmgspread","uncletopia"],"game_id":440,"stv_port":27036,"stv_name":"Uncletopia | Los Angeles | 3 | All Maps | STV","players":null},{"server_id":25,"name":"Uncletopia | Los Angeles | 4 | Stopwatch Beta","name_short":"lax-4","host":"lax-1.us.uncletopia.com","port":27045,"enabled":true,"region":"us-west","cc":"us","latitude":33.94279,"longitude":-118.41004,"reserved":0,"last_update":"0001-01-01T00:00:00Z","name_a2s":"Uncletopia | Los Angeles | 4 | Stopwatch Beta","protocol":17,"map":"workshop/koth_ashville_final.ugc2130459942","folder":"tf","game":"Team Fortress","app_id":440,"player_count":0,"max_players":24,"Bots":0,"server_type":"Dedicated","server_os":"Linux","password":true,"vac":true,"version":"7882260","steam_id":85568392924510199,"keywords":["cp","nocrits","nodmgspread","uncletopia"],"game_id":440,"stv_port":27046,"stv_name":"Uncletopia | Los Angeles | 4 | Stopwatch Beta | STV","players":null},{"server_id":11,"name":"Uncletopia | London | 1 | All Maps","name_short":"lon-1","host":"lon-1.uk.uncletopia.com","port":27015,"enabled":true,"region":"eu","cc":"gb","latitude":51.509865,"longitude":-0.118092,"reserved":0,"last_update":"0001-01-01T00:00:00Z","name_a2s":"Uncletopia | London | 1 | All Maps","protocol":17,"map":"pl_swiftwater_final1","folder":"tf","game":"Team Fortress","app_id":440,"player_count":24,"max_players":24,"Bots":0,"server_type":"Dedicated","server_os":"Linux","password":true,"vac":true,"version":"7882260","steam_id":85568392924367362,"keywords":["nocrits","nodmgspread","payload","uncletopia"],"game_id":440,"stv_port":27016,"stv_name":"Uncletopia | London | 1 | All Maps | STV","players":[{"user_id":117,"name":"Liko","steam_id":76561197994660517,"connected_time":283000000000,"state":"active","ping":75},{"user_id":92,"name":"Yuzu","steam_id":76561198121694613,"connected_time":2024000000000,"state":"active","ping":46},{"user_id":97,"name":"weed fairy","steam_id":76561197998843096,"connected_time":1822000000000,"state":"active","ping":80},{"user_id":111,"name":"eon","steam_id":76561197971360276,"connected_time":389000000000,"state":"active","ping":71},{"user_id":114,"name":"Ryla","steam_id":76561198070024413,"connected_time":377000000000,"state":"active","ping":36},{"user_id":106,"name":"Tank","steam_id":76561199059174576,"connected_time":914000000000,"state":"active","ping":174},{"user_id":115,"name":"Error","steam_id":76561199196557511,"connected_time":377000000000,"state":"active","ping":103},{"user_id":60,"name":"Neimon","steam_id":76561198343485710,"connected_time":5610000000000,"state":"active","ping":127},{"user_id":101,"name":"pfear","steam_id":76561197999207328,"connected_time":1292000000000,"state":"active","ping":80},{"user_id":13,"name":"Danube501","steam_id":76561198143222686,"connected_time":9752000000000,"state":"active","ping":105},{"user_id":107,"name":"Madokanon","steam_id":76561199392794183,"connected_time":856000000000,"state":"active","ping":105},{"user_id":38,"name":"BONK-TEC!","steam_id":76561198272667029,"connected_time":7095000000000,"state":"active","ping":54},{"user_id":105,"name":"kyuta","steam_id":76561198382281653,"connected_time":973000000000,"state":"active","ping":99},{"user_id":113,"name":"Morshu #SaveTF2","steam_id":76561198867155456,"connected_time":386000000000,"state":"active","ping":113},{"user_id":95,"name":"on1on (fried)","steam_id":76561197995304137,"connected_time":1936000000000,"state":"active","ping":71},{"user_id":83,"name":"Mac Bean","steam_id":76561198133782205,"connected_time":3421000000000,"state":"active","ping":128},{"user_id":89,"name":"Kahvi","steam_id":76561198723244199,"connected_time":2801000000000,"state":"active","ping":74},{"user_id":108,"name":"0","steam_id":76561199084809092,"connected_time":803000000000,"state":"active","ping":109},{"user_id":118,"name":"Testicular torsion","steam_id":76561198119547399,"connected_time":32000000000,"state":"spawning","ping":69},{"user_id":99,"name":"[waffles]","steam_id":76561198951206047,"connected_time":1554000000000,"state":"active","ping":90},{"user_id":110,"name":"Perpetual Pub Push","steam_id":76561198256714846,"connected_time":737000000000,"state":"active","ping":38},{"user_id":48,"name":"Rage spell","steam_id":76561198279952779,"connected_time":6183000000000,"state":"active","ping":162},{"user_id":73,"name":"monke","steam_id":76561198826314938,"connected_time":4349000000000,"state":"active","ping":152},{"user_id":96,"name":"Mr. Shadow | Folfie","steam_id":76561198037028507,"connected_time":1935000000000,"state":"active","ping":69}]},{"server_id":114,"name":"Uncletopia | London | 2 | All Maps","name_short":"lon-2","host":"lon-1.uk.uncletopia.com","port":27025,"enabled":true,"region":"eu","cc":"gb","latitude":51.509865,"longitude":-0.118092,"reserved":0,"last_update":"0001-01-01T00:00:00Z","name_a2s":"Uncletopia | London | 2 | All Maps","protocol":17,"map":"pl_swiftwater_final1","folder":"tf","game":"Team Fortress","app_id":440,"player_count":0,"max_players":24,"Bots":0,"server_type":"Dedicated","server_os":"Linux","password":true,"vac":true,"version":"7882260","steam_id":85568392924470941,"keywords":["nocrits","nodmgspread","payload","uncletopia"],"game_id":440,"stv_port":27026,"stv_name":"Uncletopia | London | 2 | All Maps | STV","players":null},{"server_id":320,"name":"Uncletopia | London | 3 | All Maps","name_short":"lon-3","host":"lon-1.uk.uncletopia.com","port":27035,"enabled":true,"region":"eu","cc":"gb","latitude":51.509865,"longitude":-0.118092,"reserved":0,"last_update":"0001-01-01T00:00:00Z","name_a2s":"Uncletopia | London | 3 | All Maps","protocol":17,"map":"koth_highpass","folder":"tf","game":"Team Fortress","app_id":440,"player_count":0,"max_players":24,"Bots":0,"server_type":"Dedicated","server_os":"Linux","password":true,"vac":true,"version":"7882260","steam_id":85568392924510192,"keywords":["cp","nocrits","nodmgspread","uncletopia"],"game_id":440,"stv_port":27036,"stv_name":"Uncletopia | London | 3 | All Maps | STV","players":null},{"server_id":321,"name":"Uncletopia | London | 4 | All Maps","name_short":"lon-4","host":"lon-1.uk.uncletopia.com","port":27045,"enabled":true,"region":"eu","cc":"gb","latitude":51.509865,"longitude":-0.118092,"reserved":0,"last_update":"0001-01-01T00:00:00Z","name_a2s":"Uncletopia | London | 4 | All Maps","protocol":17,"map":"pl_borneo","folder":"tf","game":"Team Fortress","app_id":440,"player_count":0,"max_players":24,"Bots":0,"server_type":"Dedicated","server_os":"Linux","password":true,"vac":true,"version":"7882260","steam_id":85568392924510193,"keywords":["nocrits","nodmgspread","payload","uncletopia"],"game_id":440,"stv_port":27046,"stv_name":"Uncletopia | London | 4 | All Maps | STV","players":null},{"server_id":21,"name":"Uncletopia | London | 5 | All Maps","name_short":"lon-5","host":"lon-1.uk.uncletopia.com","port":27055,"enabled":true,"region":"eu","cc":"gb","latitude":51.509865,"longitude":-0.118092,"reserved":0,"last_update":"0001-01-01T00:00:00Z","name_a2s":"Uncletopia | London | 5 | All Maps","protocol":17,"map":"pl_frontier_final","folder":"tf","game":"Team Fortress","app_id":440,"player_count":0,"max_players":24,"Bots":0,"server_type":"Dedicated","server_os":"Linux","password":true,"vac":true,"version":"7882260","steam_id":85568392924742829,"keywords":["nocrits","nodmgspread","payload","uncletopia"],"game_id":440,"stv_port":27056,"stv_name":"Uncletopia | London | 5 | All Maps | STV","players":null},{"server_id":22,"name":"Uncletopia | London | 6 | All Maps","name_short":"lon-6","host":"lon-1.uk.uncletopia.com","port":27065,"enabled":true,"region":"eu","cc":"gb","latitude":51.509865,"longitude":-0.118092,"reserved":0,"last_update":"0001-01-01T00:00:00Z","name_a2s":"Uncletopia | London | 6 | All Maps","protocol":17,"map":"pl_borneo","folder":"tf","game":"Team Fortress","app_id":440,"player_count":0,"max_players":24,"Bots":0,"server_type":"Dedicated","server_os":"Linux","password":true,"vac":true,"version":"7882260","steam_id":85568392924742830,"keywords":["nocrits","nodmgspread","payload","uncletopia"],"game_id":440,"stv_port":27066,"stv_name":"Uncletopia | London | 6 | All Maps | STV","players":null},{"server_id":40,"name":"Uncletopia | London | 7 | No Payload","name_short":"lon-7","host":"lon-1.uk.uncletopia.com","port":27075,"enabled":true,"region":"eu","cc":"gb","latitude":51.509865,"longitude":-0.118092,"reserved":0,"last_update":"0001-01-01T00:00:00Z","name_a2s":"Uncletopia | London | 7 | No Payload","protocol":17,"map":"pl_pier","folder":"tf","game":"Team Fortress","app_id":440,"player_count":0,"max_players":24,"Bots":0,"server_type":"Dedicated","server_os":"Linux","password":true,"vac":true,"version":"7882260","steam_id":85568392924964314,"keywords":["nocrits","nodmgspread","payload","uncletopia"],"game_id":440,"stv_port":27076,"stv_name":"Uncletopia | London | 7 | No Payload | STV","players":null},{"server_id":41,"name":"Uncletopia | London | 8 | Community","name_short":"lon-8","host":"lon-1.uk.uncletopia.com","port":27085,"enabled":true,"region":"eu","cc":"gb","latitude":51.509865,"longitude":-0.118092,"reserved":0,"last_update":"0001-01-01T00:00:00Z","name_a2s":"Uncletopia | London | 8 | Community","protocol":17,"map":"pl_swiftwater_final1","folder":"tf","game":"Team Fortress","app_id":440,"player_count":0,"max_players":24,"Bots":0,"server_type":"Dedicated","server_os":"Linux","password":true,"vac":true,"version":"7882260","steam_id":85568392924964315,"keywords":["nocrits","nodmgspread","payload","uncletopia"],"game_id":440,"stv_port":27086,"stv_name":"Uncletopia | London | 8 | Community | STV","players":null},{"server_id":300,"name":"Uncletopia | Montr√©al | 1 | All Maps","name_short":"mtl-1","host":"mtl-1.ca.uncletopia.com","port":27015,"enabled":true,"region":"us-east","cc":"ca","latitude":45.50889,"longitude":-73.56167,"reserved":0,"last_update":"0001-01-01T00:00:00Z","name_a2s":"Uncletopia | Montr√©al | 1 | All Maps","protocol":17,"map":"koth_highpass","folder":"tf","game":"Team Fortress","app_id":440,"player_count":0,"max_players":24,"Bots":0,"server_type":"Dedicated","server_os":"Linux","password":true,"vac":true,"version":"7882260","steam_id":85568392924500087,"keywords":["cp","nocrits","nodmgspread","uncletopia"],"game_id":440,"stv_port":27016,"stv_name":"Uncletopia | Montr√©al | 1 | All Maps | STV","players":null},{"server_id":301,"name":"Uncletopia | Montr√©al | 2 | All Maps","name_short":"mtl-2","host":"mtl-1.ca.uncletopia.com","port":27025,"enabled":true,"region":"us-east","cc":"ca","latitude":45.50889,"longitude":-73.56167,"reserved":0,"last_update":"0001-01-01T00:00:00Z","name_a2s":"Uncletopia | Montr√©al | 2 | All Maps","protocol":17,"map":"koth_highpass","folder":"tf","game":"Team Fortress","app_id":440,"player_count":0,"max_players":24,"Bots":0,"server_type":"Dedicated","server_os":"Linux","password":true,"vac":true,"version":"7882260","steam_id":85568392924500088,"keywords":["cp","nocrits","nodmgspread","uncletopia"],"game_id":440,"stv_port":27026,"stv_name":"Uncletopia | Montr√©al | 2 | All Maps | STV","players":null},{"server_id":302,"name":"Uncletopia | Montr√©al | 3 | All Maps","name_short":"mtl-3","host":"mtl-1.ca.uncletopia.com","port":27035,"enabled":true,"region":"us-east","cc":"ca","latitude":45.50889,"longitude":-73.56167,"reserved":0,"last_update":"0001-01-01T00:00:00Z","name_a2s":"Uncletopia | Montr√©al | 3 | All Maps","protocol":17,"map":"pl_snowycoast","folder":"tf","game":"Team Fortress","app_id":440,"player_count":0,"max_players":24,"Bots":0,"server_type":"Dedicated","server_os":"Linux","password":true,"vac":true,"version":"7882260","steam_id":85568392924500089,"keywords":["nocrits","nodmgspread","payload","uncletopia"],"game_id":440,"stv_port":27036,"stv_name":"Uncletopia | Montr√©al | 3 | All Maps | STV","players":null},{"server_id":303,"name":"Uncletopia | Montr√©al | 4 | No Payload","name_short":"mtl-4","host":"mtl-1.ca.uncletopia.com","port":27045,"enabled":true,"region":"us-east","cc":"ca","latitude":45.50889,"longitude":-73.56167,"reserved":0,"last_update":"0001-01-01T00:00:00Z","name_a2s":"Uncletopia | Montr√©al | 4 | No Payload","protocol":17,"map":"cp_mossrock","folder":"tf","game":"Team Fortress","app_id":440,"player_count":0,"max_players":24,"Bots":0,"server_type":"Dedicated","server_os":"Linux","password":true,"vac":true,"version":"7882260","steam_id":85568392924500090,"keywords":["cp","nocrits","nodmgspread","uncletopia"],"game_id":440,"stv_port":27046,"stv_name":"Uncletopia | Montr√©al | 4 | No Payload | STV","players":null},{"server_id":13,"name":"Uncletopia | New York City | 1 | All Maps","name_short":"nyc-1","host":"nyc-1.us.uncletopia.com","port":27015,"enabled":true,"region":"us-east","cc":"us","latitude":40.73061,"longitude":-73.93524,"reserved":0,"last_update":"0001-01-01T00:00:00Z","name_a2s":"Uncletopia | New York City | 1 | All Maps","protocol":17,"map":"koth_highpass","folder":"tf","game":"Team Fortress","app_id":440,"player_count":0,"max_players":24,"Bots":0,"server_type":"Dedicated","server_os":"Linux","password":true,"vac":true,"version":"7882260","steam_id":85568392924469993,"keywords":["cp","nocrits","nodmgspread","uncletopia"],"game_id":440,"stv_port":27016,"stv_name":"Uncletopia | New York City | 1 | All Maps | STV","players":null},{"server_id":14,"name":"Uncletopia | New York City | 2 | All Maps","name_short":"nyc-2","host":"nyc-1.us.uncletopia.com","port":27025,"enabled":true,"region":"us-east","cc":"us","latitude":40.73061,"longitude":-73.93524,"reserved":0,"last_update":"0001-01-01T00:00:00Z","name_a2s":"Uncletopia | New York City | 2 | All Maps","protocol":17,"map":"koth_lakeside_final","folder":"tf","game":"Team Fortress","app_id":440,"player_count":0,"max_players":24,"Bots":0,"server_type":"Dedicated","server_os":"Linux","password":true,"vac":true,"version":"7882260","steam_id":85568392924469994,"keywords":["cp","nocrits","nodmgspread","uncletopia"],"game_id":440,"stv_port":27026,"stv_name":"Uncletopia | New York City | 2 | All Maps | STV","players":null},{"server_id":15,"name":"Uncletopia | New York City | 3 | Stopwatch Beta","name_short":"nyc-3","host":"nyc-1.us.uncletopia.com","port":27035,"enabled":true,"region":"us-east","cc":"us","latitude":40.73061,"longitude":-73.93524,"reserved":0,"last_update":"0001-01-01T00:00:00Z","name_a2s":"Uncletopia | New York City | 3 | Stopwatch Beta","protocol":17,"map":"workshop/koth_bagel_rc6.ugc2514036946","folder":"tf","game":"Team Fortress","app_id":440,"player_count":0,"max_players":24,"Bots":0,"server_type":"Dedicated","server_os":"Linux","password":true,"vac":true,"version":"7882260","steam_id":85568392924742820,"keywords":["cp","nocrits","nodmgspread","uncletopia"],"game_id":440,"stv_port":27036,"stv_name":"Uncletopia | New York City | 3 | Stopwatch Beta | STV","players":null},{"server_id":16,"name":"Uncletopia | New York City | 4 | Community","name_short":"nyc-4","host":"nyc-1.us.uncletopia.com","port":27045,"enabled":true,"region":"us-east","cc":"us","latitude":40.73061,"longitude":-73.93524,"reserved":0,"last_update":"0001-01-01T00:00:00Z","name_a2s":"Uncletopia | New York City | 4 | Community","protocol":17,"map":"workshop/koth_ashville_final.ugc2130459942","folder":"tf","game":"Team Fortress","app_id":440,"player_count":0,"max_players":24,"Bots":0,"server_type":"Dedicated","server_os":"Linux","password":true,"vac":true,"version":"7882260","steam_id":85568392924742821,"keywords":["cp","nocrits","nodmgspread","uncletopia"],"game_id":440,"stv_port":27046,"stv_name":"Uncletopia | New York City | 4 | Community | STV","players":null},{"server_id":142,"name":"Uncletopia | S√£o Paulo | 1 | All Maps","name_short":"sao-1","host":"sao-1.br.uncletopia.com","port":27015,"enabled":true,"region":"sa","cc":"br","latitude":-23.533773,"longitude":-46.62529,"reserved":0,"last_update":"0001-01-01T00:00:00Z","name_a2s":"Uncletopia | S√£o Paulo | 1 | All Maps","protocol":17,"map":"koth_lakeside_final","folder":"tf","game":"Team Fortress","app_id":440,"player_count":0,"max_players":24,"Bots":0,"server_type":"Dedicated","server_os":"Linux","password":true,"vac":true,"version":"7882260","steam_id":85568392924469996,"keywords":["cp","nocrits","nodmgspread","uncletopia"],"game_id":440,"stv_port":27016,"stv_name":"Uncletopia | S√£o Paulo | 1 | All Maps | STV","players":null},{"server_id":143,"name":"Uncletopia | S√£o Paulo | 2 | All Maps","name_short":"sao-2","host":"sao-2.br.uncletopia.com","port":27015,"enabled":true,"region":"sa","cc":"br","latitude":-23.533773,"longitude":-46.62529,"reserved":0,"last_update":"0001-01-01T00:00:00Z","name_a2s":"Uncletopia | S√£o Paulo | 2 | All Maps","protocol":17,"map":"koth_lakeside_final","folder":"tf","game":"Team Fortress","app_id":440,"player_count":0,"max_players":24,"Bots":0,"server_type":"Dedicated","server_os":"Linux","password":true,"vac":true,"version":"7882260","steam_id":85568392924485349,"keywords":["cp","nocrits","nodmgspread","uncletopia"],"game_id":440,"stv_port":27016,"stv_name":"Uncletopia | S√£o Paulo | 2 | All Maps | STV","players":null},{"server_id":7,"name":"Uncletopia | Seattle | 1 | All Maps","name_short":"sea-1","host":"sea-1.us.uncletopia.com","port":27015,"enabled":true,"region":"us-west","cc":"us","latitude":47.608013,"longitude":-122.33517,"reserved":0,"last_update":"0001-01-01T00:00:00Z","name_a2s":"Uncletopia | Seattle | 1 | All Maps","protocol":17,"map":"plr_nightfall_final","folder":"tf","game":"Team Fortress","app_id":440,"player_count":24,"max_players":24,"Bots":0,"server_type":"Dedicated","server_os":"Linux","password":true,"vac":true,"version":"7882260","steam_id":85568392924469997,"keywords":["nocrits","nodmgspread","payload","uncletopia"],"game_id":440,"stv_port":27016,"stv_name":"Uncletopia | Seattle | 1 | All Maps | STV","players":[{"user_id":787,"name":"rorywashere /·ê† - Àï -„Éû ‚≥ä","steam_id":76561198065825165,"connected_time":5373000000000,"state":"active","ping":99},{"user_id":807,"name":"Cosmos","steam_id":76561198055772954,"connected_time":1911000000000,"state":"active","ping":69},{"user_id":809,"name":"toes","steam_id":76561198221151676,"connected_time":1788000000000,"state":"active","ping":60},{"user_id":673,"name":"VerminKing","steam_id":76561198060887391,"connected_time":13756000000000,"state":"active","ping":56},{"user_id":820,"name":"Cam","steam_id":76561198285054047,"connected_time":781000000000,"state":"active","ping":84},{"user_id":823,"name":"SneekiCheekiQbone","steam_id":76561198045077980,"connected_time":503000000000,"state":"active","ping":72},{"user_id":814,"name":"Goblin Mode","steam_id":76561198064870076,"connected_time":1446000000000,"state":"active","ping":123},{"user_id":824,"name":"Shields","steam_id":76561198043216746,"connected_time":424000000000,"state":"active","ping":62},{"user_id":794,"name":"profile name","steam_id":76561198032625036,"connected_time":4506000000000,"state":"active","ping":59},{"user_id":811,"name":"A Glazed Donut","steam_id":76561198297536267,"connected_time":1700000000000,"state":"active","ping":79},{"user_id":817,"name":"new ZAland","steam_id":76561198433114405,"connected_time":1414000000000,"state":"active","ping":100},{"user_id":805,"name":"squash","steam_id":76561198150281353,"connected_time":2377000000000,"state":"active","ping":57},{"user_id":790,"name":"PopcornBucketGames","steam_id":76561199089562026,"connected_time":4772000000000,"state":"active","ping":58},{"user_id":791,"name":"jorts","steam_id":76561199041179985,"connected_time":4576000000000,"state":"active","ping":70},{"user_id":806,"name":"oil","steam_id":76561198099980149,"connected_time":2366000000000,"state":"active","ping":82},{"user_id":803,"name":"Trans Anime Rizz Gaming","steam_id":76561198257541502,"connected_time":3102000000000,"state":"active","ping":67},{"user_id":793,"name":"MyMonkeyBaby","steam_id":76561198046896670,"connected_time":4561000000000,"state":"active","ping":62},{"user_id":808,"name":"Vruet","steam_id":76561198006311673,"connected_time":1870000000000,"state":"active","ping":110},{"user_id":778,"name":"NEBULA","steam_id":76561198086878595,"connected_time":6700000000000,"state":"active","ping":74},{"user_id":396,"name":"Fallen","steam_id":76561198206490352,"connected_time":36549000000000,"state":"active","ping":85},{"user_id":818,"name":"NE–ØO","steam_id":76561197965450216,"connected_time":1410000000000,"state":"active","ping":58},{"user_id":826,"name":"The Quickster","steam_id":76561198087463787,"connected_time":39000000000,"state":"spawning","ping":43},{"user_id":789,"name":"alcohol alchemist","steam_id":76561198134309750,"connected_time":4813000000000,"state":"active","ping":109},{"user_id":825,"name":"Spauch","steam_id":76561198170899271,"connected_time":414000000000,"state":"active","ping":55}]},{"server_id":119,"name":"Uncletopia | Seattle | 2 | All Maps","name_short":"sea-2","host":"sea-1.us.uncletopia.com","port":27025,"enabled":true,"region":"us-west","cc":"us","latitude":47.608013,"longitude":-122.33517,"reserved":0,"last_update":"0001-01-01T00:00:00Z","name_a2s":"Uncletopia | Seattle | 2 | All Maps","protocol":17,"map":"pl_badwater","folder":"tf","game":"Team Fortress","app_id":440,"player_count":24,"max_players":24,"Bots":0,"server_type":"Dedicated","server_os":"Linux","password":true,"vac":true,"version":"7882260","steam_id":85568392924469998,"keywords":["nocrits","nodmgspread","payload","uncletopia"],"game_id":440,"stv_port":27026,"stv_name":"Uncletopia | Seattle | 2 | All Maps | STV","players":[{"user_id":613,"name":"finman","steam_id":76561198127639913,"connected_time":1447000000000,"state":"active","ping":75},{"user_id":614,"name":"Memetic Kill Agent","steam_id":76561198276310307,"connected_time":1370000000000,"state":"active","ping":70},{"user_id":626,"name":"horse","steam_id":76561197974493959,"connected_time":108000000000,"state":"active","ping":112},{"user_id":618,"name":"Jack from Jack in The Box","steam_id":76561199083594971,"connected_time":705000000000,"state":"active","ping":78},{"user_id":493,"name":"creepycrawler","steam_id":76561198352016831,"connected_time":11385000000000,"state":"active","ping":110},{"user_id":627,"name":"Shnakes","steam_id":76561198201649518,"connected_time":108000000000,"state":"active","ping":104},{"user_id":611,"name":"shi","steam_id":76561198162989738,"connected_time":1612000000000,"state":"active","ping":128},{"user_id":608,"name":"JonBoy","steam_id":76561198082052480,"connected_time":2131000000000,"state":"active","ping":59},{"user_id":620,"name":"BorstchBag","steam_id":76561198155294045,"connected_time":643000000000,"state":"active","ping":66},{"user_id":584,"name":"mmmBoyo","steam_id":76561198821360261,"connected_time":3561000000000,"state":"active","ping":73},{"user_id":602,"name":"kentuckyfriedsocks","steam_id":76561198311122883,"connected_time":2214000000000,"state":"active","ping":134},{"user_id":571,"name":"ùì≤ùì£ùìªùìÆùì´ùì´ùì´\ufffd\ufffd\ufffd","steam_id":76561198089609941,"connected_time":3828000000000,"state":"active","ping":94},{"user_id":622,"name":"Gustavo and Brick (the Rat)","steam_id":76561198381395222,"connected_time":616000000000,"state":"active","ping":81},{"user_id":591,"name":"ursa","steam_id":76561198025394298,"connected_time":2843000000000,"state":"active","ping":102},{"user_id":573,"name":"shoes","steam_id":76561198044104086,"connected_time":3827000000000,"state":"active","ping":82},{"user_id":603,"name":"kris","steam_id":76561198143187033,"connected_time":2213000000000,"state":"active","ping":85},{"user_id":615,"name":"Bingleton","steam_id":76561197998930473,"connected_time":791000000000,"state":"active","ping":42},{"user_id":625,"name":"lukamine","steam_id":76561198166827208,"connected_time":113000000000,"state":"active","ping":57},{"user_id":628,"name":"Keamy","steam_id":76561199471434875,"connected_time":107000000000,"state":"active","ping":42},{"user_id":617,"name":"doopsies","steam_id":76561198083000867,"connected_time":780000000000,"state":"active","ping":51},{"user_id":624,"name":"Turtle","steam_id":76561198821905297,"connected_time":329000000000,"state":"active","ping":88},{"user_id":616,"name":"LerN","steam_id":76561198083463877,"connected_time":787000000000,"state":"active","ping":105},{"user_id":607,"name":"Ekuseebia","steam_id":76561198037504112,"connected_time":2176000000000,"state":"active","ping":81},{"user_id":623,"name":"self sufficient kitten","steam_id":76561197960592612,"connected_time":614000000000,"state":"active","ping":46}]},{"server_id":406,"name":"Uncletopia | Seattle | 3 | Stopwatch Beta","name_short":"sea-3","host":"sea-1.us.uncletopia.com","port":27035,"enabled":true,"region":"us-west","cc":"us","latitude":47.608013,"longitude":-122.33517,"reserved":0,"last_update":"0001-01-01T00:00:00Z","name_a2s":"Uncletopia | Seattle | 3 | Stopwatch Beta","protocol":17,"map":"pl_borneo","folder":"tf","game":"Team Fortress","app_id":440,"player_count":0,"max_players":24,"Bots":0,"server_type":"Dedicated","server_os":"Linux","password":true,"vac":true,"version":"7882260","steam_id":85568392924515217,"keywords":["nocrits","nodmgspread","payload","uncletopia"],"game_id":440,"stv_port":27036,"stv_name":"Uncletopia | Seattle | 3 | Stopwatch Beta | STV","players":null},{"server_id":17,"name":"Uncletopia | San Francisco | 1 | All Maps","name_short":"sfo-1","host":"sfo-1.us.uncletopia.com","port":27015,"enabled":true,"region":"us-west","cc":"us","latitude":37.77397,"longitude":-122.4313,"reserved":0,"last_update":"0001-01-01T00:00:00Z","name_a2s":"Uncletopia | San Francisco | 1 | All Maps","protocol":17,"map":"cp_process_final","folder":"tf","game":"Team Fortress","app_id":440,"player_count":0,"max_players":24,"Bots":0,"server_type":"Dedicated","server_os":"Linux","password":true,"vac":true,"version":"7757534","steam_id":85568392924469999,"keywords":["cp","nocrits","nodmgspread","uncletopia"],"game_id":440,"stv_port":27016,"stv_name":"Uncletopia | San Francisco | 1 | All Maps | STV","players":null},{"server_id":18,"name":"Uncletopia | San Francisco | 2 | All Maps","name_short":"sfo-2","host":"sfo-1.us.uncletopia.com","port":27025,"enabled":true,"region":"us-west","cc":"us","latitude":37.77397,"longitude":-122.4313,"reserved":0,"last_update":"0001-01-01T00:00:00Z","name_a2s":"Uncletopia | San Francisco | 2 | All Maps","protocol":17,"map":"koth_highpass","folder":"tf","game":"Team Fortress","app_id":440,"player_count":0,"max_players":24,"Bots":0,"server_type":"Dedicated","server_os":"Linux","password":true,"vac":true,"version":"7757534","steam_id":85568392924470000,"keywords":["cp","nocrits","nodmgspread","uncletopia"],"game_id":440,"stv_port":27026,"stv_name":"Uncletopia | San Francisco | 2 | All Maps | STV","players":null},{"server_id":19,"name":"Uncletopia | San Francisco | 3 | Stopwatch Beta","name_short":"sfo-3","host":"sfo-1.us.uncletopia.com","port":27035,"enabled":true,"region":"us-west","cc":"us","latitude":37.77397,"longitude":-122.4313,"reserved":0,"last_update":"0001-01-01T00:00:00Z","name_a2s":"Uncletopia | San Francisco | 3 | Stopwatch Beta","protocol":17,"map":"koth_lakeside_final","folder":"tf","game":"Team Fortress","app_id":440,"player_count":0,"max_players":24,"Bots":0,"server_type":"Dedicated","server_os":"Linux","password":true,"vac":true,"version":"7757534","steam_id":85568392924742824,"keywords":["cp","nocrits","nodmgspread","uncletopia"],"game_id":440,"stv_port":27036,"stv_name":"Uncletopia | San Francisco | 3 | Stopwatch Beta | STV","players":null},{"server_id":20,"name":"Uncletopia | San Francisco | 4 | Community","name_short":"sfo-4","host":"sfo-1.us.uncletopia.com","port":27045,"enabled":true,"region":"us-west","cc":"us","latitude":37.77397,"longitude":-122.4313,"reserved":0,"last_update":"0001-01-01T00:00:00Z","name_a2s":"Uncletopia | San Francisco | 4 | Community","protocol":17,"map":"cp_altitude","folder":"tf","game":"Team Fortress","app_id":440,"player_count":0,"max_players":24,"Bots":0,"server_type":"Dedicated","server_os":"Linux","password":true,"vac":true,"version":"7757534","steam_id":85568392924742826,"keywords":["cp","nocrits","nodmgspread","uncletopia"],"game_id":440,"stv_port":27046,"stv_name":"Uncletopia | San Francisco | 4 | Community | STV","players":null},{"server_id":141,"name":"Uncletopia | Sydney | 1 | All Maps","name_short":"syd-1","host":"syd-1.au.uncletopia.com","port":27015,"enabled":true,"region":"au","cc":"au","latitude":-33.865143,"longitude":151.2099,"reserved":0,"last_update":"0001-01-01T00:00:00Z","name_a2s":"Uncletopia | Sydney | 1 | All Maps","protocol":17,"map":"pl_snowycoast","folder":"tf","game":"Team Fortress","app_id":440,"player_count":24,"max_players":24,"Bots":0,"server_type":"Dedicated","server_os":"Linux","password":true,"vac":true,"version":"7882260","steam_id":85568392924470001,"keywords":["nocrits","nodmgspread","payload","uncletopia"],"game_id":440,"stv_port":27016,"stv_name":"Uncletopia | Sydney | 1 | All Maps | STV","players":[{"user_id":246,"name":"justaordinarygamer","steam_id":76561199132864695,"connected_time":19000000000,"state":"active","ping":196},{"user_id":201,"name":"miyamoto is daddy","steam_id":76561199483818230,"connected_time":2349000000000,"state":"active","ping":71},{"user_id":212,"name":"free cheese line","steam_id":76561198136866711,"connected_time":2166000000000,"state":"active","ping":54},{"user_id":203,"name":"Bigrichard","steam_id":76561198032092945,"connected_time":2322000000000,"state":"active","ping":89},{"user_id":224,"name":"demon seed","steam_id":76561198025099660,"connected_time":1079000000000,"state":"active","ping":45},{"user_id":162,"name":"SamK #AnnexTF2","steam_id":76561198149051619,"connected_time":4975000000000,"state":"active","ping":67},{"user_id":211,"name":"precious.","steam_id":76561198054804209,"connected_time":2187000000000,"state":"active","ping":85},{"user_id":207,"name":"send me ur Gerrards","steam_id":76561198301282416,"connected_time":2285000000000,"state":"active","ping":56},{"user_id":216,"name":"Zeron","steam_id":76561198125778202,"connected_time":1959000000000,"state":"active","ping":51},{"user_id":113,"name":"Ganome Chilled","steam_id":76561198064898965,"connected_time":9699000000000,"state":"active","ping":83},{"user_id":227,"name":"Soru","steam_id":76561198010844786,"connected_time":662000000000,"state":"active","ping":60},{"user_id":235,"name":"Pug","steam_id":76561198136794372,"connected_time":390000000000,"state":"active","ping":48},{"user_id":213,"name":"Cozza","steam_id":76561198090069548,"connected_time":2048000000000,"state":"active","ping":71},{"user_id":176,"name":"Sentry Gun (EpicGuy4227)","steam_id":76561198094132328,"connected_time":4274000000000,"state":"active","ping":64},{"user_id":214,"name":"michael","steam_id":76561198052848358,"connected_time":2042000000000,"state":"active","ping":59},{"user_id":217,"name":"CoolGuyMatt","steam_id":76561198009757360,"connected_time":1947000000000,"state":"active","ping":66},{"user_id":191,"name":"lavanderpumpernickle","steam_id":76561199093611800,"connected_time":3154000000000,"state":"active","ping":70},{"user_id":192,"name":"I'm using a controller","steam_id":76561198152210509,"connected_time":3000000000000,"state":"active","ping":40},{"user_id":222,"name":"Blink L780","steam_id":76561198029493215,"connected_time":1558000000000,"state":"active","ping":102},{"user_id":243,"name":"scrungo beepis","steam_id":76561198079351541,"connected_time":117000000000,"state":"active","ping":45},{"user_id":158,"name":"weezer","steam_id":76561199439508788,"connected_time":5324000000000,"state":"active","ping":65},{"user_id":221,"name":"absolute schmeater","steam_id":76561198048064049,"connected_time":1587000000000,"state":"active","ping":81},{"user_id":228,"name":"[T√êK] KeRpaL","steam_id":76561197974427061,"connected_time":619000000000,"state":"active","ping":56},{"user_id":195,"name":"Captain Courageous","steam_id":76561198031293430,"connected_time":2620000000000,"state":"active","ping":90}]},{"server_id":123,"name":"Uncletopia | Sydney | 2 | All Maps","name_short":"syd-2","host":"syd-1.au.uncletopia.com","port":27025,"enabled":true,"region":"au","cc":"au","latitude":-33.865143,"longitude":151.2099,"reserved":0,"last_update":"0001-01-01T00:00:00Z","name_a2s":"Uncletopia | Sydney | 2 | All Maps","protocol":17,"map":"pl_borneo","folder":"tf","game":"Team Fortress","app_id":440,"player_count":24,"max_players":24,"Bots":0,"server_type":"Dedicated","server_os":"Linux","password":true,"vac":true,"version":"7882260","steam_id":85568392924470002,"keywords":["nocrits","nodmgspread","payload","uncletopia"],"game_id":440,"stv_port":27026,"stv_name":"Uncletopia | Sydney | 2 | All Maps | STV","players":[{"user_id":68,"name":"Rodan","steam_id":76561198038401873,"connected_time":713000000000,"state":"active","ping":85},{"user_id":21,"name":"Ultimate Spaghet","steam_id":76561198880336399,"connected_time":4353000000000,"state":"active","ping":61},{"user_id":50,"name":"sweet","steam_id":76561198075311236,"connected_time":1577000000000,"state":"active","ping":52},{"user_id":46,"name":"helton1 #RemoveCrossbow","steam_id":76561198841855657,"connected_time":1736000000000,"state":"active","ping":53},{"user_id":45,"name":"perturb (feed/seed)","steam_id":76561198085124297,"connected_time":1771000000000,"state":"active","ping":51},{"user_id":23,"name":"wlfgrl","steam_id":76561199082845518,"connected_time":3910000000000,"state":"active","ping":66},{"user_id":73,"name":"Daniel Chong","steam_id":76561199009189725,"connected_time":458000000000,"state":"active","ping":70},{"user_id":69,"name":"Decoy","steam_id":76561198026845870,"connected_time":706000000000,"state":"active","ping":82},{"user_id":37,"name":"That_Spooky_Dude","steam_id":76561198148488389,"connected_time":2379000000000,"state":"active","ping":55},{"user_id":71,"name":"Cohrsy","steam_id":76561199164287913,"connected_time":564000000000,"state":"active","ping":55},{"user_id":39,"name":"Chibi Wolf","steam_id":76561198074235306,"connected_time":2289000000000,"state":"active","ping":57},{"user_id":80,"name":"The Rizzard of Aus","steam_id":76561198110502329,"connected_time":30000000000,"state":"active","ping":35},{"user_id":48,"name":"Muffin","steam_id":76561198075391119,"connected_time":1660000000000,"state":"active","ping":56},{"user_id":49,"name":"Catto","steam_id":76561197999111589,"connected_time":1612000000000,"state":"active","ping":32},{"user_id":74,"name":"Phobia¬≤","steam_id":76561198038833524,"connected_time":397000000000,"state":"active","ping":54},{"user_id":52,"name":"syl","steam_id":76561198049270541,"connected_time":1543000000000,"state":"active","ping":30},{"user_id":56,"name":"hadouken","steam_id":76561198019740135,"connected_time":1312000000000,"state":"active","ping":57},{"user_id":54,"name":"the weed alien","steam_id":76561199205171109,"connected_time":1494000000000,"state":"active","ping":61},{"user_id":66,"name":"ZaneProductions","steam_id":76561199090291960,"connected_time":890000000000,"state":"active","ping":73},{"user_id":67,"name":"Creamy Gusset","steam_id":76561198001544539,"connected_time":883000000000,"state":"active","ping":53},{"user_id":76,"name":"carlo","steam_id":76561198189154965,"connected_time":373000000000,"state":"active","ping":50},{"user_id":78,"name":"Atlas","steam_id":76561198069332870,"connected_time":278000000000,"state":"active","ping":54},{"user_id":62,"name":"CypressFluff (She/Her)","steam_id":76561198174667818,"connected_time":1120000000000,"state":"active","ping":62},{"user_id":81,"name":"the box","steam_id":76561198186769550,"connected_time":24000000000,"state":"active","ping":58}]},{"server_id":395,"name":"Uncletopia | Sydney | 3 | All Maps","name_short":"syd-3","host":"syd-1.au.uncletopia.com","port":27035,"enabled":true,"region":"au","cc":"au","latitude":-33.865143,"longitude":151.2099,"reserved":0,"last_update":"0001-01-01T00:00:00Z","name_a2s":"Uncletopia | Sydney | 3 | All Maps","protocol":17,"map":"koth_highpass","folder":"tf","game":"Team Fortress","app_id":440,"player_count":0,"max_players":24,"Bots":0,"server_type":"Dedicated","server_os":"Linux","password":true,"vac":true,"version":"7882260","steam_id":85568392925194467,"keywords":["cp","nocrits","nodmgspread","uncletopia"],"game_id":440,"stv_port":27036,"stv_name":"Uncletopia | Sydney | 3 | All Maps | STV","players":null},{"server_id":396,"name":"Uncletopia | Sydney | 4 | All Maps","name_short":"syd-4","host":"syd-1.au.uncletopia.com","port":27045,"enabled":true,"region":"au","cc":"au","latitude":-33.865143,"longitude":151.2099,"reserved":0,"last_update":"0001-01-01T00:00:00Z","name_a2s":"Uncletopia | Sydney | 4 | All Maps","protocol":17,"map":"pl_badwater","folder":"tf","game":"Team Fortress","app_id":440,"player_count":0,"max_players":24,"Bots":0,"server_type":"Dedicated","server_os":"Linux","password":true,"vac":true,"version":"7882260","steam_id":85568392925397958,"keywords":["nocrits","nodmgspread","payload","uncletopia"],"game_id":440,"stv_port":27046,"stv_name":"Uncletopia | Sydney | 4 | All Maps | STV","players":null},{"server_id":58,"name":"Uncletopia | Sydney | 5 | Stopwatch Beta","name_short":"syd-5","host":"syd-1.au.uncletopia.com","port":27055,"enabled":true,"region":"au","cc":"au","latitude":-33.865143,"longitude":151.2099,"reserved":0,"last_update":"0001-01-01T00:00:00Z","name_a2s":"Uncletopia | Sydney | 5 | Stopwatch Beta","protocol":17,"map":"koth_lakeside_final","folder":"tf","game":"Team Fortress","app_id":440,"player_count":0,"max_players":24,"Bots":0,"server_type":"Dedicated","server_os":"Linux","password":true,"vac":true,"version":"7882260","steam_id":85568392925397959,"keywords":["cp","nocrits","nodmgspread","uncletopia"],"game_id":440,"stv_port":27056,"stv_name":"Uncletopia | Sydney | 5 | Stopwatch Beta | STV","players":null},{"server_id":59,"name":"Uncletopia | Sydney | 6 | Community","name_short":"syd-6","host":"syd-1.au.uncletopia.com","port":27065,"enabled":true,"region":"au","cc":"au","latitude":-33.865143,"longitude":151.2099,"reserved":0,"last_update":"0001-01-01T00:00:00Z","name_a2s":"Uncletopia | Sydney | 6 | Community","protocol":17,"map":"pl_snowycoast","folder":"tf","game":"Team Fortress","app_id":440,"player_count":0,"max_players":24,"Bots":0,"server_type":"Dedicated","server_os":"Linux","password":true,"vac":true,"version":"7882260","steam_id":85568392925397960,"keywords":["nocrits","nodmgspread","payload","uncletopia"],"game_id":440,"stv_port":27066,"stv_name":"Uncletopia | Sydney | 6 | Community | STV","players":null},{"server_id":49,"name":"Uncletopia | Warsaw | 1 | All Maps","name_short":"waw-1","host":"waw-1.pl.uncletopia.com","port":27015,"enabled":true,"region":"eu","cc":"pl","latitude":52.2297,"longitude":21.017532,"reserved":0,"last_update":"0001-01-01T00:00:00Z","name_a2s":"","protocol":0,"map":"","folder":"","game":"","app_id":0,"player_count":0,"max_players":0,"Bots":0,"server_type":"","server_os":"","password":false,"vac":false,"version":"","steam_id":0,"keywords":null,"game_id":0,"stv_port":0,"stv_name":"","players":null},{"server_id":50,"name":"Uncletopia | Warsaw | 2 | All Maps","name_short":"waw-2","host":"waw-1.pl.uncletopia.com","port":27025,"enabled":true,"region":"eu","cc":"pl","latitude":52.2297,"longitude":21.017532,"reserved":0,"last_update":"0001-01-01T00:00:00Z","name_a2s":"Uncletopia | Warsaw | 2 | All Maps","protocol":17,"map":"pl_swiftwater_final1","folder":"tf","game":"Team Fortress","app_id":440,"player_count":0,"max_players":24,"Bots":0,"server_type":"Dedicated","server_os":"Linux","password":true,"vac":true,"version":"7882260","steam_id":85568392925397851,"keywords":["nocrits","nodmgspread","payload","uncletopia"],"game_id":440,"stv_port":27026,"stv_name":"Uncletopia | Warsaw | 2 | All Maps | STV","players":null},{"server_id":51,"name":"Uncletopia | Warsaw | 3 | All Maps","name_short":"waw-3","host":"waw-1.pl.uncletopia.com","port":27035,"enabled":true,"region":"eu","cc":"pl","latitude":52.2297,"longitude":21.017532,"reserved":0,"last_update":"0001-01-01T00:00:00Z","name_a2s":"Uncletopia | Warsaw | 3 | All Maps","protocol":17,"map":"koth_viaduct","folder":"tf","game":"Team Fortress","app_id":440,"player_count":0,"max_players":24,"Bots":0,"server_type":"Dedicated","server_os":"Linux","password":true,"vac":true,"version":"7882260","steam_id":85568392925397852,"keywords":["cp","nocrits","nodmgspread","uncletopia"],"game_id":440,"stv_port":27036,"stv_name":"Uncletopia | Warsaw | 3 | All Maps | STV","players":null},{"server_id":52,"name":"Uncletopia | Warsaw | 4 | All Maps","name_short":"waw-4","host":"waw-1.pl.uncletopia.com","port":27045,"enabled":true,"region":"eu","cc":"pl","latitude":52.2297,"longitude":21.017532,"reserved":0,"last_update":"0001-01-01T00:00:00Z","name_a2s":"Uncletopia | Warsaw | 4 | All Maps","protocol":17,"map":"koth_highpass","folder":"tf","game":"Team Fortress","app_id":440,"player_count":0,"max_players":24,"Bots":0,"server_type":"Dedicated","server_os":"Linux","password":true,"vac":true,"version":"7882260","steam_id":85568392925397853,"keywords":["cp","nocrits","nodmgspread","uncletopia"],"game_id":440,"stv_port":27046,"stv_name":"Uncletopia | Warsaw | 4 | All Maps | STV","players":null},{"server_id":53,"name":"Uncletopia | Warsaw | 5 | Stopwatch Beta","name_short":"waw-5","host":"waw-1.pl.uncletopia.com","port":27055,"enabled":true,"region":"eu","cc":"pl","latitude":52.2297,"longitude":21.017532,"reserved":0,"last_update":"0001-01-01T00:00:00Z","name_a2s":"Uncletopia | Warsaw | 5 | Stopwatch Beta","protocol":17,"map":"cp_mountainlab","folder":"tf","game":"Team Fortress","app_id":440,"player_count":0,"max_players":24,"Bots":0,"server_type":"Dedicated","server_os":"Linux","password":true,"vac":true,"version":"7882260","steam_id":85568392925397854,"keywords":["cp","nocrits","nodmgspread","uncletopia"],"game_id":440,"stv_port":27056,"stv_name":"Uncletopia | Warsaw | 5 | Stopwatch Beta | STV","players":null},{"server_id":54,"name":"Uncletopia | Warsaw | 6 | Community","name_short":"waw-6","host":"waw-1.pl.uncletopia.com","port":27065,"enabled":true,"region":"eu","cc":"pl","latitude":52.2297,"longitude":21.017532,"reserved":0,"last_update":"0001-01-01T00:00:00Z","name_a2s":"Uncletopia | Warsaw | 6 | Community","protocol":17,"map":"koth_viaduct","folder":"tf","game":"Team Fortress","app_id":440,"player_count":0,"max_players":24,"Bots":0,"server_type":"Dedicated","server_os":"Linux","password":true,"vac":true,"version":"7882260","steam_id":85568392925397856,"keywords":["cp","nocrits","nodmgspread","uncletopia"],"game_id":440,"stv_port":27066,"stv_name":"Uncletopia | Warsaw | 6 | Community | STV","players":null}]}