{"status":true,"message":"","result":[{"server_id":9,"name":"Uncletopia | Atlanta | 1 | All Maps","name_short":"atl-1","host":"atl-1.us.uncletopia.com","port":27015,"enabled":true,"region":"us-east","cc":"us","latitude":33.753746,"longitude":-84.38633,"reserved":0,"last_update":"0001-01-01T00:00:00Z","name_a2s":"Uncletopia | Atlanta | 1 | All Maps","protocol":17,"map":"pl_barnblitz","folder":"tf","game":"Team Fortress","app_id":440,"player_count":24,"max_players":24,"Bots":0,"server_type":"Dedicated","server_os":"Linux","password":true,"vac":true,"version":"7961495","steam_id":85568392924469982,"keywords":["nocrits","nodmgspread","payload","uncletopia"],"game_id":440,"stv_port":27016,"stv_name":"Uncletopia | Atlanta | 1 | All Maps | STV","players":[{"user_id":496,"name":"ATL1 | cola","steam_id":76561198374390458,"connected_time":2352000000000,"state":"active","ping":65},{"user_id":509,"name":"monsterplayer","steam_id":76561198065923482,"connected_time":1231000000000,"state":"active","ping":47},{"user_id":493,"name":"Wiener Hole Paper Cut","steam_id":76561198000808203,"connected_time":2491000000000,"state":"active","ping":60},{"user_id":471,"name":"why","steam_id":76561199059732212,"connected_time":4955000000000,"state":"active","ping":54},{"user_id":480,"name":"jackass","steam_id":76561198209380493,"connected_time":4118000000000,"state":"active","ping":72},{"user_id":502,"name":"thomasdee725???","steam_id":76561199189526173,"connected_time":1254000000000,"state":"active","ping":65},{"user_id":495,"name":"Jared","steam_id":76561198027210228,"connected_time":2356000000000,"state":"active","ping":77},{"user_id":494,"name":"lil hog","steam_id":76561199230929836,"connected_time":2487000000000,"state":"active","ping":86},{"user_id":511,"name":"Dreszerg","steam_id":76561198838757422,"connected_time":1049000000000,"state":"active","ping":82},{"user_id":513,"name":"lucin","steam_id":76561198258062078,"connected_time":744000000000,"state":"active","ping":62},{"user_id":492,"name":"Tonio The Jester","steam_id":76561199489156825,"connected_time":2724000000000,"state":"active","ping":76},{"user_id":515,"name":"AttackCommander","steam_id":76561198111522679,"connected_time":110000000000,"state":"active","ping":71},{"user_id":497,"name":"Laura Palmer Gaming","steam_id":76561198282965733,"connected_time":2346000000000,"state":"active","ping":64},{"user_id":435,"name":"Heathcliff","steam_id":76561198044288534,"connected_time":6803000000000,"state":"active","ping":62},{"user_id":508,"name":"Mog","steam_id":76561198025575870,"connected_time":1232000000000,"state":"active","ping":76},{"user_id":503,"name":"HÖLLENFEUER","steam_id":76561198032751171,"connected_time":1253000000000,"state":"active","ping":45},{"user_id":453,"name":"Shame","steam_id":76561198100490994,"connected_time":5951000000000,"state":"active","ping":61},{"user_id":505,"name":"Tue","steam_id":76561198181668501,"connected_time":1242000000000,"state":"active","ping":54},{"user_id":501,"name":"KBoneski ♡","steam_id":76561198307409065,"connected_time":1264000000000,"state":"active","ping":75},{"user_id":507,"name":"Yeti™","steam_id":76561199151545966,"connected_time":1235000000000,"state":"active","ping":59},{"user_id":510,"name":"Motorolª","steam_id":76561198358119669,"connected_time":1230000000000,"state":"active","ping":110},{"user_id":470,"name":"FIJI","steam_id":76561198126087725,"connected_time":4969000000000,"state":"active","ping":67},{"user_id":474,"name":"zacmattsmith","steam_id":76561199027704149,"connected_time":4170000000000,"state":"active","ping":89},{"user_id":409,"name":"Le4n!!!","steam_id":76561198045522596,"connected_time":8637000000000,"state":"active","ping":77}]},{"server_id":104,"name":"Uncletopia | Atlanta | 2 | All Maps","name_short":"atl-2","host":"atl-1.us.uncletopia.com","port":27025,"enabled":true,"region":"us-east","cc":"us","latitude":33.753746,"longitude":-84.38633,"reserved":0,"last_update":"0001-01-01T00:00:00Z","name_a2s":"Uncletopia | Atlanta | 2 | All Maps","protocol":17,"map":"cp_steel","folder":"tf","game":"Team Fortress","app_id":440,"player_count":23,"max_players":24,"Bots":0,"server_type":"Dedicated","server_os":"Linux","password":true,"vac":true,"version":"7961495","steam_id":85568392924469983,"keywords":["cp","nocrits","nodmgspread","uncletopia"],"game_id":440,"stv_port":27026,"stv_name":"Uncletopia | Atlanta | 2 | All Maps | STV","players":[{"user_id":252,"name":"Zero","steam_id":76561198033384990,"connected_time":2768000000000,"state":"active","ping":46},{"user_id":249,"name":"Colossal Falafel","steam_id":76561198108086245,"connected_time":2922000000000,"state":"active","ping":54},{"user_id":251,"name":"ReubenSalsa","steam_id":76561198110060815,"connected_time":2820000000000,"state":"active","ping":75},{"user_id":253,"name":"dilfbot","steam_id":76561198099988165,"connected_time":2767000000000,"state":"active","ping":61},{"user_id":285,"name":"Monkey Mode","steam_id":76561197961267543,"connected_time":1000000000,"state":"spawning","ping":47},{"user_id":282,"name":"Mercy!Avatar","steam_id":76561199113870006,"connected_time":1138000000000,"state":"active","ping":57},{"user_id":277,"name":"Indigo","steam_id":76561198430362969,"connected_time":1435000000000,"state":"active","ping":73},{"user_id":278,"name":"Barrelz","steam_id":76561198373626516,"connected_time":1293000000000,"state":"active","ping":48},{"user_id":276,"name":"LOFILE","steam_id":76561198083798918,"connected_time":1587000000000,"state":"active","ping":53},{"user_id":195,"name":"DaMultiversalist","steam_id":76561198239552412,"connected_time":7217000000000,"state":"active","ping":70},{"user_id":261,"name":"brisky","steam_id":76561198869675719,"connected_time":2535000000000,"state":"active","ping":72},{"user_id":284,"name":"sleeperagent658","steam_id":76561199496052379,"connected_time":668000000000,"state":"active","ping":161},{"user_id":266,"name":"hayes","steam_id":76561198057101042,"connected_time":2091000000000,"state":"active","ping":69},{"user_id":283,"name":"jri22896","steam_id":76561199369035331,"connected_time":761000000000,"state":"active","ping":75},{"user_id":272,"name":"Ligh3t","steam_id":76561198179178533,"connected_time":1712000000000,"state":"active","ping":72},{"user_id":280,"name":"Tomato","steam_id":76561197996472649,"connected_time":1220000000000,"state":"active","ping":72},{"user_id":221,"name":"MichelangeloStark","steam_id":76561197976489900,"connected_time":6025000000000,"state":"active","ping":75},{"user_id":264,"name":"Wons","steam_id":76561198088815414,"connected_time":2235000000000,"state":"active","ping":40},{"user_id":258,"name":"Alpha","steam_id":76561199482290132,"connected_time":2642000000000,"state":"active","ping":76},{"user_id":200,"name":"Oxygen User","steam_id":76561199111975528,"connected_time":6858000000000,"state":"active","ping":59},{"user_id":273,"name":"SoWhich","steam_id":76561198237125842,"connected_time":1710000000000,"state":"active","ping":69},{"user_id":281,"name":"Constipated Barry","steam_id":76561198004482269,"connected_time":1160000000000,"state":"active","ping":106},{"user_id":259,"name":"Nicolas Cage Kisses Mace Windu","steam_id":76561198046127710,"connected_time":2630000000000,"state":"active","ping":74}]},{"server_id":400,"name":"Uncletopia | Atlanta | 3 | Stopwatch","name_short":"atl-3","host":"atl-1.us.uncletopia.com","port":27035,"enabled":true,"region":"us-east","cc":"us","latitude":33.753746,"longitude":-84.38633,"reserved":0,"last_update":"0001-01-01T00:00:00Z","name_a2s":"Uncletopia | Atlanta | 3 | Stopwatch","protocol":17,"map":"workshop/koth_jamram_rc1a.ugc2964065613","folder":"tf","game":"Team Fortress","app_id":440,"player_count":0,"max_players":24,"Bots":0,"server_type":"Dedicated","server_os":"Linux","password":true,"vac":true,"version":"7961495","steam_id":85568392924515187,"keywords":["cp","nocrits","nodmgspread","uncletopia"],"game_id":440,"stv_port":27036,"stv_name":"Uncletopia | Atlanta | 3 | Stopwatch | STV","players":null},{"server_id":401,"name":"Uncletopia | Atlanta | 4 | Community","name_short":"atl-4","host":"atl-1.us.uncletopia.com","port":27045,"enabled":true,"region":"us-east","cc":"us","latitude":33.753746,"longitude":-84.38633,"reserved":0,"last_update":"0001-01-01T00:00:00Z","name_a2s":"Uncletopia | Atlanta | 4 | Community","protocol":17,"map":"workshop/cp_reckoner_rc6.ugc674719999","folder":"tf","game":"Team Fortress","app_id":440,"player_count":0,"max_players":24,"Bots":0,"server_type":"Dedicated","server_os":"Linux","password":true,"vac":true,"version":"7961495","steam_id":85568392924515188,"keywords":["cp","nocrits","nodmgspread","uncletopia"],"game_id":440,"stv_port":27046,"stv_name":"Uncletopia | Atlanta | 4 | Community | STV","players":null},{"server_id":2,"name":"Uncletopia | Chicago | 1 | All Maps","name_short":"chi-1","host":"chi-1.us.uncletopia.com","port":27015,"enabled":true,"region":"us-central","cc":"us","latitude":41.881832,"longitude":-87.62318,"reserved":0,"last_update":"0001-01-01T00:00:00Z","name_a2s":"Uncletopia | Chicago | 1 | All Maps","protocol":17,"map":"cp_mountainlab","folder":"tf","game":"Team Fortress","app_id":440,"player_count":24,"max_players":24,"Bots":0,"server_type":"Dedicated","server_os":"Linux","password":true,"vac":true,"version":"7961495","steam_id":85568392924469984,"keywords":["cp","nocrits","nodmgspread","uncletopia"],"game_id":440,"stv_port":27016,"stv_name":"Uncletopia | Chicago | 1 | All Maps | STV","players":[{"user_id":391,"name":"YummerBummer","steam_id":76561198094773987,"connected_time":1537000000000,"state":"active","ping":71},{"user_id":392,"name":"gus","steam_id":76561198209316492,"connected_time":1523000000000,"state":"active","ping":74},{"user_id":407,"name":"TheSnipersHat","steam_id":76561198057684066,"connected_time":669000000000,"state":"active","ping":58},{"user_id":408,"name":"LazyKoala99","steam_id":76561199183623672,"connected_time":647000000000,"state":"active","ping":48},{"user_id":409,"name":"Samrizo el Chorizo","steam_id":76561198009838162,"connected_time":625000000000,"state":"active","ping":55},{"user_id":397,"name":"Um, cool!","steam_id":76561198129870038,"connected_time":1366000000000,"state":"active","ping":112},{"user_id":389,"name":"M249 | Spectre","steam_id":76561198118334485,"connected_time":1548000000000,"state":"active","ping":64},{"user_id":417,"name":"DuckKey","steam_id":76561198904477889,"connected_time":326000000000,"state":"active","ping":60},{"user_id":411,"name":"Vivat Christus Rex","steam_id":76561198047607510,"connected_time":591000000000,"state":"active","ping":69},{"user_id":302,"name":"qory","steam_id":76561198152064890,"connected_time":8198000000000,"state":"active","ping":58},{"user_id":371,"name":"†","steam_id":76561198091770232,"connected_time":3089000000000,"state":"active","ping":72},{"user_id":402,"name":"beep","steam_id":76561199096448766,"connected_time":1038000000000,"state":"active","ping":63},{"user_id":321,"name":"Beepers","steam_id":76561198078780252,"connected_time":6033000000000,"state":"active","ping":66},{"user_id":412,"name":"Kerpal45","steam_id":76561198153340350,"connected_time":576000000000,"state":"active","ping":80},{"user_id":388,"name":"Drooop","steam_id":76561198856700517,"connected_time":1556000000000,"state":"active","ping":78},{"user_id":395,"name":"DrSakusei","steam_id":76561198270938839,"connected_time":1476000000000,"state":"active","ping":75},{"user_id":396,"name":"thiccy","steam_id":76561198164583182,"connected_time":1457000000000,"state":"active","ping":73},{"user_id":406,"name":"TittyBoii69","steam_id":76561198096412234,"connected_time":722000000000,"state":"active","ping":66},{"user_id":413,"name":"Tibalt Nyahuma","steam_id":76561198034779431,"connected_time":560000000000,"state":"active","ping":62},{"user_id":416,"name":"Som Ting Wong","steam_id":76561198174985707,"connected_time":436000000000,"state":"active","ping":60},{"user_id":414,"name":"KUNA","steam_id":76561198078547621,"connected_time":524000000000,"state":"active","ping":74},{"user_id":401,"name":"triangleman","steam_id":76561198972733542,"connected_time":1049000000000,"state":"active","ping":60},{"user_id":372,"name":"SandHanitizer","steam_id":76561198234676500,"connected_time":3078000000000,"state":"active","ping":62},{"user_id":404,"name":"Hylic","steam_id":76561199051314589,"connected_time":770000000000,"state":"active","ping":60}]},{"server_id":106,"name":"Uncletopia | Chicago | 2 | All Maps","name_short":"chi-2","host":"chi-1.us.uncletopia.com","port":27025,"enabled":true,"region":"us-central","cc":"us","latitude":41.881832,"longitude":-87.62318,"reserved":0,"last_update":"0001-01-01T00:00:00Z","name_a2s":"Uncletopia | Chicago | 2 | All Maps","protocol":17,"map":"pl_badwater","folder":"tf","game":"Team Fortress","app_id":440,"player_count":24,"max_players":24,"Bots":0,"server_type":"Dedicated","server_os":"Linux","password":true,"vac":true,"version":"7961495","steam_id":85568392924469985,"keywords":["nocrits","nodmgspread","payload","uncletopia"],"game_id":440,"stv_port":27026,"stv_name":"Uncletopia | Chicago | 2 | All Maps | STV","players":[{"user_id":686,"name":"sillylokisparkles","steam_id":76561198872251615,"connected_time":301000000000,"state":"active","ping":83},{"user_id":614,"name":"spire lft newcomer","steam_id":76561198367664346,"connected_time":3904000000000,"state":"active","ping":53},{"user_id":676,"name":"anonion","steam_id":76561198056477584,"connected_time":951000000000,"state":"active","ping":87},{"user_id":661,"name":"Naciwise","steam_id":76561198008459494,"connected_time":2061000000000,"state":"active","ping":72},{"user_id":623,"name":"TƎC","steam_id":76561198237180318,"connected_time":3188000000000,"state":"active","ping":67},{"user_id":683,"name":"rf","steam_id":76561198195359229,"connected_time":504000000000,"state":"active","ping":90},{"user_id":680,"name":"D-Girl Fights God","steam_id":76561198062937822,"connected_time":661000000000,"state":"active","ping":62},{"user_id":602,"name":"immoral man","steam_id":76561198129359862,"connected_time":4392000000000,"state":"active","ping":108},{"user_id":651,"name":"thai","steam_id":76561198052462287,"connected_time":2142000000000,"state":"active","ping":86},{"user_id":668,"name":"Erectnophobia","steam_id":76561198053743602,"connected_time":1959000000000,"state":"active","ping":55},{"user_id":621,"name":"Swishers","steam_id":76561198288294254,"connected_time":3369000000000,"state":"active","ping":71},{"user_id":675,"name":"appy","steam_id":76561198074357676,"connected_time":964000000000,"state":"active","ping":56},{"user_id":653,"name":"Viennetta","steam_id":76561198044088335,"connected_time":2138000000000,"state":"active","ping":80},{"user_id":681,"name":"Swifgz","steam_id":76561198162875756,"connected_time":560000000000,"state":"active","ping":66},{"user_id":618,"name":"troll","steam_id":76561198082680563,"connected_time":3721000000000,"state":"active","ping":59},{"user_id":624,"name":"elpful","steam_id":76561198189659530,"connected_time":3182000000000,"state":"active","ping":78},{"user_id":655,"name":"lil' Wayne","steam_id":76561198050136796,"connected_time":2129000000000,"state":"active","ping":90},{"user_id":678,"name":"[P-CAN] Un_Chevre","steam_id":76561198126700526,"connected_time":690000000000,"state":"active","ping":60},{"user_id":684,"name":"guy","steam_id":76561198079925551,"connected_time":485000000000,"state":"active","ping":71},{"user_id":677,"name":"no","steam_id":76561198248853140,"connected_time":857000000000,"state":"active","ping":53},{"user_id":685,"name":"☣ cat fock ☣","steam_id":76561198264641620,"connected_time":369000000000,"state":"active","ping":61},{"user_id":582,"name":"on my backup mouse","steam_id":76561198072179483,"connected_time":5768000000000,"state":"active","ping":92},{"user_id":682,"name":"Rudy","steam_id":76561198013456828,"connected_time":534000000000,"state":"active","ping":69},{"user_id":688,"name":"Neopyth","steam_id":76561198031868427,"connected_time":276000000000,"state":"active","ping":55}]},{"server_id":402,"name":"Uncletopia | Chicago | 3 | All Maps","name_short":"chi-3","host":"chi-1.us.uncletopia.com","port":27035,"enabled":true,"region":"us-central","cc":"us","latitude":41.881832,"longitude":-87.62318,"reserved":0,"last_update":"0001-01-01T00:00:00Z","name_a2s":"Uncletopia | Chicago | 3 | All Maps","protocol":17,"map":"pl_badwater","folder":"tf","game":"Team Fortress","app_id":440,"player_count":22,"max_players":24,"Bots":0,"server_type":"Dedicated","server_os":"Linux","password":true,"vac":true,"version":"7961495","steam_id":85568392924515191,"keywords":["nocrits","nodmgspread","payload","uncletopia"],"game_id":440,"stv_port":27036,"stv_name":"Uncletopia | Chicago | 3 | All Maps | STV","players":[{"user_id":245,"name":"Mick","steam_id":76561198972619900,"connected_time":3766000000000,"state":"active","ping":54},{"user_id":280,"name":"bobby  peanstalk","steam_id":76561198040495463,"connected_time":1756000000000,"state":"active","ping":45},{"user_id":297,"name":"MoonWolf","steam_id":76561198095735033,"connected_time":215000000000,"state":"active","ping":60},{"user_id":289,"name":"Warpy","steam_id":76561198055852599,"connected_time":1012000000000,"state":"active","ping":80},{"user_id":291,"name":"Buttfuck Armstrong","steam_id":76561198075547905,"connected_time":652000000000,"state":"active","ping":63},{"user_id":288,"name":"Blaze","steam_id":76561198043797702,"connected_time":1492000000000,"state":"active","ping":51},{"user_id":255,"name":"thecal","steam_id":76561198307893384,"connected_time":2949000000000,"state":"active","ping":61},{"user_id":239,"name":"Rx Auntie","steam_id":76561198051618393,"connected_time":4349000000000,"state":"active","ping":60},{"user_id":282,"name":"EvilMrPotoo ｡◕‿◕｡","steam_id":76561198012566870,"connected_time":1719000000000,"state":"active","ping":47},{"user_id":290,"name":"Gnaash","steam_id":76561198940657194,"connected_time":770000000000,"state":"active","ping":83},{"user_id":238,"name":"Butters495","steam_id":76561197998689042,"connected_time":4354000000000,"state":"active","ping":68},{"user_id":300,"name":"HOG         RIDER","steam_id":76561198040787741,"connected_time":13000000000,"state":"active","ping":79},{"user_id":292,"name":"Vaudeville Villain","steam_id":76561199212093339,"connected_time":652000000000,"state":"active","ping":66},{"user_id":301,"name":"Voodo133","steam_id":76561198042670351,"connected_time":9000000000,"state":"active","ping":92},{"user_id":299,"name":"ewp","steam_id":76561199148289271,"connected_time":54000000000,"state":"connecting","ping":99},{"user_id":249,"name":"bee","steam_id":76561198178015361,"connected_time":3453000000000,"state":"active","ping":45},{"user_id":294,"name":"big shumpert","steam_id":76561198057116531,"connected_time":613000000000,"state":"active","ping":50},{"user_id":295,"name":"dweamy","steam_id":76561198119181880,"connected_time":604000000000,"state":"active","ping":60},{"user_id":117,"name":"Rode hard, put away wet","steam_id":76561198062764039,"connected_time":12606000000000,"state":"active","ping":54},{"user_id":241,"name":"Javaris Jamar Javarison-Lamar","steam_id":76561198146951387,"connected_time":4335000000000,"state":"active","ping":62},{"user_id":195,"name":"cosmik","steam_id":76561198071193180,"connected_time":7592000000000,"state":"active","ping":83},{"user_id":278,"name":"Poo","steam_id":76561198265144507,"connected_time":1951000000000,"state":"active","ping":93}]},{"server_id":403,"name":"Uncletopia | Chicago | 4 | All Maps","name_short":"chi-4","host":"chi-1.us.uncletopia.com","port":27045,"enabled":true,"region":"us-central","cc":"us","latitude":41.881832,"longitude":-87.62318,"reserved":0,"last_update":"0001-01-01T00:00:00Z","name_a2s":"Uncletopia | Chicago | 4 | All Maps","protocol":17,"map":"cp_gorge","folder":"tf","game":"Team Fortress","app_id":440,"player_count":21,"max_players":24,"Bots":0,"server_type":"Dedicated","server_os":"Linux","password":true,"vac":true,"version":"7961495","steam_id":85568392924515193,"keywords":["cp","nocrits","nodmgspread","uncletopia"],"game_id":440,"stv_port":27046,"stv_name":"Uncletopia | Chicago | 4 | All Maps | STV","players":[{"user_id":274,"name":"Goldensliv","steam_id":76561198161673891,"connected_time":1447000000000,"state":"active","ping":90},{"user_id":211,"name":"Sprit ♥","steam_id":76561198268780781,"connected_time":5165000000000,"state":"active","ping":45},{"user_id":257,"name":"motherfucker 2.0","steam_id":76561198141189209,"connected_time":2996000000000,"state":"active","ping":60},{"user_id":284,"name":"itsPanzerPanda","steam_id":76561199441946346,"connected_time":1084000000000,"state":"active","ping":27},{"user_id":265,"name":"joddson63","steam_id":76561198124576125,"connected_time":2420000000000,"state":"active","ping":64},{"user_id":276,"name":"CCTV Camera","steam_id":76561198373692962,"connected_time":1299000000000,"state":"active","ping":43},{"user_id":266,"name":"Creeper Kart","steam_id":76561198354818622,"connected_time":2335000000000,"state":"active","ping":44},{"user_id":277,"name":"Ghost Kaisar","steam_id":76561198103629357,"connected_time":1270000000000,"state":"active","ping":60},{"user_id":273,"name":"TrashDargon","steam_id":76561198423900560,"connected_time":1546000000000,"state":"active","ping":54},{"user_id":278,"name":"Mikael_01","steam_id":76561199080253129,"connected_time":1256000000000,"state":"active","ping":167},{"user_id":285,"name":"Fightin Cow","steam_id":76561198080941486,"connected_time":899000000000,"state":"active","ping":66},{"user_id":263,"name":"error","steam_id":76561198160792857,"connected_time":2481000000000,"state":"active","ping":96},{"user_id":279,"name":"Hazeyboi","steam_id":76561198130687838,"connected_time":1233000000000,"state":"active","ping":86},{"user_id":280,"name":"Shrim","steam_id":76561198068455981,"connected_time":1208000000000,"state":"active","ping":72},{"user_id":260,"name":"SPYCHECK ME","steam_id":76561198980994364,"connected_time":2720000000000,"state":"active","ping":84},{"user_id":281,"name":"Malarkey","steam_id":76561198844473584,"connected_time":1202000000000,"state":"active","ping":50},{"user_id":283,"name":"AMistake","steam_id":76561199379196708,"connected_time":1179000000000,"state":"active","ping":51},{"user_id":253,"name":"Anstorner","steam_id":76561198274026015,"connected_time":3216000000000,"state":"active","ping":93},{"user_id":286,"name":"bumknifgkkwet","steam_id":76561199507590156,"connected_time":28000000000,"state":"active","ping":49},{"user_id":228,"name":"Harbor Seal","steam_id":76561198162631724,"connected_time":4695000000000,"state":"active","ping":60},{"user_id":262,"name":"suburban dude","steam_id":76561198044838901,"connected_time":2655000000000,"state":"active","ping":105}]},{"server_id":36,"name":"Uncletopia | Chicago | 5 | All Maps","name_short":"chi-5","host":"chi-2.us.uncletopia.com","port":27015,"enabled":true,"region":"us-central","cc":"us","latitude":41.881832,"longitude":-87.62318,"reserved":0,"last_update":"0001-01-01T00:00:00Z","name_a2s":"Uncletopia | Chicago | 5 | All Maps","protocol":17,"map":"pl_upward","folder":"tf","game":"Team Fortress","app_id":440,"player_count":22,"max_players":24,"Bots":0,"server_type":"Dedicated","server_os":"Linux","password":true,"vac":true,"version":"7961495","steam_id":85568392924866362,"keywords":["nocrits","nodmgspread","payload","uncletopia"],"game_id":440,"stv_port":27016,"stv_name":"Uncletopia | Chicago | 5 | All Maps | STV","players":[{"user_id":495,"name":"Uwu Micster","steam_id":76561198843890616,"connected_time":3473000000000,"state":"active","ping":83},{"user_id":524,"name":"Captain Crunch","steam_id":76561199141538581,"connected_time":183000000000,"state":"active","ping":104},{"user_id":519,"name":"The strongest ⑨ ball","steam_id":76561198126760743,"connected_time":352000000000,"state":"active","ping":75},{"user_id":476,"name":"Rick25","steam_id":76561198188461649,"connected_time":5404000000000,"state":"active","ping":119},{"user_id":521,"name":"Kick Down Door 6:00AM TUCK☃RO","steam_id":76561197976146738,"connected_time":213000000000,"state":"active","ping":76},{"user_id":485,"name":"Stoopnagle","steam_id":76561198011942560,"connected_time":4857000000000,"state":"active","ping":84},{"user_id":507,"name":"jras","steam_id":76561198159797901,"connected_time":2074000000000,"state":"active","ping":75},{"user_id":477,"name":"RIPeroni","steam_id":76561198156110590,"connected_time":5373000000000,"state":"active","ping":97},{"user_id":494,"name":"comet sooicidy","steam_id":76561198025173479,"connected_time":3513000000000,"state":"active","ping":88},{"user_id":522,"name":"Real","steam_id":76561198119315680,"connected_time":206000000000,"state":"active","ping":45},{"user_id":510,"name":"agless","steam_id":76561198045248344,"connected_time":1660000000000,"state":"active","ping":48},{"user_id":473,"name":"It's FoolMoon","steam_id":76561198153344375,"connected_time":5457000000000,"state":"active","ping":60},{"user_id":444,"name":"TonesMcGroans","steam_id":76561197996691606,"connected_time":7328000000000,"state":"active","ping":69},{"user_id":523,"name":"Haveltherock27","steam_id":76561199219844391,"connected_time":204000000000,"state":"active","ping":87},{"user_id":483,"name":"notdoxed","steam_id":76561197992591404,"connected_time":5259000000000,"state":"active","ping":51},{"user_id":512,"name":"Flowers","steam_id":76561198031669899,"connected_time":1639000000000,"state":"active","ping":76},{"user_id":501,"name":"The Grungler","steam_id":76561198126561438,"connected_time":3107000000000,"state":"active","ping":104},{"user_id":525,"name":"Strangelove","steam_id":76561198353773611,"connected_time":156000000000,"state":"active","ping":89},{"user_id":528,"name":"Bullwinkle J. Moose","steam_id":76561198075977196,"connected_time":94000000000,"state":"active","ping":78},{"user_id":518,"name":"AJTarcza","steam_id":76561198070800190,"connected_time":732000000000,"state":"active","ping":75},{"user_id":515,"name":"Sigmar Male","steam_id":76561198067584440,"connected_time":793000000000,"state":"active","ping":73},{"user_id":529,"name":"the flying spoon","steam_id":76561199039152146,"connected_time":89000000000,"state":"active","ping":76}]},{"server_id":37,"name":"Uncletopia | Chicago | 6 | All Maps","name_short":"chi-6","host":"chi-2.us.uncletopia.com","port":27025,"enabled":true,"region":"us-central","cc":"us","latitude":41.881832,"longitude":-87.62318,"reserved":0,"last_update":"0001-01-01T00:00:00Z","name_a2s":"Uncletopia | Chicago | 6 | All Maps","protocol":17,"map":"pl_thundermountain","folder":"tf","game":"Team Fortress","app_id":440,"player_count":24,"max_players":24,"Bots":0,"server_type":"Dedicated","server_os":"Linux","password":true,"vac":true,"version":"7961495","steam_id":85568392924866363,"keywords":["nocrits","nodmgspread","payload","uncletopia"],"game_id":440,"stv_port":27026,"stv_name":"Uncletopia | Chicago | 6 | All Maps | STV","players":[{"user_id":455,"name":"Epha","steam_id":76561198079379951,"connected_time":536000000000,"state":"active","ping":70},{"user_id":456,"name":"LogicGate","steam_id":76561199189481990,"connected_time":477000000000,"state":"active","ping":71},{"user_id":370,"name":"saucy jack","steam_id":76561198307012859,"connected_time":7840000000000,"state":"active","ping":60},{"user_id":457,"name":"Sammich","steam_id":76561198010543087,"connected_time":473000000000,"state":"active","ping":74},{"user_id":434,"name":"paisano","steam_id":76561198065575472,"connected_time":2004000000000,"state":"active","ping":63},{"user_id":458,"name":"dan","steam_id":76561197984998426,"connected_time":461000000000,"state":"active","ping":92},{"user_id":391,"name":"Grify","steam_id":76561198012292317,"connected_time":5962000000000,"state":"active","ping":75},{"user_id":467,"name":"Sicko Mode (Chris Pratt Cover)","steam_id":76561198315786174,"connected_time":178000000000,"state":"active","ping":78},{"user_id":435,"name":"REALLINUSJEWTIP.","steam_id":76561198056647983,"connected_time":1984000000000,"state":"active","ping":63},{"user_id":393,"name":"J O S H³²","steam_id":76561198122603779,"connected_time":5910000000000,"state":"active","ping":106},{"user_id":404,"name":"smash2tec","steam_id":76561199171564052,"connected_time":4030000000000,"state":"active","ping":79},{"user_id":460,"name":"Ninetees","steam_id":76561198119483989,"connected_time":416000000000,"state":"active","ping":74},{"user_id":461,"name":"Fatpoob","steam_id":76561198056730096,"connected_time":401000000000,"state":"active","ping":61},{"user_id":462,"name":"GnarlySheep","steam_id":76561198067288233,"connected_time":289000000000,"state":"active","ping":54},{"user_id":463,"name":"Jesse Bear","steam_id":76561198217075305,"connected_time":286000000000,"state":"active","ping":75},{"user_id":464,"name":"H0wlr","steam_id":76561198012332824,"connected_time":252000000000,"state":"active","ping":61},{"user_id":453,"name":"Kay ☭","steam_id":76561198353432576,"connected_time":847000000000,"state":"active","ping":75},{"user_id":465,"name":"BarrowBaron","steam_id":76561198013633236,"connected_time":251000000000,"state":"active","ping":61},{"user_id":466,"name":"Antwan","steam_id":76561198246200638,"connected_time":229000000000,"state":"active","ping":73},{"user_id":452,"name":"minecraft 2.0","steam_id":76561198391819120,"connected_time":917000000000,"state":"active","ping":369},{"user_id":469,"name":"elso","steam_id":76561198058209902,"connected_time":40000000000,"state":"active","ping":98},{"user_id":441,"name":"Lucy Lou!","steam_id":76561198078209088,"connected_time":1868000000000,"state":"active","ping":46},{"user_id":367,"name":"robot with human hair","steam_id":76561198018691308,"connected_time":8148000000000,"state":"active","ping":78},{"user_id":447,"name":"Ratlympics Gold Medalist","steam_id":76561198064981004,"connected_time":1758000000000,"state":"active","ping":56}]},{"server_id":38,"name":"Uncletopia | Chicago | 7 | Stopwatch","name_short":"chi-7","host":"chi-2.us.uncletopia.com","port":27035,"enabled":true,"region":"us-central","cc":"us","latitude":41.881832,"longitude":-87.62318,"reserved":0,"last_update":"0001-01-01T00:00:00Z","name_a2s":"Uncletopia | Chicago | 7 | Stopwatch","protocol":17,"map":"koth_lakeside_final","folder":"tf","game":"Team Fortress","app_id":440,"player_count":0,"max_players":24,"Bots":0,"server_type":"Dedicated","server_os":"Linux","password":true,"vac":true,"version":"7961495","steam_id":85568392924866364,"keywords":["cp","nocrits","nodmgspread","uncletopia"],"game_id":440,"stv_port":27036,"stv_name":"Uncletopia | Chicago | 7 | Stopwatch | STV","players":null},{"server_id":39,"name":"Uncletopia | Chicago | 8 | Community","name_short":"chi-8","host":"chi-2.us.uncletopia.com","port":27045,"enabled":true,"region":"us-central","cc":"us","latitude":41.881832,"longitude":-87.62318,"reserved":0,"last_update":"0001-01-01T00:00:00Z","name_a2s":"Uncletopia | Chicago | 8 | Community","protocol":17,"map":"workshop/koth_slaughter_rc1.ugc1712845210","folder":"tf","game":"Team Fortress","app_id":440,"player_count":0,"max_players":24,"Bots":0,"server_type":"Dedicated","server_os":"Linux","password":true,"vac":true,"version":"7961495","steam_id":85568392924866365,"keywords":["cp","nocrits","nodmgspread","uncletopia"],"game_id":440,"stv_port":27046,"stv_name":"Uncletopia | Chicago | 8 | Community | STV","players":null},{"server_id":8,"name":"Uncletopia | Dallas | 1 | All Maps","name_short":"dal-1","host":"dal-1.us.uncletopia.com","port":27015,"enabled":true,"region":"us-central","cc":"us","latitude":32.779167,"longitude":-96.80889,"reserved":0,"last_update":"0001-01-01T00:00:00Z","name_a2s":"Uncletopia | Dallas | 1 | All Maps","protocol":17,"map":"cp_mountainlab","folder":"tf","game":"Team Fortress","app_id":440,"player_count":24,"max_players":24,"Bots":0,"server_type":"Dedicated","server_os":"Linux","password":true,"vac":true,"version":"7961495","steam_id":85568392924469986,"keywords":["cp","nocrits","nodmgspread","uncletopia"],"game_id":440,"stv_port":27016,"stv_name":"Uncletopia | Dallas | 1 | All Maps | STV","players":[{"user_id":458,"name":"TheAsianMeatball","steam_id":76561198336926133,"connected_time":1929000000000,"state":"active","ping":56},{"user_id":367,"name":"SAGE(सगे*)","steam_id":76561198811114074,"connected_time":8808000000000,"state":"active","ping":57},{"user_id":470,"name":"what a fukkin","steam_id":76561198298442983,"connected_time":1207000000000,"state":"active","ping":90},{"user_id":463,"name":"everybody want to rule the worl","steam_id":76561198425503395,"connected_time":1489000000000,"state":"active","ping":39},{"user_id":459,"name":"Cat doin laundry","steam_id":76561198063895852,"connected_time":1873000000000,"state":"active","ping":53},{"user_id":472,"name":"Moonflower ✦","steam_id":76561198191782483,"connected_time":697000000000,"state":"active","ping":46},{"user_id":453,"name":"PowerGem3000","steam_id":76561198944644691,"connected_time":2179000000000,"state":"active","ping":156},{"user_id":376,"name":"Giselle","steam_id":76561198162593640,"connected_time":7771000000000,"state":"active","ping":98},{"user_id":478,"name":"Freddy Fazbear","steam_id":76561198272353440,"connected_time":106000000000,"state":"active","ping":43},{"user_id":468,"name":"Olimar","steam_id":76561197993812175,"connected_time":1461000000000,"state":"active","ping":45},{"user_id":397,"name":"CeLeb144","steam_id":76561199089907740,"connected_time":7069000000000,"state":"active","ping":61},{"user_id":437,"name":"Ikalpo","steam_id":76561198044686915,"connected_time":3759000000000,"state":"active","ping":105},{"user_id":443,"name":"Shuko","steam_id":76561197995563378,"connected_time":3081000000000,"state":"active","ping":81},{"user_id":466,"name":"Dent","steam_id":76561198304978514,"connected_time":1464000000000,"state":"active","ping":89},{"user_id":440,"name":"Bogey","steam_id":76561198096227944,"connected_time":3284000000000,"state":"active","ping":51},{"user_id":474,"name":"❤Niko_❤","steam_id":76561198136323319,"connected_time":331000000000,"state":"active","ping":59},{"user_id":475,"name":"Squagol","steam_id":76561197987486159,"connected_time":303000000000,"state":"active","ping":61},{"user_id":438,"name":"thetrustydoughnut","steam_id":76561198353445256,"connected_time":3484000000000,"state":"active","ping":106},{"user_id":479,"name":"Oldwest1234","steam_id":76561198079594993,"connected_time":2000000000,"state":"spawning","ping":84},{"user_id":420,"name":"TacoMan4Life","steam_id":76561198832562728,"connected_time":5334000000000,"state":"active","ping":85},{"user_id":406,"name":"ATLS1 | Strange Festive","steam_id":76561198050385093,"connected_time":6335000000000,"state":"active","ping":85},{"user_id":392,"name":"Λlxium","steam_id":76561198131272900,"connected_time":7317000000000,"state":"active","ping":83},{"user_id":408,"name":"VisciousPotato","steam_id":76561198992859414,"connected_time":6302000000000,"state":"active","ping":75},{"user_id":473,"name":"Kaclo4","steam_id":76561198126221662,"connected_time":684000000000,"state":"active","ping":71}]},{"server_id":108,"name":"Uncletopia | Dallas | 2 | All Maps","name_short":"dal-2","host":"dal-1.us.uncletopia.com","port":27025,"enabled":true,"region":"us-central","cc":"us","latitude":32.779167,"longitude":-96.80889,"reserved":0,"last_update":"0001-01-01T00:00:00Z","name_a2s":"Uncletopia | Dallas | 2 | All Maps","protocol":17,"map":"cp_snakewater_final1","folder":"tf","game":"Team Fortress","app_id":440,"player_count":24,"max_players":24,"Bots":0,"server_type":"Dedicated","server_os":"Linux","password":true,"vac":true,"version":"7961495","steam_id":85568392924469988,"keywords":["cp","nocrits","nodmgspread","uncletopia"],"game_id":440,"stv_port":27026,"stv_name":"Uncletopia | Dallas | 2 | All Maps | STV","players":[{"user_id":398,"name":"Agent Bowtie","steam_id":76561198175839279,"connected_time":506000000000,"state":"active","ping":49},{"user_id":388,"name":"Whompert","steam_id":76561198042939624,"connected_time":1025000000000,"state":"active","ping":74},{"user_id":407,"name":"Blue Sea","steam_id":76561198156077339,"connected_time":291000000000,"state":"active","ping":57},{"user_id":397,"name":"BB Lorexav","steam_id":76561198207565988,"connected_time":514000000000,"state":"active","ping":71},{"user_id":412,"name":"Some random dude","steam_id":76561199477705792,"connected_time":121000000000,"state":"active","ping":111},{"user_id":408,"name":"Karma","steam_id":76561198320530905,"connected_time":279000000000,"state":"active","ping":59},{"user_id":376,"name":"Eir","steam_id":76561198030245569,"connected_time":1700000000000,"state":"active","ping":88},{"user_id":377,"name":"Lynux","steam_id":76561198343651916,"connected_time":1685000000000,"state":"active","ping":149},{"user_id":394,"name":"DrSkizerz","steam_id":76561199192964063,"connected_time":610000000000,"state":"active","ping":42},{"user_id":357,"name":"Squiliam","steam_id":76561198025278006,"connected_time":3530000000000,"state":"active","ping":49},{"user_id":346,"name":"info","steam_id":76561198119354946,"connected_time":4544000000000,"state":"active","ping":165},{"user_id":413,"name":"Blue Eyes Ace Dragon.","steam_id":76561198048214237,"connected_time":73000000000,"state":"active","ping":83},{"user_id":399,"name":"Pie™","steam_id":76561198158312625,"connected_time":492000000000,"state":"active","ping":108},{"user_id":414,"name":"Sammich Slinger","steam_id":76561198007644532,"connected_time":71000000000,"state":"active","ping":65},{"user_id":416,"name":"Pontifex Maximus","steam_id":76561198060281192,"connected_time":5000000000,"state":"spawning","ping":51},{"user_id":400,"name":"Lain","steam_id":76561198029303534,"connected_time":487000000000,"state":"active","ping":70},{"user_id":404,"name":"Redguardowen","steam_id":76561198176957862,"connected_time":368000000000,"state":"active","ping":45},{"user_id":411,"name":"Glossophobial","steam_id":76561199013733143,"connected_time":202000000000,"state":"active","ping":103},{"user_id":410,"name":"TheColdChiliPepper","steam_id":76561199027155811,"connected_time":246000000000,"state":"active","ping":84},{"user_id":334,"name":"MakerRov","steam_id":76561198914108894,"connected_time":5324000000000,"state":"active","ping":80},{"user_id":393,"name":"Pupcubus","steam_id":76561198057986869,"connected_time":686000000000,"state":"active","ping":74},{"user_id":390,"name":"Grumby","steam_id":76561198149175262,"connected_time":978000000000,"state":"active","ping":46},{"user_id":307,"name":"Horse","steam_id":76561198004583631,"connected_time":7423000000000,"state":"active","ping":91},{"user_id":403,"name":"selarom | trade.tf |","steam_id":76561199069219350,"connected_time":451000000000,"state":"active","ping":34}]},{"server_id":404,"name":"Uncletopia | Dallas | 3 | All Maps","name_short":"dal-3","host":"dal-1.us.uncletopia.com","port":27035,"enabled":true,"region":"us-central","cc":"us","latitude":32.779167,"longitude":-96.80889,"reserved":0,"last_update":"0001-01-01T00:00:00Z","name_a2s":"Uncletopia | Dallas | 3 | All Maps","protocol":17,"map":"koth_cascade","folder":"tf","game":"Team Fortress","app_id":440,"player_count":0,"max_players":24,"Bots":0,"server_type":"Dedicated","server_os":"Linux","password":true,"vac":true,"version":"7961495","steam_id":85568392924515219,"keywords":["cp","nocrits","nodmgspread","uncletopia"],"game_id":440,"stv_port":27036,"stv_name":"Uncletopia | Dallas | 3 | All Maps | STV","players":null},{"server_id":405,"name":"Uncletopia | Dallas | 4 | Community","name_short":"dal-4","host":"dal-1.us.uncletopia.com","port":27045,"enabled":true,"region":"us-central","cc":"us","latitude":32.779167,"longitude":-96.80889,"reserved":0,"last_update":"0001-01-01T00:00:00Z","name_a2s":"Uncletopia | Dallas | 4 | Community","protocol":17,"map":"workshop/koth_ashville_final.ugc2130459942","folder":"tf","game":"Team Fortress","app_id":440,"player_count":0,"max_players":24,"Bots":0,"server_type":"Dedicated","server_os":"Linux","password":true,"vac":true,"version":"7961495","steam_id":85568392924515220,"keywords":["cp","nocrits","nodmgspread","uncletopia"],"game_id":440,"stv_port":27046,"stv_name":"Uncletopia | Dallas | 4 | Community | STV","players":null},{"server_id":5,"name":"Uncletopia | Frankfurt | 1 | All Maps","name_short":"frk-1","host":"frk-1.de.uncletopia.com","port":27015,"enabled":true,"region":"eu","cc":"de","latitude":50.110924,"longitude":8.682127,"reserved":0,"last_update":"0001-01-01T00:00:00Z","name_a2s":"Uncletopia | Frankfurt | 1 | All Maps","protocol":17,"map":"koth_viaduct","folder":"tf","game":"Team Fortress","app_id":440,"player_count":0,"max_players":24,"Bots":0,"server_type":"Dedicated","server_os":"Linux","password":true,"vac":true,"version":"7961495","steam_id":85568392924469989,"keywords":["cp","nocrits","nodmgspread","uncletopia"],"game_id":440,"stv_port":27016,"stv_name":"Uncletopia | Frankfurt | 1 | All Maps | STV","players":null},{"server_id":110,"name":"Uncletopia | Frankfurt | 2 | All Maps","name_short":"frk-2","host":"frk-1.de.uncletopia.com","port":27025,"enabled":true,"region":"eu","cc":"de","latitude":50.110924,"longitude":8.682127,"reserved":0,"last_update":"0001-01-01T00:00:00Z","name_a2s":"Uncletopia | Frankfurt | 2 | All Maps","protocol":17,"map":"pl_frontier_final","folder":"tf","game":"Team Fortress","app_id":440,"player_count":0,"max_players":24,"Bots":0,"server_type":"Dedicated","server_os":"Linux","password":true,"vac":true,"version":"7961495","steam_id":85568392924469990,"keywords":["nocrits","nodmgspread","payload","uncletopia"],"game_id":440,"stv_port":27026,"stv_name":"Uncletopia | Frankfurt | 2 | All Maps | STV","players":null},{"server_id":308,"name":"Uncletopia | Frankfurt | 3 | All Maps","name_short":"frk-3","host":"frk-1.de.uncletopia.com","port":27035,"enabled":true,"region":"eu","cc":"de","latitude":50.110924,"longitude":8.682127,"reserved":0,"last_update":"0001-01-01T00:00:00Z","name_a2s":"Uncletopia | Frankfurt | 3 | All Maps","protocol":17,"map":"koth_highpass","folder":"tf","game":"Team Fortress","app_id":440,"player_count":0,"max_players":24,"Bots":0,"server_type":"Dedicated","server_os":"Linux","password":true,"vac":true,"version":"7961495","steam_id":85568392924504274,"keywords":["cp","nocrits","nodmgspread","uncletopia"],"game_id":440,"stv_port":27036,"stv_name":"Uncletopia | Frankfurt | 3 | All Maps | STV","players":null},{"server_id":309,"name":"Uncletopia | Frankfurt | 4 | All Maps","name_short":"frk-4","host":"frk-1.de.uncletopia.com","port":27045,"enabled":true,"region":"eu","cc":"de","latitude":50.110924,"longitude":8.682127,"reserved":0,"last_update":"0001-01-01T00:00:00Z","name_a2s":"Uncletopia | Frankfurt | 4 | All Maps","protocol":17,"map":"pl_upward","folder":"tf","game":"Team Fortress","app_id":440,"player_count":0,"max_players":24,"Bots":0,"server_type":"Dedicated","server_os":"Linux","password":true,"vac":true,"version":"7961495","steam_id":85568392924504275,"keywords":["nocrits","nodmgspread","payload","uncletopia"],"game_id":440,"stv_port":27046,"stv_name":"Uncletopia | Frankfurt | 4 | All Maps | STV","players":null},{"server_id":310,"name":"Uncletopia | Frankfurt | 5 | All Maps","name_short":"frk-5","host":"frk-1.de.uncletopia.com","port":27055,"enabled":true,"region":"eu","cc":"de","latitude":50.110924,"longitude":8.682127,"reserved":0,"last_update":"0001-01-01T00:00:00Z","name_a2s":"Uncletopia | Frankfurt | 5 | All Maps","protocol":17,"map":"pl_snowycoast","folder":"tf","game":"Team Fortress","app_id":440,"player_count":0,"max_players":24,"Bots":0,"server_type":"Dedicated","server_os":"Linux","password":true,"vac":true,"version":"7961495","steam_id":85568392924504277,"keywords":["nocrits","nodmgspread","payload","uncletopia"],"game_id":440,"stv_port":27056,"stv_name":"Uncletopia | Frankfurt | 5 | All Maps | STV","players":null},{"server_id":311,"name":"Uncletopia | Frankfurt | 6 | All Maps","name_short":"frk-6","host":"frk-1.de.uncletopia.com","port":27065,"enabled":true,"region":"eu","cc":"de","latitude":50.110924,"longitude":8.682127,"reserved":0,"last_update":"0001-01-01T00:00:00Z","name_a2s":"Uncletopia | Frankfurt | 6 | All Maps","protocol":17,"map":"koth_cascade","folder":"tf","game":"Team Fortress","app_id":440,"player_count":0,"max_players":24,"Bots":0,"server_type":"Dedicated","server_os":"Linux","password":true,"vac":true,"version":"7961495","steam_id":85568392924504278,"keywords":["cp","nocrits","nodmgspread","uncletopia"],"game_id":440,"stv_port":27066,"stv_name":"Uncletopia | Frankfurt | 6 | All Maps | STV","players":null},{"server_id":23,"name":"Uncletopia | Frankfurt | 7 | Stopwatch","name_short":"frk-7","host":"frk-1.de.uncletopia.com","port":27075,"enabled":true,"region":"eu","cc":"de","latitude":50.110924,"longitude":8.682127,"reserved":0,"last_update":"0001-01-01T00:00:00Z","name_a2s":"Uncletopia | Frankfurt | 7 | Stopwatch","protocol":17,"map":"workshop/koth_clearcut_b15.ugc2107050255","folder":"tf","game":"Team Fortress","app_id":440,"player_count":0,"max_players":24,"Bots":0,"server_type":"Dedicated","server_os":"Linux","password":true,"vac":true,"version":"7961495","steam_id":85568392924742827,"keywords":["cp","nocrits","nodmgspread","uncletopia"],"game_id":440,"stv_port":27076,"stv_name":"Uncletopia | Frankfurt | 7 | Stopwatch | STV","players":null},{"server_id":24,"name":"Uncletopia | Frankfurt | 8 | Community","name_short":"frk-8","host":"frk-1.de.uncletopia.com","port":27085,"enabled":true,"region":"eu","cc":"de","latitude":50.110924,"longitude":8.682127,"reserved":0,"last_update":"0001-01-01T00:00:00Z","name_a2s":"Uncletopia | Frankfurt | 8 | Community","protocol":17,"map":"workshop/koth_jamram_rc1a.ugc2964065613","folder":"tf","game":"Team Fortress","app_id":440,"player_count":0,"max_players":24,"Bots":0,"server_type":"Dedicated","server_os":"Linux","password":true,"vac":true,"version":"7961495","steam_id":85568392924742828,"keywords":["cp","nocrits","nodmgspread","uncletopia"],"game_id":440,"stv_port":27086,"stv_name":"Uncletopia | Frankfurt | 8 | Community | STV","players":null},{"server_id":202,"name":"Uncletopia | Hong Kong | 1 | All Maps","name_short":"hgk-1","host":"hgk-1.hk.uncletopia.com","port":27015,"enabled":true,"region":"asia","cc":"hk","latitude":22.302711,"longitude":114.177216,"reserved":0,"last_update":"0001-01-01T00:00:00Z","name_a2s":"Uncletopia | Hong Kong | 1 | All Maps","protocol":17,"map":"cp_gravelpit","folder":"tf","game":"Team Fortress","app_id":440,"player_count":2,"max_players":24,"Bots":0,"server_type":"Dedicated","server_os":"Linux","password":true,"vac":true,"version":"7961495","steam_id":85568392924494504,"keywords":["cp","nocrits","nodmgspread","uncletopia"],"game_id":440,"stv_port":27016,"stv_name":"Uncletopia | Hong Kong | 1 | All Maps | STV","players":[{"user_id":8,"name":"Sex Defender","steam_id":76561199481967063,"connected_time":930000000000,"state":"active","ping":73},{"user_id":9,"name":"coakDeLera","steam_id":76561199262817512,"connected_time":12000000000,"state":"spawning","ping":59}]},{"server_id":1,"name":"Uncletopia | Los Angeles | 1 | All Maps","name_short":"lax-1","host":"lax-1.us.uncletopia.com","port":27015,"enabled":true,"region":"us-west","cc":"us","latitude":33.94279,"longitude":-118.41004,"reserved":0,"last_update":"0001-01-01T00:00:00Z","name_a2s":"Uncletopia | Los Angeles | 1 | All Maps","protocol":17,"map":"pl_swiftwater_final1","folder":"tf","game":"Team Fortress","app_id":440,"player_count":24,"max_players":24,"Bots":0,"server_type":"Dedicated","server_os":"Linux","password":true,"vac":true,"version":"7961495","steam_id":85568392924469991,"keywords":["nocrits","nodmgspread","payload","uncletopia"],"game_id":440,"stv_port":27016,"stv_name":"Uncletopia | Los Angeles | 1 | All Maps | STV","players":[{"user_id":193,"name":"JohnFMX","steam_id":76561198175608097,"connected_time":847000000000,"state":"active","ping":91},{"user_id":170,"name":"Fehr","steam_id":76561198037749723,"connected_time":1948000000000,"state":"active","ping":79},{"user_id":171,"name":"Kazoo","steam_id":76561199229748300,"connected_time":1908000000000,"state":"active","ping":43},{"user_id":190,"name":"eipi","steam_id":76561199084492097,"connected_time":1064000000000,"state":"active","ping":138},{"user_id":195,"name":"lucky＊","steam_id":76561199175972510,"connected_time":832000000000,"state":"active","ping":103},{"user_id":161,"name":"exx","steam_id":76561198090552145,"connected_time":3437000000000,"state":"active","ping":46},{"user_id":184,"name":"rhsiegetank","steam_id":76561198359829118,"connected_time":1335000000000,"state":"active","ping":45},{"user_id":149,"name":"Seshreb","steam_id":76561198846614634,"connected_time":4175000000000,"state":"active","ping":64},{"user_id":187,"name":"Ian","steam_id":76561198159334435,"connected_time":1218000000000,"state":"active","ping":165},{"user_id":204,"name":"水","steam_id":76561198800794550,"connected_time":54000000000,"state":"active","ping":49},{"user_id":115,"name":"cielael","steam_id":76561198043971956,"connected_time":6344000000000,"state":"active","ping":46},{"user_id":159,"name":"Cacophony","steam_id":76561198047474050,"connected_time":3578000000000,"state":"active","ping":45},{"user_id":198,"name":"estrodollvalory","steam_id":76561198131833567,"connected_time":501000000000,"state":"active","ping":63},{"user_id":188,"name":"Reem0h","steam_id":76561198169848690,"connected_time":1160000000000,"state":"active","ping":110},{"user_id":163,"name":"LX-24","steam_id":76561198016168993,"connected_time":2965000000000,"state":"active","ping":80},{"user_id":108,"name":"Cigarette Fish","steam_id":76561199086973797,"connected_time":6890000000000,"state":"active","ping":90},{"user_id":189,"name":"heck","steam_id":76561198315694520,"connected_time":1100000000000,"state":"active","ping":46},{"user_id":201,"name":"WyattSucks","steam_id":76561198108112630,"connected_time":194000000000,"state":"active","ping":119},{"user_id":167,"name":"Joolius","steam_id":76561198004148385,"connected_time":2199000000000,"state":"active","ping":116},{"user_id":175,"name":"bcizzo","steam_id":76561197994399953,"connected_time":1740000000000,"state":"active","ping":57},{"user_id":157,"name":"Cheeba","steam_id":76561198319781238,"connected_time":3926000000000,"state":"active","ping":69},{"user_id":197,"name":"RIPFranklin","steam_id":76561198404566367,"connected_time":807000000000,"state":"active","ping":63},{"user_id":192,"name":"Goomba gaming","steam_id":76561199470354045,"connected_time":897000000000,"state":"active","ping":107},{"user_id":202,"name":"1masternew","steam_id":76561198077506280,"connected_time":191000000000,"state":"active","ping":52}]},{"server_id":112,"name":"Uncletopia | Los Angeles | 2 | All Maps","name_short":"lax-2","host":"lax-1.us.uncletopia.com","port":27025,"enabled":true,"region":"us-west","cc":"us","latitude":33.94279,"longitude":-118.41004,"reserved":0,"last_update":"0001-01-01T00:00:00Z","name_a2s":"Uncletopia | Los Angeles | 2 | All Maps","protocol":17,"map":"pl_frontier_final","folder":"tf","game":"Team Fortress","app_id":440,"player_count":24,"max_players":24,"Bots":0,"server_type":"Dedicated","server_os":"Linux","password":true,"vac":true,"version":"7961495","steam_id":85568392924469992,"keywords":["nocrits","nodmgspread","payload","uncletopia"],"game_id":440,"stv_port":27026,"stv_name":"Uncletopia | Los Angeles | 2 | All Maps | STV","players":[{"user_id":71,"name":"Rum Pirate","steam_id":76561198195844129,"connected_time":1097000000000,"state":"active","ping":52},{"user_id":93,"name":"ono","steam_id":76561198024377986,"connected_time":464000000000,"state":"active","ping":75},{"user_id":98,"name":"Krysar","steam_id":76561198202077555,"connected_time":405000000000,"state":"active","ping":102},{"user_id":99,"name":"KickButtNess","steam_id":76561198093986236,"connected_time":396000000000,"state":"active","ping":46},{"user_id":78,"name":"ronald","steam_id":76561197960691622,"connected_time":860000000000,"state":"active","ping":61},{"user_id":57,"name":"sleepy","steam_id":76561198255015060,"connected_time":1401000000000,"state":"active","ping":45},{"user_id":29,"name":"ena - d","steam_id":76561198072329335,"connected_time":2574000000000,"state":"active","ping":102},{"user_id":30,"name":"drank baby","steam_id":76561199483723843,"connected_time":2485000000000,"state":"active","ping":55},{"user_id":100,"name":"Person Man","steam_id":76561198293857963,"connected_time":277000000000,"state":"active","ping":54},{"user_id":90,"name":"jdm","steam_id":76561199497603020,"connected_time":505000000000,"state":"active","ping":47},{"user_id":96,"name":"Khrono691","steam_id":76561198246227600,"connected_time":448000000000,"state":"active","ping":46},{"user_id":79,"name":"HopeTheNeko","steam_id":76561199159285465,"connected_time":836000000000,"state":"active","ping":42},{"user_id":68,"name":"ronald_stackerusa55","steam_id":76561198150406851,"connected_time":1169000000000,"state":"active","ping":51},{"user_id":59,"name":"Fruity","steam_id":76561198999674564,"connected_time":1375000000000,"state":"active","ping":87},{"user_id":94,"name":"[Bandit]","steam_id":76561197986919852,"connected_time":463000000000,"state":"active","ping":76},{"user_id":44,"name":"bobtheninjaman","steam_id":76561198066424544,"connected_time":1824000000000,"state":"active","ping":64},{"user_id":97,"name":"Five","steam_id":76561198026640473,"connected_time":430000000000,"state":"active","ping":60},{"user_id":92,"name":"celestia ludenberg","steam_id":76561199196437823,"connected_time":481000000000,"state":"active","ping":60},{"user_id":72,"name":"Dr3gyn0","steam_id":76561199081910939,"connected_time":1040000000000,"state":"active","ping":109},{"user_id":48,"name":"DonByan","steam_id":76561198319090131,"connected_time":1702000000000,"state":"active","ping":85},{"user_id":95,"name":"goopgrabber","steam_id":76561199029951083,"connected_time":458000000000,"state":"active","ping":54},{"user_id":61,"name":"fartpoison","steam_id":76561198060561078,"connected_time":1287000000000,"state":"active","ping":66},{"user_id":56,"name":"iRB","steam_id":76561198111080055,"connected_time":1491000000000,"state":"active","ping":73},{"user_id":101,"name":"mcdonald's cashier","steam_id":76561198064631164,"connected_time":42000000000,"state":"active","ping":52}]},{"server_id":324,"name":"Uncletopia | Los Angeles | 3 | All Maps","name_short":"lax-3","host":"lax-1.us.uncletopia.com","port":27035,"enabled":true,"region":"us-west","cc":"us","latitude":33.94279,"longitude":-118.41004,"reserved":0,"last_update":"0001-01-01T00:00:00Z","name_a2s":"Uncletopia | Los Angeles | 3 | All Maps","protocol":17,"map":"koth_cascade","folder":"tf","game":"Team Fortress","app_id":440,"player_count":1,"max_players":24,"Bots":0,"server_type":"Dedicated","server_os":"Linux","password":true,"vac":true,"version":"7961495","steam_id":85568392924510198,"keywords":["cp","nocrits","nodmgspread","uncletopia"],"game_id":440,"stv_port":27036,"stv_name":"Uncletopia | Los Angeles | 3 | All Maps | STV","players":[{"user_id":26,"name":"Cemeterygirl19","steam_id":76561198364425861,"connected_time":26000000000,"state":"active","ping":41}]},{"server_id":25,"name":"Uncletopia | Los Angeles | 4 | Stopwatch","name_short":"lax-4","host":"lax-1.us.uncletopia.com","port":27045,"enabled":true,"region":"us-west","cc":"us","latitude":33.94279,"longitude":-118.41004,"reserved":0,"last_update":"0001-01-01T00:00:00Z","name_a2s":"Uncletopia | Los Angeles | 4 | Stopwatch","protocol":17,"map":"workshop/koth_jamram_rc1a.ugc2964065613","folder":"tf","game":"Team Fortress","app_id":440,"player_count":0,"max_players":24,"Bots":0,"server_type":"Dedicated","server_os":"Linux","password":true,"vac":true,"version":"7961495","steam_id":85568392924510199,"keywords":["cp","nocrits","nodmgspread","uncletopia"],"game_id":440,"stv_port":27046,"stv_name":"Uncletopia | Los Angeles | 4 | Stopwatch | STV","players":null},{"server_id":11,"name":"Uncletopia | London | 1 | All Maps","name_short":"lon-1","host":"lon-1.uk.uncletopia.com","port":27015,"enabled":true,"region":"eu","cc":"gb","latitude":51.509865,"longitude":-0.118092,"reserved":0,"last_update":"0001-01-01T00:00:00Z","name_a2s":"Uncletopia | London | 1 | All Maps","protocol":17,"map":"pl_swiftwater_final1","folder":"tf","game":"Team Fortress","app_id":440,"player_count":24,"max_players":24,"Bots":0,"server_type":"Dedicated","server_os":"Linux","password":true,"vac":true,"version":"7961495","steam_id":85568392924367362,"keywords":["nocrits","nodmgspread","payload","uncletopia"],"game_id":440,"stv_port":27016,"stv_name":"Uncletopia | London | 1 | All Maps | STV","players":[{"user_id":766,"name":"George W Bush","steam_id":76561198846784757,"connected_time":4876000000000,"state":"active","ping":45},{"user_id":610,"name":"BreadBubbles","steam_id":76561198174332826,"connected_time":19341000000000,"state":"active","ping":59},{"user_id":796,"name":"Visphiric - All Muted","steam_id":76561198071938027,"connected_time":1239000000000,"state":"active","ping":40},{"user_id":798,"name":"SaydGover","steam_id":76561199062433944,"connected_time":866000000000,"state":"active","ping":136},{"user_id":747,"name":"Marquis de Hoto","steam_id":76561198080687708,"connected_time":7490000000000,"state":"active","ping":60},{"user_id":757,"name":"Steen","steam_id":76561198122992510,"connected_time":6689000000000,"state":"active","ping":52},{"user_id":804,"name":"SoupTime","steam_id":76561199178018465,"connected_time":157000000000,"state":"active","ping":62},{"user_id":795,"name":"co","steam_id":76561198188225497,"connected_time":1258000000000,"state":"active","ping":62},{"user_id":802,"name":"mario schifano","steam_id":76561198038748489,"connected_time":492000000000,"state":"active","ping":72},{"user_id":807,"name":"Minimi","steam_id":76561198873850443,"connected_time":43000000000,"state":"active","ping":44},{"user_id":767,"name":"Meannaise","steam_id":76561198353496134,"connected_time":4849000000000,"state":"active","ping":59},{"user_id":768,"name":"⛧ AlphaSatanOmega ⛧","steam_id":76561198035125511,"connected_time":4810000000000,"state":"active","ping":123},{"user_id":687,"name":"beebo","steam_id":76561199120277007,"connected_time":11405000000000,"state":"active","ping":41},{"user_id":774,"name":"chillrend_morphs_high_lod6","steam_id":76561198452963141,"connected_time":4519000000000,"state":"active","ping":89},{"user_id":777,"name":"Taste","steam_id":76561197994506978,"connected_time":3968000000000,"state":"active","ping":53},{"user_id":775,"name":"Nomakh","steam_id":76561198096414653,"connected_time":4515000000000,"state":"active","ping":89},{"user_id":790,"name":"FarisKO","steam_id":76561198259234555,"connected_time":2255000000000,"state":"active","ping":148},{"user_id":791,"name":"Toesd","steam_id":76561198204887501,"connected_time":2248000000000,"state":"active","ping":156},{"user_id":794,"name":"44Ejkej77","steam_id":76561198117717593,"connected_time":1450000000000,"state":"active","ping":61},{"user_id":787,"name":"Andrew Taste","steam_id":76561199267543998,"connected_time":2876000000000,"state":"active","ping":64},{"user_id":779,"name":"BlueBlueFox","steam_id":76561198053817230,"connected_time":3905000000000,"state":"active","ping":76},{"user_id":772,"name":"AlexLordFire","steam_id":76561198328609815,"connected_time":4666000000000,"state":"active","ping":40},{"user_id":788,"name":"SuntanPikachu","steam_id":76561198121242476,"connected_time":2767000000000,"state":"active","ping":34},{"user_id":800,"name":"Seal","steam_id":76561198244988552,"connected_time":794000000000,"state":"active","ping":72}]},{"server_id":114,"name":"Uncletopia | London | 2 | All Maps","name_short":"lon-2","host":"lon-1.uk.uncletopia.com","port":27025,"enabled":true,"region":"eu","cc":"gb","latitude":51.509865,"longitude":-0.118092,"reserved":0,"last_update":"0001-01-01T00:00:00Z","name_a2s":"Uncletopia | London | 2 | All Maps","protocol":17,"map":"koth_harvest_final","folder":"tf","game":"Team Fortress","app_id":440,"player_count":23,"max_players":24,"Bots":0,"server_type":"Dedicated","server_os":"Linux","password":true,"vac":true,"version":"7961495","steam_id":85568392924470941,"keywords":["cp","nocrits","nodmgspread","uncletopia"],"game_id":440,"stv_port":27026,"stv_name":"Uncletopia | London | 2 | All Maps | STV","players":[{"user_id":680,"name":"Houwska","steam_id":76561198269659028,"connected_time":266000000000,"state":"active","ping":68},{"user_id":651,"name":"vlad","steam_id":76561198325405090,"connected_time":1688000000000,"state":"active","ping":60},{"user_id":668,"name":":)","steam_id":76561198043201482,"connected_time":827000000000,"state":"active","ping":86},{"user_id":663,"name":"{dogs}კობა77koba77[ASS]","steam_id":76561198154218182,"connected_time":1135000000000,"state":"active","ping":44},{"user_id":665,"name":"Milky","steam_id":76561198118989249,"connected_time":1080000000000,"state":"active","ping":57},{"user_id":650,"name":"Vitun Jonne","steam_id":76561198401737380,"connected_time":1712000000000,"state":"active","ping":63},{"user_id":681,"name":"Sabour","steam_id":76561197963965445,"connected_time":262000000000,"state":"active","ping":57},{"user_id":684,"name":"QuestionMark","steam_id":76561198976108019,"connected_time":181000000000,"state":"active","ping":148},{"user_id":677,"name":"Cold Heart","steam_id":76561198109838745,"connected_time":489000000000,"state":"active","ping":58},{"user_id":683,"name":"Awesome possum","steam_id":76561198082168552,"connected_time":204000000000,"state":"active","ping":60},{"user_id":682,"name":"Kenny Savage","steam_id":76561199049383900,"connected_time":251000000000,"state":"active","ping":74},{"user_id":670,"name":"Doctor Marijuana","steam_id":76561198288289879,"connected_time":759000000000,"state":"active","ping":47},{"user_id":685,"name":"Moonkey","steam_id":76561199013741389,"connected_time":175000000000,"state":"active","ping":118},{"user_id":671,"name":"Peat","steam_id":76561197992168067,"connected_time":724000000000,"state":"active","ping":69},{"user_id":690,"name":"LJ","steam_id":76561198026723805,"connected_time":32000000000,"state":"active","ping":59},{"user_id":622,"name":"Royal","steam_id":76561198157621024,"connected_time":3811000000000,"state":"active","ping":42},{"user_id":674,"name":"CumbustiblePunda","steam_id":76561197974274677,"connected_time":586000000000,"state":"active","ping":59},{"user_id":675,"name":"Psyche","steam_id":76561198091662001,"connected_time":576000000000,"state":"active","ping":31},{"user_id":678,"name":"ZERO ONE","steam_id":76561198043939280,"connected_time":320000000000,"state":"active","ping":40},{"user_id":679,"name":"Penis Contortionist","steam_id":76561198073663784,"connected_time":291000000000,"state":"active","ping":33},{"user_id":686,"name":"vS_Cesalex","steam_id":76561198136185189,"connected_time":164000000000,"state":"active","ping":63},{"user_id":687,"name":"sekondchance","steam_id":76561198435488590,"connected_time":128000000000,"state":"active","ping":123},{"user_id":688,"name":"Burbie","steam_id":76561198046069449,"connected_time":125000000000,"state":"active","ping":60}]},{"server_id":320,"name":"Uncletopia | London | 3 | All Maps","name_short":"lon-3","host":"lon-1.uk.uncletopia.com","port":27035,"enabled":true,"region":"eu","cc":"gb","latitude":51.509865,"longitude":-0.118092,"reserved":0,"last_update":"0001-01-01T00:00:00Z","name_a2s":"Uncletopia | London | 3 | All Maps","protocol":17,"map":"koth_harvest_final","folder":"tf","game":"Team Fortress","app_id":440,"player_count":5,"max_players":24,"Bots":0,"server_type":"Dedicated","server_os":"Linux","password":true,"vac":true,"version":"7961495","steam_id":85568392924510192,"keywords":["cp","nocrits","nodmgspread","uncletopia"],"game_id":440,"stv_port":27036,"stv_name":"Uncletopia | London | 3 | All Maps | STV","players":[{"user_id":223,"name":"☛☚","steam_id":76561199154193088,"connected_time":1188000000000,"state":"active","ping":66},{"user_id":224,"name":"Spligbo","steam_id":76561198412491145,"connected_time":1177000000000,"state":"active","ping":98},{"user_id":225,"name":"cool guy","steam_id":76561199244543995,"connected_time":1123000000000,"state":"active","ping":62},{"user_id":226,"name":"+==[:::::::::::::::::::::::\u003e","steam_id":76561199051212534,"connected_time":321000000000,"state":"active","ping":121},{"user_id":227,"name":"Labracababrador","steam_id":76561198255280285,"connected_time":62000000000,"state":"active","ping":46}]},{"server_id":321,"name":"Uncletopia | London | 4 | All Maps","name_short":"lon-4","host":"lon-1.uk.uncletopia.com","port":27045,"enabled":true,"region":"eu","cc":"gb","latitude":51.509865,"longitude":-0.118092,"reserved":0,"last_update":"0001-01-01T00:00:00Z","name_a2s":"Uncletopia | London | 4 | All Maps","protocol":17,"map":"cp_dustbowl","folder":"tf","game":"Team Fortress","app_id":440,"player_count":0,"max_players":24,"Bots":0,"server_type":"Dedicated","server_os":"Linux","password":true,"vac":true,"version":"7961495","steam_id":85568392924510193,"keywords":["cp","nocrits","nodmgspread","uncletopia"],"game_id":440,"stv_port":27046,"stv_name":"Uncletopia | London | 4 | All Maps | STV","players":null},{"server_id":21,"name":"Uncletopia | London | 5 | All Maps","name_short":"lon-5","host":"lon-1.uk.uncletopia.com","port":27055,"enabled":true,"region":"eu","cc":"gb","latitude":51.509865,"longitude":-0.118092,"reserved":0,"last_update":"0001-01-01T00:00:00Z","name_a2s":"Uncletopia | London | 5 | All Maps","protocol":17,"map":"koth_highpass","folder":"tf","game":"Team Fortress","app_id":440,"player_count":0,"max_players":24,"Bots":0,"server_type":"Dedicated","server_os":"Linux","password":true,"vac":true,"version":"7961495","steam_id":85568392924742829,"keywords":["cp","nocrits","nodmgspread","uncletopia"],"game_id":440,"stv_port":27056,"stv_name":"Uncletopia | London | 5 | All Maps | STV","players":null},{"server_id":22,"name":"Uncletopia | London | 6 | All Maps","name_short":"lon-6","host":"lon-1.uk.uncletopia.com","port":27065,"enabled":true,"region":"eu","cc":"gb","latitude":51.509865,"longitude":-0.118092,"reserved":0,"last_update":"0001-01-01T00:00:00Z","name_a2s":"Uncletopia | London | 6 | All Maps","protocol":17,"map":"cp_sunshine","folder":"tf","game":"Team Fortress","app_id":440,"player_count":0,"max_players":24,"Bots":0,"server_type":"Dedicated","server_os":"Linux","password":true,"vac":true,"version":"7961495","steam_id":85568392924742830,"keywords":["cp","nocrits","nodmgspread","uncletopia"],"game_id":440,"stv_port":27066,"stv_name":"Uncletopia | London | 6 | All Maps | STV","players":null},{"server_id":40,"name":"Uncletopia | London | 7 | Stopwatch","name_short":"lon-7","host":"lon-1.uk.uncletopia.com","port":27075,"enabled":true,"region":"eu","cc":"gb","latitude":51.509865,"longitude":-0.118092,"reserved":0,"last_update":"0001-01-01T00:00:00Z","name_a2s":"Uncletopia | London | 7 | Stopwatch","protocol":17,"map":"workshop/koth_jamram_rc1a.ugc2964065613","folder":"tf","game":"Team Fortress","app_id":440,"player_count":0,"max_players":24,"Bots":0,"server_type":"Dedicated","server_os":"Linux","password":true,"vac":true,"version":"7961495","steam_id":85568392924964314,"keywords":["cp","nocrits","nodmgspread","uncletopia"],"game_id":440,"stv_port":27076,"stv_name":"Uncletopia | London | 7 | Stopwatch | STV","players":null},{"server_id":41,"name":"Uncletopia | London | 8 | Community","name_short":"lon-8","host":"lon-1.uk.uncletopia.com","port":27085,"enabled":true,"region":"eu","cc":"gb","latitude":51.509865,"longitude":-0.118092,"reserved":0,"last_update":"0001-01-01T00:00:00Z","name_a2s":"Uncletopia | London | 8 | Community","protocol":17,"map":"workshop/koth_synthetic_rc6a.ugc1549817316","folder":"tf","game":"Team Fortress","app_id":440,"player_count":0,"max_players":24,"Bots":0,"server_type":"Dedicated","server_os":"Linux","password":true,"vac":true,"version":"7961495","steam_id":85568392924964315,"keywords":["cp","nocrits","nodmgspread","uncletopia"],"game_id":440,"stv_port":27086,"stv_name":"Uncletopia | London | 8 | Community | STV","players":null},{"server_id":300,"name":"Uncletopia | Montréal | 1 | One Thousand Uncles","name_short":"mtl-1","host":"mtl-1.ca.uncletopia.com","port":27015,"enabled":true,"region":"us-east","cc":"ca","latitude":45.50889,"longitude":-73.56167,"reserved":0,"last_update":"0001-01-01T00:00:00Z","name_a2s":"Uncletopia | Montréal | 1 | One Thousand Uncles","protocol":17,"map":"cp_dustbowl","folder":"tf","game":"Team Fortress","app_id":440,"player_count":19,"max_players":32,"Bots":16,"server_type":"Dedicated","server_os":"Linux","password":true,"vac":true,"version":"7961495","steam_id":85568392924500087,"keywords":["alltalk","bots","cp","danepve","increased_maxplayers","norespawntime","uncletopia"],"game_id":440,"stv_port":0,"stv_name":"","players":[{"user_id":160,"name":"Grand Wizard","steam_id":76561199382783363,"connected_time":1611000000000,"state":"active","ping":68},{"user_id":177,"name":"Robert Nutbar","steam_id":76561198062334757,"connected_time":1144000000000,"state":"active","ping":61},{"user_id":178,"name":"lord loboxtgamer","steam_id":76561198878084116,"connected_time":62000000000,"state":"spawning","ping":189}]},{"server_id":301,"name":"Uncletopia | Montréal | 2 | One Thousand Uncles","name_short":"mtl-2","host":"mtl-1.ca.uncletopia.com","port":27025,"enabled":true,"region":"us-east","cc":"ca","latitude":45.50889,"longitude":-73.56167,"reserved":0,"last_update":"0001-01-01T00:00:00Z","name_a2s":"Uncletopia | Montréal | 2 | One Thousand Uncles","protocol":17,"map":"pl_chilly","folder":"tf","game":"Team Fortress","app_id":440,"player_count":0,"max_players":32,"Bots":0,"server_type":"Dedicated","server_os":"Linux","password":true,"vac":true,"version":"7961495","steam_id":85568392924500088,"keywords":["alltalk","danepve","increased_maxplayers","norespawntime","payload","uncletopia"],"game_id":440,"stv_port":0,"stv_name":"","players":null},{"server_id":302,"name":"Uncletopia | Montréal | 3 | One Thousand Uncles","name_short":"mtl-3","host":"mtl-1.ca.uncletopia.com","port":27035,"enabled":true,"region":"us-east","cc":"ca","latitude":45.50889,"longitude":-73.56167,"reserved":0,"last_update":"0001-01-01T00:00:00Z","name_a2s":"Uncletopia | Montréal | 3 | One Thousand Uncles","protocol":17,"map":"cp_dustbowl","folder":"tf","game":"Team Fortress","app_id":440,"player_count":24,"max_players":32,"Bots":16,"server_type":"Dedicated","server_os":"Linux","password":true,"vac":true,"version":"7961495","steam_id":85568392924500089,"keywords":["alltalk","bots","cp","danepve","increased_maxplayers","norespawntime","uncletopia"],"game_id":440,"stv_port":0,"stv_name":"","players":[{"user_id":277,"name":"Hot Cheese Sundae","steam_id":76561198061189527,"connected_time":2144000000000,"state":"active","ping":76},{"user_id":281,"name":"devolutelize","steam_id":76561198017273995,"connected_time":1030000000000,"state":"active","ping":134},{"user_id":283,"name":"Cat","steam_id":76561198132362099,"connected_time":3000000000,"state":"spawning","ping":137},{"user_id":279,"name":"Chilli","steam_id":76561199229885599,"connected_time":1694000000000,"state":"active","ping":67},{"user_id":269,"name":"ZharMeny","steam_id":76561199086841610,"connected_time":2691000000000,"state":"active","ping":201},{"user_id":280,"name":"Aid3n","steam_id":76561198871110240,"connected_time":1107000000000,"state":"active","ping":91},{"user_id":282,"name":"Joshu!","steam_id":76561198256467518,"connected_time":782000000000,"state":"active","ping":146},{"user_id":273,"name":"DoggyDogWhirl","steam_id":76561198042841344,"connected_time":2474000000000,"state":"active","ping":62}]},{"server_id":13,"name":"Uncletopia | New York City | 1 | All Maps","name_short":"nyc-1","host":"nyc-1.us.uncletopia.com","port":27015,"enabled":true,"region":"us-east","cc":"us","latitude":40.73061,"longitude":-73.93524,"reserved":0,"last_update":"0001-01-01T00:00:00Z","name_a2s":"Uncletopia | New York City | 1 | All Maps","protocol":17,"map":"cp_dustbowl","folder":"tf","game":"Team Fortress","app_id":440,"player_count":24,"max_players":24,"Bots":0,"server_type":"Dedicated","server_os":"Linux","password":true,"vac":true,"version":"7961495","steam_id":85568392924469993,"keywords":["cp","nocrits","nodmgspread","uncletopia"],"game_id":440,"stv_port":27016,"stv_name":"Uncletopia | New York City | 1 | All Maps | STV","players":[{"user_id":211,"name":"canadian birds","steam_id":76561198059466588,"connected_time":3651000000000,"state":"active","ping":50},{"user_id":249,"name":"Syphal","steam_id":76561198149093386,"connected_time":76000000000,"state":"active","ping":47},{"user_id":242,"name":"Burnside Special","steam_id":76561198822221762,"connected_time":717000000000,"state":"active","ping":76},{"user_id":236,"name":"ThatOneKaiser","steam_id":76561198799231254,"connected_time":961000000000,"state":"active","ping":59},{"user_id":216,"name":"Lord_HoboJo","steam_id":76561198039800002,"connected_time":3019000000000,"state":"active","ping":52},{"user_id":233,"name":"Leon The Unprofessional","steam_id":76561198018408668,"connected_time":1508000000000,"state":"active","ping":78},{"user_id":239,"name":"onkyokei","steam_id":76561198206177593,"connected_time":793000000000,"state":"active","ping":120},{"user_id":246,"name":"TTV/YT hunter","steam_id":76561198115812405,"connected_time":301000000000,"state":"active","ping":61},{"user_id":235,"name":"Thistle Chicken","steam_id":76561199037197794,"connected_time":1169000000000,"state":"active","ping":74},{"user_id":177,"name":"BeerPowder","steam_id":76561198058129400,"connected_time":5483000000000,"state":"active","ping":41},{"user_id":119,"name":"Dareu","steam_id":76561198081781710,"connected_time":10358000000000,"state":"active","ping":57},{"user_id":250,"name":"Xenia18","steam_id":76561198085803618,"connected_time":61000000000,"state":"active","ping":117},{"user_id":31,"name":"Ashton","steam_id":76561198300590302,"connected_time":15257000000000,"state":"active","ping":73},{"user_id":247,"name":"MushroomHyperkill","steam_id":76561197961029847,"connected_time":233000000000,"state":"active","ping":76},{"user_id":245,"name":"Riandox","steam_id":76561198130577326,"connected_time":523000000000,"state":"active","ping":67},{"user_id":191,"name":"Urine_Gaming","steam_id":76561198096233456,"connected_time":4559000000000,"state":"active","ping":62},{"user_id":219,"name":"Femboy Medic Main","steam_id":76561198268225109,"connected_time":2824000000000,"state":"active","ping":67},{"user_id":231,"name":"Strange Diplomat","steam_id":76561198428191920,"connected_time":1680000000000,"state":"active","ping":56},{"user_id":224,"name":"Yuzu","steam_id":76561198417913035,"connected_time":2474000000000,"state":"active","ping":65},{"user_id":206,"name":"Infinity","steam_id":76561199134919099,"connected_time":3757000000000,"state":"active","ping":64},{"user_id":226,"name":"soup","steam_id":76561198880568662,"connected_time":2102000000000,"state":"active","ping":68},{"user_id":248,"name":"Literally just a chimp on a mug","steam_id":76561198002277502,"connected_time":208000000000,"state":"active","ping":52},{"user_id":179,"name":"ndvr (femboy (REAL))","steam_id":76561199379200102,"connected_time":5428000000000,"state":"active","ping":43},{"user_id":240,"name":"Sqiddwr","steam_id":76561197998071622,"connected_time":793000000000,"state":"active","ping":88}]},{"server_id":14,"name":"Uncletopia | New York City | 2 | All Maps","name_short":"nyc-2","host":"nyc-1.us.uncletopia.com","port":27025,"enabled":true,"region":"us-east","cc":"us","latitude":40.73061,"longitude":-73.93524,"reserved":0,"last_update":"0001-01-01T00:00:00Z","name_a2s":"Uncletopia | New York City | 2 | All Maps","protocol":17,"map":"pl_badwater","folder":"tf","game":"Team Fortress","app_id":440,"player_count":24,"max_players":24,"Bots":0,"server_type":"Dedicated","server_os":"Linux","password":true,"vac":true,"version":"7961495","steam_id":85568392924469994,"keywords":["nocrits","nodmgspread","payload","uncletopia"],"game_id":440,"stv_port":27026,"stv_name":"Uncletopia | New York City | 2 | All Maps | STV","players":[{"user_id":405,"name":"Dokkibai","steam_id":76561198355935693,"connected_time":277000000000,"state":"active","ping":61},{"user_id":401,"name":"bony","steam_id":76561198241893988,"connected_time":526000000000,"state":"active","ping":51},{"user_id":277,"name":"Mirce","steam_id":76561198100889621,"connected_time":9111000000000,"state":"active","ping":50},{"user_id":384,"name":"creeeeeee","steam_id":76561198392539722,"connected_time":1877000000000,"state":"active","ping":77},{"user_id":374,"name":"TheJuiceCrew","steam_id":76561198109073254,"connected_time":2536000000000,"state":"active","ping":77},{"user_id":406,"name":"dam","steam_id":76561198991633113,"connected_time":184000000000,"state":"active","ping":134},{"user_id":386,"name":"you forgot the sauce","steam_id":76561198387016713,"connected_time":1748000000000,"state":"active","ping":47},{"user_id":296,"name":"Viewie","steam_id":76561198280108853,"connected_time":8404000000000,"state":"active","ping":62},{"user_id":364,"name":"Amish Robot","steam_id":76561198041156065,"connected_time":3161000000000,"state":"active","ping":88},{"user_id":370,"name":"Lord Chungass","steam_id":76561198312553294,"connected_time":3031000000000,"state":"active","ping":50},{"user_id":397,"name":"Asanez3","steam_id":76561198037381436,"connected_time":618000000000,"state":"active","ping":51},{"user_id":394,"name":"ʕ•ᴥ•ʔ the bear","steam_id":76561197989591976,"connected_time":1058000000000,"state":"active","ping":46},{"user_id":393,"name":"Phoenix","steam_id":76561198068722818,"connected_time":1155000000000,"state":"active","ping":66},{"user_id":391,"name":"Chewbacca","steam_id":76561198041927925,"connected_time":1266000000000,"state":"active","ping":61},{"user_id":383,"name":"player","steam_id":76561198191881433,"connected_time":1905000000000,"state":"active","ping":120},{"user_id":359,"name":"THE MENACE","steam_id":76561198312055294,"connected_time":3488000000000,"state":"active","ping":43},{"user_id":403,"name":"oopsboom24","steam_id":76561199105248648,"connected_time":445000000000,"state":"active","ping":78},{"user_id":360,"name":"DA GOOFY MENACE ^_^ \u003c3","steam_id":76561198832230598,"connected_time":3205000000000,"state":"active","ping":61},{"user_id":392,"name":"Weary","steam_id":76561198145767546,"connected_time":1240000000000,"state":"active","ping":70},{"user_id":373,"name":"WX-78","steam_id":76561199117263527,"connected_time":2790000000000,"state":"active","ping":54},{"user_id":345,"name":"Fiendish Frog","steam_id":76561198029478821,"connected_time":4888000000000,"state":"active","ping":58},{"user_id":381,"name":"A Brick","steam_id":76561198257139257,"connected_time":2125000000000,"state":"active","ping":120},{"user_id":399,"name":"perfect inCell","steam_id":76561198059182316,"connected_time":594000000000,"state":"active","ping":43},{"user_id":400,"name":"Jacknerik","steam_id":76561198041365662,"connected_time":575000000000,"state":"active","ping":49}]},{"server_id":15,"name":"Uncletopia | New York City | 3 | Stopwatch","name_short":"nyc-3","host":"nyc-1.us.uncletopia.com","port":27035,"enabled":true,"region":"us-east","cc":"us","latitude":40.73061,"longitude":-73.93524,"reserved":0,"last_update":"0001-01-01T00:00:00Z","name_a2s":"Uncletopia | New York City | 3 | Stopwatch","protocol":17,"map":"workshop/pl_barnblitz_pro7.ugc582280235","folder":"tf","game":"Team Fortress","app_id":440,"player_count":24,"max_players":24,"Bots":0,"server_type":"Dedicated","server_os":"Linux","password":true,"vac":true,"version":"7961495","steam_id":85568392924742820,"keywords":["nocrits","nodmgspread","payload","uncletopia"],"game_id":440,"stv_port":27036,"stv_name":"Uncletopia | New York City | 3 | Stopwatch | STV","players":[{"user_id":109,"name":"Johnny Lawrence #JohnnyMaxxing","steam_id":76561199367141671,"connected_time":450000000000,"state":"active","ping":51},{"user_id":96,"name":"kat","steam_id":76561198099191938,"connected_time":1161000000000,"state":"active","ping":58},{"user_id":103,"name":"PK","steam_id":76561198368722500,"connected_time":699000000000,"state":"active","ping":55},{"user_id":91,"name":"bird who can't aim","steam_id":76561198062360755,"connected_time":1438000000000,"state":"active","ping":44},{"user_id":27,"name":"disabled chimp","steam_id":76561198132062857,"connected_time":3916000000000,"state":"active","ping":146},{"user_id":82,"name":"Fllint","steam_id":76561199046737035,"connected_time":1790000000000,"state":"active","ping":162},{"user_id":92,"name":"Shit'd","steam_id":76561198076038657,"connected_time":1416000000000,"state":"active","ping":74},{"user_id":79,"name":"Hat Stack","steam_id":76561198806729611,"connected_time":1846000000000,"state":"active","ping":105},{"user_id":38,"name":"Wawa","steam_id":76561198077716836,"connected_time":3243000000000,"state":"active","ping":46},{"user_id":64,"name":"BubbyBoy27","steam_id":76561199102009679,"connected_time":2383000000000,"state":"active","ping":90},{"user_id":37,"name":"Fr3eD0m","steam_id":76561198014592811,"connected_time":3343000000000,"state":"active","ping":73},{"user_id":106,"name":"neck biter","steam_id":76561198001781616,"connected_time":672000000000,"state":"active","ping":45},{"user_id":110,"name":"Nedla","steam_id":76561198061818218,"connected_time":360000000000,"state":"active","ping":76},{"user_id":41,"name":"DJ_Ohm","steam_id":76561198147746914,"connected_time":3200000000000,"state":"active","ping":48},{"user_id":42,"name":"AlmightyLoaf","steam_id":76561197986466977,"connected_time":3044000000000,"state":"active","ping":45},{"user_id":51,"name":"[LowRes]","steam_id":76561198400089720,"connected_time":2910000000000,"state":"active","ping":175},{"user_id":111,"name":"cbug","steam_id":76561198034182509,"connected_time":340000000000,"state":"active","ping":67},{"user_id":94,"name":"Duck","steam_id":76561198076077244,"connected_time":1402000000000,"state":"active","ping":70},{"user_id":47,"name":"DarkHell56","steam_id":76561199010412816,"connected_time":2978000000000,"state":"active","ping":132},{"user_id":62,"name":"mary_is_cool","steam_id":76561199106653709,"connected_time":2542000000000,"state":"active","ping":60},{"user_id":112,"name":"Thragall","steam_id":76561198055961874,"connected_time":203000000000,"state":"active","ping":71},{"user_id":52,"name":"The_neru","steam_id":76561199390140749,"connected_time":2895000000000,"state":"active","ping":90},{"user_id":107,"name":"wew","steam_id":76561198062608696,"connected_time":593000000000,"state":"active","ping":74},{"user_id":88,"name":"HIDDEN HIPPO the hippo","steam_id":76561198071628457,"connected_time":1567000000000,"state":"active","ping":76}]},{"server_id":16,"name":"Uncletopia | New York City | 4 | Community","name_short":"nyc-4","host":"nyc-1.us.uncletopia.com","port":27045,"enabled":true,"region":"us-east","cc":"us","latitude":40.73061,"longitude":-73.93524,"reserved":0,"last_update":"0001-01-01T00:00:00Z","name_a2s":"Uncletopia | New York City | 4 | Community","protocol":17,"map":"workshop/pl_badwater_pro_v12.ugc2142942074","folder":"tf","game":"Team Fortress","app_id":440,"player_count":1,"max_players":24,"Bots":0,"server_type":"Dedicated","server_os":"Linux","password":true,"vac":true,"version":"7961495","steam_id":85568392924742821,"keywords":["nocrits","nodmgspread","payload","uncletopia"],"game_id":440,"stv_port":27046,"stv_name":"Uncletopia | New York City | 4 | Community | STV","players":[{"user_id":30,"name":"hilarious","steam_id":76561198981494806,"connected_time":3000000000,"state":"spawning","ping":56}]},{"server_id":142,"name":"Uncletopia | São Paulo | 1 | All Maps","name_short":"sao-1","host":"sao-1.br.uncletopia.com","port":27015,"enabled":true,"region":"sa","cc":"br","latitude":-23.533773,"longitude":-46.62529,"reserved":0,"last_update":"0001-01-01T00:00:00Z","name_a2s":"Uncletopia | São Paulo | 1 | All Maps","protocol":17,"map":"koth_highpass","folder":"tf","game":"Team Fortress","app_id":440,"player_count":0,"max_players":24,"Bots":0,"server_type":"Dedicated","server_os":"Linux","password":true,"vac":true,"version":"7961495","steam_id":85568392924469996,"keywords":["cp","nocrits","nodmgspread","uncletopia"],"game_id":440,"stv_port":27016,"stv_name":"Uncletopia | São Paulo | 1 | All Maps | STV","players":null},{"server_id":143,"name":"Uncletopia | São Paulo | 2 | Community","name_short":"sao-2","host":"sao-2.br.uncletopia.com","port":27015,"enabled":true,"region":"sa","cc":"br","latitude":-23.533773,"longitude":-46.62529,"reserved":0,"last_update":"0001-01-01T00:00:00Z","name_a2s":"Uncletopia | São Paulo | 2 | Community","protocol":17,"map":"workshop/cp_logjam_rc12.ugc454812035","folder":"tf","game":"Team Fortress","app_id":440,"player_count":0,"max_players":24,"Bots":0,"server_type":"Dedicated","server_os":"Linux","password":true,"vac":true,"version":"7961495","steam_id":85568392924485349,"keywords":["cp","nocrits","nodmgspread","uncletopia"],"game_id":440,"stv_port":27016,"stv_name":"Uncletopia | São Paulo | 2 | Community | STV","players":null},{"server_id":7,"name":"Uncletopia | Seattle | 1 | All Maps","name_short":"sea-1","host":"sea-1.us.uncletopia.com","port":27015,"enabled":true,"region":"us-west","cc":"us","latitude":47.608013,"longitude":-122.33517,"reserved":0,"last_update":"0001-01-01T00:00:00Z","name_a2s":"Uncletopia | Seattle | 1 | All Maps","protocol":17,"map":"pl_frontier_final","folder":"tf","game":"Team Fortress","app_id":440,"player_count":24,"max_players":24,"Bots":0,"server_type":"Dedicated","server_os":"Linux","password":true,"vac":true,"version":"7961495","steam_id":85568392924469997,"keywords":["nocrits","nodmgspread","payload","uncletopia"],"game_id":440,"stv_port":27016,"stv_name":"Uncletopia | Seattle | 1 | All Maps | STV","players":[{"user_id":400,"name":"sierra","steam_id":76561197969873415,"connected_time":2944000000000,"state":"active","ping":146},{"user_id":452,"name":"Andrew's Taint","steam_id":76561198131400543,"connected_time":989000000000,"state":"active","ping":83},{"user_id":418,"name":"Dongus","steam_id":76561197979056451,"connected_time":2211000000000,"state":"active","ping":49},{"user_id":335,"name":"tmm (theManMan)","steam_id":76561199488457138,"connected_time":7444000000000,"state":"active","ping":60},{"user_id":423,"name":"對沖基金分析師","steam_id":76561198068672882,"connected_time":2154000000000,"state":"active","ping":80},{"user_id":454,"name":"dairy","steam_id":76561198047270339,"connected_time":934000000000,"state":"active","ping":38},{"user_id":457,"name":"Malevo","steam_id":76561198148606522,"connected_time":727000000000,"state":"active","ping":109},{"user_id":404,"name":"Fast Learner","steam_id":76561199096263556,"connected_time":2852000000000,"state":"active","ping":73},{"user_id":396,"name":"Nom Skirrett","steam_id":76561198014600788,"connected_time":3572000000000,"state":"active","ping":63},{"user_id":462,"name":"ArchmageF","steam_id":76561197992246851,"connected_time":79000000000,"state":"active","ping":54},{"user_id":456,"name":"Anon","steam_id":76561198109740776,"connected_time":774000000000,"state":"active","ping":88},{"user_id":444,"name":"Bolbi","steam_id":76561198051811597,"connected_time":1244000000000,"state":"active","ping":88},{"user_id":397,"name":"Fh","steam_id":76561198000903511,"connected_time":3568000000000,"state":"active","ping":60},{"user_id":463,"name":"ʜᴀᴢᴇʟ","steam_id":76561199247095754,"connected_time":75000000000,"state":"active","ping":239},{"user_id":464,"name":"Stapler","steam_id":76561198099295077,"connected_time":20000000000,"state":"active","ping":76},{"user_id":446,"name":"ДаноРти","steam_id":76561198084780060,"connected_time":1208000000000,"state":"active","ping":113},{"user_id":436,"name":"Equinox","steam_id":76561198274279754,"connected_time":1598000000000,"state":"active","ping":79},{"user_id":461,"name":"DubiousDodo","steam_id":76561198828172686,"connected_time":131000000000,"state":"active","ping":83},{"user_id":380,"name":"PROFILE NAME","steam_id":76561199438851854,"connected_time":4988000000000,"state":"active","ping":51},{"user_id":435,"name":"Green Bean","steam_id":76561198959874732,"connected_time":1642000000000,"state":"active","ping":61},{"user_id":432,"name":"tbm john","steam_id":76561198304194081,"connected_time":1771000000000,"state":"active","ping":73},{"user_id":433,"name":"TBM | Jobr","steam_id":76561198016594813,"connected_time":1735000000000,"state":"active","ping":80},{"user_id":459,"name":"Hakuyer","steam_id":76561198098618247,"connected_time":537000000000,"state":"active","ping":36},{"user_id":458,"name":"Yoshidube","steam_id":76561198352675680,"connected_time":710000000000,"state":"active","ping":119}]},{"server_id":119,"name":"Uncletopia | Seattle | 2 | All Maps","name_short":"sea-2","host":"sea-1.us.uncletopia.com","port":27025,"enabled":true,"region":"us-west","cc":"us","latitude":47.608013,"longitude":-122.33517,"reserved":0,"last_update":"0001-01-01T00:00:00Z","name_a2s":"Uncletopia | Seattle | 2 | All Maps","protocol":17,"map":"pl_barnblitz","folder":"tf","game":"Team Fortress","app_id":440,"player_count":16,"max_players":24,"Bots":0,"server_type":"Dedicated","server_os":"Linux","password":true,"vac":true,"version":"7961495","steam_id":85568392924469998,"keywords":["nocrits","nodmgspread","payload","uncletopia"],"game_id":440,"stv_port":27026,"stv_name":"Uncletopia | Seattle | 2 | All Maps | STV","players":[{"user_id":42,"name":"MrPoisionousLabs","steam_id":76561199184552915,"connected_time":2903000000000,"state":"active","ping":90},{"user_id":63,"name":"Lrd shwag","steam_id":76561198841016072,"connected_time":318000000000,"state":"active","ping":44},{"user_id":44,"name":"Nick","steam_id":76561198329096986,"connected_time":2557000000000,"state":"active","ping":72},{"user_id":47,"name":"Pyrolimited","steam_id":76561198195455657,"connected_time":2144000000000,"state":"active","ping":46},{"user_id":71,"name":"NinjaWolf74","steam_id":76561198278272446,"connected_time":9000000000,"state":"active","ping":195},{"user_id":65,"name":"FMT_Player","steam_id":76561198346810180,"connected_time":270000000000,"state":"active","ping":41},{"user_id":51,"name":"Weed Pyro (real)","steam_id":76561199388058358,"connected_time":1533000000000,"state":"active","ping":61},{"user_id":66,"name":"jek","steam_id":76561198097816136,"connected_time":257000000000,"state":"active","ping":120},{"user_id":54,"name":"qrdl","steam_id":76561198049032186,"connected_time":807000000000,"state":"active","ping":46},{"user_id":57,"name":"Sudsen","steam_id":76561198370603787,"connected_time":695000000000,"state":"active","ping":76},{"user_id":67,"name":"prang","steam_id":76561197960471627,"connected_time":222000000000,"state":"active","ping":42},{"user_id":59,"name":"Lain","steam_id":76561198118282205,"connected_time":654000000000,"state":"active","ping":152},{"user_id":60,"name":"Surfing Garchomp","steam_id":76561199107236884,"connected_time":580000000000,"state":"active","ping":88},{"user_id":69,"name":"Dreamzapp","steam_id":76561199084936632,"connected_time":67000000000,"state":"active","ping":87},{"user_id":68,"name":"♥Chara喜生子♥","steam_id":76561198080500920,"connected_time":165000000000,"state":"active","ping":75},{"user_id":70,"name":"tunaa","steam_id":76561198362763159,"connected_time":51000000000,"state":"active","ping":75}]},{"server_id":406,"name":"Uncletopia | Seattle | 3 | Stopwatch","name_short":"sea-3","host":"sea-1.us.uncletopia.com","port":27035,"enabled":true,"region":"us-west","cc":"us","latitude":47.608013,"longitude":-122.33517,"reserved":0,"last_update":"0001-01-01T00:00:00Z","name_a2s":"Uncletopia | Seattle | 3 | Stopwatch","protocol":17,"map":"cp_metalworks","folder":"tf","game":"Team Fortress","app_id":440,"player_count":0,"max_players":24,"Bots":0,"server_type":"Dedicated","server_os":"Linux","password":true,"vac":true,"version":"7961495","steam_id":85568392924515217,"keywords":["cp","nocrits","nodmgspread","uncletopia"],"game_id":440,"stv_port":27036,"stv_name":"Uncletopia | Seattle | 3 | Stopwatch | STV","players":null},{"server_id":17,"name":"Uncletopia | San Francisco | 1 | All Maps","name_short":"sfo-1","host":"sfo-1.us.uncletopia.com","port":27015,"enabled":true,"region":"us-west","cc":"us","latitude":37.77397,"longitude":-122.4313,"reserved":0,"last_update":"0001-01-01T00:00:00Z","name_a2s":"Uncletopia | San Francisco | 1 | All Maps","protocol":17,"map":"koth_highpass","folder":"tf","game":"Team Fortress","app_id":440,"player_count":0,"max_players":24,"Bots":0,"server_type":"Dedicated","server_os":"Linux","password":true,"vac":true,"version":"7961495","steam_id":85568392924469999,"keywords":["cp","nocrits","nodmgspread","uncletopia"],"game_id":440,"stv_port":27016,"stv_name":"Uncletopia | San Francisco | 1 | All Maps | STV","players":null},{"server_id":18,"name":"Uncletopia | San Francisco | 2 | All Maps","name_short":"sfo-2","host":"sfo-1.us.uncletopia.com","port":27025,"enabled":true,"region":"us-west","cc":"us","latitude":37.77397,"longitude":-122.4313,"reserved":0,"last_update":"0001-01-01T00:00:00Z","name_a2s":"Uncletopia | San Francisco | 2 | All Maps","protocol":17,"map":"cp_junction_final","folder":"tf","game":"Team Fortress","app_id":440,"player_count":24,"max_players":24,"Bots":0,"server_type":"Dedicated","server_os":"Linux","password":true,"vac":true,"version":"7961495","steam_id":85568392924470000,"keywords":["cp","nocrits","nodmgspread","uncletopia"],"game_id":440,"stv_port":27026,"stv_name":"Uncletopia | San Francisco | 2 | All Maps | STV","players":[{"user_id":198,"name":"fishwater","steam_id":76561199071151136,"connected_time":1203000000000,"state":"active","ping":46},{"user_id":199,"name":"Igrium","steam_id":76561198119549811,"connected_time":1140000000000,"state":"active","ping":46},{"user_id":151,"name":"nanoboosts","steam_id":76561199500861337,"connected_time":5256000000000,"state":"active","ping":66},{"user_id":215,"name":"dogerich404","steam_id":76561199124102546,"connected_time":452000000000,"state":"active","ping":58},{"user_id":197,"name":"zuzu","steam_id":76561197969622110,"connected_time":1220000000000,"state":"active","ping":89},{"user_id":193,"name":"Silly Shark","steam_id":76561198130714378,"connected_time":2046000000000,"state":"active","ping":69},{"user_id":218,"name":"JawnyMac","steam_id":76561198179529599,"connected_time":292000000000,"state":"active","ping":55},{"user_id":153,"name":"Keamy","steam_id":76561199471434875,"connected_time":5141000000000,"state":"active","ping":62},{"user_id":223,"name":"logan","steam_id":76561199202888155,"connected_time":39000000000,"state":"active","ping":56},{"user_id":205,"name":"Cxxrupt","steam_id":76561198343510062,"connected_time":975000000000,"state":"active","ping":76},{"user_id":216,"name":"BLANK3T They/He Femboy on THC","steam_id":76561198028875624,"connected_time":375000000000,"state":"active","ping":71},{"user_id":212,"name":"Nassu","steam_id":76561198147367577,"connected_time":729000000000,"state":"active","ping":113},{"user_id":162,"name":"the pizza","steam_id":76561198221331476,"connected_time":4316000000000,"state":"active","ping":40},{"user_id":217,"name":"ten years at least","steam_id":76561198168492250,"connected_time":316000000000,"state":"active","ping":62},{"user_id":220,"name":"remina","steam_id":76561198046091954,"connected_time":112000000000,"state":"active","ping":93},{"user_id":221,"name":"็","steam_id":76561198982415497,"connected_time":99000000000,"state":"active","ping":44},{"user_id":204,"name":"green bean","steam_id":76561198113099204,"connected_time":1085000000000,"state":"active","ping":45},{"user_id":184,"name":"t","steam_id":76561198175988929,"connected_time":2860000000000,"state":"active","ping":71},{"user_id":208,"name":"Bimbonito","steam_id":76561198069676563,"connected_time":949000000000,"state":"active","ping":112},{"user_id":196,"name":"frankie calories","steam_id":76561198071525893,"connected_time":1477000000000,"state":"active","ping":72},{"user_id":209,"name":"DeckofDragons","steam_id":76561198057398213,"connected_time":938000000000,"state":"active","ping":67},{"user_id":222,"name":"Boone","steam_id":76561198398931575,"connected_time":78000000000,"state":"active","ping":73},{"user_id":210,"name":"YoyoMama","steam_id":76561198260113828,"connected_time":909000000000,"state":"active","ping":59},{"user_id":171,"name":"Facepalm","steam_id":76561198001935226,"connected_time":3942000000000,"state":"active","ping":45}]},{"server_id":19,"name":"Uncletopia | San Francisco | 3 | Stopwatch","name_short":"sfo-3","host":"sfo-1.us.uncletopia.com","port":27035,"enabled":true,"region":"us-west","cc":"us","latitude":37.77397,"longitude":-122.4313,"reserved":0,"last_update":"0001-01-01T00:00:00Z","name_a2s":"Uncletopia | San Francisco | 3 | Stopwatch","protocol":17,"map":"workshop/koth_product_final.ugc454272353","folder":"tf","game":"Team Fortress","app_id":440,"player_count":0,"max_players":24,"Bots":0,"server_type":"Dedicated","server_os":"Linux","password":true,"vac":true,"version":"7961495","steam_id":85568392924742824,"keywords":["cp","nocrits","nodmgspread","uncletopia"],"game_id":440,"stv_port":27036,"stv_name":"Uncletopia | San Francisco | 3 | Stopwatch | STV","players":null},{"server_id":20,"name":"Uncletopia | San Francisco | 4 | Community","name_short":"sfo-4","host":"sfo-1.us.uncletopia.com","port":27045,"enabled":true,"region":"us-west","cc":"us","latitude":37.77397,"longitude":-122.4313,"reserved":0,"last_update":"0001-01-01T00:00:00Z","name_a2s":"Uncletopia | San Francisco | 4 | Community","protocol":17,"map":"workshop/pl_cactuscanyon_redux_final2.ugc2579644293","folder":"tf","game":"Team Fortress","app_id":440,"player_count":0,"max_players":24,"Bots":0,"server_type":"Dedicated","server_os":"Linux","password":true,"vac":true,"version":"7961495","steam_id":85568392924742826,"keywords":["nocrits","nodmgspread","payload","uncletopia"],"game_id":440,"stv_port":27046,"stv_name":"Uncletopia | San Francisco | 4 | Community | STV","players":null},{"server_id":141,"name":"Uncletopia | Sydney | 1 | All Maps","name_short":"syd-1","host":"syd-1.au.uncletopia.com","port":27015,"enabled":true,"region":"au","cc":"au","latitude":-33.865143,"longitude":151.2099,"reserved":0,"last_update":"0001-01-01T00:00:00Z","name_a2s":"Uncletopia | Sydney | 1 | All Maps","protocol":17,"map":"koth_viaduct","folder":"tf","game":"Team Fortress","app_id":440,"player_count":0,"max_players":24,"Bots":0,"server_type":"Dedicated","server_os":"Linux","password":true,"vac":true,"version":"7961495","steam_id":85568392924470001,"keywords":["cp","nocrits","nodmgspread","uncletopia"],"game_id":440,"stv_port":27016,"stv_name":"Uncletopia | Sydney | 1 | All Maps | STV","players":null},{"server_id":123,"name":"Uncletopia | Sydney | 2 | All Maps","name_short":"syd-2","host":"syd-1.au.uncletopia.com","port":27025,"enabled":true,"region":"au","cc":"au","latitude":-33.865143,"longitude":151.2099,"reserved":0,"last_update":"0001-01-01T00:00:00Z","name_a2s":"Uncletopia | Sydney | 2 | All Maps","protocol":17,"map":"cp_fastlane","folder":"tf","game":"Team Fortress","app_id":440,"player_count":0,"max_players":24,"Bots":0,"server_type":"Dedicated","server_os":"Linux","password":true,"vac":true,"version":"7961495","steam_id":85568392924470002,"keywords":["cp","nocrits","nodmgspread","uncletopia"],"game_id":440,"stv_port":27026,"stv_name":"Uncletopia | Sydney | 2 | All Maps | STV","players":null},{"server_id":395,"name":"Uncletopia | Sydney | 3 | All Maps","name_short":"syd-3","host":"syd-1.au.uncletopia.com","port":27035,"enabled":true,"region":"au","cc":"au","latitude":-33.865143,"longitude":151.2099,"reserved":0,"last_update":"0001-01-01T00:00:00Z","name_a2s":"Uncletopia | Sydney | 3 | All Maps","protocol":17,"map":"cp_metalworks","folder":"tf","game":"Team Fortress","app_id":440,"player_count":0,"max_players":24,"Bots":0,"server_type":"Dedicated","server_os":"Linux","password":true,"vac":true,"version":"7961495","steam_id":85568392925194467,"keywords":["cp","nocrits","nodmgspread","uncletopia"],"game_id":440,"stv_port":27036,"stv_name":"Uncletopia | Sydney | 3 | All Maps | STV","players":null},{"server_id":396,"name":"Uncletopia | Sydney | 4 | All Maps","name_short":"syd-4","host":"syd-1.au.uncletopia.com","port":27045,"enabled":true,"region":"au","cc":"au","latitude":-33.865143,"longitude":151.2099,"reserved":0,"last_update":"0001-01-01T00:00:00Z","name_a2s":"Uncletopia | Sydney | 4 | All Maps","protocol":17,"map":"koth_cascade","folder":"tf","game":"Team Fortress","app_id":440,"player_count":0,"max_players":24,"Bots":0,"server_type":"Dedicated","server_os":"Linux","password":true,"vac":true,"version":"7961495","steam_id":85568392925397958,"keywords":["cp","nocrits","nodmgspread","uncletopia"],"game_id":440,"stv_port":27046,"stv_name":"Uncletopia | Sydney | 4 | All Maps | STV","players":null},{"server_id":58,"name":"Uncletopia | Sydney | 5 | Stopwatch","name_short":"syd-5","host":"syd-1.au.uncletopia.com","port":27055,"enabled":true,"region":"au","cc":"au","latitude":-33.865143,"longitude":151.2099,"reserved":0,"last_update":"0001-01-01T00:00:00Z","name_a2s":"Uncletopia | Sydney | 5 | Stopwatch","protocol":17,"map":"workshop/koth_product_final.ugc454272353","folder":"tf","game":"Team Fortress","app_id":440,"player_count":0,"max_players":24,"Bots":0,"server_type":"Dedicated","server_os":"Linux","password":true,"vac":true,"version":"7961495","steam_id":85568392925397959,"keywords":["cp","nocrits","nodmgspread","uncletopia"],"game_id":440,"stv_port":27056,"stv_name":"Uncletopia | Sydney | 5 | Stopwatch | STV","players":null},{"server_id":59,"name":"Uncletopia | Sydney | 6 | Community","name_short":"syd-6","host":"syd-1.au.uncletopia.com","port":27065,"enabled":true,"region":"au","cc":"au","latitude":-33.865143,"longitude":151.2099,"reserved":0,"last_update":"0001-01-01T00:00:00Z","name_a2s":"Uncletopia | Sydney | 6 | Community","protocol":17,"map":"workshop/koth_ashville_final.ugc2130459942","folder":"tf","game":"Team Fortress","app_id":440,"player_count":13,"max_players":24,"Bots":0,"server_type":"Dedicated","server_os":"Linux","password":true,"vac":true,"version":"7961495","steam_id":85568392925397960,"keywords":["cp","nocrits","nodmgspread","uncletopia"],"game_id":440,"stv_port":27066,"stv_name":"Uncletopia | Sydney | 6 | Community | STV","players":[{"user_id":75,"name":"buff_sheep","steam_id":76561199122474585,"connected_time":2156000000000,"state":"active","ping":78},{"user_id":78,"name":"Slimboy17","steam_id":76561198072015725,"connected_time":1165000000000,"state":"active","ping":57},{"user_id":70,"name":"Pseudoman","steam_id":76561198131158447,"connected_time":2916000000000,"state":"active","ping":36},{"user_id":87,"name":"Dog With Headphones","steam_id":76561198111076916,"connected_time":345000000000,"state":"active","ping":68},{"user_id":22,"name":"Saint Patrick #KFCIsOkayIGuess","steam_id":76561198336999112,"connected_time":7674000000000,"state":"active","ping":30},{"user_id":80,"name":"Milky cheese","steam_id":76561199051282294,"connected_time":978000000000,"state":"active","ping":51},{"user_id":77,"name":"Uni","steam_id":76561198027003679,"connected_time":1531000000000,"state":"active","ping":68},{"user_id":84,"name":"Sillymadleb","steam_id":76561198254712329,"connected_time":740000000000,"state":"active","ping":88},{"user_id":89,"name":"BurntSandwitch74","steam_id":76561199465539156,"connected_time":124000000000,"state":"active","ping":41},{"user_id":82,"name":"sav","steam_id":76561198058760041,"connected_time":866000000000,"state":"active","ping":68},{"user_id":88,"name":"zozl","steam_id":76561198031800830,"connected_time":148000000000,"state":"active","ping":51},{"user_id":86,"name":"Hi I'm Nyx","steam_id":76561198095758964,"connected_time":541000000000,"state":"active","ping":59},{"user_id":62,"name":"{Azura Sarah}","steam_id":76561197989210208,"connected_time":3817000000000,"state":"active","ping":55}]},{"server_id":49,"name":"Uncletopia | Warsaw | 1 | One Thousand Uncles","name_short":"waw-1","host":"waw-1.pl.uncletopia.com","port":27015,"enabled":true,"region":"eu","cc":"pl","latitude":52.2297,"longitude":21.017532,"reserved":0,"last_update":"0001-01-01T00:00:00Z","name_a2s":"Uncletopia | Warsaw | 1 | One Thousand Uncles","protocol":17,"map":"pl_goldrush","folder":"tf","game":"Team Fortress","app_id":440,"player_count":0,"max_players":32,"Bots":0,"server_type":"Dedicated","server_os":"Linux","password":true,"vac":true,"version":"7961495","steam_id":85568392925397850,"keywords":["alltalk","danepve","increased_maxplayers","norespawntime","payload","uncletopia"],"game_id":440,"stv_port":0,"stv_name":"","players":null},{"server_id":50,"name":"Uncletopia | Warsaw | 2 | One Thousand Uncles","name_short":"waw-2","host":"waw-1.pl.uncletopia.com","port":27025,"enabled":true,"region":"eu","cc":"pl","latitude":52.2297,"longitude":21.017532,"reserved":0,"last_update":"0001-01-01T00:00:00Z","name_a2s":"Uncletopia | Warsaw | 2 | One Thousand Uncles","protocol":17,"map":"pl_badwater","folder":"tf","game":"Team Fortress","app_id":440,"player_count":0,"max_players":32,"Bots":0,"server_type":"Dedicated","server_os":"Linux","password":true,"vac":true,"version":"7961495","steam_id":85568392925397851,"keywords":["alltalk","danepve","increased_maxplayers","norespawntime","payload","uncletopia"],"game_id":440,"stv_port":0,"stv_name":"","players":null},{"server_id":51,"name":"Uncletopia | Warsaw | 3 | All Maps","name_short":"waw-3","host":"waw-1.pl.uncletopia.com","port":27035,"enabled":true,"region":"eu","cc":"pl","latitude":52.2297,"longitude":21.017532,"reserved":0,"last_update":"0001-01-01T00:00:00Z","name_a2s":"Uncletopia | Warsaw | 3 | All Maps","protocol":17,"map":"cp_mountainlab","folder":"tf","game":"Team Fortress","app_id":440,"player_count":0,"max_players":24,"Bots":0,"server_type":"Dedicated","server_os":"Linux","password":true,"vac":true,"version":"7961495","steam_id":85568392925397852,"keywords":["cp","nocrits","nodmgspread","uncletopia"],"game_id":440,"stv_port":27036,"stv_name":"Uncletopia | Warsaw | 3 | All Maps | STV","players":null},{"server_id":52,"name":"Uncletopia | Warsaw | 4 | All Maps","name_short":"waw-4","host":"waw-1.pl.uncletopia.com","port":27045,"enabled":true,"region":"eu","cc":"pl","latitude":52.2297,"longitude":21.017532,"reserved":0,"last_update":"0001-01-01T00:00:00Z","name_a2s":"Uncletopia | Warsaw | 4 | All Maps","protocol":17,"map":"koth_lakeside_final","folder":"tf","game":"Team Fortress","app_id":440,"player_count":0,"max_players":24,"Bots":0,"server_type":"Dedicated","server_os":"Linux","password":true,"vac":true,"version":"7961495","steam_id":85568392925397853,"keywords":["cp","nocrits","nodmgspread","uncletopia"],"game_id":440,"stv_port":27046,"stv_name":"Uncletopia | Warsaw | 4 | All Maps | STV","players":null},{"server_id":53,"name":"Uncletopia | Warsaw | 5 | Stopwatch","name_short":"waw-5","host":"waw-1.pl.uncletopia.com","port":27055,"enabled":true,"region":"eu","cc":"pl","latitude":52.2297,"longitude":21.017532,"reserved":0,"last_update":"0001-01-01T00:00:00Z","name_a2s":"Uncletopia | Warsaw | 5 | Stopwatch","protocol":17,"map":"workshop/pl_badwater_pro_v12.ugc2142942074","folder":"tf","game":"Team Fortress","app_id":440,"player_count":0,"max_players":24,"Bots":0,"server_type":"Dedicated","server_os":"Linux","password":true,"vac":true,"version":"7961495","steam_id":85568392925397854,"keywords":["nocrits","nodmgspread","payload","uncletopia"],"game_id":440,"stv_port":27056,"stv_name":"Uncletopia | Warsaw | 5 | Stopwatch | STV","players":null},{"server_id":54,"name":"Uncletopia | Warsaw | 6 | Community","name_short":"waw-6","host":"waw-1.pl.uncletopia.com","port":27065,"enabled":true,"region":"eu","cc":"pl","latitude":52.2297,"longitude":21.017532,"reserved":0,"last_update":"0001-01-01T00:00:00Z","name_a2s":"Uncletopia | Warsaw | 6 | Community","protocol":17,"map":"workshop/koth_trenchfoot_ab1.ugc731436616","folder":"tf","game":"Team Fortress","app_id":440,"player_count":0,"max_players":24,"Bots":0,"server_type":"Dedicated","server_os":"Linux","password":true,"vac":true,"version":"7961495","steam_id":85568392925397856,"keywords":["cp","nocrits","nodmgspread","uncletopia"],"game_id":440,"stv_port":27066,"stv_name":"Uncletopia | Warsaw | 6 | Community | STV","players":null}]}