{"status":true,"message":"","result":[{"server_id":9,"name":"Uncletopia | Atlanta | 1 | All Maps","name_short":"atl-1","host":"atl-1.us.uncletopia.com","port":27015,"enabled":true,"region":"us-east","cc":"us","latitude":33.753746,"longitude":-84.38633,"reserved":0,"last_update":"0001-01-01T00:00:00Z","name_a2s":"Uncletopia | Atlanta | 1 | All Maps","protocol":17,"map":"pl_badwater","folder":"tf","game":"Team Fortress","app_id":440,"player_count":23,"max_players":24,"Bots":0,"server_type":"Dedicated","server_os":"Linux","password":true,"vac":true,"version":"7757534","steam_id":85568392924469982,"keywords":["nocrits","nodmgspread","payload","uncletopia"],"game_id":440,"stv_port":27016,"stv_name":"Uncletopia | Atlanta | 1 | All Maps | STV","players":[{"user_id":20,"name":"Actually retarded","steam_id":76561198276513608,"connected_time":1844000000000,"state":"active","ping":172},{"user_id":6,"name":"urethratard","steam_id":76561198026875278,"connected_time":2826000000000,"state":"active","ping":39},{"user_id":7,"name":"1TheExterminator","steam_id":76561198972879727,"connected_time":2769000000000,"state":"active","ping":70},{"user_id":12,"name":"Bleem","steam_id":76561199013619130,"connected_time":2159000000000,"state":"active","ping":98},{"user_id":48,"name":"JerlBays","steam_id":76561198096773292,"connected_time":166000000000,"state":"active","ping":46},{"user_id":36,"name":"SCARY MONSTERS","steam_id":76561198042034176,"connected_time":1303000000000,"state":"active","ping":46},{"user_id":17,"name":"iNGNORX","steam_id":76561198807649258,"connected_time":1907000000000,"state":"active","ping":142},{"user_id":15,"name":"CatBerryLemonade","steam_id":76561198120932314,"connected_time":1960000000000,"state":"active","ping":74},{"user_id":47,"name":"Some wet dude","steam_id":76561198143744178,"connected_time":329000000000,"state":"active","ping":70},{"user_id":37,"name":"Sbwfuf","steam_id":76561199032923830,"connected_time":1273000000000,"state":"active","ping":92},{"user_id":19,"name":"Wizowd","steam_id":76561198167702261,"connected_time":1859000000000,"state":"active","ping":114},{"user_id":21,"name":"crunchy and spicy wasp snack","steam_id":76561199322728703,"connected_time":1817000000000,"state":"active","ping":72},{"user_id":46,"name":"LukeLeal","steam_id":76561198049822995,"connected_time":592000000000,"state":"active","ping":163},{"user_id":24,"name":"grrrrrrr","steam_id":76561199079513908,"connected_time":1695000000000,"state":"active","ping":163},{"user_id":39,"name":"GPLv2","steam_id":76561198113096772,"connected_time":1267000000000,"state":"active","ping":115},{"user_id":40,"name":"Torip","steam_id":76561198251665862,"connected_time":1266000000000,"state":"active","ping":84},{"user_id":45,"name":"Brown_Dream","steam_id":76561198975766145,"connected_time":613000000000,"state":"active","ping":99},{"user_id":29,"name":"TransWomanGaming","steam_id":76561198809645656,"connected_time":1577000000000,"state":"active","ping":85},{"user_id":30,"name":"Mikael_01","steam_id":76561199080253129,"connected_time":1571000000000,"state":"active","ping":194},{"user_id":32,"name":"carrot cake","steam_id":76561198055174915,"connected_time":1521000000000,"state":"active","ping":76},{"user_id":33,"name":"floppy muppet","steam_id":76561198003076261,"connected_time":1471000000000,"state":"active","ping":64},{"user_id":34,"name":"bear","steam_id":76561198313696546,"connected_time":1468000000000,"state":"active","ping":90},{"user_id":42,"name":"kaleb","steam_id":76561198997126286,"connected_time":1211000000000,"state":"active","ping":86}]},{"server_id":400,"name":"Uncletopia | Atlanta | 3 | Community","name_short":"atl-3","host":"atl-1.us.uncletopia.com","port":27035,"enabled":true,"region":"us-east","cc":"us","latitude":33.753746,"longitude":-84.38633,"reserved":0,"last_update":"0001-01-01T00:00:00Z","name_a2s":"Uncletopia | Atlanta | 3 | Community","protocol":17,"map":"cp_mountainlab","folder":"tf","game":"Team Fortress","app_id":440,"player_count":0,"max_players":24,"Bots":0,"server_type":"Dedicated","server_os":"Linux","password":true,"vac":true,"version":"7757534","steam_id":85568392924515187,"keywords":["cp","nocrits","nodmgspread","uncletopia"],"game_id":440,"stv_port":27036,"stv_name":"Uncletopia | Atlanta | 3 | Community | STV","players":null},{"server_id":401,"name":"Uncletopia | Atlanta | 4 | No Payload","name_short":"atl-4","host":"atl-1.us.uncletopia.com","port":27045,"enabled":true,"region":"us-east","cc":"us","latitude":33.753746,"longitude":-84.38633,"reserved":0,"last_update":"0001-01-01T00:00:00Z","name_a2s":"","protocol":0,"map":"","folder":"","game":"","app_id":0,"player_count":0,"max_players":0,"Bots":0,"server_type":"","server_os":"","password":false,"vac":false,"version":"","steam_id":0,"keywords":null,"game_id":0,"stv_port":0,"stv_name":"","players":null},{"server_id":2,"name":"Uncletopia | Chicago | 1 | All Maps","name_short":"chi-1","host":"chi-1.us.uncletopia.com","port":27015,"enabled":true,"region":"us-central","cc":"us","latitude":41.881832,"longitude":-87.62318,"reserved":0,"last_update":"0001-01-01T00:00:00Z","name_a2s":"Uncletopia | Chicago | 1 | All Maps","protocol":17,"map":"pl_borneo","folder":"tf","game":"Team Fortress","app_id":440,"player_count":24,"max_players":24,"Bots":0,"server_type":"Dedicated","server_os":"Linux","password":true,"vac":true,"version":"7757534","steam_id":85568392924469984,"keywords":["nocrits","nodmgspread","payload","uncletopia"],"game_id":440,"stv_port":27016,"stv_name":"Uncletopia | Chicago | 1 | All Maps | STV","players":[{"user_id":109,"name":"Toxic Medic Main (he/they)","steam_id":76561198009314845,"connected_time":1219000000000,"state":"active","ping":105},{"user_id":77,"name":"FunGi","steam_id":76561198881418662,"connected_time":4202000000000,"state":"active","ping":80},{"user_id":113,"name":"banana man","steam_id":76561199385170644,"connected_time":1200000000000,"state":"active","ping":45},{"user_id":114,"name":"Dr. Bobo","steam_id":76561198271696761,"connected_time":1200000000000,"state":"active","ping":90},{"user_id":108,"name":"alcohol","steam_id":76561198328109873,"connected_time":1222000000000,"state":"active","ping":69},{"user_id":85,"name":"Rat","steam_id":76561199102985277,"connected_time":3466000000000,"state":"active","ping":92},{"user_id":115,"name":"dirty dank","steam_id":76561198360904432,"connected_time":1139000000000,"state":"active","ping":64},{"user_id":123,"name":"Zetta","steam_id":76561198045710113,"connected_time":215000000000,"state":"active","ping":106},{"user_id":120,"name":"god approaches","steam_id":76561198081617990,"connected_time":717000000000,"state":"active","ping":97},{"user_id":21,"name":"feenman","steam_id":76561199383834799,"connected_time":6749000000000,"state":"active","ping":92},{"user_id":124,"name":"fancyfreak","steam_id":76561198326466375,"connected_time":195000000000,"state":"active","ping":91},{"user_id":24,"name":"Luca!","steam_id":76561198137880777,"connected_time":6647000000000,"state":"active","ping":77},{"user_id":106,"name":"JacripspyVulcano","steam_id":76561198966980576,"connected_time":1346000000000,"state":"active","ping":69},{"user_id":116,"name":"rice white","steam_id":76561198320732910,"connected_time":1108000000000,"state":"active","ping":69},{"user_id":88,"name":"jan kili","steam_id":76561198289894834,"connected_time":3154000000000,"state":"active","ping":65},{"user_id":111,"name":"Nemcat.Jr","steam_id":76561198079821706,"connected_time":1214000000000,"state":"active","ping":48},{"user_id":96,"name":"Fredrick","steam_id":76561197981419964,"connected_time":2707000000000,"state":"active","ping":71},{"user_id":99,"name":"Monster","steam_id":76561198189429665,"connected_time":2503000000000,"state":"active","ping":70},{"user_id":121,"name":"gameing","steam_id":76561198115552623,"connected_time":655000000000,"state":"active","ping":61},{"user_id":112,"name":"MyamE","steam_id":76561198133278462,"connected_time":1213000000000,"state":"active","ping":92},{"user_id":34,"name":"Cunny Warrior 77","steam_id":76561198811760680,"connected_time":6506000000000,"state":"active","ping":108},{"user_id":107,"name":"Resistance","steam_id":76561198146782074,"connected_time":1236000000000,"state":"active","ping":59},{"user_id":122,"name":"One Chill Daddio","steam_id":76561198074026282,"connected_time":359000000000,"state":"active","ping":76},{"user_id":82,"name":"coolguy782","steam_id":76561198165212575,"connected_time":3754000000000,"state":"active","ping":62}]},{"server_id":106,"name":"Uncletopia | Chicago | 2 | All Maps","name_short":"chi-2","host":"chi-1.us.uncletopia.com","port":27025,"enabled":true,"region":"us-central","cc":"us","latitude":41.881832,"longitude":-87.62318,"reserved":0,"last_update":"0001-01-01T00:00:00Z","name_a2s":"Uncletopia | Chicago | 2 | All Maps","protocol":17,"map":"koth_cascade","folder":"tf","game":"Team Fortress","app_id":440,"player_count":0,"max_players":24,"Bots":0,"server_type":"Dedicated","server_os":"Linux","password":true,"vac":true,"version":"7757534","steam_id":85568392924469985,"keywords":["cp","nocrits","nodmgspread","uncletopia"],"game_id":440,"stv_port":27026,"stv_name":"Uncletopia | Chicago | 2 | All Maps | STV","players":null},{"server_id":402,"name":"Uncletopia | Chicago | 3 | All Maps","name_short":"chi-3","host":"chi-1.us.uncletopia.com","port":27035,"enabled":true,"region":"us-central","cc":"us","latitude":41.881832,"longitude":-87.62318,"reserved":0,"last_update":"0001-01-01T00:00:00Z","name_a2s":"Uncletopia | Chicago | 3 | All Maps","protocol":17,"map":"koth_cascade","folder":"tf","game":"Team Fortress","app_id":440,"player_count":0,"max_players":24,"Bots":0,"server_type":"Dedicated","server_os":"Linux","password":true,"vac":true,"version":"7757534","steam_id":85568392924515191,"keywords":["cp","nocrits","nodmgspread","uncletopia"],"game_id":440,"stv_port":27036,"stv_name":"Uncletopia | Chicago | 3 | All Maps | STV","players":null},{"server_id":403,"name":"Uncletopia | Chicago | 4 | All Maps","name_short":"chi-4","host":"chi-1.us.uncletopia.com","port":27045,"enabled":true,"region":"us-central","cc":"us","latitude":41.881832,"longitude":-87.62318,"reserved":0,"last_update":"0001-01-01T00:00:00Z","name_a2s":"Uncletopia | Chicago | 4 | All Maps","protocol":17,"map":"koth_cascade","folder":"tf","game":"Team Fortress","app_id":440,"player_count":0,"max_players":24,"Bots":0,"server_type":"Dedicated","server_os":"Linux","password":true,"vac":true,"version":"7757534","steam_id":85568392924515193,"keywords":["cp","nocrits","nodmgspread","uncletopia"],"game_id":440,"stv_port":27046,"stv_name":"Uncletopia | Chicago | 4 | All Maps | STV","players":null},{"server_id":36,"name":"Uncletopia | Chicago | 5 | All Maps","name_short":"chi-5","host":"chi-2.us.uncletopia.com","port":27015,"enabled":true,"region":"us-central","cc":"us","latitude":41.881832,"longitude":-87.62318,"reserved":0,"last_update":"0001-01-01T00:00:00Z","name_a2s":"Uncletopia | Chicago | 5 | All Maps","protocol":17,"map":"koth_lakeside_final","folder":"tf","game":"Team Fortress","app_id":440,"player_count":0,"max_players":24,"Bots":0,"server_type":"Dedicated","server_os":"Linux","password":true,"vac":true,"version":"7757534","steam_id":85568392924866362,"keywords":["cp","nocrits","nodmgspread","uncletopia"],"game_id":440,"stv_port":27016,"stv_name":"Uncletopia | Chicago | 5 | All Maps | STV","players":null},{"server_id":37,"name":"Uncletopia | Chicago | 6 | All Maps","name_short":"chi-6","host":"chi-2.us.uncletopia.com","port":27025,"enabled":true,"region":"us-central","cc":"us","latitude":41.881832,"longitude":-87.62318,"reserved":0,"last_update":"0001-01-01T00:00:00Z","name_a2s":"Uncletopia | Chicago | 6 | All Maps","protocol":17,"map":"pl_swiftwater_final1","folder":"tf","game":"Team Fortress","app_id":440,"player_count":0,"max_players":24,"Bots":0,"server_type":"Dedicated","server_os":"Linux","password":true,"vac":true,"version":"7757534","steam_id":85568392924866363,"keywords":["nocrits","nodmgspread","payload","uncletopia"],"game_id":440,"stv_port":27026,"stv_name":"Uncletopia | Chicago | 6 | All Maps | STV","players":null},{"server_id":38,"name":"Uncletopia | Chicago | 7 | Stopwatch Beta","name_short":"chi-7","host":"chi-2.us.uncletopia.com","port":27035,"enabled":true,"region":"us-central","cc":"us","latitude":41.881832,"longitude":-87.62318,"reserved":0,"last_update":"0001-01-01T00:00:00Z","name_a2s":"Uncletopia | Chicago | 7 | Stopwatch Beta","protocol":17,"map":"koth_viaduct","folder":"tf","game":"Team Fortress","app_id":440,"player_count":0,"max_players":24,"Bots":0,"server_type":"Dedicated","server_os":"Linux","password":true,"vac":true,"version":"7757534","steam_id":85568392924866364,"keywords":["cp","nocrits","nodmgspread","uncletopia"],"game_id":440,"stv_port":27036,"stv_name":"Uncletopia | Chicago | 7 | Stopwatch Beta | STV","players":null},{"server_id":39,"name":"Uncletopia | Chicago | 8 | Community","name_short":"chi-8","host":"chi-2.us.uncletopia.com","port":27045,"enabled":true,"region":"us-central","cc":"us","latitude":41.881832,"longitude":-87.62318,"reserved":0,"last_update":"0001-01-01T00:00:00Z","name_a2s":"Uncletopia | Chicago | 8 | Community","protocol":17,"map":"koth_lakeside_final","folder":"tf","game":"Team Fortress","app_id":440,"player_count":0,"max_players":24,"Bots":0,"server_type":"Dedicated","server_os":"Linux","password":true,"vac":true,"version":"7757534","steam_id":85568392924866365,"keywords":["cp","nocrits","nodmgspread","uncletopia"],"game_id":440,"stv_port":27046,"stv_name":"Uncletopia | Chicago | 8 | Community | STV","players":null},{"server_id":8,"name":"Uncletopia | Dallas | 1 | All Maps","name_short":"dal-1","host":"dal-1.us.uncletopia.com","port":27015,"enabled":true,"region":"us-central","cc":"us","latitude":32.779167,"longitude":-96.80889,"reserved":0,"last_update":"0001-01-01T00:00:00Z","name_a2s":"Uncletopia | Dallas | 1 | All Maps","protocol":17,"map":"koth_cascade","folder":"tf","game":"Team Fortress","app_id":440,"player_count":0,"max_players":24,"Bots":0,"server_type":"Dedicated","server_os":"Linux","password":true,"vac":true,"version":"7757534","steam_id":85568392924469986,"keywords":["cp","nocrits","nodmgspread","uncletopia"],"game_id":440,"stv_port":27016,"stv_name":"Uncletopia | Dallas | 1 | All Maps | STV","players":null},{"server_id":108,"name":"Uncletopia | Dallas | 2 | All Maps","name_short":"dal-2","host":"dal-1.us.uncletopia.com","port":27025,"enabled":true,"region":"us-central","cc":"us","latitude":32.779167,"longitude":-96.80889,"reserved":0,"last_update":"0001-01-01T00:00:00Z","name_a2s":"Uncletopia | Dallas | 2 | All Maps","protocol":17,"map":"pl_borneo","folder":"tf","game":"Team Fortress","app_id":440,"player_count":6,"max_players":24,"Bots":0,"server_type":"Dedicated","server_os":"Linux","password":true,"vac":true,"version":"7757534","steam_id":85568392924469988,"keywords":["nocrits","nodmgspread","payload","uncletopia"],"game_id":440,"stv_port":27026,"stv_name":"Uncletopia | Dallas | 2 | All Maps | STV","players":[{"user_id":7,"name":"VirusGamingEXE #SaveTF2","steam_id":76561199012537997,"connected_time":1542000000000,"state":"active","ping":179},{"user_id":16,"name":"DrO.No.01","steam_id":76561198000663682,"connected_time":473000000000,"state":"active","ping":183},{"user_id":15,"name":"Mr. Russia","steam_id":76561198982766971,"connected_time":492000000000,"state":"active","ping":183},{"user_id":10,"name":"rocketspeed16","steam_id":76561198246227992,"connected_time":987000000000,"state":"active","ping":84},{"user_id":14,"name":"Flare Phoenix","steam_id":76561199079979862,"connected_time":548000000000,"state":"active","ping":69},{"user_id":13,"name":"Chris","steam_id":76561198180625579,"connected_time":722000000000,"state":"active","ping":72}]},{"server_id":5,"name":"Uncletopia | Frankfurt | 1 | All Maps","name_short":"frk-1","host":"frk-1.de.uncletopia.com","port":27015,"enabled":true,"region":"eu","cc":"de","latitude":50.110924,"longitude":8.682127,"reserved":0,"last_update":"0001-01-01T00:00:00Z","name_a2s":"Uncletopia | Frankfurt | 1 | All Maps","protocol":17,"map":"pl_frontier_final","folder":"tf","game":"Team Fortress","app_id":440,"player_count":25,"max_players":24,"Bots":0,"server_type":"Dedicated","server_os":"Linux","password":true,"vac":true,"version":"7757534","steam_id":85568392924469989,"keywords":["nocrits","nodmgspread","payload","uncletopia"],"game_id":440,"stv_port":27016,"stv_name":"Uncletopia | Frankfurt | 1 | All Maps | STV","players":[{"user_id":232,"name":"FatalRyhme","steam_id":76561198018713483,"connected_time":836000000000,"state":"active","ping":85},{"user_id":225,"name":"Mikeshowsha","steam_id":76561199114014127,"connected_time":1397000000000,"state":"active","ping":64},{"user_id":237,"name":"Aneťák","steam_id":76561198159294906,"connected_time":736000000000,"state":"active","ping":513},{"user_id":255,"name":"GardenFungus","steam_id":76561198054894337,"connected_time":205000000000,"state":"active","ping":45},{"user_id":200,"name":"Dorich","steam_id":76561198287126217,"connected_time":2910000000000,"state":"active","ping":58},{"user_id":250,"name":"glyph","steam_id":76561197980736364,"connected_time":504000000000,"state":"active","ping":76},{"user_id":221,"name":"jt7","steam_id":76561198073655162,"connected_time":1909000000000,"state":"active","ping":65},{"user_id":224,"name":"Swaggot329","steam_id":76561198828503940,"connected_time":1412000000000,"state":"active","ping":78},{"user_id":256,"name":"EdSuedi","steam_id":76561199387956486,"connected_time":16000000000,"state":"spawning","ping":59},{"user_id":231,"name":"holykyckling","steam_id":76561198040661615,"connected_time":843000000000,"state":"active","ping":72},{"user_id":249,"name":"Yelowchy","steam_id":76561198199416121,"connected_time":540000000000,"state":"active","ping":68},{"user_id":251,"name":"SpilledMilk","steam_id":76561198174123971,"connected_time":470000000000,"state":"active","ping":56},{"user_id":238,"name":"Kapitan Polska","steam_id":76561197968069413,"connected_time":733000000000,"state":"active","ping":70},{"user_id":252,"name":"Jara.","steam_id":76561197992207165,"connected_time":440000000000,"state":"active","ping":94},{"user_id":208,"name":"stoppen","steam_id":76561197960281482,"connected_time":2481000000000,"state":"active","ping":63},{"user_id":248,"name":"Wir suchen dich!","steam_id":76561198307613521,"connected_time":557000000000,"state":"active","ping":45},{"user_id":246,"name":"RiX","steam_id":76561197969053733,"connected_time":575000000000,"state":"active","ping":65},{"user_id":242,"name":"|-|ɅGBAЯD¢E£1N","steam_id":76561198103977997,"connected_time":706000000000,"state":"active","ping":51},{"user_id":228,"name":"*cough*","steam_id":76561198179908677,"connected_time":1316000000000,"state":"active","ping":171},{"user_id":182,"name":"robbie","steam_id":76561198798195287,"connected_time":4517000000000,"state":"active","ping":59},{"user_id":253,"name":"Septic Tank Enjoyer","steam_id":76561198175629470,"connected_time":414000000000,"state":"active","ping":67},{"user_id":239,"name":"Rashid Besythe","steam_id":76561198081477129,"connected_time":727000000000,"state":"active","ping":65},{"user_id":240,"name":"Gabys","steam_id":76561198282892553,"connected_time":725000000000,"state":"active","ping":73},{"user_id":254,"name":"I eat cum","steam_id":76561198418538887,"connected_time":332000000000,"state":"active","ping":92},{"user_id":257,"name":"popcatgaming #savetf2","steam_id":76561199096398754,"connected_time":7000000000,"state":"spawning","ping":60}]},{"server_id":110,"name":"Uncletopia | Frankfurt | 2 | All Maps","name_short":"frk-2","host":"frk-1.de.uncletopia.com","port":27025,"enabled":true,"region":"eu","cc":"de","latitude":50.110924,"longitude":8.682127,"reserved":0,"last_update":"0001-01-01T00:00:00Z","name_a2s":"Uncletopia | Frankfurt | 2 | All Maps","protocol":17,"map":"koth_cascade","folder":"tf","game":"Team Fortress","app_id":440,"player_count":4,"max_players":24,"Bots":0,"server_type":"Dedicated","server_os":"Linux","password":true,"vac":true,"version":"7757534","steam_id":85568392924469990,"keywords":["cp","nocrits","nodmgspread","uncletopia"],"game_id":440,"stv_port":27026,"stv_name":"Uncletopia | Frankfurt | 2 | All Maps | STV","players":[{"user_id":13,"name":"Thales gaming","steam_id":76561198154569703,"connected_time":196000000000,"state":"active","ping":81},{"user_id":10,"name":"Scazzing","steam_id":76561198052954318,"connected_time":858000000000,"state":"active","ping":54},{"user_id":7,"name":"The Mind Goblin But Festive","steam_id":76561199258468520,"connected_time":1325000000000,"state":"active","ping":74},{"user_id":11,"name":"Jovy Kujoh","steam_id":76561198410598772,"connected_time":834000000000,"state":"active","ping":54}]},{"server_id":308,"name":"Uncletopia | Frankfurt | 3 | All Maps","name_short":"frk-3","host":"frk-1.de.uncletopia.com","port":27035,"enabled":true,"region":"eu","cc":"de","latitude":50.110924,"longitude":8.682127,"reserved":0,"last_update":"0001-01-01T00:00:00Z","name_a2s":"Uncletopia | Frankfurt | 3 | All Maps","protocol":17,"map":"koth_sawmill","folder":"tf","game":"Team Fortress","app_id":440,"player_count":1,"max_players":24,"Bots":0,"server_type":"Dedicated","server_os":"Linux","password":true,"vac":true,"version":"7757534","steam_id":85568392924504274,"keywords":["cp","nocrits","nodmgspread","uncletopia"],"game_id":440,"stv_port":27036,"stv_name":"Uncletopia | Frankfurt | 3 | All Maps | STV","players":[{"user_id":32,"name":"Tomaybe","steam_id":76561199053436214,"connected_time":0,"state":"spawning","ping":0}]},{"server_id":309,"name":"Uncletopia | Frankfurt | 4 | All Maps","name_short":"frk-4","host":"frk-1.de.uncletopia.com","port":27045,"enabled":true,"region":"eu","cc":"de","latitude":50.110924,"longitude":8.682127,"reserved":0,"last_update":"0001-01-01T00:00:00Z","name_a2s":"Uncletopia | Frankfurt | 4 | All Maps","protocol":17,"map":"koth_cascade","folder":"tf","game":"Team Fortress","app_id":440,"player_count":0,"max_players":24,"Bots":0,"server_type":"Dedicated","server_os":"Linux","password":true,"vac":true,"version":"7757534","steam_id":85568392924504275,"keywords":["cp","nocrits","nodmgspread","uncletopia"],"game_id":440,"stv_port":27046,"stv_name":"Uncletopia | Frankfurt | 4 | All Maps | STV","players":null},{"server_id":310,"name":"Uncletopia | Frankfurt | 5 | All Maps","name_short":"frk-5","host":"frk-1.de.uncletopia.com","port":27055,"enabled":true,"region":"eu","cc":"de","latitude":50.110924,"longitude":8.682127,"reserved":0,"last_update":"0001-01-01T00:00:00Z","name_a2s":"Uncletopia | Frankfurt | 5 | All Maps","protocol":17,"map":"koth_cascade","folder":"tf","game":"Team Fortress","app_id":440,"player_count":24,"max_players":24,"Bots":0,"server_type":"Dedicated","server_os":"Linux","password":true,"vac":true,"version":"7757534","steam_id":85568392924504277,"keywords":["cp","nocrits","nodmgspread","uncletopia"],"game_id":440,"stv_port":27056,"stv_name":"Uncletopia | Frankfurt | 5 | All Maps | STV","players":[{"user_id":126,"name":"MRKMRKMRKMRKMRK","steam_id":76561198120166752,"connected_time":846000000000,"state":"active","ping":74},{"user_id":109,"name":"Titar Industries","steam_id":76561198143078476,"connected_time":1378000000000,"state":"active","ping":148},{"user_id":112,"name":"Condigium","steam_id":76561198838929185,"connected_time":1324000000000,"state":"active","ping":53},{"user_id":135,"name":"Mel Rosewood","steam_id":76561198125380509,"connected_time":592000000000,"state":"active","ping":59},{"user_id":79,"name":"duck with sandals","steam_id":76561199154410024,"connected_time":3079000000000,"state":"active","ping":70},{"user_id":125,"name":"EGirlGang","steam_id":76561198257435792,"connected_time":865000000000,"state":"active","ping":69},{"user_id":85,"name":"The Spah","steam_id":76561198292845505,"connected_time":2504000000000,"state":"active","ping":79},{"user_id":127,"name":"Daza_3s","steam_id":76561198796443584,"connected_time":805000000000,"state":"active","ping":43},{"user_id":128,"name":"Nomad994","steam_id":76561198051908201,"connected_time":805000000000,"state":"active","ping":95},{"user_id":124,"name":"SonicOverlordUK","steam_id":76561198094594015,"connected_time":918000000000,"state":"active","ping":67},{"user_id":93,"name":"jona3838","steam_id":76561199097658195,"connected_time":2347000000000,"state":"active","ping":104},{"user_id":137,"name":"Evilton","steam_id":76561198844263922,"connected_time":525000000000,"state":"active","ping":80},{"user_id":136,"name":"scuM--","steam_id":76561198273679047,"connected_time":557000000000,"state":"active","ping":144},{"user_id":130,"name":"Guru","steam_id":76561198093853069,"connected_time":789000000000,"state":"active","ping":58},{"user_id":138,"name":"If I top 3 my team sucks","steam_id":76561198147668373,"connected_time":517000000000,"state":"active","ping":56},{"user_id":133,"name":"Fishman","steam_id":76561198361331179,"connected_time":745000000000,"state":"active","ping":68},{"user_id":139,"name":"Warpzel65","steam_id":76561198799303596,"connected_time":506000000000,"state":"active","ping":110},{"user_id":145,"name":"dotdotdot","steam_id":76561198057628751,"connected_time":195000000000,"state":"active","ping":61},{"user_id":140,"name":"oepidus","steam_id":76561198963841479,"connected_time":471000000000,"state":"active","ping":85},{"user_id":121,"name":"☂ JuuuJь ☂","steam_id":76561198001603395,"connected_time":1108000000000,"state":"active","ping":116},{"user_id":143,"name":"golum","steam_id":76561198000092350,"connected_time":285000000000,"state":"active","ping":70},{"user_id":144,"name":"TheSiike","steam_id":76561198104872968,"connected_time":283000000000,"state":"active","ping":82},{"user_id":117,"name":"Chrikin","steam_id":76561198416301532,"connected_time":1214000000000,"state":"active","ping":175},{"user_id":123,"name":"Speedoe36","steam_id":76561198072774823,"connected_time":1077000000000,"state":"active","ping":85}]},{"server_id":311,"name":"Uncletopia | Frankfurt | 6 | All Maps","name_short":"frk-6","host":"frk-1.de.uncletopia.com","port":27065,"enabled":true,"region":"eu","cc":"de","latitude":50.110924,"longitude":8.682127,"reserved":0,"last_update":"0001-01-01T00:00:00Z","name_a2s":"Uncletopia | Frankfurt | 6 | All Maps","protocol":17,"map":"pl_snowycoast","folder":"tf","game":"Team Fortress","app_id":440,"player_count":3,"max_players":24,"Bots":0,"server_type":"Dedicated","server_os":"Linux","password":true,"vac":true,"version":"7757534","steam_id":85568392924504278,"keywords":["nocrits","nodmgspread","payload","uncletopia"],"game_id":440,"stv_port":27066,"stv_name":"Uncletopia | Frankfurt | 6 | All Maps | STV","players":[{"user_id":9,"name":"Assassin365","steam_id":76561198263118287,"connected_time":959000000000,"state":"active","ping":56},{"user_id":10,"name":"chili014CZ","steam_id":76561199121684170,"connected_time":956000000000,"state":"active","ping":55},{"user_id":12,"name":"commetteri","steam_id":76561198334136396,"connected_time":465000000000,"state":"active","ping":47}]},{"server_id":23,"name":"Uncletopia | Frankfurt | 7 | Stopwatch Beta","name_short":"frk-7","host":"frk-1.de.uncletopia.com","port":27075,"enabled":true,"region":"eu","cc":"de","latitude":50.110924,"longitude":8.682127,"reserved":0,"last_update":"0001-01-01T00:00:00Z","name_a2s":"Uncletopia | Frankfurt | 7 | Stopwatch Beta","protocol":17,"map":"pl_borneo","folder":"tf","game":"Team Fortress","app_id":440,"player_count":0,"max_players":24,"Bots":0,"server_type":"Dedicated","server_os":"Linux","password":true,"vac":true,"version":"7757534","steam_id":85568392924742827,"keywords":["nocrits","nodmgspread","payload","uncletopia"],"game_id":440,"stv_port":27076,"stv_name":"Uncletopia | Frankfurt | 7 | Stopwatch Beta | STV","players":null},{"server_id":24,"name":"Uncletopia | Frankfurt | 8 | Community","name_short":"frk-8","host":"frk-1.de.uncletopia.com","port":27085,"enabled":true,"region":"eu","cc":"de","latitude":50.110924,"longitude":8.682127,"reserved":0,"last_update":"0001-01-01T00:00:00Z","name_a2s":"Uncletopia | Frankfurt | 8 | Community","protocol":17,"map":"workshop/pl_eruption_b9a.ugc2807898013","folder":"tf","game":"Team Fortress","app_id":440,"player_count":23,"max_players":24,"Bots":0,"server_type":"Dedicated","server_os":"Linux","password":true,"vac":true,"version":"7757534","steam_id":85568392924742828,"keywords":["nocrits","nodmgspread","payload","uncletopia"],"game_id":440,"stv_port":27086,"stv_name":"Uncletopia | Frankfurt | 8 | Community | STV","players":[{"user_id":151,"name":"player","steam_id":76561198054474684,"connected_time":8933000000000,"state":"spawning","ping":147},{"user_id":298,"name":"=^_^=","steam_id":76561198076494034,"connected_time":1280000000000,"state":"spawning","ping":103},{"user_id":287,"name":"Catsanddogs123","steam_id":76561198030868386,"connected_time":1818000000000,"state":"connecting","ping":307},{"user_id":269,"name":"Fus in Boots","steam_id":76561198053897722,"connected_time":2521000000000,"state":"spawning","ping":84},{"user_id":283,"name":"cislastar","steam_id":76561198027202375,"connected_time":1884000000000,"state":"spawning","ping":86},{"user_id":304,"name":"peach soup","steam_id":76561199366403155,"connected_time":997000000000,"state":"spawning","ping":123},{"user_id":293,"name":"midlpsyzl47","steam_id":76561199475972637,"connected_time":1476000000000,"state":"spawning","ping":113},{"user_id":302,"name":"Jimmy","steam_id":76561198133680783,"connected_time":1046000000000,"state":"spawning","ping":100},{"user_id":261,"name":"ansandr2005","steam_id":76561199004251723,"connected_time":2869000000000,"state":"spawning","ping":138},{"user_id":284,"name":"Aregularhuman","steam_id":76561198343319848,"connected_time":1855000000000,"state":"spawning","ping":136},{"user_id":266,"name":"Mi Manchi","steam_id":76561198171573129,"connected_time":2644000000000,"state":"spawning","ping":124},{"user_id":299,"name":"Mass","steam_id":76561198432195204,"connected_time":1161000000000,"state":"spawning","ping":126},{"user_id":275,"name":"♥ Cirno ♥","steam_id":76561198834982738,"connected_time":2275000000000,"state":"spawning","ping":100},{"user_id":239,"name":"i must b line to drop pod","steam_id":76561199042470246,"connected_time":3926000000000,"state":"spawning","ping":156},{"user_id":300,"name":"prophits","steam_id":76561198011854314,"connected_time":1153000000000,"state":"spawning","ping":159},{"user_id":303,"name":"monke","steam_id":76561199098819786,"connected_time":1018000000000,"state":"spawning","ping":161},{"user_id":66,"name":"Fat Pigeon","steam_id":76561198817940142,"connected_time":13339000000000,"state":"spawning","ping":99},{"user_id":285,"name":"bruh","steam_id":76561198109262927,"connected_time":1844000000000,"state":"spawning","ping":176},{"user_id":244,"name":"yyny","steam_id":76561198066287297,"connected_time":3701000000000,"state":"spawning","ping":130},{"user_id":246,"name":"lord-carlos","steam_id":76561198025150761,"connected_time":3545000000000,"state":"spawning","ping":122},{"user_id":251,"name":"Charrky","steam_id":76561198054398642,"connected_time":3257000000000,"state":"spawning","ping":133},{"user_id":280,"name":"hud_saytext_time 0","steam_id":76561198010327228,"connected_time":2067000000000,"state":"spawning","ping":126},{"user_id":296,"name":"ムGeRmAn |×UA×ム","steam_id":76561199044754898,"connected_time":1380000000000,"state":"spawning","ping":186}]},{"server_id":202,"name":"Uncletopia | Hong Kong | 1 | All Maps","name_short":"hgk-1","host":"hgk-1.hk.uncletopia.com","port":27015,"enabled":true,"region":"asia","cc":"hk","latitude":22.302711,"longitude":114.177216,"reserved":0,"last_update":"0001-01-01T00:00:00Z","name_a2s":"Uncletopia | Hong Kong | 1 | All Maps","protocol":17,"map":"pl_pier","folder":"tf","game":"Team Fortress","app_id":440,"player_count":19,"max_players":24,"Bots":0,"server_type":"Dedicated","server_os":"Linux","password":true,"vac":true,"version":"7757534","steam_id":85568392924494504,"keywords":["nocrits","nodmgspread","payload","uncletopia"],"game_id":440,"stv_port":27016,"stv_name":"Uncletopia | Hong Kong | 1 | All Maps | STV","players":[{"user_id":681,"name":"you best not miss","steam_id":76561197999891358,"connected_time":2319000000000,"state":"active","ping":253},{"user_id":723,"name":"green_frog","steam_id":76561199202028346,"connected_time":839000000000,"state":"active","ping":183},{"user_id":675,"name":"Waltuh (CEO of Chicanery)","steam_id":76561199257300024,"connected_time":2429000000000,"state":"active","ping":73},{"user_id":629,"name":"Big M","steam_id":76561199052493829,"connected_time":3936000000000,"state":"active","ping":55},{"user_id":724,"name":"raxyls","steam_id":76561199240109950,"connected_time":827000000000,"state":"active","ping":144},{"user_id":731,"name":"put dispenser here","steam_id":76561199189735185,"connected_time":486000000000,"state":"active","ping":62},{"user_id":735,"name":"SunShine","steam_id":76561198323642446,"connected_time":279000000000,"state":"active","ping":94},{"user_id":737,"name":"Cotton Candyness","steam_id":76561198118254127,"connected_time":203000000000,"state":"active","ping":59},{"user_id":717,"name":"screaming sniper","steam_id":76561199085568674,"connected_time":1313000000000,"state":"active","ping":78},{"user_id":692,"name":"edward","steam_id":76561198303255912,"connected_time":1917000000000,"state":"active","ping":59},{"user_id":581,"name":"母の肉団子@hao123.com","steam_id":76561198069561896,"connected_time":6233000000000,"state":"active","ping":43},{"user_id":719,"name":"Leo Chung","steam_id":76561198044007777,"connected_time":1243000000000,"state":"active","ping":59},{"user_id":621,"name":"muhi(JP) #SAVE TF2","steam_id":76561198167528797,"connected_time":4235000000000,"state":"active","ping":152},{"user_id":622,"name":"Bertengkar","steam_id":76561198213031155,"connected_time":4196000000000,"state":"active","ping":90},{"user_id":726,"name":"Azi","steam_id":76561198147872523,"connected_time":808000000000,"state":"active","ping":60},{"user_id":738,"name":"xX_thr0bb1ng_c0ck_Xx","steam_id":76561199248550099,"connected_time":171000000000,"state":"active","ping":61},{"user_id":739,"name":"Jazzyfact","steam_id":76561198072056390,"connected_time":164000000000,"state":"active","ping":113},{"user_id":587,"name":"TomCat","steam_id":76561198133744053,"connected_time":5948000000000,"state":"active","ping":112},{"user_id":684,"name":"Redegade","steam_id":76561198335619751,"connected_time":2167000000000,"state":"active","ping":119}]},{"server_id":1,"name":"Uncletopia | Los Angeles | 1 | All Maps","name_short":"lax-1","host":"lax-1.us.uncletopia.com","port":27015,"enabled":true,"region":"us-west","cc":"us","latitude":33.94279,"longitude":-118.41004,"reserved":0,"last_update":"0001-01-01T00:00:00Z","name_a2s":"Uncletopia | Los Angeles | 1 | All Maps","protocol":17,"map":"cp_process_final","folder":"tf","game":"Team Fortress","app_id":440,"player_count":0,"max_players":24,"Bots":0,"server_type":"Dedicated","server_os":"Linux","password":true,"vac":true,"version":"7757534","steam_id":85568392924469991,"keywords":["cp","nocrits","nodmgspread","uncletopia"],"game_id":440,"stv_port":27016,"stv_name":"Uncletopia | Los Angeles | 1 | All Maps | STV","players":null},{"server_id":112,"name":"Uncletopia | Los Angeles | 2 | All Maps","name_short":"lax-2","host":"lax-1.us.uncletopia.com","port":27025,"enabled":true,"region":"us-west","cc":"us","latitude":33.94279,"longitude":-118.41004,"reserved":0,"last_update":"0001-01-01T00:00:00Z","name_a2s":"Uncletopia | Los Angeles | 2 | All Maps","protocol":17,"map":"koth_viaduct","folder":"tf","game":"Team Fortress","app_id":440,"player_count":0,"max_players":24,"Bots":0,"server_type":"Dedicated","server_os":"Linux","password":true,"vac":true,"version":"7757534","steam_id":85568392924469992,"keywords":["cp","nocrits","nodmgspread","uncletopia"],"game_id":440,"stv_port":27026,"stv_name":"Uncletopia | Los Angeles | 2 | All Maps | STV","players":null},{"server_id":324,"name":"Uncletopia | Los Angeles | 3 | All Maps","name_short":"lax-3","host":"lax-1.us.uncletopia.com","port":27035,"enabled":true,"region":"us-west","cc":"us","latitude":33.94279,"longitude":-118.41004,"reserved":0,"last_update":"0001-01-01T00:00:00Z","name_a2s":"Uncletopia | Los Angeles | 3 | All Maps","protocol":17,"map":"cp_altitude","folder":"tf","game":"Team Fortress","app_id":440,"player_count":0,"max_players":24,"Bots":0,"server_type":"Dedicated","server_os":"Linux","password":true,"vac":true,"version":"7757534","steam_id":85568392924510198,"keywords":["cp","nocrits","nodmgspread","uncletopia"],"game_id":440,"stv_port":27036,"stv_name":"Uncletopia | Los Angeles | 3 | All Maps | STV","players":null},{"server_id":25,"name":"Uncletopia | Los Angeles | 4 | Stopwatch Beta","name_short":"lax-4","host":"lax-1.us.uncletopia.com","port":27045,"enabled":true,"region":"us-west","cc":"us","latitude":33.94279,"longitude":-118.41004,"reserved":0,"last_update":"0001-01-01T00:00:00Z","name_a2s":"Uncletopia | Los Angeles | 4 | Stopwatch Beta","protocol":17,"map":"cp_dustbowl","folder":"tf","game":"Team Fortress","app_id":440,"player_count":0,"max_players":24,"Bots":0,"server_type":"Dedicated","server_os":"Linux","password":true,"vac":true,"version":"7757534","steam_id":85568392924510199,"keywords":["cp","nocrits","nodmgspread","uncletopia"],"game_id":440,"stv_port":27046,"stv_name":"Uncletopia | Los Angeles | 4 | Stopwatch Beta | STV","players":null},{"server_id":11,"name":"Uncletopia | London | 1 | All Maps","name_short":"lon-1","host":"lon-1.uk.uncletopia.com","port":27015,"enabled":true,"region":"eu","cc":"gb","latitude":51.509865,"longitude":-0.118092,"reserved":0,"last_update":"0001-01-01T00:00:00Z","name_a2s":"Uncletopia | London | 1 | All Maps","protocol":17,"map":"ctf_2fort","folder":"tf","game":"Team Fortress","app_id":440,"player_count":24,"max_players":24,"Bots":0,"server_type":"Dedicated","server_os":"Linux","password":true,"vac":true,"version":"7757534","steam_id":85568392924367362,"keywords":["ctf","nocrits","nodmgspread","uncletopia"],"game_id":440,"stv_port":27016,"stv_name":"Uncletopia | London | 1 | All Maps | STV","players":[{"user_id":175,"name":"Hellmut","steam_id":76561198019764248,"connected_time":273000000000,"state":"active","ping":103},{"user_id":171,"name":"Kitfist","steam_id":76561198048559338,"connected_time":575000000000,"state":"active","ping":45},{"user_id":170,"name":"Hussite","steam_id":76561199293036742,"connected_time":579000000000,"state":"active","ping":60},{"user_id":105,"name":"jimbob","steam_id":76561198089322416,"connected_time":4809000000000,"state":"active","ping":87},{"user_id":94,"name":"ldshwt","steam_id":76561198090364357,"connected_time":5534000000000,"state":"active","ping":60},{"user_id":176,"name":"NoMaK","steam_id":76561198045767666,"connected_time":252000000000,"state":"active","ping":99},{"user_id":155,"name":"Gimli","steam_id":76561198004149706,"connected_time":2130000000000,"state":"active","ping":59},{"user_id":154,"name":"Boki","steam_id":76561198044553351,"connected_time":2237000000000,"state":"active","ping":75},{"user_id":159,"name":"Gaster846","steam_id":76561199082584295,"connected_time":1903000000000,"state":"active","ping":71},{"user_id":62,"name":"Caerot","steam_id":76561198839000676,"connected_time":7821000000000,"state":"active","ping":71},{"user_id":173,"name":"Taskyy","steam_id":76561198134901175,"connected_time":546000000000,"state":"active","ping":87},{"user_id":37,"name":"Space","steam_id":76561198021572167,"connected_time":9509000000000,"state":"active","ping":45},{"user_id":165,"name":"fume.","steam_id":76561197960476801,"connected_time":1464000000000,"state":"active","ping":55},{"user_id":146,"name":"Dithmarschen","steam_id":76561198068917140,"connected_time":2813000000000,"state":"active","ping":104},{"user_id":169,"name":"Sun Tzu's Fun Zoo","steam_id":76561198051129831,"connected_time":627000000000,"state":"active","ping":45},{"user_id":148,"name":"Ghost11","steam_id":76561198068892992,"connected_time":2772000000000,"state":"active","ping":115},{"user_id":177,"name":"SpeddyMeddy","steam_id":76561197999693825,"connected_time":232000000000,"state":"active","ping":68},{"user_id":183,"name":"Cunningstunt","steam_id":76561198050833445,"connected_time":93000000000,"state":"active","ping":50},{"user_id":180,"name":"GhostJuice","steam_id":76561198164087698,"connected_time":179000000000,"state":"active","ping":92},{"user_id":29,"name":"Birdseye","steam_id":76561198025852216,"connected_time":10149000000000,"state":"active","ping":59},{"user_id":182,"name":"jimmy bob","steam_id":76561198319583692,"connected_time":100000000000,"state":"active","ping":59},{"user_id":184,"name":"Laru","steam_id":76561197998838438,"connected_time":92000000000,"state":"active","ping":81},{"user_id":185,"name":"NöSTer","steam_id":76561198354649544,"connected_time":33000000000,"state":"active","ping":72},{"user_id":129,"name":"Igames","steam_id":76561198414062544,"connected_time":4082000000000,"state":"active","ping":77}]},{"server_id":114,"name":"Uncletopia | London | 2 | All Maps","name_short":"lon-2","host":"lon-1.uk.uncletopia.com","port":27025,"enabled":true,"region":"eu","cc":"gb","latitude":51.509865,"longitude":-0.118092,"reserved":0,"last_update":"0001-01-01T00:00:00Z","name_a2s":"Uncletopia | London | 2 | All Maps","protocol":17,"map":"pl_pier","folder":"tf","game":"Team Fortress","app_id":440,"player_count":24,"max_players":24,"Bots":0,"server_type":"Dedicated","server_os":"Linux","password":true,"vac":true,"version":"7757534","steam_id":85568392924470941,"keywords":["nocrits","nodmgspread","payload","uncletopia"],"game_id":440,"stv_port":27026,"stv_name":"Uncletopia | London | 2 | All Maps | STV","players":[{"user_id":439,"name":"r2d2.(/ˌɑːr.tuːˈdiːtuː/)","steam_id":76561198201235703,"connected_time":381000000000,"state":"active","ping":70},{"user_id":359,"name":"nyanezt","steam_id":76561198253734265,"connected_time":6458000000000,"state":"active","ping":101},{"user_id":429,"name":"Fluffy","steam_id":76561198079404910,"connected_time":1426000000000,"state":"active","ping":69},{"user_id":440,"name":"Wattoz","steam_id":76561198127779511,"connected_time":380000000000,"state":"active","ping":60},{"user_id":432,"name":"medium rare chicken enjoyer","steam_id":76561198050214002,"connected_time":641000000000,"state":"active","ping":67},{"user_id":416,"name":"Qwertuss","steam_id":76561198026305366,"connected_time":3259000000000,"state":"active","ping":56},{"user_id":399,"name":"Gideon","steam_id":76561198045132575,"connected_time":3988000000000,"state":"active","ping":44},{"user_id":434,"name":"certified caber enjoyer","steam_id":76561199012488416,"connected_time":474000000000,"state":"active","ping":86},{"user_id":436,"name":"E-why","steam_id":76561198063270899,"connected_time":437000000000,"state":"active","ping":44},{"user_id":445,"name":"JohnnyRakieta","steam_id":76561198855789287,"connected_time":204000000000,"state":"active","ping":68},{"user_id":448,"name":"Sou1Eater7","steam_id":76561198011330131,"connected_time":3000000000,"state":"spawning","ping":178},{"user_id":431,"name":"cropping","steam_id":76561198026586456,"connected_time":1076000000000,"state":"active","ping":60},{"user_id":438,"name":"Maya","steam_id":76561198031587210,"connected_time":389000000000,"state":"active","ping":124},{"user_id":426,"name":"Saken","steam_id":76561198049075295,"connected_time":1496000000000,"state":"active","ping":64},{"user_id":430,"name":"[OwO] shadow wolf","steam_id":76561198031573426,"connected_time":1415000000000,"state":"active","ping":75},{"user_id":400,"name":"Squeaky","steam_id":76561198177338045,"connected_time":3831000000000,"state":"active","ping":46},{"user_id":437,"name":"Maximus","steam_id":76561198032472655,"connected_time":415000000000,"state":"active","ping":60},{"user_id":433,"name":"lark","steam_id":76561198091724522,"connected_time":589000000000,"state":"active","ping":53},{"user_id":421,"name":"addicted","steam_id":76561199129801006,"connected_time":2019000000000,"state":"active","ping":52},{"user_id":441,"name":"Pootis penser","steam_id":76561198944032480,"connected_time":373000000000,"state":"active","ping":102},{"user_id":442,"name":"Arti","steam_id":76561197983352845,"connected_time":310000000000,"state":"active","ping":57},{"user_id":306,"name":"jar","steam_id":76561198156384007,"connected_time":9342000000000,"state":"active","ping":49},{"user_id":447,"name":"sam-","steam_id":76561198013770973,"connected_time":122000000000,"state":"active","ping":71},{"user_id":381,"name":"Shynii","steam_id":76561198194682105,"connected_time":5076000000000,"state":"active","ping":60}]},{"server_id":320,"name":"Uncletopia | London | 3 | All Maps","name_short":"lon-3","host":"lon-1.uk.uncletopia.com","port":27035,"enabled":true,"region":"eu","cc":"gb","latitude":51.509865,"longitude":-0.118092,"reserved":0,"last_update":"0001-01-01T00:00:00Z","name_a2s":"Uncletopia | London | 3 | All Maps","protocol":17,"map":"koth_sawmill","folder":"tf","game":"Team Fortress","app_id":440,"player_count":23,"max_players":24,"Bots":0,"server_type":"Dedicated","server_os":"Linux","password":true,"vac":true,"version":"7757534","steam_id":85568392924510192,"keywords":["cp","nocrits","nodmgspread","uncletopia"],"game_id":440,"stv_port":27036,"stv_name":"Uncletopia | London | 3 | All Maps | STV","players":[{"user_id":155,"name":"akakez","steam_id":76561198095432821,"connected_time":959000000000,"state":"active","ping":108},{"user_id":158,"name":"Don","steam_id":76561198440393742,"connected_time":397000000000,"state":"active","ping":106},{"user_id":31,"name":"Zonts","steam_id":76561198850176432,"connected_time":7202000000000,"state":"active","ping":79},{"user_id":129,"name":"HorizonPear","steam_id":76561198179808389,"connected_time":2236000000000,"state":"active","ping":139},{"user_id":156,"name":"Sparky","steam_id":76561198036754195,"connected_time":907000000000,"state":"active","ping":50},{"user_id":109,"name":"microwavedelights","steam_id":76561199260959455,"connected_time":3662000000000,"state":"active","ping":167},{"user_id":153,"name":"ArikMor","steam_id":76561199124472513,"connected_time":1059000000000,"state":"active","ping":125},{"user_id":95,"name":"lumper","steam_id":76561198862113388,"connected_time":4544000000000,"state":"active","ping":75},{"user_id":100,"name":"Ansari","steam_id":76561198074982971,"connected_time":4154000000000,"state":"active","ping":58},{"user_id":159,"name":"gamingchair","steam_id":76561199476396739,"connected_time":302000000000,"state":"active","ping":66},{"user_id":136,"name":"spiegelsberge","steam_id":76561199469797619,"connected_time":1972000000000,"state":"active","ping":65},{"user_id":62,"name":"Pinkchup","steam_id":76561198106802803,"connected_time":6160000000000,"state":"active","ping":77},{"user_id":40,"name":"Mayor Wank from Wanker Town","steam_id":76561197998253588,"connected_time":6917000000000,"state":"active","ping":57},{"user_id":131,"name":"M1","steam_id":76561198080363232,"connected_time":2181000000000,"state":"active","ping":169},{"user_id":149,"name":"Just_Random_Stuf","steam_id":76561199000503438,"connected_time":1145000000000,"state":"active","ping":66},{"user_id":137,"name":"Xoukz","steam_id":76561198356014540,"connected_time":1952000000000,"state":"active","ping":105},{"user_id":157,"name":"Flare","steam_id":76561198039098320,"connected_time":525000000000,"state":"active","ping":50},{"user_id":160,"name":"V","steam_id":76561199006462039,"connected_time":291000000000,"state":"active","ping":99},{"user_id":144,"name":"AwterSix","steam_id":76561198042561678,"connected_time":1412000000000,"state":"active","ping":62},{"user_id":42,"name":"NABER","steam_id":76561198831465151,"connected_time":6881000000000,"state":"active","ping":90},{"user_id":105,"name":"Dr. Uberschwein","steam_id":76561198111367431,"connected_time":4068000000000,"state":"active","ping":67},{"user_id":161,"name":"Noob_with_source","steam_id":76561198870362103,"connected_time":270000000000,"state":"active","ping":56},{"user_id":139,"name":"Pooryoungfrog","steam_id":76561199174779667,"connected_time":1926000000000,"state":"active","ping":156}]},{"server_id":321,"name":"Uncletopia | London | 4 | All Maps","name_short":"lon-4","host":"lon-1.uk.uncletopia.com","port":27045,"enabled":true,"region":"eu","cc":"gb","latitude":51.509865,"longitude":-0.118092,"reserved":0,"last_update":"0001-01-01T00:00:00Z","name_a2s":"Uncletopia | London | 4 | All Maps","protocol":17,"map":"pl_borneo","folder":"tf","game":"Team Fortress","app_id":440,"player_count":24,"max_players":24,"Bots":0,"server_type":"Dedicated","server_os":"Linux","password":true,"vac":true,"version":"7757534","steam_id":85568392924510193,"keywords":["nocrits","nodmgspread","payload","uncletopia"],"game_id":440,"stv_port":27046,"stv_name":"Uncletopia | London | 4 | All Maps | STV","players":[{"user_id":319,"name":"102ping","steam_id":76561199000963772,"connected_time":833000000000,"state":"active","ping":64},{"user_id":296,"name":"LOBZIK","steam_id":76561198114830120,"connected_time":2723000000000,"state":"active","ping":83},{"user_id":228,"name":"TehMooN","steam_id":76561199124793751,"connected_time":7171000000000,"state":"active","ping":140},{"user_id":301,"name":"Zerfesh","steam_id":76561198117534358,"connected_time":2086000000000,"state":"active","ping":98},{"user_id":316,"name":"Cosmonaut","steam_id":76561198239514504,"connected_time":1349000000000,"state":"active","ping":66},{"user_id":271,"name":"XPullaHiiri","steam_id":76561198031652375,"connected_time":4396000000000,"state":"active","ping":98},{"user_id":336,"name":"Fulfulet","steam_id":76561198324992666,"connected_time":89000000000,"state":"active","ping":118},{"user_id":302,"name":"Wattseyy","steam_id":76561198248567360,"connected_time":2036000000000,"state":"active","ping":42},{"user_id":318,"name":"GamingCarp","steam_id":76561198285235511,"connected_time":1129000000000,"state":"active","ping":49},{"user_id":237,"name":"competitively suicidal","steam_id":76561198193357946,"connected_time":6022000000000,"state":"active","ping":114},{"user_id":337,"name":"LSKi","steam_id":76561198215470228,"connected_time":38000000000,"state":"active","ping":56},{"user_id":331,"name":"Toaster1337","steam_id":76561198103706881,"connected_time":335000000000,"state":"active","ping":70},{"user_id":309,"name":"yawnn","steam_id":76561198088624259,"connected_time":1832000000000,"state":"active","ping":59},{"user_id":299,"name":"Mr. Hunts","steam_id":76561197981910397,"connected_time":2161000000000,"state":"active","ping":61},{"user_id":298,"name":"MAKENTAKEN","steam_id":76561199127359587,"connected_time":2509000000000,"state":"active","ping":102},{"user_id":304,"name":"Lilliputt","steam_id":76561198090146457,"connected_time":1983000000000,"state":"active","ping":41},{"user_id":335,"name":"Houlles","steam_id":76561198095277383,"connected_time":204000000000,"state":"active","ping":49},{"user_id":327,"name":"Dlaf'rferg (she/her)","steam_id":76561198284744735,"connected_time":591000000000,"state":"active","ping":58},{"user_id":326,"name":"Cocteau Twins - Heaven or Las V","steam_id":76561198119470669,"connected_time":610000000000,"state":"active","ping":58},{"user_id":328,"name":"Kiers","steam_id":76561198834266801,"connected_time":580000000000,"state":"active","ping":68},{"user_id":306,"name":"VolcanicArts","steam_id":76561198063453246,"connected_time":1937000000000,"state":"active","ping":46},{"user_id":277,"name":"walluu","steam_id":76561198121830870,"connected_time":4172000000000,"state":"active","ping":76},{"user_id":267,"name":"GuSkand","steam_id":76561198043775605,"connected_time":4655000000000,"state":"active","ping":92},{"user_id":333,"name":"relic_","steam_id":76561199053114167,"connected_time":255000000000,"state":"active","ping":76}]},{"server_id":21,"name":"Uncletopia | London | 5 | All Maps","name_short":"lon-5","host":"lon-1.uk.uncletopia.com","port":27055,"enabled":true,"region":"eu","cc":"gb","latitude":51.509865,"longitude":-0.118092,"reserved":0,"last_update":"0001-01-01T00:00:00Z","name_a2s":"Uncletopia | London | 5 | All Maps","protocol":17,"map":"pl_snowycoast","folder":"tf","game":"Team Fortress","app_id":440,"player_count":2,"max_players":24,"Bots":0,"server_type":"Dedicated","server_os":"Linux","password":true,"vac":true,"version":"7757534","steam_id":85568392924742829,"keywords":["nocrits","nodmgspread","payload","uncletopia"],"game_id":440,"stv_port":27056,"stv_name":"Uncletopia | London | 5 | All Maps | STV","players":[{"user_id":9,"name":"toxxy the trash","steam_id":76561198279983364,"connected_time":300000000000,"state":"active","ping":63},{"user_id":10,"name":"medium rare chicken","steam_id":76561198059496944,"connected_time":293000000000,"state":"active","ping":35}]},{"server_id":22,"name":"Uncletopia | London | 6 | All Maps","name_short":"lon-6","host":"lon-1.uk.uncletopia.com","port":27065,"enabled":true,"region":"eu","cc":"gb","latitude":51.509865,"longitude":-0.118092,"reserved":0,"last_update":"0001-01-01T00:00:00Z","name_a2s":"Uncletopia | London | 6 | All Maps","protocol":17,"map":"pl_borneo","folder":"tf","game":"Team Fortress","app_id":440,"player_count":12,"max_players":24,"Bots":0,"server_type":"Dedicated","server_os":"Linux","password":true,"vac":true,"version":"7757534","steam_id":85568392924742830,"keywords":["nocrits","nodmgspread","payload","uncletopia"],"game_id":440,"stv_port":27066,"stv_name":"Uncletopia | London | 6 | All Maps | STV","players":[{"user_id":249,"name":"Kyte","steam_id":76561198936606778,"connected_time":474000000000,"state":"active","ping":63},{"user_id":247,"name":"zefi76","steam_id":76561198013125570,"connected_time":692000000000,"state":"active","ping":87},{"user_id":250,"name":"Big Smoke","steam_id":76561199242777363,"connected_time":467000000000,"state":"active","ping":53},{"user_id":251,"name":"『Dorarhim』","steam_id":76561198220232352,"connected_time":47000000000,"state":"active","ping":50},{"user_id":252,"name":"TrollFace","steam_id":76561198799317717,"connected_time":20000000000,"state":"active","ping":146},{"user_id":235,"name":"TheBeardedM1G","steam_id":76561198040208946,"connected_time":2221000000000,"state":"active","ping":45},{"user_id":237,"name":"Proud Jojo Fan #TF2SP","steam_id":76561198847327216,"connected_time":1765000000000,"state":"active","ping":69},{"user_id":240,"name":"Marley","steam_id":76561198045380078,"connected_time":1551000000000,"state":"active","ping":69},{"user_id":244,"name":"meow","steam_id":76561199216923710,"connected_time":1223000000000,"state":"active","ping":136},{"user_id":232,"name":"Largo","steam_id":76561198844368927,"connected_time":2592000000000,"state":"active","ping":66},{"user_id":124,"name":"Wardruna96","steam_id":76561199057083828,"connected_time":9836000000000,"state":"active","ping":84},{"user_id":238,"name":"DrExplosive","steam_id":76561198063678579,"connected_time":1650000000000,"state":"active","ping":54}]},{"server_id":40,"name":"Uncletopia | London | 7 | No Payload","name_short":"lon-7","host":"lon-1.uk.uncletopia.com","port":27075,"enabled":true,"region":"eu","cc":"gb","latitude":51.509865,"longitude":-0.118092,"reserved":0,"last_update":"0001-01-01T00:00:00Z","name_a2s":"Uncletopia | London | 7 | No Payload","protocol":17,"map":"cp_foundry","folder":"tf","game":"Team Fortress","app_id":440,"player_count":0,"max_players":24,"Bots":0,"server_type":"Dedicated","server_os":"Linux","password":true,"vac":true,"version":"7757534","steam_id":85568392924964314,"keywords":["cp","nocrits","nodmgspread","uncletopia"],"game_id":440,"stv_port":27076,"stv_name":"Uncletopia | London | 7 | No Payload | STV","players":null},{"server_id":41,"name":"Uncletopia | London | 8 | Community","name_short":"lon-8","host":"lon-1.uk.uncletopia.com","port":27085,"enabled":true,"region":"eu","cc":"gb","latitude":51.509865,"longitude":-0.118092,"reserved":0,"last_update":"0001-01-01T00:00:00Z","name_a2s":"Uncletopia | London | 8 | Community","protocol":17,"map":"workshop/koth_kemptown_rc1.ugc767410655","folder":"tf","game":"Team Fortress","app_id":440,"player_count":1,"max_players":24,"Bots":0,"server_type":"Dedicated","server_os":"Linux","password":true,"vac":true,"version":"7757534","steam_id":85568392924964315,"keywords":["cp","nocrits","nodmgspread","uncletopia"],"game_id":440,"stv_port":27086,"stv_name":"Uncletopia | London | 8 | Community | STV","players":[{"user_id":32,"name":"After8","steam_id":76561198090750865,"connected_time":40000000000,"state":"active","ping":64}]},{"server_id":300,"name":"Uncletopia | Montréal | 1 | All Maps","name_short":"mtl-1","host":"mtl-1.ca.uncletopia.com","port":27015,"enabled":true,"region":"us-east","cc":"ca","latitude":45.50889,"longitude":-73.56167,"reserved":0,"last_update":"0001-01-01T00:00:00Z","name_a2s":"Uncletopia | Montréal | 1 | All Maps","protocol":17,"map":"pl_pier","folder":"tf","game":"Team Fortress","app_id":440,"player_count":0,"max_players":24,"Bots":0,"server_type":"Dedicated","server_os":"Linux","password":true,"vac":true,"version":"7757534","steam_id":85568392924500087,"keywords":["nocrits","nodmgspread","payload","uncletopia"],"game_id":440,"stv_port":27016,"stv_name":"Uncletopia | Montréal | 1 | All Maps | STV","players":null},{"server_id":301,"name":"Uncletopia | Montréal | 2 | All Maps","name_short":"mtl-2","host":"mtl-1.ca.uncletopia.com","port":27025,"enabled":true,"region":"us-east","cc":"ca","latitude":45.50889,"longitude":-73.56167,"reserved":0,"last_update":"0001-01-01T00:00:00Z","name_a2s":"Uncletopia | Montréal | 2 | All Maps","protocol":17,"map":"cp_sunshine","folder":"tf","game":"Team Fortress","app_id":440,"player_count":0,"max_players":24,"Bots":0,"server_type":"Dedicated","server_os":"Linux","password":true,"vac":true,"version":"7757534","steam_id":85568392924500088,"keywords":["cp","nocrits","nodmgspread","uncletopia"],"game_id":440,"stv_port":27026,"stv_name":"Uncletopia | Montréal | 2 | All Maps | STV","players":null},{"server_id":302,"name":"Uncletopia | Montréal | 3 | All Maps","name_short":"mtl-3","host":"mtl-1.ca.uncletopia.com","port":27035,"enabled":true,"region":"us-east","cc":"ca","latitude":45.50889,"longitude":-73.56167,"reserved":0,"last_update":"0001-01-01T00:00:00Z","name_a2s":"Uncletopia | Montréal | 3 | All Maps","protocol":17,"map":"pl_frontier_final","folder":"tf","game":"Team Fortress","app_id":440,"player_count":0,"max_players":24,"Bots":0,"server_type":"Dedicated","server_os":"Linux","password":true,"vac":true,"version":"7757534","steam_id":85568392924500089,"keywords":["nocrits","nodmgspread","payload","uncletopia"],"game_id":440,"stv_port":27036,"stv_name":"Uncletopia | Montréal | 3 | All Maps | STV","players":null},{"server_id":303,"name":"Uncletopia | Montréal | 4 | No Payload","name_short":"mtl-4","host":"mtl-1.ca.uncletopia.com","port":27045,"enabled":true,"region":"us-east","cc":"ca","latitude":45.50889,"longitude":-73.56167,"reserved":0,"last_update":"0001-01-01T00:00:00Z","name_a2s":"Uncletopia | Montréal | 4 | No Payload","protocol":17,"map":"cp_gravelpit","folder":"tf","game":"Team Fortress","app_id":440,"player_count":0,"max_players":24,"Bots":0,"server_type":"Dedicated","server_os":"Linux","password":true,"vac":true,"version":"7757534","steam_id":85568392924500090,"keywords":["cp","nocrits","nodmgspread","uncletopia"],"game_id":440,"stv_port":27046,"stv_name":"Uncletopia | Montréal | 4 | No Payload | STV","players":null},{"server_id":13,"name":"Uncletopia | New York City | 1 | All Maps","name_short":"nyc-1","host":"nyc-1.us.uncletopia.com","port":27015,"enabled":true,"region":"us-east","cc":"us","latitude":40.73061,"longitude":-73.93524,"reserved":0,"last_update":"0001-01-01T00:00:00Z","name_a2s":"Uncletopia | New York City | 1 | All Maps","protocol":17,"map":"pl_pier","folder":"tf","game":"Team Fortress","app_id":440,"player_count":0,"max_players":24,"Bots":0,"server_type":"Dedicated","server_os":"Linux","password":true,"vac":true,"version":"7757534","steam_id":85568392924469993,"keywords":["nocrits","nodmgspread","payload","uncletopia"],"game_id":440,"stv_port":27016,"stv_name":"Uncletopia | New York City | 1 | All Maps | STV","players":null},{"server_id":14,"name":"Uncletopia | New York City | 2 | All Maps","name_short":"nyc-2","host":"nyc-1.us.uncletopia.com","port":27025,"enabled":true,"region":"us-east","cc":"us","latitude":40.73061,"longitude":-73.93524,"reserved":0,"last_update":"0001-01-01T00:00:00Z","name_a2s":"Uncletopia | New York City | 2 | All Maps","protocol":17,"map":"cp_dustbowl","folder":"tf","game":"Team Fortress","app_id":440,"player_count":0,"max_players":24,"Bots":0,"server_type":"Dedicated","server_os":"Linux","password":true,"vac":true,"version":"7757534","steam_id":85568392924469994,"keywords":["cp","nocrits","nodmgspread","uncletopia"],"game_id":440,"stv_port":27026,"stv_name":"Uncletopia | New York City | 2 | All Maps | STV","players":null},{"server_id":15,"name":"Uncletopia | New York City | 3 | Stopwatch Beta","name_short":"nyc-3","host":"nyc-1.us.uncletopia.com","port":27035,"enabled":true,"region":"us-east","cc":"us","latitude":40.73061,"longitude":-73.93524,"reserved":0,"last_update":"0001-01-01T00:00:00Z","name_a2s":"Uncletopia | New York City | 3 | Stopwatch Beta","protocol":17,"map":"koth_cascade","folder":"tf","game":"Team Fortress","app_id":440,"player_count":0,"max_players":24,"Bots":0,"server_type":"Dedicated","server_os":"Linux","password":true,"vac":true,"version":"7757534","steam_id":85568392924742820,"keywords":["cp","nocrits","nodmgspread","uncletopia"],"game_id":440,"stv_port":27036,"stv_name":"Uncletopia | New York City | 3 | Stopwatch Beta | STV","players":null},{"server_id":16,"name":"Uncletopia | New York City | 4 | Community","name_short":"nyc-4","host":"nyc-1.us.uncletopia.com","port":27045,"enabled":true,"region":"us-east","cc":"us","latitude":40.73061,"longitude":-73.93524,"reserved":0,"last_update":"0001-01-01T00:00:00Z","name_a2s":"Uncletopia | New York City | 4 | Community","protocol":17,"map":"pl_frontier_final","folder":"tf","game":"Team Fortress","app_id":440,"player_count":0,"max_players":24,"Bots":0,"server_type":"Dedicated","server_os":"Linux","password":true,"vac":true,"version":"7757534","steam_id":85568392924742821,"keywords":["nocrits","nodmgspread","payload","uncletopia"],"game_id":440,"stv_port":27046,"stv_name":"Uncletopia | New York City | 4 | Community | STV","players":null},{"server_id":142,"name":"Uncletopia | São Paulo | 1 | All Maps","name_short":"sao-1","host":"sao-1.br.uncletopia.com","port":27015,"enabled":true,"region":"sa","cc":"br","latitude":-23.533773,"longitude":-46.62529,"reserved":0,"last_update":"0001-01-01T00:00:00Z","name_a2s":"Uncletopia | São Paulo | 1 | All Maps","protocol":17,"map":"cp_altitude","folder":"tf","game":"Team Fortress","app_id":440,"player_count":0,"max_players":24,"Bots":0,"server_type":"Dedicated","server_os":"Linux","password":true,"vac":true,"version":"7757534","steam_id":85568392924469996,"keywords":["cp","nocrits","nodmgspread","uncletopia"],"game_id":440,"stv_port":27016,"stv_name":"Uncletopia | São Paulo | 1 | All Maps | STV","players":null},{"server_id":143,"name":"Uncletopia | São Paulo | 2 | All Maps","name_short":"sao-2","host":"sao-2.br.uncletopia.com","port":27015,"enabled":true,"region":"sa","cc":"br","latitude":-23.533773,"longitude":-46.62529,"reserved":0,"last_update":"0001-01-01T00:00:00Z","name_a2s":"Uncletopia | São Paulo | 2 | All Maps","protocol":17,"map":"koth_viaduct","folder":"tf","game":"Team Fortress","app_id":440,"player_count":0,"max_players":24,"Bots":0,"server_type":"Dedicated","server_os":"Linux","password":true,"vac":true,"version":"7757534","steam_id":85568392924485349,"keywords":["cp","nocrits","nodmgspread","uncletopia"],"game_id":440,"stv_port":27016,"stv_name":"Uncletopia | São Paulo | 2 | All Maps | STV","players":null},{"server_id":7,"name":"Uncletopia | Seattle | 1 | All Maps","name_short":"sea-1","host":"sea-1.us.uncletopia.com","port":27015,"enabled":true,"region":"us-west","cc":"us","latitude":47.608013,"longitude":-122.33517,"reserved":0,"last_update":"0001-01-01T00:00:00Z","name_a2s":"Uncletopia | Seattle | 1 | All Maps","protocol":17,"map":"koth_viaduct","folder":"tf","game":"Team Fortress","app_id":440,"player_count":21,"max_players":24,"Bots":0,"server_type":"Dedicated","server_os":"Linux","password":true,"vac":true,"version":"7757534","steam_id":85568392924469997,"keywords":["cp","nocrits","nodmgspread","uncletopia"],"game_id":440,"stv_port":27016,"stv_name":"Uncletopia | Seattle | 1 | All Maps | STV","players":[{"user_id":3,"name":"Futa Lover","steam_id":76561198056775795,"connected_time":758000000000,"state":"active","ping":119},{"user_id":4,"name":"cesarleonfuentes","steam_id":76561198248461754,"connected_time":757000000000,"state":"active","ping":72},{"user_id":5,"name":"Winter","steam_id":76561198312741335,"connected_time":756000000000,"state":"active","ping":119},{"user_id":6,"name":"MoonlightDragon","steam_id":76561198124808865,"connected_time":750000000000,"state":"active","ping":138},{"user_id":7,"name":"Little Linguine","steam_id":76561198816986370,"connected_time":749000000000,"state":"active","ping":58},{"user_id":8,"name":"Where have you been?","steam_id":76561198798931344,"connected_time":739000000000,"state":"active","ping":59},{"user_id":9,"name":"Doivan Ivan","steam_id":76561199096260479,"connected_time":728000000000,"state":"active","ping":144},{"user_id":10,"name":"im a pisces","steam_id":76561198063880315,"connected_time":676000000000,"state":"active","ping":75},{"user_id":28,"name":"no vc no c","steam_id":76561197989503095,"connected_time":12000000000,"state":"active","ping":160},{"user_id":13,"name":"Zorlovo","steam_id":76561198006443283,"connected_time":616000000000,"state":"active","ping":87},{"user_id":14,"name":"Hampter","steam_id":76561198069524089,"connected_time":594000000000,"state":"active","ping":84},{"user_id":15,"name":"doozy","steam_id":76561198033106776,"connected_time":580000000000,"state":"active","ping":89},{"user_id":16,"name":"manbearswineflu","steam_id":76561198083945137,"connected_time":515000000000,"state":"active","ping":108},{"user_id":18,"name":"Captain Dain","steam_id":76561198204045832,"connected_time":492000000000,"state":"active","ping":99},{"user_id":25,"name":"iNeo`","steam_id":76561199275584285,"connected_time":138000000000,"state":"active","ping":229},{"user_id":20,"name":"Lemonade","steam_id":76561198067192579,"connected_time":434000000000,"state":"active","ping":121},{"user_id":24,"name":"Smiles","steam_id":76561198107197973,"connected_time":189000000000,"state":"active","ping":66},{"user_id":23,"name":"Also UbeR","steam_id":76561198166926843,"connected_time":272000000000,"state":"active","ping":71},{"user_id":26,"name":"Mr.Bady","steam_id":76561199094651706,"connected_time":113000000000,"state":"active","ping":122},{"user_id":27,"name":"Mico (ENA Enthusiast)","steam_id":76561198125462953,"connected_time":60000000000,"state":"active","ping":52},{"user_id":29,"name":"Achi","steam_id":76561199097601364,"connected_time":9000000000,"state":"spawning","ping":148}]},{"server_id":119,"name":"Uncletopia | Seattle | 2 | All Maps","name_short":"sea-2","host":"sea-1.us.uncletopia.com","port":27025,"enabled":true,"region":"us-west","cc":"us","latitude":47.608013,"longitude":-122.33517,"reserved":0,"last_update":"0001-01-01T00:00:00Z","name_a2s":"Uncletopia | Seattle | 2 | All Maps","protocol":17,"map":"pl_barnblitz","folder":"tf","game":"Team Fortress","app_id":440,"player_count":0,"max_players":24,"Bots":0,"server_type":"Dedicated","server_os":"Linux","password":true,"vac":true,"version":"7757534","steam_id":85568392924469998,"keywords":["nocrits","nodmgspread","payload","uncletopia"],"game_id":440,"stv_port":27026,"stv_name":"Uncletopia | Seattle | 2 | All Maps | STV","players":null},{"server_id":406,"name":"Uncletopia | Seattle | 3 | Stopwatch Beta","name_short":"sea-3","host":"sea-1.us.uncletopia.com","port":27035,"enabled":true,"region":"us-west","cc":"us","latitude":47.608013,"longitude":-122.33517,"reserved":0,"last_update":"0001-01-01T00:00:00Z","name_a2s":"Uncletopia | Seattle | 3 | Stopwatch Beta","protocol":17,"map":"cp_process_final","folder":"tf","game":"Team Fortress","app_id":440,"player_count":0,"max_players":24,"Bots":0,"server_type":"Dedicated","server_os":"Linux","password":true,"vac":true,"version":"7757534","steam_id":85568392924515217,"keywords":["cp","nocrits","nodmgspread","uncletopia"],"game_id":440,"stv_port":27036,"stv_name":"Uncletopia | Seattle | 3 | Stopwatch Beta | STV","players":null},{"server_id":17,"name":"Uncletopia | San Francisco | 1 | All Maps","name_short":"sfo-1","host":"sfo-1.us.uncletopia.com","port":27015,"enabled":true,"region":"us-west","cc":"us","latitude":37.77397,"longitude":-122.4313,"reserved":0,"last_update":"0001-01-01T00:00:00Z","name_a2s":"Uncletopia | San Francisco | 1 | All Maps","protocol":17,"map":"pl_badwater","folder":"tf","game":"Team Fortress","app_id":440,"player_count":2,"max_players":24,"Bots":0,"server_type":"Dedicated","server_os":"Linux","password":true,"vac":true,"version":"7757534","steam_id":85568392924469999,"keywords":["nocrits","nodmgspread","payload","uncletopia"],"game_id":440,"stv_port":27016,"stv_name":"Uncletopia | San Francisco | 1 | All Maps | STV","players":[{"user_id":4,"name":"Radagato","steam_id":76561198238859416,"connected_time":281000000000,"state":"active","ping":69},{"user_id":5,"name":"Littlemissclownie","steam_id":76561199243451181,"connected_time":212000000000,"state":"active","ping":266}]},{"server_id":18,"name":"Uncletopia | San Francisco | 2 | All Maps","name_short":"sfo-2","host":"sfo-1.us.uncletopia.com","port":27025,"enabled":true,"region":"us-west","cc":"us","latitude":37.77397,"longitude":-122.4313,"reserved":0,"last_update":"0001-01-01T00:00:00Z","name_a2s":"Uncletopia | San Francisco | 2 | All Maps","protocol":17,"map":"koth_viaduct","folder":"tf","game":"Team Fortress","app_id":440,"player_count":2,"max_players":24,"Bots":0,"server_type":"Dedicated","server_os":"Linux","password":true,"vac":true,"version":"7757534","steam_id":85568392924470000,"keywords":["cp","nocrits","nodmgspread","uncletopia"],"game_id":440,"stv_port":27026,"stv_name":"Uncletopia | San Francisco | 2 | All Maps | STV","players":[{"user_id":3,"name":"cyka","steam_id":76561198035006513,"connected_time":21000000000,"state":"active","ping":264},{"user_id":4,"name":"Brutal","steam_id":76561197980100317,"connected_time":6000000000,"state":"spawning","ping":215}]},{"server_id":19,"name":"Uncletopia | San Francisco | 3 | Stopwatch Beta","name_short":"sfo-3","host":"sfo-1.us.uncletopia.com","port":27035,"enabled":true,"region":"us-west","cc":"us","latitude":37.77397,"longitude":-122.4313,"reserved":0,"last_update":"0001-01-01T00:00:00Z","name_a2s":"Uncletopia | San Francisco | 3 | Stopwatch Beta","protocol":17,"map":"cp_snakewater_final1","folder":"tf","game":"Team Fortress","app_id":440,"player_count":0,"max_players":24,"Bots":0,"server_type":"Dedicated","server_os":"Linux","password":true,"vac":true,"version":"7757534","steam_id":85568392924742824,"keywords":["cp","nocrits","nodmgspread","uncletopia"],"game_id":440,"stv_port":27036,"stv_name":"Uncletopia | San Francisco | 3 | Stopwatch Beta | STV","players":null},{"server_id":20,"name":"Uncletopia | San Francisco | 4 | Community","name_short":"sfo-4","host":"sfo-1.us.uncletopia.com","port":27045,"enabled":true,"region":"us-west","cc":"us","latitude":37.77397,"longitude":-122.4313,"reserved":0,"last_update":"0001-01-01T00:00:00Z","name_a2s":"Uncletopia | San Francisco | 4 | Community","protocol":17,"map":"pl_frontier_final","folder":"tf","game":"Team Fortress","app_id":440,"player_count":0,"max_players":24,"Bots":0,"server_type":"Dedicated","server_os":"Linux","password":true,"vac":true,"version":"7757534","steam_id":85568392924742826,"keywords":["nocrits","nodmgspread","payload","uncletopia"],"game_id":440,"stv_port":27046,"stv_name":"Uncletopia | San Francisco | 4 | Community | STV","players":null},{"server_id":141,"name":"Uncletopia | Sydney | 1 | All Maps","name_short":"syd-1","host":"syd-1.au.uncletopia.com","port":27015,"enabled":true,"region":"au","cc":"au","latitude":-33.865143,"longitude":151.2099,"reserved":0,"last_update":"0001-01-01T00:00:00Z","name_a2s":"Uncletopia | Sydney | 1 | All Maps","protocol":17,"map":"cp_altitude","folder":"tf","game":"Team Fortress","app_id":440,"player_count":12,"max_players":24,"Bots":0,"server_type":"Dedicated","server_os":"Linux","password":true,"vac":true,"version":"7757534","steam_id":85568392924470001,"keywords":["cp","nocrits","nodmgspread","uncletopia"],"game_id":440,"stv_port":27016,"stv_name":"Uncletopia | Sydney | 1 | All Maps | STV","players":[{"user_id":732,"name":"Lick_My_Nuts","steam_id":76561198410558580,"connected_time":473000000000,"state":"active","ping":97},{"user_id":728,"name":"Orajéed","steam_id":76561199389156980,"connected_time":1278000000000,"state":"active","ping":322},{"user_id":729,"name":"amongus","steam_id":76561199096799858,"connected_time":1273000000000,"state":"active","ping":274},{"user_id":698,"name":"noobar","steam_id":76561198042991153,"connected_time":3188000000000,"state":"active","ping":59},{"user_id":699,"name":"Swate","steam_id":76561198042991670,"connected_time":3174000000000,"state":"active","ping":59},{"user_id":702,"name":"Traveller","steam_id":76561199161637215,"connected_time":2827000000000,"state":"active","ping":91},{"user_id":735,"name":"Maxie","steam_id":76561198845470657,"connected_time":410000000000,"state":"active","ping":90},{"user_id":736,"name":"YT/byyzeroh - B\u003e Keys","steam_id":76561198047183797,"connected_time":387000000000,"state":"active","ping":87},{"user_id":704,"name":"Tux","steam_id":76561198039000791,"connected_time":2786000000000,"state":"active","ping":63},{"user_id":711,"name":"doctor morbin' (real)","steam_id":76561199365241695,"connected_time":2465000000000,"state":"active","ping":123},{"user_id":715,"name":"Roaring Forties","steam_id":76561199015985235,"connected_time":2302000000000,"state":"active","ping":95},{"user_id":716,"name":"little raw meat boy","steam_id":76561199248254676,"connected_time":2285000000000,"state":"active","ping":59}]},{"server_id":123,"name":"Uncletopia | Sydney | 2 | All Maps","name_short":"syd-2","host":"syd-1.au.uncletopia.com","port":27025,"enabled":true,"region":"au","cc":"au","latitude":-33.865143,"longitude":151.2099,"reserved":0,"last_update":"0001-01-01T00:00:00Z","name_a2s":"Uncletopia | Sydney | 2 | All Maps","protocol":17,"map":"pl_borneo","folder":"tf","game":"Team Fortress","app_id":440,"player_count":0,"max_players":24,"Bots":0,"server_type":"Dedicated","server_os":"Linux","password":true,"vac":true,"version":"7757534","steam_id":85568392924470002,"keywords":["nocrits","nodmgspread","payload","uncletopia"],"game_id":440,"stv_port":27026,"stv_name":"Uncletopia | Sydney | 2 | All Maps | STV","players":null},{"server_id":395,"name":"Uncletopia | Sydney | 3 | All Maps","name_short":"syd-3","host":"syd-1.au.uncletopia.com","port":27035,"enabled":true,"region":"au","cc":"au","latitude":-33.865143,"longitude":151.2099,"reserved":0,"last_update":"0001-01-01T00:00:00Z","name_a2s":"Uncletopia | Sydney | 3 | All Maps","protocol":17,"map":"cp_mountainlab","folder":"tf","game":"Team Fortress","app_id":440,"player_count":0,"max_players":24,"Bots":0,"server_type":"Dedicated","server_os":"Linux","password":true,"vac":true,"version":"7757534","steam_id":85568392925194467,"keywords":["cp","nocrits","nodmgspread","uncletopia"],"game_id":440,"stv_port":27036,"stv_name":"Uncletopia | Sydney | 3 | All Maps | STV","players":null},{"server_id":396,"name":"Uncletopia | Sydney | 4 | All Maps","name_short":"syd-4","host":"syd-1.au.uncletopia.com","port":27045,"enabled":true,"region":"au","cc":"au","latitude":-33.865143,"longitude":151.2099,"reserved":0,"last_update":"0001-01-01T00:00:00Z","name_a2s":"Uncletopia | Sydney | 4 | All Maps","protocol":17,"map":"pl_swiftwater_final1","folder":"tf","game":"Team Fortress","app_id":440,"player_count":0,"max_players":24,"Bots":0,"server_type":"Dedicated","server_os":"Linux","password":true,"vac":true,"version":"7757534","steam_id":85568392925397958,"keywords":["nocrits","nodmgspread","payload","uncletopia"],"game_id":440,"stv_port":27046,"stv_name":"Uncletopia | Sydney | 4 | All Maps | STV","players":null},{"server_id":58,"name":"Uncletopia | Sydney | 5 | Stopwatch Beta","name_short":"syd-5","host":"syd-1.au.uncletopia.com","port":27055,"enabled":true,"region":"au","cc":"au","latitude":-33.865143,"longitude":151.2099,"reserved":0,"last_update":"0001-01-01T00:00:00Z","name_a2s":"Uncletopia | Sydney | 5 | Stopwatch Beta","protocol":17,"map":"workshop/koth_bagel_rc6.ugc2514036946","folder":"tf","game":"Team Fortress","app_id":440,"player_count":0,"max_players":24,"Bots":0,"server_type":"Dedicated","server_os":"Linux","password":true,"vac":true,"version":"7757534","steam_id":85568392925397959,"keywords":["cp","nocrits","nodmgspread","uncletopia"],"game_id":440,"stv_port":27056,"stv_name":"Uncletopia | Sydney | 5 | Stopwatch Beta | STV","players":null},{"server_id":59,"name":"Uncletopia | Sydney | 6 | Community","name_short":"syd-6","host":"syd-1.au.uncletopia.com","port":27065,"enabled":true,"region":"au","cc":"au","latitude":-33.865143,"longitude":151.2099,"reserved":0,"last_update":"0001-01-01T00:00:00Z","name_a2s":"Uncletopia | Sydney | 6 | Community","protocol":17,"map":"workshop/pl_divulgence_b4b.ugc2884808746","folder":"tf","game":"Team Fortress","app_id":440,"player_count":0,"max_players":24,"Bots":0,"server_type":"Dedicated","server_os":"Linux","password":true,"vac":true,"version":"7757534","steam_id":85568392925397960,"keywords":["nocrits","nodmgspread","payload","uncletopia"],"game_id":440,"stv_port":27066,"stv_name":"Uncletopia | Sydney | 6 | Community | STV","players":null},{"server_id":49,"name":"Uncletopia | Warsaw | 1 | All Maps","name_short":"waw-1","host":"waw-1.pl.uncletopia.com","port":27015,"enabled":true,"region":"eu","cc":"pl","latitude":52.2297,"longitude":21.017532,"reserved":0,"last_update":"0001-01-01T00:00:00Z","name_a2s":"","protocol":0,"map":"","folder":"","game":"","app_id":0,"player_count":0,"max_players":0,"Bots":0,"server_type":"","server_os":"","password":false,"vac":false,"version":"","steam_id":0,"keywords":null,"game_id":0,"stv_port":0,"stv_name":"","players":null},{"server_id":50,"name":"Uncletopia | Warsaw | 2 | All Maps","name_short":"waw-2","host":"waw-1.pl.uncletopia.com","port":27025,"enabled":true,"region":"eu","cc":"pl","latitude":52.2297,"longitude":21.017532,"reserved":0,"last_update":"0001-01-01T00:00:00Z","name_a2s":"Uncletopia | Warsaw | 2 | All Maps","protocol":17,"map":"koth_highpass","folder":"tf","game":"Team Fortress","app_id":440,"player_count":0,"max_players":24,"Bots":0,"server_type":"Dedicated","server_os":"Linux","password":true,"vac":true,"version":"7757534","steam_id":85568392925397851,"keywords":["cp","nocrits","nodmgspread","uncletopia"],"game_id":440,"stv_port":27026,"stv_name":"Uncletopia | Warsaw | 2 | All Maps | STV","players":null},{"server_id":51,"name":"Uncletopia | Warsaw | 3 | All Maps","name_short":"waw-3","host":"waw-1.pl.uncletopia.com","port":27035,"enabled":true,"region":"eu","cc":"pl","latitude":52.2297,"longitude":21.017532,"reserved":0,"last_update":"0001-01-01T00:00:00Z","name_a2s":"Uncletopia | Warsaw | 3 | All Maps","protocol":17,"map":"cp_mountainlab","folder":"tf","game":"Team Fortress","app_id":440,"player_count":0,"max_players":24,"Bots":0,"server_type":"Dedicated","server_os":"Linux","password":true,"vac":true,"version":"7757534","steam_id":85568392925397852,"keywords":["cp","nocrits","nodmgspread","uncletopia"],"game_id":440,"stv_port":27036,"stv_name":"Uncletopia | Warsaw | 3 | All Maps | STV","players":null},{"server_id":52,"name":"Uncletopia | Warsaw | 4 | All Maps","name_short":"waw-4","host":"waw-1.pl.uncletopia.com","port":27045,"enabled":true,"region":"eu","cc":"pl","latitude":52.2297,"longitude":21.017532,"reserved":0,"last_update":"0001-01-01T00:00:00Z","name_a2s":"Uncletopia | Warsaw | 4 | All Maps","protocol":17,"map":"koth_viaduct","folder":"tf","game":"Team Fortress","app_id":440,"player_count":0,"max_players":24,"Bots":0,"server_type":"Dedicated","server_os":"Linux","password":true,"vac":true,"version":"7757534","steam_id":85568392925397853,"keywords":["cp","nocrits","nodmgspread","uncletopia"],"game_id":440,"stv_port":27046,"stv_name":"Uncletopia | Warsaw | 4 | All Maps | STV","players":null},{"server_id":53,"name":"Uncletopia | Warsaw | 5 | Stopwatch Beta","name_short":"waw-5","host":"waw-1.pl.uncletopia.com","port":27055,"enabled":true,"region":"eu","cc":"pl","latitude":52.2297,"longitude":21.017532,"reserved":0,"last_update":"0001-01-01T00:00:00Z","name_a2s":"Uncletopia | Warsaw | 5 | Stopwatch Beta","protocol":17,"map":"pl_pier","folder":"tf","game":"Team Fortress","app_id":440,"player_count":0,"max_players":24,"Bots":0,"server_type":"Dedicated","server_os":"Linux","password":true,"vac":true,"version":"7757534","steam_id":85568392925397854,"keywords":["nocrits","nodmgspread","payload","uncletopia"],"game_id":440,"stv_port":27056,"stv_name":"Uncletopia | Warsaw | 5 | Stopwatch Beta | STV","players":null},{"server_id":54,"name":"Uncletopia | Warsaw | 6 | Community","name_short":"waw-6","host":"waw-1.pl.uncletopia.com","port":27065,"enabled":true,"region":"eu","cc":"pl","latitude":52.2297,"longitude":21.017532,"reserved":0,"last_update":"0001-01-01T00:00:00Z","name_a2s":"Uncletopia | Warsaw | 6 | Community","protocol":17,"map":"koth_highpass","folder":"tf","game":"Team Fortress","app_id":440,"player_count":0,"max_players":24,"Bots":0,"server_type":"Dedicated","server_os":"Linux","password":true,"vac":true,"version":"7757534","steam_id":85568392925397856,"keywords":["cp","nocrits","nodmgspread","uncletopia"],"game_id":440,"stv_port":27066,"stv_name":"Uncletopia | Warsaw | 6 | Community | STV","players":null}]}