{"status":true,"message":"","result":[{"server_id":9,"name":"Uncletopia | Atlanta | 1 | All Maps","name_short":"atl-1","host":"atl-1.us.uncletopia.com","port":27015,"enabled":true,"region":"us-east","cc":"us","latitude":33.753746,"longitude":-84.38633,"reserved":0,"last_update":"0001-01-01T00:00:00Z","name_a2s":"Uncletopia | Atlanta | 1 | All Maps","protocol":17,"map":"koth_viaduct","folder":"tf","game":"Team Fortress","app_id":440,"player_count":23,"max_players":24,"Bots":0,"server_type":"Dedicated","server_os":"Linux","password":true,"vac":true,"version":"7757534","steam_id":85568392924469982,"keywords":["cp","nocrits","nodmgspread","uncletopia"],"game_id":440,"stv_port":27016,"stv_name":"Uncletopia | Atlanta | 1 | All Maps | STV","players":[{"user_id":61,"name":"lu","steam_id":76561198080731872,"connected_time":1046000000000,"state":"active","ping":72},{"user_id":62,"name":"Enron Hubbard","steam_id":76561198012951411,"connected_time":1033000000000,"state":"active","ping":76},{"user_id":56,"name":"BackwardsEagle","steam_id":76561199013712612,"connected_time":1423000000000,"state":"active","ping":79},{"user_id":75,"name":"battle clown","steam_id":76561198045788371,"connected_time":202000000000,"state":"active","ping":91},{"user_id":49,"name":"Bali","steam_id":76561198038693845,"connected_time":2474000000000,"state":"active","ping":81},{"user_id":63,"name":"Eosson","steam_id":76561198108642113,"connected_time":1025000000000,"state":"active","ping":76},{"user_id":24,"name":"Plazmatik","steam_id":76561198168976029,"connected_time":3526000000000,"state":"active","ping":89},{"user_id":25,"name":"Shmebulock","steam_id":76561198046941925,"connected_time":3506000000000,"state":"active","ping":72},{"user_id":65,"name":"Spore_Captain","steam_id":76561198060839271,"connected_time":973000000000,"state":"active","ping":67},{"user_id":72,"name":"yallwild","steam_id":76561198042480440,"connected_time":403000000000,"state":"active","ping":64},{"user_id":28,"name":"That70sDog","steam_id":76561198119396142,"connected_time":3443000000000,"state":"active","ping":94},{"user_id":66,"name":"Rusty Shackleford","steam_id":76561198857643139,"connected_time":934000000000,"state":"active","ping":75},{"user_id":76,"name":"Wungsten","steam_id":76561198047983571,"connected_time":151000000000,"state":"active","ping":55},{"user_id":31,"name":"Bojangle's 20pc Jumbo Tailgate","steam_id":76561198084869004,"connected_time":3196000000000,"state":"active","ping":54},{"user_id":74,"name":"deech","steam_id":76561198066429444,"connected_time":379000000000,"state":"active","ping":63},{"user_id":67,"name":"doorlarkeded","steam_id":76561199439227968,"connected_time":854000000000,"state":"active","ping":97},{"user_id":53,"name":"Im High","steam_id":76561198049954886,"connected_time":1924000000000,"state":"active","ping":75},{"user_id":58,"name":"[BBW] Justario","steam_id":76561198016095410,"connected_time":1068000000000,"state":"active","ping":64},{"user_id":70,"name":"dairy","steam_id":76561198117033273,"connected_time":550000000000,"state":"active","ping":142},{"user_id":39,"name":"Towns","steam_id":76561198984662863,"connected_time":3019000000000,"state":"active","ping":57},{"user_id":68,"name":"jonsey fortnite","steam_id":76561198425503395,"connected_time":849000000000,"state":"active","ping":61},{"user_id":69,"name":"Broken Cereal√","steam_id":76561198087489795,"connected_time":634000000000,"state":"active","ping":64},{"user_id":73,"name":"Treeckogeek","steam_id":76561198453328078,"connected_time":388000000000,"state":"active","ping":79}]},{"server_id":400,"name":"Uncletopia | Atlanta | 3 | Community","name_short":"atl-3","host":"atl-1.us.uncletopia.com","port":27035,"enabled":true,"region":"us-east","cc":"us","latitude":33.753746,"longitude":-84.38633,"reserved":0,"last_update":"0001-01-01T00:00:00Z","name_a2s":"Uncletopia | Atlanta | 3 | Community","protocol":17,"map":"workshop/pl_fifthcurve_rc1.ugc648227046","folder":"tf","game":"Team Fortress","app_id":440,"player_count":0,"max_players":24,"Bots":0,"server_type":"Dedicated","server_os":"Linux","password":true,"vac":true,"version":"7757534","steam_id":85568392924515187,"keywords":["nocrits","nodmgspread","payload","uncletopia"],"game_id":440,"stv_port":27036,"stv_name":"Uncletopia | Atlanta | 3 | Community | STV","players":null},{"server_id":401,"name":"Uncletopia | Atlanta | 4 | No Payload","name_short":"atl-4","host":"atl-1.us.uncletopia.com","port":27045,"enabled":true,"region":"us-east","cc":"us","latitude":33.753746,"longitude":-84.38633,"reserved":0,"last_update":"0001-01-01T00:00:00Z","name_a2s":"","protocol":0,"map":"","folder":"","game":"","app_id":0,"player_count":0,"max_players":0,"Bots":0,"server_type":"","server_os":"","password":false,"vac":false,"version":"","steam_id":0,"keywords":null,"game_id":0,"stv_port":0,"stv_name":"","players":null},{"server_id":2,"name":"Uncletopia | Chicago | 1 | All Maps","name_short":"chi-1","host":"chi-1.us.uncletopia.com","port":27015,"enabled":true,"region":"us-central","cc":"us","latitude":41.881832,"longitude":-87.62318,"reserved":0,"last_update":"0001-01-01T00:00:00Z","name_a2s":"Uncletopia | Chicago | 1 | All Maps","protocol":17,"map":"pl_upward","folder":"tf","game":"Team Fortress","app_id":440,"player_count":24,"max_players":24,"Bots":0,"server_type":"Dedicated","server_os":"Linux","password":true,"vac":true,"version":"7757534","steam_id":85568392924469984,"keywords":["nocrits","nodmgspread","payload","uncletopia"],"game_id":440,"stv_port":27016,"stv_name":"Uncletopia | Chicago | 1 | All Maps | STV","players":[{"user_id":301,"name":"girlpeen supreme","steam_id":76561198031242903,"connected_time":369000000000,"state":"active","ping":57},{"user_id":250,"name":"Deal yo","steam_id":76561198282395338,"connected_time":4120000000000,"state":"active","ping":64},{"user_id":307,"name":"Leo","steam_id":76561198309760791,"connected_time":317000000000,"state":"active","ping":132},{"user_id":303,"name":"¯\\_(ツ)_/¯","steam_id":76561199078009116,"connected_time":350000000000,"state":"active","ping":73},{"user_id":304,"name":"merge without looking","steam_id":76561198056702628,"connected_time":327000000000,"state":"active","ping":60},{"user_id":313,"name":"M4 SOPMOD II Enjoyer","steam_id":76561198155176802,"connected_time":129000000000,"state":"active","ping":78},{"user_id":314,"name":"_HasbullaGod_","steam_id":76561199473989693,"connected_time":100000000000,"state":"active","ping":78},{"user_id":282,"name":"Pabl0 #Stizzywizard","steam_id":76561198065570956,"connected_time":1636000000000,"state":"active","ping":63},{"user_id":300,"name":"AttackCommander","steam_id":76561198111522679,"connected_time":403000000000,"state":"active","ping":78},{"user_id":266,"name":"SexySpectacles","steam_id":76561198211449103,"connected_time":3003000000000,"state":"active","ping":59},{"user_id":261,"name":"Brokayo","steam_id":76561198053802723,"connected_time":3273000000000,"state":"active","ping":87},{"user_id":279,"name":"alolan duntski","steam_id":76561198038826744,"connected_time":1764000000000,"state":"active","ping":56},{"user_id":315,"name":"KaptinKitten","steam_id":76561198216549223,"connected_time":80000000000,"state":"active","ping":45},{"user_id":285,"name":"The Rambler","steam_id":76561198109648603,"connected_time":1502000000000,"state":"active","ping":84},{"user_id":306,"name":"catrinaisahuman","steam_id":76561198281355729,"connected_time":324000000000,"state":"active","ping":62},{"user_id":308,"name":"mio εїз","steam_id":76561198018767851,"connected_time":313000000000,"state":"active","ping":106},{"user_id":287,"name":"VaL-ASROC","steam_id":76561198886493635,"connected_time":1230000000000,"state":"active","ping":68},{"user_id":309,"name":"Gut125Cin","steam_id":76561198101787225,"connected_time":311000000000,"state":"active","ping":89},{"user_id":312,"name":"Wiggle_meat","steam_id":76561199211675823,"connected_time":256000000000,"state":"active","ping":116},{"user_id":311,"name":"Watt Dafuq","steam_id":76561198194402925,"connected_time":298000000000,"state":"active","ping":92},{"user_id":272,"name":"Duckywinner","steam_id":76561198254828139,"connected_time":2823000000000,"state":"active","ping":91},{"user_id":273,"name":"Vegerot","steam_id":76561197997843710,"connected_time":2777000000000,"state":"active","ping":69},{"user_id":294,"name":"Scream Tsu","steam_id":76561198069068827,"connected_time":833000000000,"state":"active","ping":49},{"user_id":299,"name":"Femboy Hooters","steam_id":76561198333128330,"connected_time":607000000000,"state":"active","ping":44}]},{"server_id":106,"name":"Uncletopia | Chicago | 2 | All Maps","name_short":"chi-2","host":"chi-1.us.uncletopia.com","port":27025,"enabled":true,"region":"us-central","cc":"us","latitude":41.881832,"longitude":-87.62318,"reserved":0,"last_update":"0001-01-01T00:00:00Z","name_a2s":"Uncletopia | Chicago | 2 | All Maps","protocol":17,"map":"koth_cascade","folder":"tf","game":"Team Fortress","app_id":440,"player_count":21,"max_players":24,"Bots":0,"server_type":"Dedicated","server_os":"Linux","password":true,"vac":true,"version":"7757534","steam_id":85568392924469985,"keywords":["cp","nocrits","nodmgspread","uncletopia"],"game_id":440,"stv_port":27026,"stv_name":"Uncletopia | Chicago | 2 | All Maps | STV","players":[{"user_id":72,"name":"Goober","steam_id":76561198988863807,"connected_time":5427000000000,"state":"active","ping":70},{"user_id":142,"name":"Scum!","steam_id":76561198051805219,"connected_time":31000000000,"state":"spawning","ping":239},{"user_id":117,"name":"Ajax","steam_id":76561197962240140,"connected_time":2320000000000,"state":"active","ping":72},{"user_id":137,"name":"Rein","steam_id":76561198300340427,"connected_time":455000000000,"state":"active","ping":57},{"user_id":113,"name":"Petal","steam_id":76561199103766971,"connected_time":2706000000000,"state":"active","ping":66},{"user_id":89,"name":"pelt","steam_id":76561197993593754,"connected_time":4604000000000,"state":"active","ping":45},{"user_id":21,"name":"Bee_Pirate","steam_id":76561199000599111,"connected_time":7566000000000,"state":"active","ping":63},{"user_id":131,"name":"Take the L","steam_id":76561198379223875,"connected_time":900000000000,"state":"active","ping":54},{"user_id":125,"name":"GPLv2","steam_id":76561198113096772,"connected_time":2046000000000,"state":"active","ping":120},{"user_id":138,"name":"gonk","steam_id":76561198061206732,"connected_time":445000000000,"state":"active","ping":79},{"user_id":114,"name":"Saschuh","steam_id":76561198202188972,"connected_time":2691000000000,"state":"active","ping":68},{"user_id":141,"name":"D-MROMA","steam_id":76561198837664861,"connected_time":234000000000,"state":"active","ping":88},{"user_id":104,"name":"The Drunk Clown","steam_id":76561197986850426,"connected_time":3158000000000,"state":"active","ping":74},{"user_id":81,"name":"Fuegan Ra","steam_id":76561198287923849,"connected_time":5130000000000,"state":"active","ping":52},{"user_id":128,"name":"Lucerne★Flower","steam_id":76561198264105406,"connected_time":1838000000000,"state":"active","ping":156},{"user_id":109,"name":"Coffee with a Stranger","steam_id":76561198307422313,"connected_time":3035000000000,"state":"active","ping":64},{"user_id":143,"name":"Legit_Jaxer","steam_id":76561198172234053,"connected_time":20000000000,"state":"spawning","ping":104},{"user_id":132,"name":"E$$ence","steam_id":76561198013374122,"connected_time":894000000000,"state":"active","ping":60},{"user_id":116,"name":"ameritech","steam_id":76561198064769089,"connected_time":2329000000000,"state":"active","ping":84},{"user_id":140,"name":"Venezia","steam_id":76561197994107407,"connected_time":352000000000,"state":"active","ping":51},{"user_id":39,"name":"Resident Thrussy Lender","steam_id":76561198071790583,"connected_time":7126000000000,"state":"active","ping":57}]},{"server_id":402,"name":"Uncletopia | Chicago | 3 | All Maps","name_short":"chi-3","host":"chi-1.us.uncletopia.com","port":27035,"enabled":true,"region":"us-central","cc":"us","latitude":41.881832,"longitude":-87.62318,"reserved":0,"last_update":"0001-01-01T00:00:00Z","name_a2s":"Uncletopia | Chicago | 3 | All Maps","protocol":17,"map":"koth_cascade","folder":"tf","game":"Team Fortress","app_id":440,"player_count":0,"max_players":24,"Bots":0,"server_type":"Dedicated","server_os":"Linux","password":true,"vac":true,"version":"7757534","steam_id":85568392924515191,"keywords":["cp","nocrits","nodmgspread","uncletopia"],"game_id":440,"stv_port":27036,"stv_name":"Uncletopia | Chicago | 3 | All Maps | STV","players":null},{"server_id":403,"name":"Uncletopia | Chicago | 4 | All Maps","name_short":"chi-4","host":"chi-1.us.uncletopia.com","port":27045,"enabled":true,"region":"us-central","cc":"us","latitude":41.881832,"longitude":-87.62318,"reserved":0,"last_update":"0001-01-01T00:00:00Z","name_a2s":"Uncletopia | Chicago | 4 | All Maps","protocol":17,"map":"koth_cascade","folder":"tf","game":"Team Fortress","app_id":440,"player_count":0,"max_players":24,"Bots":0,"server_type":"Dedicated","server_os":"Linux","password":true,"vac":true,"version":"7757534","steam_id":85568392924515193,"keywords":["cp","nocrits","nodmgspread","uncletopia"],"game_id":440,"stv_port":27046,"stv_name":"Uncletopia | Chicago | 4 | All Maps | STV","players":null},{"server_id":36,"name":"Uncletopia | Chicago | 5 | All Maps","name_short":"chi-5","host":"chi-2.us.uncletopia.com","port":27015,"enabled":true,"region":"us-central","cc":"us","latitude":41.881832,"longitude":-87.62318,"reserved":0,"last_update":"0001-01-01T00:00:00Z","name_a2s":"Uncletopia | Chicago | 5 | All Maps","protocol":17,"map":"koth_lakeside_final","folder":"tf","game":"Team Fortress","app_id":440,"player_count":0,"max_players":24,"Bots":0,"server_type":"Dedicated","server_os":"Linux","password":true,"vac":true,"version":"7757534","steam_id":85568392924866362,"keywords":["cp","nocrits","nodmgspread","uncletopia"],"game_id":440,"stv_port":27016,"stv_name":"Uncletopia | Chicago | 5 | All Maps | STV","players":null},{"server_id":37,"name":"Uncletopia | Chicago | 6 | All Maps","name_short":"chi-6","host":"chi-2.us.uncletopia.com","port":27025,"enabled":true,"region":"us-central","cc":"us","latitude":41.881832,"longitude":-87.62318,"reserved":0,"last_update":"0001-01-01T00:00:00Z","name_a2s":"Uncletopia | Chicago | 6 | All Maps","protocol":17,"map":"cp_dustbowl","folder":"tf","game":"Team Fortress","app_id":440,"player_count":0,"max_players":24,"Bots":0,"server_type":"Dedicated","server_os":"Linux","password":true,"vac":true,"version":"7757534","steam_id":85568392924866363,"keywords":["cp","nocrits","nodmgspread","uncletopia"],"game_id":440,"stv_port":27026,"stv_name":"Uncletopia | Chicago | 6 | All Maps | STV","players":null},{"server_id":38,"name":"Uncletopia | Chicago | 7 | Stopwatch Beta","name_short":"chi-7","host":"chi-2.us.uncletopia.com","port":27035,"enabled":true,"region":"us-central","cc":"us","latitude":41.881832,"longitude":-87.62318,"reserved":0,"last_update":"0001-01-01T00:00:00Z","name_a2s":"Uncletopia | Chicago | 7 | Stopwatch Beta","protocol":17,"map":"koth_viaduct","folder":"tf","game":"Team Fortress","app_id":440,"player_count":0,"max_players":24,"Bots":0,"server_type":"Dedicated","server_os":"Linux","password":true,"vac":true,"version":"7757534","steam_id":85568392924866364,"keywords":["cp","nocrits","nodmgspread","uncletopia"],"game_id":440,"stv_port":27036,"stv_name":"Uncletopia | Chicago | 7 | Stopwatch Beta | STV","players":null},{"server_id":39,"name":"Uncletopia | Chicago | 8 | Community","name_short":"chi-8","host":"chi-2.us.uncletopia.com","port":27045,"enabled":true,"region":"us-central","cc":"us","latitude":41.881832,"longitude":-87.62318,"reserved":0,"last_update":"0001-01-01T00:00:00Z","name_a2s":"Uncletopia | Chicago | 8 | Community","protocol":17,"map":"koth_lakeside_final","folder":"tf","game":"Team Fortress","app_id":440,"player_count":0,"max_players":24,"Bots":0,"server_type":"Dedicated","server_os":"Linux","password":true,"vac":true,"version":"7757534","steam_id":85568392924866365,"keywords":["cp","nocrits","nodmgspread","uncletopia"],"game_id":440,"stv_port":27046,"stv_name":"Uncletopia | Chicago | 8 | Community | STV","players":null},{"server_id":8,"name":"Uncletopia | Dallas | 1 | All Maps","name_short":"dal-1","host":"dal-1.us.uncletopia.com","port":27015,"enabled":true,"region":"us-central","cc":"us","latitude":32.779167,"longitude":-96.80889,"reserved":0,"last_update":"0001-01-01T00:00:00Z","name_a2s":"Uncletopia | Dallas | 1 | All Maps","protocol":17,"map":"pl_barnblitz","folder":"tf","game":"Team Fortress","app_id":440,"player_count":3,"max_players":24,"Bots":0,"server_type":"Dedicated","server_os":"Linux","password":true,"vac":true,"version":"7757534","steam_id":85568392924469986,"keywords":["nocrits","nodmgspread","payload","uncletopia"],"game_id":440,"stv_port":27016,"stv_name":"Uncletopia | Dallas | 1 | All Maps | STV","players":[{"user_id":21,"name":"Woogie Woogy Boogie","steam_id":76561198269471732,"connected_time":647000000000,"state":"active","ping":48},{"user_id":22,"name":"fyn lol","steam_id":76561199472525494,"connected_time":563000000000,"state":"active","ping":44},{"user_id":23,"name":"Fishstall","steam_id":76561198038126034,"connected_time":10000000000,"state":"active","ping":51}]},{"server_id":108,"name":"Uncletopia | Dallas | 2 | All Maps","name_short":"dal-2","host":"dal-1.us.uncletopia.com","port":27025,"enabled":true,"region":"us-central","cc":"us","latitude":32.779167,"longitude":-96.80889,"reserved":0,"last_update":"0001-01-01T00:00:00Z","name_a2s":"Uncletopia | Dallas | 2 | All Maps","protocol":17,"map":"cp_altitude","folder":"tf","game":"Team Fortress","app_id":440,"player_count":0,"max_players":24,"Bots":0,"server_type":"Dedicated","server_os":"Linux","password":true,"vac":true,"version":"7757534","steam_id":85568392924469988,"keywords":["cp","nocrits","nodmgspread","uncletopia"],"game_id":440,"stv_port":27026,"stv_name":"Uncletopia | Dallas | 2 | All Maps | STV","players":null},{"server_id":5,"name":"Uncletopia | Frankfurt | 1 | All Maps","name_short":"frk-1","host":"frk-1.de.uncletopia.com","port":27015,"enabled":true,"region":"eu","cc":"de","latitude":50.110924,"longitude":8.682127,"reserved":0,"last_update":"0001-01-01T00:00:00Z","name_a2s":"Uncletopia | Frankfurt | 1 | All Maps","protocol":17,"map":"pl_borneo","folder":"tf","game":"Team Fortress","app_id":440,"player_count":23,"max_players":24,"Bots":0,"server_type":"Dedicated","server_os":"Linux","password":true,"vac":true,"version":"7757534","steam_id":85568392924469989,"keywords":["nocrits","nodmgspread","payload","uncletopia"],"game_id":440,"stv_port":27016,"stv_name":"Uncletopia | Frankfurt | 1 | All Maps | STV","players":[{"user_id":394,"name":"player","steam_id":76561198054474684,"connected_time":514000000000,"state":"active","ping":64},{"user_id":315,"name":"Biggest Boss [Knockout]","steam_id":76561198044387120,"connected_time":1942000000000,"state":"active","ping":83},{"user_id":396,"name":"OMG IS THAT SPY FROM TF2?","steam_id":76561199291684647,"connected_time":472000000000,"state":"active","ping":61},{"user_id":309,"name":"Big Nut","steam_id":76561199055713329,"connected_time":2202000000000,"state":"active","ping":137},{"user_id":338,"name":"Tax Evader","steam_id":76561198271999106,"connected_time":1514000000000,"state":"connecting","ping":47},{"user_id":412,"name":"generic alias","steam_id":76561198271607226,"connected_time":7000000000,"state":"active","ping":100},{"user_id":335,"name":"f l я n","steam_id":76561198079595755,"connected_time":1565000000000,"state":"active","ping":47},{"user_id":321,"name":"duchess abigail","steam_id":76561198166953966,"connected_time":1851000000000,"state":"spawning","ping":130},{"user_id":379,"name":"UltraDavid42","steam_id":76561198103908668,"connected_time":793000000000,"state":"active","ping":61},{"user_id":324,"name":"Wizard Gaming","steam_id":76561198953210459,"connected_time":1775000000000,"state":"active","ping":92},{"user_id":345,"name":"Tails8521","steam_id":76561198051747164,"connected_time":1451000000000,"state":"active","ping":45},{"user_id":377,"name":"cockwater","steam_id":76561198209101861,"connected_time":814000000000,"state":"active","ping":61},{"user_id":405,"name":"ムGeRmAn |×UA×ム","steam_id":76561199044754898,"connected_time":315000000000,"state":"active","ping":73},{"user_id":272,"name":"jan_fue","steam_id":76561198128287186,"connected_time":2865000000000,"state":"active","ping":66},{"user_id":388,"name":"SPONGE","steam_id":76561198040933472,"connected_time":672000000000,"state":"active","ping":60},{"user_id":341,"name":"78","steam_id":76561198208328357,"connected_time":1470000000000,"state":"active","ping":75},{"user_id":395,"name":"Ross from F.R.I.E.N.D.S.","steam_id":76561198008511665,"connected_time":481000000000,"state":"active","ping":59},{"user_id":378,"name":"Caskye","steam_id":76561198165430888,"connected_time":813000000000,"state":"active","ping":61},{"user_id":344,"name":"HurrpNana","steam_id":76561199102156562,"connected_time":1457000000000,"state":"active","ping":75},{"user_id":411,"name":"Elon Ma","steam_id":76561199018053264,"connected_time":66000000000,"state":"active","ping":67},{"user_id":368,"name":"PLUTO","steam_id":76561198312436128,"connected_time":1038000000000,"state":"active","ping":162},{"user_id":347,"name":"KillerQueen (he/they/she)","steam_id":76561199019399725,"connected_time":1424000000000,"state":"active","ping":59},{"user_id":359,"name":"Udinese Dion","steam_id":76561198067931573,"connected_time":1155000000000,"state":"active","ping":45}]},{"server_id":110,"name":"Uncletopia | Frankfurt | 2 | All Maps","name_short":"frk-2","host":"frk-1.de.uncletopia.com","port":27025,"enabled":true,"region":"eu","cc":"de","latitude":50.110924,"longitude":8.682127,"reserved":0,"last_update":"0001-01-01T00:00:00Z","name_a2s":"Uncletopia | Frankfurt | 2 | All Maps","protocol":17,"map":"pl_pier","folder":"tf","game":"Team Fortress","app_id":440,"player_count":0,"max_players":24,"Bots":0,"server_type":"Dedicated","server_os":"Linux","password":true,"vac":true,"version":"7757534","steam_id":85568392924469990,"keywords":["nocrits","nodmgspread","payload","uncletopia"],"game_id":440,"stv_port":27026,"stv_name":"Uncletopia | Frankfurt | 2 | All Maps | STV","players":null},{"server_id":308,"name":"Uncletopia | Frankfurt | 3 | All Maps","name_short":"frk-3","host":"frk-1.de.uncletopia.com","port":27035,"enabled":true,"region":"eu","cc":"de","latitude":50.110924,"longitude":8.682127,"reserved":0,"last_update":"0001-01-01T00:00:00Z","name_a2s":"Uncletopia | Frankfurt | 3 | All Maps","protocol":17,"map":"cp_snakewater_final1","folder":"tf","game":"Team Fortress","app_id":440,"player_count":13,"max_players":24,"Bots":0,"server_type":"Dedicated","server_os":"Linux","password":true,"vac":true,"version":"7757534","steam_id":85568392924504274,"keywords":["cp","nocrits","nodmgspread","uncletopia"],"game_id":440,"stv_port":27036,"stv_name":"Uncletopia | Frankfurt | 3 | All Maps | STV","players":[{"user_id":105,"name":"Egor Pomidor","steam_id":76561199175688390,"connected_time":839000000000,"state":"active","ping":74},{"user_id":104,"name":"MovingIsOverRated","steam_id":76561198385633292,"connected_time":1285000000000,"state":"active","ping":89},{"user_id":89,"name":"wtabs","steam_id":76561198831766743,"connected_time":2139000000000,"state":"active","ping":70},{"user_id":109,"name":"Borat","steam_id":76561198122226417,"connected_time":609000000000,"state":"active","ping":59},{"user_id":107,"name":"InfamousAxe","steam_id":76561198099504739,"connected_time":700000000000,"state":"active","ping":117},{"user_id":108,"name":"ztrs6","steam_id":76561198314853803,"connected_time":684000000000,"state":"active","ping":91},{"user_id":110,"name":"frosty","steam_id":76561198094560834,"connected_time":608000000000,"state":"active","ping":60},{"user_id":67,"name":"antlionguard","steam_id":76561198072747143,"connected_time":3839000000000,"state":"active","ping":99},{"user_id":111,"name":"que movida","steam_id":76561197966125354,"connected_time":370000000000,"state":"active","ping":72},{"user_id":112,"name":"HarMala","steam_id":76561198055298143,"connected_time":357000000000,"state":"active","ping":75},{"user_id":113,"name":"rc","steam_id":76561198985675604,"connected_time":214000000000,"state":"active","ping":74},{"user_id":114,"name":"wouris","steam_id":76561198876188003,"connected_time":18000000000,"state":"active","ping":54},{"user_id":84,"name":"Fat Pigeon","steam_id":76561198817940142,"connected_time":2634000000000,"state":"active","ping":59}]},{"server_id":309,"name":"Uncletopia | Frankfurt | 4 | All Maps","name_short":"frk-4","host":"frk-1.de.uncletopia.com","port":27045,"enabled":true,"region":"eu","cc":"de","latitude":50.110924,"longitude":8.682127,"reserved":0,"last_update":"0001-01-01T00:00:00Z","name_a2s":"Uncletopia | Frankfurt | 4 | All Maps","protocol":17,"map":"pl_badwater","folder":"tf","game":"Team Fortress","app_id":440,"player_count":23,"max_players":24,"Bots":0,"server_type":"Dedicated","server_os":"Linux","password":true,"vac":true,"version":"7757534","steam_id":85568392924504275,"keywords":["nocrits","nodmgspread","payload","uncletopia"],"game_id":440,"stv_port":27046,"stv_name":"Uncletopia | Frankfurt | 4 | All Maps | STV","players":[{"user_id":276,"name":"kaczuszka","steam_id":76561198969373800,"connected_time":1396000000000,"state":"active","ping":70},{"user_id":289,"name":"mr paladin","steam_id":76561198267612598,"connected_time":1083000000000,"state":"active","ping":88},{"user_id":296,"name":"Combat Wombat","steam_id":76561197994720068,"connected_time":693000000000,"state":"active","ping":73},{"user_id":278,"name":"Seeker","steam_id":76561198873052772,"connected_time":1325000000000,"state":"active","ping":63},{"user_id":299,"name":"Acanda","steam_id":76561198123246537,"connected_time":548000000000,"state":"active","ping":51},{"user_id":264,"name":"Lionball_3","steam_id":76561199084049796,"connected_time":1944000000000,"state":"active","ping":67},{"user_id":206,"name":"copium addict","steam_id":76561199401665282,"connected_time":4997000000000,"state":"active","ping":101},{"user_id":230,"name":"Mediplier (real)","steam_id":76561198970762992,"connected_time":3580000000000,"state":"active","ping":78},{"user_id":279,"name":"john fortress","steam_id":76561198013237629,"connected_time":1323000000000,"state":"active","ping":94},{"user_id":252,"name":"Cheers Mate!","steam_id":76561198265192382,"connected_time":2453000000000,"state":"active","ping":58},{"user_id":281,"name":"kadma","steam_id":76561198190600121,"connected_time":1306000000000,"state":"active","ping":53},{"user_id":295,"name":"Zatusrex","steam_id":76561198104147805,"connected_time":796000000000,"state":"active","ping":92},{"user_id":282,"name":"Hex","steam_id":76561198063849473,"connected_time":1304000000000,"state":"active","ping":67},{"user_id":283,"name":"mumbler","steam_id":76561197970641239,"connected_time":1295000000000,"state":"active","ping":46},{"user_id":284,"name":"Torment","steam_id":76561198112228234,"connected_time":1290000000000,"state":"active","ping":69},{"user_id":303,"name":"YANEPRODALSYA","steam_id":76561198434030679,"connected_time":113000000000,"state":"active","ping":131},{"user_id":261,"name":"SantiTzePug","steam_id":76561199049615996,"connected_time":2111000000000,"state":"active","ping":72},{"user_id":286,"name":"Firevell","steam_id":76561198154813359,"connected_time":1259000000000,"state":"active","ping":58},{"user_id":300,"name":"twitch.tv/red_naxela","steam_id":76561197998803950,"connected_time":517000000000,"state":"active","ping":59},{"user_id":292,"name":"Martin","steam_id":76561197963416927,"connected_time":1004000000000,"state":"active","ping":59},{"user_id":290,"name":"kris the deer","steam_id":76561198170928310,"connected_time":1072000000000,"state":"active","ping":140},{"user_id":273,"name":"σsiris","steam_id":76561198050791602,"connected_time":1840000000000,"state":"active","ping":47},{"user_id":291,"name":"Solu","steam_id":76561198054652468,"connected_time":1025000000000,"state":"active","ping":51}]},{"server_id":310,"name":"Uncletopia | Frankfurt | 5 | All Maps","name_short":"frk-5","host":"frk-1.de.uncletopia.com","port":27055,"enabled":true,"region":"eu","cc":"de","latitude":50.110924,"longitude":8.682127,"reserved":0,"last_update":"0001-01-01T00:00:00Z","name_a2s":"Uncletopia | Frankfurt | 5 | All Maps","protocol":17,"map":"pl_pier","folder":"tf","game":"Team Fortress","app_id":440,"player_count":22,"max_players":24,"Bots":0,"server_type":"Dedicated","server_os":"Linux","password":true,"vac":true,"version":"7757534","steam_id":85568392924504277,"keywords":["nocrits","nodmgspread","payload","uncletopia"],"game_id":440,"stv_port":27056,"stv_name":"Uncletopia | Frankfurt | 5 | All Maps | STV","players":[{"user_id":98,"name":"sork","steam_id":76561198082446459,"connected_time":84000000000,"state":"spawning","ping":115},{"user_id":93,"name":"Freddy Fazbear Gaming","steam_id":76561198299179114,"connected_time":271000000000,"state":"spawning","ping":119},{"user_id":86,"name":"simon","steam_id":76561198880361394,"connected_time":406000000000,"state":"spawning","ping":121},{"user_id":96,"name":"Sophisticated Idiot","steam_id":76561198079866378,"connected_time":234000000000,"state":"spawning","ping":441},{"user_id":55,"name":"NormalPerson","steam_id":76561198049981740,"connected_time":1417000000000,"state":"spawning","ping":84},{"user_id":56,"name":"Stragnov☆","steam_id":76561198074702465,"connected_time":1306000000000,"state":"spawning","ping":132},{"user_id":87,"name":"Your local defective","steam_id":76561198072950522,"connected_time":403000000000,"state":"spawning","ping":116},{"user_id":65,"name":"Furno","steam_id":76561197999723047,"connected_time":891000000000,"state":"spawning","ping":128},{"user_id":91,"name":"mp1mp2mp3","steam_id":76561198088967665,"connected_time":336000000000,"state":"spawning","ping":148},{"user_id":66,"name":"Piek","steam_id":76561199212421275,"connected_time":863000000000,"state":"spawning","ping":92},{"user_id":89,"name":"Shynii","steam_id":76561198194682105,"connected_time":395000000000,"state":"spawning","ping":160},{"user_id":71,"name":"HimpoX","steam_id":76561198043946778,"connected_time":760000000000,"state":"spawning","ping":154},{"user_id":72,"name":"YZO","steam_id":76561198000562317,"connected_time":758000000000,"state":"spawning","ping":188},{"user_id":73,"name":"Celly Gal","steam_id":76561198902847276,"connected_time":740000000000,"state":"spawning","ping":217},{"user_id":74,"name":"Cane","steam_id":76561197976831215,"connected_time":729000000000,"state":"spawning","ping":216},{"user_id":75,"name":"fish","steam_id":76561198092096689,"connected_time":718000000000,"state":"spawning","ping":129},{"user_id":78,"name":"Dragon","steam_id":76561198163255365,"connected_time":635000000000,"state":"spawning","ping":213},{"user_id":79,"name":"Engineer Hater","steam_id":76561198801207748,"connected_time":624000000000,"state":"spawning","ping":346},{"user_id":97,"name":"SlapBop","steam_id":76561198945094606,"connected_time":217000000000,"state":"spawning","ping":130},{"user_id":92,"name":"Radegast the Brown","steam_id":76561198075489505,"connected_time":299000000000,"state":"spawning","ping":143},{"user_id":94,"name":"Bonca","steam_id":76561198137503531,"connected_time":263000000000,"state":"spawning","ping":230},{"user_id":95,"name":"[P-roc] Cmm Bert","steam_id":76561198016658674,"connected_time":254000000000,"state":"spawning","ping":126}]},{"server_id":311,"name":"Uncletopia | Frankfurt | 6 | All Maps","name_short":"frk-6","host":"frk-1.de.uncletopia.com","port":27065,"enabled":true,"region":"eu","cc":"de","latitude":50.110924,"longitude":8.682127,"reserved":0,"last_update":"0001-01-01T00:00:00Z","name_a2s":"Uncletopia | Frankfurt | 6 | All Maps","protocol":17,"map":"pl_barnblitz","folder":"tf","game":"Team Fortress","app_id":440,"player_count":24,"max_players":24,"Bots":0,"server_type":"Dedicated","server_os":"Linux","password":true,"vac":true,"version":"7757534","steam_id":85568392924504278,"keywords":["nocrits","nodmgspread","payload","uncletopia"],"game_id":440,"stv_port":27066,"stv_name":"Uncletopia | Frankfurt | 6 | All Maps | STV","players":[{"user_id":296,"name":"Duel_Clip","steam_id":76561198287685317,"connected_time":2023000000000,"state":"active","ping":147},{"user_id":328,"name":"grzybek567","steam_id":76561198385030436,"connected_time":648000000000,"state":"active","ping":75},{"user_id":330,"name":"System","steam_id":76561199442503973,"connected_time":220000000000,"state":"active","ping":46},{"user_id":326,"name":"Spieller","steam_id":76561198057197847,"connected_time":842000000000,"state":"active","ping":79},{"user_id":299,"name":"ALARM","steam_id":76561198120686521,"connected_time":1872000000000,"state":"active","ping":59},{"user_id":310,"name":"Muchomorek_223","steam_id":76561198200871470,"connected_time":1566000000000,"state":"active","ping":92},{"user_id":335,"name":"Rex","steam_id":76561199474556920,"connected_time":107000000000,"state":"active","ping":100},{"user_id":325,"name":"jerf","steam_id":76561199213901239,"connected_time":905000000000,"state":"active","ping":60},{"user_id":331,"name":"Optimist 50","steam_id":76561198039631442,"connected_time":202000000000,"state":"active","ping":87},{"user_id":311,"name":"Pootis penser","steam_id":76561198944032480,"connected_time":1561000000000,"state":"active","ping":95},{"user_id":332,"name":"Mowelic","steam_id":76561198873641222,"connected_time":176000000000,"state":"active","ping":83},{"user_id":293,"name":"Pancakes","steam_id":76561198196259989,"connected_time":2157000000000,"state":"active","ping":60},{"user_id":312,"name":"YuraGreek","steam_id":76561198050182252,"connected_time":1549000000000,"state":"active","ping":75},{"user_id":313,"name":"LivEssense","steam_id":76561198052476979,"connected_time":1548000000000,"state":"active","ping":86},{"user_id":333,"name":"Frylock","steam_id":76561198050292560,"connected_time":176000000000,"state":"active","ping":55},{"user_id":280,"name":":)","steam_id":76561198103988618,"connected_time":3259000000000,"state":"active","ping":75},{"user_id":321,"name":"Kestrel","steam_id":76561198144033005,"connected_time":1189000000000,"state":"active","ping":67},{"user_id":336,"name":"Arecibo","steam_id":76561198014359615,"connected_time":96000000000,"state":"active","ping":69},{"user_id":320,"name":"JeanCorben","steam_id":76561197965133561,"connected_time":1290000000000,"state":"active","ping":45},{"user_id":287,"name":"Le horse","steam_id":76561198119563666,"connected_time":3084000000000,"state":"active","ping":59},{"user_id":317,"name":"Menty","steam_id":76561198036748212,"connected_time":1511000000000,"state":"active","ping":45},{"user_id":322,"name":"Rashid Besythe","steam_id":76561198081477129,"connected_time":1180000000000,"state":"active","ping":73},{"user_id":337,"name":"smegma male","steam_id":76561198101978330,"connected_time":66000000000,"state":"active","ping":98},{"user_id":323,"name":"NEWT !!!","steam_id":76561198798809471,"connected_time":1058000000000,"state":"active","ping":76}]},{"server_id":23,"name":"Uncletopia | Frankfurt | 7 | Stopwatch Beta","name_short":"frk-7","host":"frk-1.de.uncletopia.com","port":27075,"enabled":true,"region":"eu","cc":"de","latitude":50.110924,"longitude":8.682127,"reserved":0,"last_update":"0001-01-01T00:00:00Z","name_a2s":"Uncletopia | Frankfurt | 7 | Stopwatch Beta","protocol":17,"map":"workshop/koth_bagel_rc6.ugc2514036946","folder":"tf","game":"Team Fortress","app_id":440,"player_count":0,"max_players":24,"Bots":0,"server_type":"Dedicated","server_os":"Linux","password":true,"vac":true,"version":"7757534","steam_id":85568392924742827,"keywords":["cp","nocrits","nodmgspread","uncletopia"],"game_id":440,"stv_port":27076,"stv_name":"Uncletopia | Frankfurt | 7 | Stopwatch Beta | STV","players":null},{"server_id":24,"name":"Uncletopia | Frankfurt | 8 | Community","name_short":"frk-8","host":"frk-1.de.uncletopia.com","port":27085,"enabled":true,"region":"eu","cc":"de","latitude":50.110924,"longitude":8.682127,"reserved":0,"last_update":"0001-01-01T00:00:00Z","name_a2s":"Uncletopia | Frankfurt | 8 | Community","protocol":17,"map":"workshop/pl_fifthcurve_rc1.ugc648227046","folder":"tf","game":"Team Fortress","app_id":440,"player_count":3,"max_players":24,"Bots":0,"server_type":"Dedicated","server_os":"Linux","password":true,"vac":true,"version":"7757534","steam_id":85568392924742828,"keywords":["nocrits","nodmgspread","payload","uncletopia"],"game_id":440,"stv_port":27086,"stv_name":"Uncletopia | Frankfurt | 8 | Community | STV","players":[{"user_id":18,"name":"fried","steam_id":76561198307522022,"connected_time":585000000000,"state":"active","ping":49},{"user_id":19,"name":"Truegr","steam_id":76561198811912339,"connected_time":567000000000,"state":"active","ping":58},{"user_id":20,"name":"NM_42 #SaveTF2","steam_id":76561198831120909,"connected_time":41000000000,"state":"active","ping":96}]},{"server_id":202,"name":"Uncletopia | Hong Kong | 1 | All Maps","name_short":"hgk-1","host":"hgk-1.hk.uncletopia.com","port":27015,"enabled":true,"region":"asia","cc":"hk","latitude":22.302711,"longitude":114.177216,"reserved":0,"last_update":"0001-01-01T00:00:00Z","name_a2s":"Uncletopia | Hong Kong | 1 | All Maps","protocol":17,"map":"pl_badwater","folder":"tf","game":"Team Fortress","app_id":440,"player_count":0,"max_players":24,"Bots":0,"server_type":"Dedicated","server_os":"Linux","password":true,"vac":true,"version":"7757534","steam_id":85568392924494504,"keywords":["nocrits","nodmgspread","payload","uncletopia"],"game_id":440,"stv_port":27016,"stv_name":"Uncletopia | Hong Kong | 1 | All Maps | STV","players":null},{"server_id":1,"name":"Uncletopia | Los Angeles | 1 | All Maps","name_short":"lax-1","host":"lax-1.us.uncletopia.com","port":27015,"enabled":true,"region":"us-west","cc":"us","latitude":33.94279,"longitude":-118.41004,"reserved":0,"last_update":"0001-01-01T00:00:00Z","name_a2s":"Uncletopia | Los Angeles | 1 | All Maps","protocol":17,"map":"cp_process_final","folder":"tf","game":"Team Fortress","app_id":440,"player_count":0,"max_players":24,"Bots":0,"server_type":"Dedicated","server_os":"Linux","password":true,"vac":true,"version":"7757534","steam_id":85568392924469991,"keywords":["cp","nocrits","nodmgspread","uncletopia"],"game_id":440,"stv_port":27016,"stv_name":"Uncletopia | Los Angeles | 1 | All Maps | STV","players":null},{"server_id":112,"name":"Uncletopia | Los Angeles | 2 | All Maps","name_short":"lax-2","host":"lax-1.us.uncletopia.com","port":27025,"enabled":true,"region":"us-west","cc":"us","latitude":33.94279,"longitude":-118.41004,"reserved":0,"last_update":"0001-01-01T00:00:00Z","name_a2s":"Uncletopia | Los Angeles | 2 | All Maps","protocol":17,"map":"pl_thundermountain","folder":"tf","game":"Team Fortress","app_id":440,"player_count":21,"max_players":24,"Bots":0,"server_type":"Dedicated","server_os":"Linux","password":true,"vac":true,"version":"7757534","steam_id":85568392924469992,"keywords":["nocrits","nodmgspread","payload","uncletopia"],"game_id":440,"stv_port":27026,"stv_name":"Uncletopia | Los Angeles | 2 | All Maps | STV","players":[{"user_id":161,"name":"Walmus","steam_id":76561198111416393,"connected_time":1285000000000,"state":"active","ping":54},{"user_id":176,"name":"icm2008","steam_id":76561199277408836,"connected_time":106000000000,"state":"active","ping":116},{"user_id":5,"name":"CatBerryLemonade","steam_id":76561198120932314,"connected_time":11540000000000,"state":"active","ping":114},{"user_id":139,"name":"SteviesBrain-TTV","steam_id":76561198203741965,"connected_time":2266000000000,"state":"active","ping":101},{"user_id":136,"name":"amagicowl","steam_id":76561199060487814,"connected_time":2557000000000,"state":"active","ping":79},{"user_id":143,"name":"Mousemoon","steam_id":76561198170220290,"connected_time":2248000000000,"state":"active","ping":35},{"user_id":169,"name":"TF3 aflyingmouse","steam_id":76561198058134934,"connected_time":711000000000,"state":"active","ping":63},{"user_id":172,"name":"Splnter","steam_id":76561198874186629,"connected_time":608000000000,"state":"active","ping":117},{"user_id":173,"name":"CMAhappy","steam_id":76561198336929808,"connected_time":377000000000,"state":"active","ping":105},{"user_id":154,"name":"Joshua Kimmich","steam_id":76561199475065318,"connected_time":1537000000000,"state":"active","ping":93},{"user_id":174,"name":"Speedy","steam_id":76561198873086850,"connected_time":137000000000,"state":"active","ping":72},{"user_id":177,"name":"mobe #zenmode","steam_id":76561198121633820,"connected_time":26000000000,"state":"active","ping":59},{"user_id":160,"name":"Buswolley","steam_id":76561197995205571,"connected_time":1300000000000,"state":"active","ping":54},{"user_id":178,"name":"Zorg","steam_id":76561198300161979,"connected_time":8000000000,"state":"active","ping":186},{"user_id":164,"name":"watchfull","steam_id":76561198433266742,"connected_time":1201000000000,"state":"active","ping":77},{"user_id":179,"name":"Iron Argus","steam_id":76561198181088245,"connected_time":5000000000,"state":"spawning","ping":103},{"user_id":155,"name":"Sexual Butt","steam_id":76561198102241399,"connected_time":1507000000000,"state":"active","ping":119},{"user_id":163,"name":"Trox","steam_id":76561198263581464,"connected_time":1214000000000,"state":"active","ping":115},{"user_id":158,"name":"Jelpo","steam_id":76561198406920072,"connected_time":1374000000000,"state":"active","ping":111},{"user_id":157,"name":"ceo of sex 2","steam_id":76561198097328127,"connected_time":1443000000000,"state":"active","ping":40},{"user_id":166,"name":"Kaluka","steam_id":76561198036861445,"connected_time":1101000000000,"state":"active","ping":105}]},{"server_id":324,"name":"Uncletopia | Los Angeles | 3 | All Maps","name_short":"lax-3","host":"lax-1.us.uncletopia.com","port":27035,"enabled":true,"region":"us-west","cc":"us","latitude":33.94279,"longitude":-118.41004,"reserved":0,"last_update":"0001-01-01T00:00:00Z","name_a2s":"Uncletopia | Los Angeles | 3 | All Maps","protocol":17,"map":"cp_altitude","folder":"tf","game":"Team Fortress","app_id":440,"player_count":0,"max_players":24,"Bots":0,"server_type":"Dedicated","server_os":"Linux","password":true,"vac":true,"version":"7757534","steam_id":85568392924510198,"keywords":["cp","nocrits","nodmgspread","uncletopia"],"game_id":440,"stv_port":27036,"stv_name":"Uncletopia | Los Angeles | 3 | All Maps | STV","players":null},{"server_id":25,"name":"Uncletopia | Los Angeles | 4 | Stopwatch Beta","name_short":"lax-4","host":"lax-1.us.uncletopia.com","port":27045,"enabled":true,"region":"us-west","cc":"us","latitude":33.94279,"longitude":-118.41004,"reserved":0,"last_update":"0001-01-01T00:00:00Z","name_a2s":"Uncletopia | Los Angeles | 4 | Stopwatch Beta","protocol":17,"map":"cp_dustbowl","folder":"tf","game":"Team Fortress","app_id":440,"player_count":0,"max_players":24,"Bots":0,"server_type":"Dedicated","server_os":"Linux","password":true,"vac":true,"version":"7757534","steam_id":85568392924510199,"keywords":["cp","nocrits","nodmgspread","uncletopia"],"game_id":440,"stv_port":27046,"stv_name":"Uncletopia | Los Angeles | 4 | Stopwatch Beta | STV","players":null},{"server_id":11,"name":"Uncletopia | London | 1 | All Maps","name_short":"lon-1","host":"lon-1.uk.uncletopia.com","port":27015,"enabled":true,"region":"eu","cc":"gb","latitude":51.509865,"longitude":-0.118092,"reserved":0,"last_update":"0001-01-01T00:00:00Z","name_a2s":"Uncletopia | London | 1 | All Maps","protocol":17,"map":"koth_cascade","folder":"tf","game":"Team Fortress","app_id":440,"player_count":21,"max_players":24,"Bots":0,"server_type":"Dedicated","server_os":"Linux","password":true,"vac":true,"version":"7757534","steam_id":85568392924367362,"keywords":["cp","nocrits","nodmgspread","uncletopia"],"game_id":440,"stv_port":27016,"stv_name":"Uncletopia | London | 1 | All Maps | STV","players":[{"user_id":627,"name":"Niisoks (poop version)","steam_id":76561198054588340,"connected_time":124000000000,"state":"active","ping":45},{"user_id":606,"name":"Zoran Snajper","steam_id":76561198312564061,"connected_time":1475000000000,"state":"active","ping":70},{"user_id":624,"name":"Kwizine","steam_id":76561198147999400,"connected_time":337000000000,"state":"active","ping":69},{"user_id":625,"name":"Pintlebert","steam_id":76561199178591063,"connected_time":286000000000,"state":"active","ping":105},{"user_id":623,"name":"♥ ♥ Sp3ll soo SeXy 殺手#1","steam_id":76561197970593737,"connected_time":400000000000,"state":"active","ping":75},{"user_id":626,"name":"Glam Stachee☆","steam_id":76561198115252607,"connected_time":231000000000,"state":"active","ping":99},{"user_id":620,"name":"hora","steam_id":76561198404470526,"connected_time":603000000000,"state":"active","ping":92},{"user_id":611,"name":"Mad Cat Kivima","steam_id":76561198028959678,"connected_time":1361000000000,"state":"active","ping":96},{"user_id":579,"name":"If I MVP My Team Sucks","steam_id":76561198147668373,"connected_time":4391000000000,"state":"active","ping":61},{"user_id":628,"name":"justpixels","steam_id":76561198143717568,"connected_time":105000000000,"state":"spawning","ping":107},{"user_id":629,"name":"bANji","steam_id":76561198108898161,"connected_time":5000000000,"state":"spawning","ping":43},{"user_id":595,"name":"Cave","steam_id":76561198423147900,"connected_time":2784000000000,"state":"active","ping":46},{"user_id":600,"name":"gamer of all","steam_id":76561198366374718,"connected_time":1916000000000,"state":"active","ping":56},{"user_id":592,"name":"☭ybercat","steam_id":76561198014070417,"connected_time":2965000000000,"state":"active","ping":59},{"user_id":617,"name":"upward enjoyer","steam_id":76561198055389492,"connected_time":959000000000,"state":"active","ping":37},{"user_id":585,"name":"jimmy bob","steam_id":76561198319583692,"connected_time":4203000000000,"state":"active","ping":52},{"user_id":602,"name":"spooks","steam_id":76561198048205059,"connected_time":1878000000000,"state":"active","ping":83},{"user_id":612,"name":"Vander","steam_id":76561198213669807,"connected_time":1355000000000,"state":"active","ping":75},{"user_id":607,"name":"ExcLorD","steam_id":76561198078104245,"connected_time":1461000000000,"state":"active","ping":96},{"user_id":571,"name":"1coquo","steam_id":76561199107802470,"connected_time":5311000000000,"state":"active","ping":58},{"user_id":587,"name":"Bonuxer","steam_id":76561198093098132,"connected_time":4118000000000,"state":"active","ping":75}]},{"server_id":114,"name":"Uncletopia | London | 2 | All Maps","name_short":"lon-2","host":"lon-1.uk.uncletopia.com","port":27025,"enabled":true,"region":"eu","cc":"gb","latitude":51.509865,"longitude":-0.118092,"reserved":0,"last_update":"0001-01-01T00:00:00Z","name_a2s":"Uncletopia | London | 2 | All Maps","protocol":17,"map":"pl_swiftwater_final1","folder":"tf","game":"Team Fortress","app_id":440,"player_count":21,"max_players":24,"Bots":0,"server_type":"Dedicated","server_os":"Linux","password":true,"vac":true,"version":"7757534","steam_id":85568392924470941,"keywords":["nocrits","nodmgspread","payload","uncletopia"],"game_id":440,"stv_port":27026,"stv_name":"Uncletopia | London | 2 | All Maps | STV","players":[{"user_id":305,"name":"Big Knoxy","steam_id":76561198291107227,"connected_time":146000000000,"state":"active","ping":59},{"user_id":295,"name":"schorschili.bauer","steam_id":76561198060422037,"connected_time":1093000000000,"state":"active","ping":63},{"user_id":297,"name":"pulsar","steam_id":76561198842123868,"connected_time":1050000000000,"state":"active","ping":105},{"user_id":292,"name":"Frogza","steam_id":76561198083844460,"connected_time":1184000000000,"state":"active","ping":38},{"user_id":257,"name":"twitch.tv/vision515","steam_id":76561198065293729,"connected_time":1937000000000,"state":"active","ping":163},{"user_id":262,"name":"Burger King Employee","steam_id":76561198870203273,"connected_time":1820000000000,"state":"active","ping":147},{"user_id":210,"name":"howdy","steam_id":76561198061293740,"connected_time":3074000000000,"state":"active","ping":78},{"user_id":209,"name":"MARKO","steam_id":76561198065127504,"connected_time":3086000000000,"state":"active","ping":70},{"user_id":212,"name":"Mancomb Seepgood","steam_id":76561197974116369,"connected_time":3022000000000,"state":"active","ping":46},{"user_id":221,"name":"ozhmium","steam_id":76561198060762216,"connected_time":2918000000000,"state":"active","ping":86},{"user_id":248,"name":"Cosmonaut","steam_id":76561198239514504,"connected_time":2158000000000,"state":"active","ping":75},{"user_id":283,"name":"Smith","steam_id":76561198132589784,"connected_time":1385000000000,"state":"active","ping":87},{"user_id":180,"name":"RealManiHACK","steam_id":76561198408081068,"connected_time":5460000000000,"state":"active","ping":74},{"user_id":255,"name":"LordTrap.exe","steam_id":76561198318089716,"connected_time":1953000000000,"state":"active","ping":47},{"user_id":195,"name":"walluu","steam_id":76561198121830870,"connected_time":4224000000000,"state":"active","ping":81},{"user_id":303,"name":"A Wuggery Gruv","steam_id":76561198164638571,"connected_time":490000000000,"state":"active","ping":51},{"user_id":206,"name":"Renard pos4","steam_id":76561197998908594,"connected_time":3142000000000,"state":"active","ping":61},{"user_id":261,"name":"WolfmanCZ","steam_id":76561199157141414,"connected_time":1856000000000,"state":"active","ping":81},{"user_id":215,"name":"vyyn","steam_id":76561198845393663,"connected_time":3012000000000,"state":"active","ping":95},{"user_id":302,"name":"Hasty Fool","steam_id":76561199474081953,"connected_time":586000000000,"state":"active","ping":115},{"user_id":304,"name":"Homeless man with a home","steam_id":76561198274105878,"connected_time":396000000000,"state":"active","ping":79}]},{"server_id":320,"name":"Uncletopia | London | 3 | All Maps","name_short":"lon-3","host":"lon-1.uk.uncletopia.com","port":27035,"enabled":true,"region":"eu","cc":"gb","latitude":51.509865,"longitude":-0.118092,"reserved":0,"last_update":"0001-01-01T00:00:00Z","name_a2s":"Uncletopia | London | 3 | All Maps","protocol":17,"map":"pl_borneo","folder":"tf","game":"Team Fortress","app_id":440,"player_count":22,"max_players":24,"Bots":0,"server_type":"Dedicated","server_os":"Linux","password":true,"vac":true,"version":"7757534","steam_id":85568392924510192,"keywords":["nocrits","nodmgspread","payload","uncletopia"],"game_id":440,"stv_port":27036,"stv_name":"Uncletopia | London | 3 | All Maps | STV","players":[{"user_id":67,"name":"Haha?","steam_id":76561198056882245,"connected_time":194000000000,"state":"active","ping":43},{"user_id":60,"name":"Coolyo X_X","steam_id":76561198309410266,"connected_time":850000000000,"state":"active","ping":78},{"user_id":44,"name":"♫★Xriasp★♫","steam_id":76561198104721321,"connected_time":1509000000000,"state":"active","ping":85},{"user_id":61,"name":"$t@lker_Tim","steam_id":76561198963658042,"connected_time":772000000000,"state":"active","ping":119},{"user_id":62,"name":"Ok I pull up","steam_id":76561198263511184,"connected_time":764000000000,"state":"active","ping":70},{"user_id":12,"name":"Jovy Kujoh","steam_id":76561198410598772,"connected_time":2519000000000,"state":"active","ping":55},{"user_id":63,"name":"2b","steam_id":76561199149307190,"connected_time":524000000000,"state":"active","ping":90},{"user_id":49,"name":"JustKarell","steam_id":76561199043504078,"connected_time":1123000000000,"state":"active","ping":91},{"user_id":16,"name":"arcSolver","steam_id":76561198212013944,"connected_time":2308000000000,"state":"active","ping":44},{"user_id":65,"name":"outin","steam_id":76561198137734730,"connected_time":329000000000,"state":"active","ping":68},{"user_id":47,"name":"Xoukz","steam_id":76561198356014540,"connected_time":1306000000000,"state":"active","ping":104},{"user_id":54,"name":"Locke","steam_id":76561198339408300,"connected_time":1026000000000,"state":"active","ping":58},{"user_id":39,"name":"MtnDew","steam_id":76561199100059743,"connected_time":1677000000000,"state":"active","ping":114},{"user_id":66,"name":"AsuX","steam_id":76561197990333289,"connected_time":272000000000,"state":"active","ping":60},{"user_id":56,"name":"KingPotatoChips","steam_id":76561198035156465,"connected_time":979000000000,"state":"active","ping":64},{"user_id":58,"name":"slickbandxz","steam_id":76561198119553577,"connected_time":903000000000,"state":"active","ping":115},{"user_id":57,"name":"REDZED","steam_id":76561198419203843,"connected_time":961000000000,"state":"active","ping":113},{"user_id":31,"name":"Sweetcheesus","steam_id":76561198022299033,"connected_time":1997000000000,"state":"active","ping":59},{"user_id":32,"name":"Pyrolander","steam_id":76561198050785450,"connected_time":1973000000000,"state":"active","ping":50},{"user_id":69,"name":"Swift","steam_id":76561197998799889,"connected_time":53000000000,"state":"active","ping":45},{"user_id":34,"name":"ZANNABLUKE","steam_id":76561198013534336,"connected_time":1960000000000,"state":"active","ping":58},{"user_id":51,"name":"Roger Slippers","steam_id":76561198188642265,"connected_time":1094000000000,"state":"active","ping":52}]},{"server_id":321,"name":"Uncletopia | London | 4 | All Maps","name_short":"lon-4","host":"lon-1.uk.uncletopia.com","port":27045,"enabled":true,"region":"eu","cc":"gb","latitude":51.509865,"longitude":-0.118092,"reserved":0,"last_update":"0001-01-01T00:00:00Z","name_a2s":"Uncletopia | London | 4 | All Maps","protocol":17,"map":"koth_cascade","folder":"tf","game":"Team Fortress","app_id":440,"player_count":0,"max_players":24,"Bots":0,"server_type":"Dedicated","server_os":"Linux","password":true,"vac":true,"version":"7757534","steam_id":85568392924510193,"keywords":["cp","nocrits","nodmgspread","uncletopia"],"game_id":440,"stv_port":27046,"stv_name":"Uncletopia | London | 4 | All Maps | STV","players":null},{"server_id":21,"name":"Uncletopia | London | 5 | All Maps","name_short":"lon-5","host":"lon-1.uk.uncletopia.com","port":27055,"enabled":true,"region":"eu","cc":"gb","latitude":51.509865,"longitude":-0.118092,"reserved":0,"last_update":"0001-01-01T00:00:00Z","name_a2s":"Uncletopia | London | 5 | All Maps","protocol":17,"map":"pl_pier","folder":"tf","game":"Team Fortress","app_id":440,"player_count":0,"max_players":24,"Bots":0,"server_type":"Dedicated","server_os":"Linux","password":true,"vac":true,"version":"7757534","steam_id":85568392924742829,"keywords":["nocrits","nodmgspread","payload","uncletopia"],"game_id":440,"stv_port":27056,"stv_name":"Uncletopia | London | 5 | All Maps | STV","players":null},{"server_id":22,"name":"Uncletopia | London | 6 | All Maps","name_short":"lon-6","host":"lon-1.uk.uncletopia.com","port":27065,"enabled":true,"region":"eu","cc":"gb","latitude":51.509865,"longitude":-0.118092,"reserved":0,"last_update":"0001-01-01T00:00:00Z","name_a2s":"Uncletopia | London | 6 | All Maps","protocol":17,"map":"koth_highpass","folder":"tf","game":"Team Fortress","app_id":440,"player_count":0,"max_players":24,"Bots":0,"server_type":"Dedicated","server_os":"Linux","password":true,"vac":true,"version":"7757534","steam_id":85568392924742830,"keywords":["cp","nocrits","nodmgspread","uncletopia"],"game_id":440,"stv_port":27066,"stv_name":"Uncletopia | London | 6 | All Maps | STV","players":null},{"server_id":40,"name":"Uncletopia | London | 7 | No Payload","name_short":"lon-7","host":"lon-1.uk.uncletopia.com","port":27075,"enabled":true,"region":"eu","cc":"gb","latitude":51.509865,"longitude":-0.118092,"reserved":0,"last_update":"0001-01-01T00:00:00Z","name_a2s":"Uncletopia | London | 7 | No Payload","protocol":17,"map":"koth_highpass","folder":"tf","game":"Team Fortress","app_id":440,"player_count":0,"max_players":24,"Bots":0,"server_type":"Dedicated","server_os":"Linux","password":true,"vac":true,"version":"7757534","steam_id":85568392924964314,"keywords":["cp","nocrits","nodmgspread","uncletopia"],"game_id":440,"stv_port":27076,"stv_name":"Uncletopia | London | 7 | No Payload | STV","players":null},{"server_id":41,"name":"Uncletopia | London | 8 | Community","name_short":"lon-8","host":"lon-1.uk.uncletopia.com","port":27085,"enabled":true,"region":"eu","cc":"gb","latitude":51.509865,"longitude":-0.118092,"reserved":0,"last_update":"0001-01-01T00:00:00Z","name_a2s":"Uncletopia | London | 8 | Community","protocol":17,"map":"workshop/pl_cactuscanyon_redux_final1.ugc2579644293","folder":"tf","game":"Team Fortress","app_id":440,"player_count":0,"max_players":24,"Bots":0,"server_type":"Dedicated","server_os":"Linux","password":true,"vac":true,"version":"7757534","steam_id":85568392924964315,"keywords":["nocrits","nodmgspread","payload","uncletopia"],"game_id":440,"stv_port":27086,"stv_name":"Uncletopia | London | 8 | Community | STV","players":null},{"server_id":300,"name":"Uncletopia | Montréal | 1 | All Maps","name_short":"mtl-1","host":"mtl-1.ca.uncletopia.com","port":27015,"enabled":true,"region":"us-east","cc":"ca","latitude":45.50889,"longitude":-73.56167,"reserved":0,"last_update":"0001-01-01T00:00:00Z","name_a2s":"Uncletopia | Montréal | 1 | All Maps","protocol":17,"map":"pl_pier","folder":"tf","game":"Team Fortress","app_id":440,"player_count":0,"max_players":24,"Bots":0,"server_type":"Dedicated","server_os":"Linux","password":true,"vac":true,"version":"7757534","steam_id":85568392924500087,"keywords":["nocrits","nodmgspread","payload","uncletopia"],"game_id":440,"stv_port":27016,"stv_name":"Uncletopia | Montréal | 1 | All Maps | STV","players":null},{"server_id":301,"name":"Uncletopia | Montréal | 2 | All Maps","name_short":"mtl-2","host":"mtl-1.ca.uncletopia.com","port":27025,"enabled":true,"region":"us-east","cc":"ca","latitude":45.50889,"longitude":-73.56167,"reserved":0,"last_update":"0001-01-01T00:00:00Z","name_a2s":"Uncletopia | Montréal | 2 | All Maps","protocol":17,"map":"cp_sunshine","folder":"tf","game":"Team Fortress","app_id":440,"player_count":0,"max_players":24,"Bots":0,"server_type":"Dedicated","server_os":"Linux","password":true,"vac":true,"version":"7757534","steam_id":85568392924500088,"keywords":["cp","nocrits","nodmgspread","uncletopia"],"game_id":440,"stv_port":27026,"stv_name":"Uncletopia | Montréal | 2 | All Maps | STV","players":null},{"server_id":302,"name":"Uncletopia | Montréal | 3 | All Maps","name_short":"mtl-3","host":"mtl-1.ca.uncletopia.com","port":27035,"enabled":true,"region":"us-east","cc":"ca","latitude":45.50889,"longitude":-73.56167,"reserved":0,"last_update":"0001-01-01T00:00:00Z","name_a2s":"Uncletopia | Montréal | 3 | All Maps","protocol":17,"map":"pl_frontier_final","folder":"tf","game":"Team Fortress","app_id":440,"player_count":0,"max_players":24,"Bots":0,"server_type":"Dedicated","server_os":"Linux","password":true,"vac":true,"version":"7757534","steam_id":85568392924500089,"keywords":["nocrits","nodmgspread","payload","uncletopia"],"game_id":440,"stv_port":27036,"stv_name":"Uncletopia | Montréal | 3 | All Maps | STV","players":null},{"server_id":303,"name":"Uncletopia | Montréal | 4 | No Payload","name_short":"mtl-4","host":"mtl-1.ca.uncletopia.com","port":27045,"enabled":true,"region":"us-east","cc":"ca","latitude":45.50889,"longitude":-73.56167,"reserved":0,"last_update":"0001-01-01T00:00:00Z","name_a2s":"Uncletopia | Montréal | 4 | No Payload","protocol":17,"map":"pl_pier","folder":"tf","game":"Team Fortress","app_id":440,"player_count":0,"max_players":24,"Bots":0,"server_type":"Dedicated","server_os":"Linux","password":true,"vac":true,"version":"7757534","steam_id":85568392924500090,"keywords":["nocrits","nodmgspread","payload","uncletopia"],"game_id":440,"stv_port":27046,"stv_name":"Uncletopia | Montréal | 4 | No Payload | STV","players":null},{"server_id":13,"name":"Uncletopia | New York City | 1 | All Maps","name_short":"nyc-1","host":"nyc-1.us.uncletopia.com","port":27015,"enabled":true,"region":"us-east","cc":"us","latitude":40.73061,"longitude":-73.93524,"reserved":0,"last_update":"0001-01-01T00:00:00Z","name_a2s":"Uncletopia | New York City | 1 | All Maps","protocol":17,"map":"koth_highpass","folder":"tf","game":"Team Fortress","app_id":440,"player_count":0,"max_players":24,"Bots":0,"server_type":"Dedicated","server_os":"Linux","password":true,"vac":true,"version":"7757534","steam_id":85568392924469993,"keywords":["cp","nocrits","nodmgspread","uncletopia"],"game_id":440,"stv_port":27016,"stv_name":"Uncletopia | New York City | 1 | All Maps | STV","players":null},{"server_id":14,"name":"Uncletopia | New York City | 2 | All Maps","name_short":"nyc-2","host":"nyc-1.us.uncletopia.com","port":27025,"enabled":true,"region":"us-east","cc":"us","latitude":40.73061,"longitude":-73.93524,"reserved":0,"last_update":"0001-01-01T00:00:00Z","name_a2s":"Uncletopia | New York City | 2 | All Maps","protocol":17,"map":"pl_upward","folder":"tf","game":"Team Fortress","app_id":440,"player_count":22,"max_players":24,"Bots":0,"server_type":"Dedicated","server_os":"Linux","password":true,"vac":true,"version":"7757534","steam_id":85568392924469994,"keywords":["nocrits","nodmgspread","payload","uncletopia"],"game_id":440,"stv_port":27026,"stv_name":"Uncletopia | New York City | 2 | All Maps | STV","players":[{"user_id":166,"name":"Large Charles","steam_id":76561197999663001,"connected_time":14000000000,"state":"spawning","ping":81},{"user_id":149,"name":"somewhat silly","steam_id":76561198010269150,"connected_time":871000000000,"state":"active","ping":127},{"user_id":165,"name":"Windup Monkey in a Human Suit","steam_id":76561198119501444,"connected_time":70000000000,"state":"active","ping":90},{"user_id":76,"name":"dog","steam_id":76561198263873491,"connected_time":5975000000000,"state":"active","ping":60},{"user_id":144,"name":"g00bur","steam_id":76561197993622520,"connected_time":1773000000000,"state":"active","ping":55},{"user_id":117,"name":"Gandalf Gaming","steam_id":76561198368151490,"connected_time":3459000000000,"state":"active","ping":43},{"user_id":147,"name":"Ss...","steam_id":76561197995620232,"connected_time":993000000000,"state":"active","ping":34},{"user_id":164,"name":"pablo","steam_id":76561198395577807,"connected_time":164000000000,"state":"active","ping":44},{"user_id":137,"name":"Voids","steam_id":76561198128386726,"connected_time":2385000000000,"state":"active","ping":74},{"user_id":131,"name":"Mika  Laakso","steam_id":76561198115035132,"connected_time":2734000000000,"state":"active","ping":77},{"user_id":152,"name":"puffy","steam_id":76561198411347037,"connected_time":792000000000,"state":"active","ping":46},{"user_id":167,"name":"Zenabie","steam_id":76561198088372680,"connected_time":12000000000,"state":"spawning","ping":76},{"user_id":159,"name":"ItsRoy","steam_id":76561198119525485,"connected_time":645000000000,"state":"active","ping":38},{"user_id":155,"name":"Jesser","steam_id":76561198106766384,"connected_time":735000000000,"state":"active","ping":147},{"user_id":162,"name":"Pig","steam_id":76561198276179693,"connected_time":625000000000,"state":"active","ping":65},{"user_id":168,"name":"Asriel Creemurr","steam_id":76561198190323610,"connected_time":8000000000,"state":"spawning","ping":90},{"user_id":134,"name":"Stix","steam_id":76561198116147404,"connected_time":2522000000000,"state":"active","ping":95},{"user_id":25,"name":"Jake","steam_id":76561198018166984,"connected_time":8536000000000,"state":"active","ping":45},{"user_id":140,"name":"BasicPeaches","steam_id":76561198190890150,"connected_time":1897000000000,"state":"active","ping":59},{"user_id":157,"name":"hummus in my tummus","steam_id":76561199438698036,"connected_time":724000000000,"state":"active","ping":65},{"user_id":163,"name":"SirDigbyChickenCaesar","steam_id":76561197998612788,"connected_time":558000000000,"state":"active","ping":72},{"user_id":122,"name":"Cecil","steam_id":76561199309028776,"connected_time":3235000000000,"state":"active","ping":44}]},{"server_id":15,"name":"Uncletopia | New York City | 3 | Stopwatch Beta","name_short":"nyc-3","host":"nyc-1.us.uncletopia.com","port":27035,"enabled":true,"region":"us-east","cc":"us","latitude":40.73061,"longitude":-73.93524,"reserved":0,"last_update":"0001-01-01T00:00:00Z","name_a2s":"Uncletopia | New York City | 3 | Stopwatch Beta","protocol":17,"map":"koth_cascade","folder":"tf","game":"Team Fortress","app_id":440,"player_count":0,"max_players":24,"Bots":0,"server_type":"Dedicated","server_os":"Linux","password":true,"vac":true,"version":"7757534","steam_id":85568392924742820,"keywords":["cp","nocrits","nodmgspread","uncletopia"],"game_id":440,"stv_port":27036,"stv_name":"Uncletopia | New York City | 3 | Stopwatch Beta | STV","players":null},{"server_id":16,"name":"Uncletopia | New York City | 4 | Community","name_short":"nyc-4","host":"nyc-1.us.uncletopia.com","port":27045,"enabled":true,"region":"us-east","cc":"us","latitude":40.73061,"longitude":-73.93524,"reserved":0,"last_update":"0001-01-01T00:00:00Z","name_a2s":"Uncletopia | New York City | 4 | Community","protocol":17,"map":"pl_frontier_final","folder":"tf","game":"Team Fortress","app_id":440,"player_count":0,"max_players":24,"Bots":0,"server_type":"Dedicated","server_os":"Linux","password":true,"vac":true,"version":"7757534","steam_id":85568392924742821,"keywords":["nocrits","nodmgspread","payload","uncletopia"],"game_id":440,"stv_port":27046,"stv_name":"Uncletopia | New York City | 4 | Community | STV","players":null},{"server_id":142,"name":"Uncletopia | São Paulo | 1 | All Maps","name_short":"sao-1","host":"sao-1.br.uncletopia.com","port":27015,"enabled":true,"region":"sa","cc":"br","latitude":-23.533773,"longitude":-46.62529,"reserved":0,"last_update":"0001-01-01T00:00:00Z","name_a2s":"Uncletopia | São Paulo | 1 | All Maps","protocol":17,"map":"cp_altitude","folder":"tf","game":"Team Fortress","app_id":440,"player_count":0,"max_players":24,"Bots":0,"server_type":"Dedicated","server_os":"Linux","password":true,"vac":true,"version":"7757534","steam_id":85568392924469996,"keywords":["cp","nocrits","nodmgspread","uncletopia"],"game_id":440,"stv_port":27016,"stv_name":"Uncletopia | São Paulo | 1 | All Maps | STV","players":null},{"server_id":143,"name":"Uncletopia | São Paulo | 2 | All Maps","name_short":"sao-2","host":"sao-2.br.uncletopia.com","port":27015,"enabled":true,"region":"sa","cc":"br","latitude":-23.533773,"longitude":-46.62529,"reserved":0,"last_update":"0001-01-01T00:00:00Z","name_a2s":"Uncletopia | São Paulo | 2 | All Maps","protocol":17,"map":"koth_viaduct","folder":"tf","game":"Team Fortress","app_id":440,"player_count":0,"max_players":24,"Bots":0,"server_type":"Dedicated","server_os":"Linux","password":true,"vac":true,"version":"7757534","steam_id":85568392924485349,"keywords":["cp","nocrits","nodmgspread","uncletopia"],"game_id":440,"stv_port":27016,"stv_name":"Uncletopia | São Paulo | 2 | All Maps | STV","players":null},{"server_id":7,"name":"Uncletopia | Seattle | 1 | All Maps","name_short":"sea-1","host":"sea-1.us.uncletopia.com","port":27015,"enabled":true,"region":"us-west","cc":"us","latitude":47.608013,"longitude":-122.33517,"reserved":0,"last_update":"0001-01-01T00:00:00Z","name_a2s":"Uncletopia | Seattle | 1 | All Maps","protocol":17,"map":"koth_highpass","folder":"tf","game":"Team Fortress","app_id":440,"player_count":0,"max_players":24,"Bots":0,"server_type":"Dedicated","server_os":"Linux","password":true,"vac":true,"version":"7757534","steam_id":85568392924469997,"keywords":["cp","nocrits","nodmgspread","uncletopia"],"game_id":440,"stv_port":27016,"stv_name":"Uncletopia | Seattle | 1 | All Maps | STV","players":null},{"server_id":119,"name":"Uncletopia | Seattle | 2 | All Maps","name_short":"sea-2","host":"sea-1.us.uncletopia.com","port":27025,"enabled":true,"region":"us-west","cc":"us","latitude":47.608013,"longitude":-122.33517,"reserved":0,"last_update":"0001-01-01T00:00:00Z","name_a2s":"Uncletopia | Seattle | 2 | All Maps","protocol":17,"map":"cp_sunshine","folder":"tf","game":"Team Fortress","app_id":440,"player_count":23,"max_players":24,"Bots":0,"server_type":"Dedicated","server_os":"Linux","password":true,"vac":true,"version":"7757534","steam_id":85568392924469998,"keywords":["cp","nocrits","nodmgspread","uncletopia"],"game_id":440,"stv_port":27026,"stv_name":"Uncletopia | Seattle | 2 | All Maps | STV","players":[{"user_id":64,"name":"Compress Dong","steam_id":76561198018950826,"connected_time":327000000000,"state":"active","ping":58},{"user_id":56,"name":"Segalow","steam_id":76561197964919979,"connected_time":880000000000,"state":"active","ping":60},{"user_id":7,"name":"nfseskimo","steam_id":76561198078745666,"connected_time":3461000000000,"state":"active","ping":40},{"user_id":65,"name":"vartion","steam_id":76561198272996824,"connected_time":303000000000,"state":"active","ping":45},{"user_id":22,"name":"benji","steam_id":76561198084417967,"connected_time":1839000000000,"state":"active","ping":65},{"user_id":10,"name":"my monitor is off","steam_id":76561198074499537,"connected_time":2994000000000,"state":"active","ping":98},{"user_id":60,"name":"GS ditto","steam_id":76561199013129784,"connected_time":657000000000,"state":"active","ping":97},{"user_id":19,"name":"Patio","steam_id":76561197986082608,"connected_time":2209000000000,"state":"active","ping":53},{"user_id":66,"name":"Zinnia_64","steam_id":76561199158994121,"connected_time":285000000000,"state":"active","ping":108},{"user_id":57,"name":"god approaches","steam_id":76561198081617990,"connected_time":781000000000,"state":"active","ping":118},{"user_id":16,"name":"hoovy","steam_id":76561199228653314,"connected_time":2382000000000,"state":"active","ping":94},{"user_id":32,"name":"Mr.Toasteroven","steam_id":76561199120586450,"connected_time":1474000000000,"state":"active","ping":101},{"user_id":67,"name":"uzr","steam_id":76561198799343084,"connected_time":243000000000,"state":"active","ping":76},{"user_id":27,"name":"Little Linguine","steam_id":76561198816986370,"connected_time":1586000000000,"state":"active","ping":57},{"user_id":69,"name":"hammond the blithering idiot","steam_id":76561199263384620,"connected_time":81000000000,"state":"active","ping":130},{"user_id":63,"name":"Cloud","steam_id":76561198272454184,"connected_time":518000000000,"state":"active","ping":174},{"user_id":70,"name":"Unfortunate","steam_id":76561198395600738,"connected_time":66000000000,"state":"active","ping":81},{"user_id":35,"name":"Tyzombiecrusher","steam_id":76561198175855278,"connected_time":1450000000000,"state":"active","ping":89},{"user_id":71,"name":"ORANGE","steam_id":76561198000401769,"connected_time":43000000000,"state":"active","ping":48},{"user_id":62,"name":"Pot Head Pixie","steam_id":76561198083024504,"connected_time":588000000000,"state":"active","ping":106},{"user_id":39,"name":"Carbonated Cocaine","steam_id":76561198110678966,"connected_time":1441000000000,"state":"active","ping":100},{"user_id":45,"name":"Lapis","steam_id":76561198095034966,"connected_time":1284000000000,"state":"active","ping":134},{"user_id":50,"name":"Wool","steam_id":76561198332704108,"connected_time":1092000000000,"state":"active","ping":103}]},{"server_id":406,"name":"Uncletopia | Seattle | 3 | Stopwatch Beta","name_short":"sea-3","host":"sea-1.us.uncletopia.com","port":27035,"enabled":true,"region":"us-west","cc":"us","latitude":47.608013,"longitude":-122.33517,"reserved":0,"last_update":"0001-01-01T00:00:00Z","name_a2s":"Uncletopia | Seattle | 3 | Stopwatch Beta","protocol":17,"map":"cp_process_final","folder":"tf","game":"Team Fortress","app_id":440,"player_count":0,"max_players":24,"Bots":0,"server_type":"Dedicated","server_os":"Linux","password":true,"vac":true,"version":"7757534","steam_id":85568392924515217,"keywords":["cp","nocrits","nodmgspread","uncletopia"],"game_id":440,"stv_port":27036,"stv_name":"Uncletopia | Seattle | 3 | Stopwatch Beta | STV","players":null},{"server_id":17,"name":"Uncletopia | San Francisco | 1 | All Maps","name_short":"sfo-1","host":"sfo-1.us.uncletopia.com","port":27015,"enabled":true,"region":"us-west","cc":"us","latitude":37.77397,"longitude":-122.4313,"reserved":0,"last_update":"0001-01-01T00:00:00Z","name_a2s":"Uncletopia | San Francisco | 1 | All Maps","protocol":17,"map":"koth_lakeside_final","folder":"tf","game":"Team Fortress","app_id":440,"player_count":0,"max_players":24,"Bots":0,"server_type":"Dedicated","server_os":"Linux","password":true,"vac":true,"version":"7757534","steam_id":85568392924469999,"keywords":["cp","nocrits","nodmgspread","uncletopia"],"game_id":440,"stv_port":27016,"stv_name":"Uncletopia | San Francisco | 1 | All Maps | STV","players":null},{"server_id":18,"name":"Uncletopia | San Francisco | 2 | All Maps","name_short":"sfo-2","host":"sfo-1.us.uncletopia.com","port":27025,"enabled":true,"region":"us-west","cc":"us","latitude":37.77397,"longitude":-122.4313,"reserved":0,"last_update":"0001-01-01T00:00:00Z","name_a2s":"Uncletopia | San Francisco | 2 | All Maps","protocol":17,"map":"koth_viaduct","folder":"tf","game":"Team Fortress","app_id":440,"player_count":0,"max_players":24,"Bots":0,"server_type":"Dedicated","server_os":"Linux","password":true,"vac":true,"version":"7757534","steam_id":85568392924470000,"keywords":["cp","nocrits","nodmgspread","uncletopia"],"game_id":440,"stv_port":27026,"stv_name":"Uncletopia | San Francisco | 2 | All Maps | STV","players":null},{"server_id":19,"name":"Uncletopia | San Francisco | 3 | Stopwatch Beta","name_short":"sfo-3","host":"sfo-1.us.uncletopia.com","port":27035,"enabled":true,"region":"us-west","cc":"us","latitude":37.77397,"longitude":-122.4313,"reserved":0,"last_update":"0001-01-01T00:00:00Z","name_a2s":"Uncletopia | San Francisco | 3 | Stopwatch Beta","protocol":17,"map":"workshop/koth_ramjam_rc1.ugc459778887","folder":"tf","game":"Team Fortress","app_id":440,"player_count":0,"max_players":24,"Bots":0,"server_type":"Dedicated","server_os":"Linux","password":true,"vac":true,"version":"7757534","steam_id":85568392924742824,"keywords":["cp","nocrits","nodmgspread","uncletopia"],"game_id":440,"stv_port":27036,"stv_name":"Uncletopia | San Francisco | 3 | Stopwatch Beta | STV","players":null},{"server_id":20,"name":"Uncletopia | San Francisco | 4 | Community","name_short":"sfo-4","host":"sfo-1.us.uncletopia.com","port":27045,"enabled":true,"region":"us-west","cc":"us","latitude":37.77397,"longitude":-122.4313,"reserved":0,"last_update":"0001-01-01T00:00:00Z","name_a2s":"Uncletopia | San Francisco | 4 | Community","protocol":17,"map":"workshop/cp_glassworks_rc6a.ugc454118349","folder":"tf","game":"Team Fortress","app_id":440,"player_count":0,"max_players":24,"Bots":0,"server_type":"Dedicated","server_os":"Linux","password":true,"vac":true,"version":"7757534","steam_id":85568392924742826,"keywords":["cp","nocrits","nodmgspread","uncletopia"],"game_id":440,"stv_port":27046,"stv_name":"Uncletopia | San Francisco | 4 | Community | STV","players":null},{"server_id":141,"name":"Uncletopia | Sydney | 1 | All Maps","name_short":"syd-1","host":"syd-1.au.uncletopia.com","port":27015,"enabled":true,"region":"au","cc":"au","latitude":-33.865143,"longitude":151.2099,"reserved":0,"last_update":"0001-01-01T00:00:00Z","name_a2s":"Uncletopia | Sydney | 1 | All Maps","protocol":17,"map":"cp_dustbowl","folder":"tf","game":"Team Fortress","app_id":440,"player_count":0,"max_players":24,"Bots":0,"server_type":"Dedicated","server_os":"Linux","password":true,"vac":true,"version":"7757534","steam_id":85568392924470001,"keywords":["cp","nocrits","nodmgspread","uncletopia"],"game_id":440,"stv_port":27016,"stv_name":"Uncletopia | Sydney | 1 | All Maps | STV","players":null},{"server_id":123,"name":"Uncletopia | Sydney | 2 | All Maps","name_short":"syd-2","host":"syd-1.au.uncletopia.com","port":27025,"enabled":true,"region":"au","cc":"au","latitude":-33.865143,"longitude":151.2099,"reserved":0,"last_update":"0001-01-01T00:00:00Z","name_a2s":"Uncletopia | Sydney | 2 | All Maps","protocol":17,"map":"pl_badwater","folder":"tf","game":"Team Fortress","app_id":440,"player_count":0,"max_players":24,"Bots":0,"server_type":"Dedicated","server_os":"Linux","password":true,"vac":true,"version":"7757534","steam_id":85568392924470002,"keywords":["nocrits","nodmgspread","payload","uncletopia"],"game_id":440,"stv_port":27026,"stv_name":"Uncletopia | Sydney | 2 | All Maps | STV","players":null},{"server_id":395,"name":"Uncletopia | Sydney | 3 | All Maps","name_short":"syd-3","host":"syd-1.au.uncletopia.com","port":27035,"enabled":true,"region":"au","cc":"au","latitude":-33.865143,"longitude":151.2099,"reserved":0,"last_update":"0001-01-01T00:00:00Z","name_a2s":"Uncletopia | Sydney | 3 | All Maps","protocol":17,"map":"pl_badwater","folder":"tf","game":"Team Fortress","app_id":440,"player_count":0,"max_players":24,"Bots":0,"server_type":"Dedicated","server_os":"Linux","password":true,"vac":true,"version":"7757534","steam_id":85568392925194467,"keywords":["nocrits","nodmgspread","payload","uncletopia"],"game_id":440,"stv_port":27036,"stv_name":"Uncletopia | Sydney | 3 | All Maps | STV","players":null},{"server_id":396,"name":"Uncletopia | Sydney | 4 | All Maps","name_short":"syd-4","host":"syd-1.au.uncletopia.com","port":27045,"enabled":true,"region":"au","cc":"au","latitude":-33.865143,"longitude":151.2099,"reserved":0,"last_update":"0001-01-01T00:00:00Z","name_a2s":"Uncletopia | Sydney | 4 | All Maps","protocol":17,"map":"pl_snowycoast","folder":"tf","game":"Team Fortress","app_id":440,"player_count":0,"max_players":24,"Bots":0,"server_type":"Dedicated","server_os":"Linux","password":true,"vac":true,"version":"7757534","steam_id":85568392925397958,"keywords":["nocrits","nodmgspread","payload","uncletopia"],"game_id":440,"stv_port":27046,"stv_name":"Uncletopia | Sydney | 4 | All Maps | STV","players":null},{"server_id":58,"name":"Uncletopia | Sydney | 5 | Stopwatch Beta","name_short":"syd-5","host":"syd-1.au.uncletopia.com","port":27055,"enabled":true,"region":"au","cc":"au","latitude":-33.865143,"longitude":151.2099,"reserved":0,"last_update":"0001-01-01T00:00:00Z","name_a2s":"Uncletopia | Sydney | 5 | Stopwatch Beta","protocol":17,"map":"cp_gullywash_final1","folder":"tf","game":"Team Fortress","app_id":440,"player_count":0,"max_players":24,"Bots":0,"server_type":"Dedicated","server_os":"Linux","password":true,"vac":true,"version":"7757534","steam_id":85568392925397959,"keywords":["cp","nocrits","nodmgspread","uncletopia"],"game_id":440,"stv_port":27056,"stv_name":"Uncletopia | Sydney | 5 | Stopwatch Beta | STV","players":null},{"server_id":59,"name":"Uncletopia | Sydney | 6 | Community","name_short":"syd-6","host":"syd-1.au.uncletopia.com","port":27065,"enabled":true,"region":"au","cc":"au","latitude":-33.865143,"longitude":151.2099,"reserved":0,"last_update":"0001-01-01T00:00:00Z","name_a2s":"Uncletopia | Sydney | 6 | Community","protocol":17,"map":"workshop/pl_cactuscanyon_redux_final1.ugc2579644293","folder":"tf","game":"Team Fortress","app_id":440,"player_count":0,"max_players":24,"Bots":0,"server_type":"Dedicated","server_os":"Linux","password":true,"vac":true,"version":"7757534","steam_id":85568392925397960,"keywords":["nocrits","nodmgspread","payload","uncletopia"],"game_id":440,"stv_port":27066,"stv_name":"Uncletopia | Sydney | 6 | Community | STV","players":null},{"server_id":49,"name":"Uncletopia | Warsaw | 1 | All Maps","name_short":"waw-1","host":"waw-1.pl.uncletopia.com","port":27015,"enabled":true,"region":"eu","cc":"pl","latitude":52.2297,"longitude":21.017532,"reserved":0,"last_update":"0001-01-01T00:00:00Z","name_a2s":"","protocol":0,"map":"","folder":"","game":"","app_id":0,"player_count":0,"max_players":0,"Bots":0,"server_type":"","server_os":"","password":false,"vac":false,"version":"","steam_id":0,"keywords":null,"game_id":0,"stv_port":0,"stv_name":"","players":null},{"server_id":50,"name":"Uncletopia | Warsaw | 2 | All Maps","name_short":"waw-2","host":"waw-1.pl.uncletopia.com","port":27025,"enabled":true,"region":"eu","cc":"pl","latitude":52.2297,"longitude":21.017532,"reserved":0,"last_update":"0001-01-01T00:00:00Z","name_a2s":"Uncletopia | Warsaw | 2 | All Maps","protocol":17,"map":"koth_highpass","folder":"tf","game":"Team Fortress","app_id":440,"player_count":0,"max_players":24,"Bots":0,"server_type":"Dedicated","server_os":"Linux","password":true,"vac":true,"version":"7757534","steam_id":85568392925397851,"keywords":["cp","nocrits","nodmgspread","uncletopia"],"game_id":440,"stv_port":27026,"stv_name":"Uncletopia | Warsaw | 2 | All Maps | STV","players":null},{"server_id":51,"name":"Uncletopia | Warsaw | 3 | All Maps","name_short":"waw-3","host":"waw-1.pl.uncletopia.com","port":27035,"enabled":true,"region":"eu","cc":"pl","latitude":52.2297,"longitude":21.017532,"reserved":0,"last_update":"0001-01-01T00:00:00Z","name_a2s":"Uncletopia | Warsaw | 3 | All Maps","protocol":17,"map":"koth_highpass","folder":"tf","game":"Team Fortress","app_id":440,"player_count":0,"max_players":24,"Bots":0,"server_type":"Dedicated","server_os":"Linux","password":true,"vac":true,"version":"7757534","steam_id":85568392925397852,"keywords":["cp","nocrits","nodmgspread","uncletopia"],"game_id":440,"stv_port":27036,"stv_name":"Uncletopia | Warsaw | 3 | All Maps | STV","players":null},{"server_id":52,"name":"Uncletopia | Warsaw | 4 | All Maps","name_short":"waw-4","host":"waw-1.pl.uncletopia.com","port":27045,"enabled":true,"region":"eu","cc":"pl","latitude":52.2297,"longitude":21.017532,"reserved":0,"last_update":"0001-01-01T00:00:00Z","name_a2s":"Uncletopia | Warsaw | 4 | All Maps","protocol":17,"map":"cp_altitude","folder":"tf","game":"Team Fortress","app_id":440,"player_count":0,"max_players":24,"Bots":0,"server_type":"Dedicated","server_os":"Linux","password":true,"vac":true,"version":"7757534","steam_id":85568392925397853,"keywords":["cp","nocrits","nodmgspread","uncletopia"],"game_id":440,"stv_port":27046,"stv_name":"Uncletopia | Warsaw | 4 | All Maps | STV","players":null},{"server_id":53,"name":"Uncletopia | Warsaw | 5 | Stopwatch Beta","name_short":"waw-5","host":"waw-1.pl.uncletopia.com","port":27055,"enabled":true,"region":"eu","cc":"pl","latitude":52.2297,"longitude":21.017532,"reserved":0,"last_update":"0001-01-01T00:00:00Z","name_a2s":"Uncletopia | Warsaw | 5 | Stopwatch Beta","protocol":17,"map":"pl_pier","folder":"tf","game":"Team Fortress","app_id":440,"player_count":0,"max_players":24,"Bots":0,"server_type":"Dedicated","server_os":"Linux","password":true,"vac":true,"version":"7757534","steam_id":85568392925397854,"keywords":["nocrits","nodmgspread","payload","uncletopia"],"game_id":440,"stv_port":27056,"stv_name":"Uncletopia | Warsaw | 5 | Stopwatch Beta | STV","players":null},{"server_id":54,"name":"Uncletopia | Warsaw | 6 | Community","name_short":"waw-6","host":"waw-1.pl.uncletopia.com","port":27065,"enabled":true,"region":"eu","cc":"pl","latitude":52.2297,"longitude":21.017532,"reserved":0,"last_update":"0001-01-01T00:00:00Z","name_a2s":"Uncletopia | Warsaw | 6 | Community","protocol":17,"map":"koth_highpass","folder":"tf","game":"Team Fortress","app_id":440,"player_count":0,"max_players":24,"Bots":0,"server_type":"Dedicated","server_os":"Linux","password":true,"vac":true,"version":"7757534","steam_id":85568392925397856,"keywords":["cp","nocrits","nodmgspread","uncletopia"],"game_id":440,"stv_port":27066,"stv_name":"Uncletopia | Warsaw | 6 | Community | STV","players":null}]}