{"status":true,"message":"","result":[{"server_id":9,"name":"Uncletopia | Atlanta | 1 | All Maps","name_short":"atl-1","host":"atl-1.us.uncletopia.com","port":27015,"enabled":true,"region":"us-east","cc":"us","latitude":33.753746,"longitude":-84.38633,"reserved":0,"last_update":"0001-01-01T00:00:00Z","name_a2s":"Uncletopia | Atlanta | 1 | All Maps","protocol":17,"map":"koth_lakeside_final","folder":"tf","game":"Team Fortress","app_id":440,"player_count":0,"max_players":24,"Bots":0,"server_type":"Dedicated","server_os":"Linux","password":true,"vac":true,"version":"7757534","steam_id":85568392924469982,"keywords":["cp","nocrits","nodmgspread","uncletopia"],"game_id":440,"stv_port":27016,"stv_name":"Uncletopia | Atlanta | 1 | All Maps | STV","players":null},{"server_id":400,"name":"Uncletopia | Atlanta | 3 | Stopwatch Beta","name_short":"atl-3","host":"atl-1.us.uncletopia.com","port":27035,"enabled":true,"region":"us-east","cc":"us","latitude":33.753746,"longitude":-84.38633,"reserved":0,"last_update":"0001-01-01T00:00:00Z","name_a2s":"Uncletopia | Atlanta | 3 | Stopwatch Beta","protocol":17,"map":"pl_upward","folder":"tf","game":"Team Fortress","app_id":440,"player_count":0,"max_players":24,"Bots":0,"server_type":"Dedicated","server_os":"Linux","password":true,"vac":true,"version":"7757534","steam_id":85568392924515187,"keywords":["nocrits","nodmgspread","payload","uncletopia"],"game_id":440,"stv_port":27036,"stv_name":"Uncletopia | Atlanta | 3 | Stopwatch Beta | STV","players":null},{"server_id":401,"name":"Uncletopia | Atlanta | 4 | No Payload","name_short":"atl-4","host":"atl-1.us.uncletopia.com","port":27045,"enabled":true,"region":"us-east","cc":"us","latitude":33.753746,"longitude":-84.38633,"reserved":0,"last_update":"0001-01-01T00:00:00Z","name_a2s":"Uncletopia | Atlanta | 4 | No Payload","protocol":17,"map":"pl_pier","folder":"tf","game":"Team Fortress","app_id":440,"player_count":0,"max_players":24,"Bots":0,"server_type":"Dedicated","server_os":"Linux","password":true,"vac":true,"version":"7723704","steam_id":85568392924515188,"keywords":["nocrits","nodmgspread","payload","uncletopia"],"game_id":440,"stv_port":27046,"stv_name":"Uncletopia | Atlanta | 4 | No Payload | STV","players":null},{"server_id":2,"name":"Uncletopia | Chicago | 1 | All Maps","name_short":"chi-1","host":"chi-1.us.uncletopia.com","port":27015,"enabled":true,"region":"us-central","cc":"us","latitude":41.881832,"longitude":-87.62318,"reserved":0,"last_update":"0001-01-01T00:00:00Z","name_a2s":"Uncletopia | Chicago | 1 | All Maps","protocol":17,"map":"pl_badwater","folder":"tf","game":"Team Fortress","app_id":440,"player_count":24,"max_players":24,"Bots":0,"server_type":"Dedicated","server_os":"Linux","password":true,"vac":true,"version":"7757534","steam_id":85568392924469984,"keywords":["nocrits","nodmgspread","payload","uncletopia"],"game_id":440,"stv_port":27016,"stv_name":"Uncletopia | Chicago | 1 | All Maps | STV","players":[{"user_id":4,"name":"your mom (real)","steam_id":76561198140571306,"connected_time":3319000000000,"state":"active","ping":75},{"user_id":5,"name":"Bee_Pirate","steam_id":76561199000599111,"connected_time":3277000000000,"state":"active","ping":71},{"user_id":48,"name":"ahh","steam_id":76561198083271257,"connected_time":566000000000,"state":"active","ping":72},{"user_id":7,"name":"capybara","steam_id":76561198798828328,"connected_time":3216000000000,"state":"active","ping":48},{"user_id":52,"name":"Bee","steam_id":76561198074681324,"connected_time":433000000000,"state":"active","ping":64},{"user_id":9,"name":"Born to :3 forced to :]","steam_id":76561199174579733,"connected_time":3057000000000,"state":"active","ping":76},{"user_id":53,"name":"Alienation","steam_id":76561198016507806,"connected_time":317000000000,"state":"active","ping":125},{"user_id":11,"name":"burial","steam_id":76561198069431694,"connected_time":2884000000000,"state":"active","ping":80},{"user_id":44,"name":"Monti","steam_id":76561198007141798,"connected_time":1102000000000,"state":"active","ping":39},{"user_id":24,"name":"FreonAddict9x19","steam_id":76561198060010824,"connected_time":2573000000000,"state":"active","ping":74},{"user_id":14,"name":"Quansen","steam_id":76561198151594550,"connected_time":2829000000000,"state":"active","ping":58},{"user_id":47,"name":"Iggy Dogg","steam_id":76561198059602545,"connected_time":582000000000,"state":"active","ping":53},{"user_id":22,"name":"Winter the Witchie","steam_id":76561198151971178,"connected_time":2647000000000,"state":"active","ping":55},{"user_id":18,"name":"nicolas the mercenary","steam_id":76561199077641644,"connected_time":2804000000000,"state":"active","ping":62},{"user_id":46,"name":"jorjor wells","steam_id":76561199073429082,"connected_time":901000000000,"state":"active","ping":75},{"user_id":20,"name":"[DEEP] Fitts1099","steam_id":76561198044986906,"connected_time":2768000000000,"state":"active","ping":46},{"user_id":40,"name":"Femcel Fornicator","steam_id":76561198336584447,"connected_time":2009000000000,"state":"active","ping":84},{"user_id":55,"name":"Gorky Park Ranger","steam_id":76561198059103441,"connected_time":15000000000,"state":"active","ping":61},{"user_id":45,"name":"asphyxiation","steam_id":76561198151071386,"connected_time":1084000000000,"state":"active","ping":83},{"user_id":42,"name":"Special","steam_id":76561198070380404,"connected_time":1534000000000,"state":"active","ping":60},{"user_id":43,"name":"sickomode123","steam_id":76561198975511346,"connected_time":1519000000000,"state":"active","ping":93},{"user_id":50,"name":"♥ Femboy♥Ventily ♥","steam_id":76561198157260335,"connected_time":547000000000,"state":"active","ping":59},{"user_id":33,"name":"Louie","steam_id":76561198160534768,"connected_time":2479000000000,"state":"active","ping":67},{"user_id":37,"name":"SeaBass","steam_id":76561198278914206,"connected_time":2171000000000,"state":"active","ping":75}]},{"server_id":106,"name":"Uncletopia | Chicago | 2 | All Maps","name_short":"chi-2","host":"chi-1.us.uncletopia.com","port":27025,"enabled":true,"region":"us-central","cc":"us","latitude":41.881832,"longitude":-87.62318,"reserved":0,"last_update":"0001-01-01T00:00:00Z","name_a2s":"Uncletopia | Chicago | 2 | All Maps","protocol":17,"map":"koth_lakeside_final","folder":"tf","game":"Team Fortress","app_id":440,"player_count":0,"max_players":24,"Bots":0,"server_type":"Dedicated","server_os":"Linux","password":true,"vac":true,"version":"7757534","steam_id":85568392924469985,"keywords":["cp","nocrits","nodmgspread","uncletopia"],"game_id":440,"stv_port":27026,"stv_name":"Uncletopia | Chicago | 2 | All Maps | STV","players":null},{"server_id":402,"name":"Uncletopia | Chicago | 3 | All Maps","name_short":"chi-3","host":"chi-1.us.uncletopia.com","port":27035,"enabled":true,"region":"us-central","cc":"us","latitude":41.881832,"longitude":-87.62318,"reserved":0,"last_update":"0001-01-01T00:00:00Z","name_a2s":"Uncletopia | Chicago | 3 | All Maps","protocol":17,"map":"cp_mountainlab","folder":"tf","game":"Team Fortress","app_id":440,"player_count":24,"max_players":24,"Bots":0,"server_type":"Dedicated","server_os":"Linux","password":true,"vac":true,"version":"7757534","steam_id":85568392924515191,"keywords":["cp","nocrits","nodmgspread","uncletopia"],"game_id":440,"stv_port":27036,"stv_name":"Uncletopia | Chicago | 3 | All Maps | STV","players":[{"user_id":361,"name":"Nosferatu","steam_id":76561198048205270,"connected_time":1263000000000,"state":"active","ping":71},{"user_id":362,"name":"Ejaculation Zach","steam_id":76561198203765200,"connected_time":1250000000000,"state":"active","ping":54},{"user_id":352,"name":"Kritzburgh","steam_id":76561198149466938,"connected_time":1451000000000,"state":"active","ping":69},{"user_id":302,"name":"Rornir","steam_id":76561198081829615,"connected_time":5663000000000,"state":"active","ping":41},{"user_id":182,"name":"[ØWQJØ]chubacaalatake","steam_id":76561198136201697,"connected_time":11492000000000,"state":"active","ping":151},{"user_id":304,"name":"SomeScuffedKid","steam_id":76561198086113234,"connected_time":5369000000000,"state":"active","ping":71},{"user_id":364,"name":"Ġ1 ♦ Synth","steam_id":76561198058660228,"connected_time":1134000000000,"state":"active","ping":59},{"user_id":301,"name":"kwout","steam_id":76561197997139225,"connected_time":5729000000000,"state":"active","ping":51},{"user_id":365,"name":"Giddy","steam_id":76561198103183739,"connected_time":907000000000,"state":"active","ping":60},{"user_id":343,"name":"jpuck","steam_id":76561198025018960,"connected_time":2444000000000,"state":"active","ping":69},{"user_id":353,"name":"DiscoTraveler","steam_id":76561199240168088,"connected_time":1448000000000,"state":"active","ping":58},{"user_id":354,"name":"white ray","steam_id":76561198026664629,"connected_time":1438000000000,"state":"active","ping":52},{"user_id":366,"name":"CRWND","steam_id":76561198329810027,"connected_time":744000000000,"state":"active","ping":140},{"user_id":368,"name":"PadrePockets","steam_id":76561197993251606,"connected_time":652000000000,"state":"active","ping":79},{"user_id":370,"name":"Paco","steam_id":76561198023504958,"connected_time":544000000000,"state":"active","ping":60},{"user_id":355,"name":"Dr. Nobotnik","steam_id":76561198357339092,"connected_time":1413000000000,"state":"active","ping":98},{"user_id":178,"name":"Coffee with a Stranger","steam_id":76561198307422313,"connected_time":11517000000000,"state":"active","ping":72},{"user_id":344,"name":"The Land Admiral","steam_id":76561198159356609,"connected_time":2344000000000,"state":"active","ping":75},{"user_id":347,"name":"Swedish Crowbar","steam_id":76561199105488936,"connected_time":2095000000000,"state":"active","ping":155},{"user_id":44,"name":"Lennu","steam_id":76561198060730154,"connected_time":22222000000000,"state":"active","ping":73},{"user_id":367,"name":"Gordon Ramsay","steam_id":76561198123893900,"connected_time":717000000000,"state":"active","ping":82},{"user_id":363,"name":"Bysig_ttv #savetf2","steam_id":76561198086422663,"connected_time":1250000000000,"state":"active","ping":72},{"user_id":369,"name":"A Random Guy","steam_id":76561198282519457,"connected_time":642000000000,"state":"active","ping":78},{"user_id":371,"name":"I'm Only 4 Inches","steam_id":76561198055542546,"connected_time":209000000000,"state":"active","ping":64}]},{"server_id":403,"name":"Uncletopia | Chicago | 4 | All Maps","name_short":"chi-4","host":"chi-1.us.uncletopia.com","port":27045,"enabled":true,"region":"us-central","cc":"us","latitude":41.881832,"longitude":-87.62318,"reserved":0,"last_update":"0001-01-01T00:00:00Z","name_a2s":"Uncletopia | Chicago | 4 | All Maps","protocol":17,"map":"cp_altitude","folder":"tf","game":"Team Fortress","app_id":440,"player_count":0,"max_players":24,"Bots":0,"server_type":"Dedicated","server_os":"Linux","password":true,"vac":true,"version":"7757534","steam_id":85568392924515193,"keywords":["cp","nocrits","nodmgspread","uncletopia"],"game_id":440,"stv_port":27046,"stv_name":"Uncletopia | Chicago | 4 | All Maps | STV","players":null},{"server_id":36,"name":"Uncletopia | Chicago | 5 | All Maps","name_short":"chi-5","host":"chi-2.us.uncletopia.com","port":27015,"enabled":true,"region":"us-central","cc":"us","latitude":41.881832,"longitude":-87.62318,"reserved":0,"last_update":"0001-01-01T00:00:00Z","name_a2s":"Uncletopia | Chicago | 5 | All Maps","protocol":17,"map":"koth_cascade","folder":"tf","game":"Team Fortress","app_id":440,"player_count":0,"max_players":24,"Bots":0,"server_type":"Dedicated","server_os":"Linux","password":true,"vac":true,"version":"7757534","steam_id":85568392924866362,"keywords":["cp","nocrits","nodmgspread","uncletopia"],"game_id":440,"stv_port":27016,"stv_name":"Uncletopia | Chicago | 5 | All Maps | STV","players":null},{"server_id":37,"name":"Uncletopia | Chicago | 6 | All Maps","name_short":"chi-6","host":"chi-2.us.uncletopia.com","port":27025,"enabled":true,"region":"us-central","cc":"us","latitude":41.881832,"longitude":-87.62318,"reserved":0,"last_update":"0001-01-01T00:00:00Z","name_a2s":"Uncletopia | Chicago | 6 | All Maps","protocol":17,"map":"cp_sunshine","folder":"tf","game":"Team Fortress","app_id":440,"player_count":0,"max_players":24,"Bots":0,"server_type":"Dedicated","server_os":"Linux","password":true,"vac":true,"version":"7757534","steam_id":85568392924866363,"keywords":["cp","nocrits","nodmgspread","uncletopia"],"game_id":440,"stv_port":27026,"stv_name":"Uncletopia | Chicago | 6 | All Maps | STV","players":null},{"server_id":38,"name":"Uncletopia | Chicago | 7 | Stopwatch Beta","name_short":"chi-7","host":"chi-2.us.uncletopia.com","port":27035,"enabled":true,"region":"us-central","cc":"us","latitude":41.881832,"longitude":-87.62318,"reserved":0,"last_update":"0001-01-01T00:00:00Z","name_a2s":"Uncletopia | Chicago | 7 | Stopwatch Beta","protocol":17,"map":"pl_swiftwater_final1","folder":"tf","game":"Team Fortress","app_id":440,"player_count":0,"max_players":24,"Bots":0,"server_type":"Dedicated","server_os":"Linux","password":true,"vac":true,"version":"7757534","steam_id":85568392924866364,"keywords":["nocrits","nodmgspread","payload","uncletopia"],"game_id":440,"stv_port":27036,"stv_name":"Uncletopia | Chicago | 7 | Stopwatch Beta | STV","players":null},{"server_id":39,"name":"Uncletopia | Chicago | 8 | Community","name_short":"chi-8","host":"chi-2.us.uncletopia.com","port":27045,"enabled":true,"region":"us-central","cc":"us","latitude":41.881832,"longitude":-87.62318,"reserved":0,"last_update":"0001-01-01T00:00:00Z","name_a2s":"Uncletopia | Chicago | 8 | Community","protocol":17,"map":"workshop/koth_slaughter_rc1.ugc1712845210","folder":"tf","game":"Team Fortress","app_id":440,"player_count":20,"max_players":24,"Bots":0,"server_type":"Dedicated","server_os":"Linux","password":true,"vac":true,"version":"7757534","steam_id":85568392924866365,"keywords":["cp","nocrits","nodmgspread","uncletopia"],"game_id":440,"stv_port":27046,"stv_name":"Uncletopia | Chicago | 8 | Community | STV","players":[{"user_id":98,"name":"Daz","steam_id":76561198041431938,"connected_time":1585000000000,"state":"active","ping":74},{"user_id":121,"name":"Jazz2T","steam_id":76561198154418867,"connected_time":611000000000,"state":"active","ping":108},{"user_id":84,"name":"General Jimbo","steam_id":76561198075426735,"connected_time":3137000000000,"state":"active","ping":88},{"user_id":118,"name":"shadow6","steam_id":76561197979807910,"connected_time":775000000000,"state":"active","ping":104},{"user_id":80,"name":"ZeFizzyPop™","steam_id":76561198258104981,"connected_time":3193000000000,"state":"active","ping":42},{"user_id":124,"name":"crippling fumo addiction","steam_id":76561198115874625,"connected_time":585000000000,"state":"active","ping":63},{"user_id":103,"name":"heimdall","steam_id":76561198069380992,"connected_time":1262000000000,"state":"active","ping":96},{"user_id":109,"name":"MLG BOOTMAN","steam_id":76561198234179320,"connected_time":1001000000000,"state":"active","ping":91},{"user_id":129,"name":"Gooster","steam_id":76561198255311543,"connected_time":301000000000,"state":"active","ping":62},{"user_id":125,"name":"Flyingmeadow","steam_id":76561198144687723,"connected_time":567000000000,"state":"active","ping":71},{"user_id":130,"name":"All Tomorrow's Parties","steam_id":76561197995936212,"connected_time":301000000000,"state":"active","ping":45},{"user_id":132,"name":"Zomboy","steam_id":76561198246006026,"connected_time":82000000000,"state":"active","ping":101},{"user_id":105,"name":"Electric Camel","steam_id":76561198065589663,"connected_time":1247000000000,"state":"active","ping":69},{"user_id":40,"name":"deech","steam_id":76561198066429444,"connected_time":6380000000000,"state":"active","ping":73},{"user_id":108,"name":"bopob","steam_id":76561198177092939,"connected_time":1041000000000,"state":"active","ping":63},{"user_id":115,"name":"Cuckeroo","steam_id":76561198056677151,"connected_time":849000000000,"state":"active","ping":61},{"user_id":126,"name":"gremlin (real)","steam_id":76561199062414681,"connected_time":373000000000,"state":"active","ping":93},{"user_id":79,"name":"me","steam_id":76561199468285784,"connected_time":3226000000000,"state":"active","ping":89},{"user_id":117,"name":"teddybird2k20","steam_id":76561199080972272,"connected_time":816000000000,"state":"active","ping":80},{"user_id":120,"name":"JustCoffee","steam_id":76561199389473180,"connected_time":732000000000,"state":"active","ping":64}]},{"server_id":8,"name":"Uncletopia | Dallas | 1 | All Maps","name_short":"dal-1","host":"dal-1.us.uncletopia.com","port":27015,"enabled":true,"region":"us-central","cc":"us","latitude":32.779167,"longitude":-96.80889,"reserved":0,"last_update":"0001-01-01T00:00:00Z","name_a2s":"Uncletopia | Dallas | 1 | All Maps","protocol":17,"map":"koth_lakeside_final","folder":"tf","game":"Team Fortress","app_id":440,"player_count":20,"max_players":24,"Bots":0,"server_type":"Dedicated","server_os":"Linux","password":true,"vac":true,"version":"7757534","steam_id":85568392924469986,"keywords":["cp","nocrits","nodmgspread","uncletopia"],"game_id":440,"stv_port":27016,"stv_name":"Uncletopia | Dallas | 1 | All Maps | STV","players":[{"user_id":128,"name":"Arrow","steam_id":76561198982001655,"connected_time":626000000000,"state":"active","ping":43},{"user_id":142,"name":"Pochita","steam_id":76561198112388117,"connected_time":103000000000,"state":"active","ping":75},{"user_id":129,"name":"A Fucking Degenerate","steam_id":76561198093261788,"connected_time":623000000000,"state":"active","ping":85},{"user_id":108,"name":"Tyler\u0026Fingers","steam_id":76561198085154485,"connected_time":1747000000000,"state":"active","ping":84},{"user_id":140,"name":"Mario Trapped in a Piano (drunk","steam_id":76561198116765135,"connected_time":223000000000,"state":"active","ping":98},{"user_id":145,"name":"abolish the federal reserve","steam_id":76561198047796437,"connected_time":60000000000,"state":"active","ping":103},{"user_id":119,"name":"the goop slinger","steam_id":76561198271710504,"connected_time":989000000000,"state":"active","ping":67},{"user_id":102,"name":"Orc","steam_id":76561198982645378,"connected_time":2498000000000,"state":"active","ping":69},{"user_id":98,"name":"karbomb","steam_id":76561198120744480,"connected_time":2777000000000,"state":"active","ping":44},{"user_id":132,"name":"No_life gaming","steam_id":76561199412105422,"connected_time":486000000000,"state":"active","ping":86},{"user_id":134,"name":"Boognish Rising","steam_id":76561199273231736,"connected_time":373000000000,"state":"active","ping":84},{"user_id":148,"name":"Wizard","steam_id":76561199020241769,"connected_time":5000000000,"state":"spawning","ping":114},{"user_id":143,"name":"Bnyds","steam_id":76561199206410653,"connected_time":93000000000,"state":"active","ping":59},{"user_id":135,"name":"ArnoldGaming","steam_id":76561198040140247,"connected_time":334000000000,"state":"active","ping":92},{"user_id":144,"name":"Tritium","steam_id":76561198043305626,"connected_time":67000000000,"state":"active","ping":97},{"user_id":138,"name":"caleb","steam_id":76561198119306966,"connected_time":263000000000,"state":"active","ping":104},{"user_id":118,"name":"Agent Bowtie","steam_id":76561198175839279,"connected_time":1017000000000,"state":"active","ping":59},{"user_id":146,"name":"Slazzer","steam_id":76561198404351844,"connected_time":57000000000,"state":"active","ping":88},{"user_id":147,"name":"William Murdoch","steam_id":76561198031394373,"connected_time":44000000000,"state":"active","ping":90},{"user_id":127,"name":"HE’S IN THE GODDAMN WALLS","steam_id":76561198363267009,"connected_time":679000000000,"state":"active","ping":47}]},{"server_id":108,"name":"Uncletopia | Dallas | 2 | All Maps","name_short":"dal-2","host":"dal-1.us.uncletopia.com","port":27025,"enabled":true,"region":"us-central","cc":"us","latitude":32.779167,"longitude":-96.80889,"reserved":0,"last_update":"0001-01-01T00:00:00Z","name_a2s":"Uncletopia | Dallas | 2 | All Maps","protocol":17,"map":"koth_highpass","folder":"tf","game":"Team Fortress","app_id":440,"player_count":0,"max_players":24,"Bots":0,"server_type":"Dedicated","server_os":"Linux","password":true,"vac":true,"version":"7757534","steam_id":85568392924469988,"keywords":["cp","nocrits","nodmgspread","uncletopia"],"game_id":440,"stv_port":27026,"stv_name":"Uncletopia | Dallas | 2 | All Maps | STV","players":null},{"server_id":5,"name":"Uncletopia | Frankfurt | 1 | All Maps","name_short":"frk-1","host":"frk-1.de.uncletopia.com","port":27015,"enabled":true,"region":"eu","cc":"de","latitude":50.110924,"longitude":8.682127,"reserved":0,"last_update":"0001-01-01T00:00:00Z","name_a2s":"Uncletopia | Frankfurt | 1 | All Maps","protocol":17,"map":"cp_altitude","folder":"tf","game":"Team Fortress","app_id":440,"player_count":24,"max_players":24,"Bots":0,"server_type":"Dedicated","server_os":"Linux","password":true,"vac":true,"version":"7757534","steam_id":85568392924469989,"keywords":["cp","nocrits","nodmgspread","uncletopia"],"game_id":440,"stv_port":27016,"stv_name":"Uncletopia | Frankfurt | 1 | All Maps | STV","players":[{"user_id":428,"name":"azeroy","steam_id":76561198079277466,"connected_time":1424000000000,"state":"active","ping":60},{"user_id":445,"name":"Kevin","steam_id":76561198035625423,"connected_time":63000000000,"state":"active","ping":90},{"user_id":408,"name":"where is my egg?","steam_id":76561198172542535,"connected_time":2620000000000,"state":"active","ping":67},{"user_id":386,"name":"Teffg","steam_id":76561198274386094,"connected_time":4324000000000,"state":"active","ping":73},{"user_id":425,"name":"bad at gaem","steam_id":76561198072373587,"connected_time":1721000000000,"state":"active","ping":77},{"user_id":430,"name":"Silent Person","steam_id":76561198107763537,"connected_time":1345000000000,"state":"active","ping":74},{"user_id":410,"name":"BroBama","steam_id":76561198203732587,"connected_time":2341000000000,"state":"active","ping":174},{"user_id":275,"name":"Aras","steam_id":76561198160394046,"connected_time":8662000000000,"state":"active","ping":109},{"user_id":433,"name":"tallen","steam_id":76561198061708595,"connected_time":898000000000,"state":"active","ping":85},{"user_id":255,"name":"KlevukaS™","steam_id":76561198312867604,"connected_time":10969000000000,"state":"active","ping":81},{"user_id":435,"name":"Slimeby","steam_id":76561198353438688,"connected_time":671000000000,"state":"active","ping":71},{"user_id":436,"name":"Phil3k.","steam_id":76561198283072297,"connected_time":641000000000,"state":"active","ping":60},{"user_id":415,"name":"B0rеаl","steam_id":76561198268369013,"connected_time":2176000000000,"state":"active","ping":73},{"user_id":427,"name":"marcus","steam_id":76561198053429589,"connected_time":1498000000000,"state":"active","ping":64},{"user_id":431,"name":"the masacre","steam_id":76561198043601838,"connected_time":1029000000000,"state":"active","ping":62},{"user_id":373,"name":"MAJAX","steam_id":76561198254828632,"connected_time":4819000000000,"state":"active","ping":53},{"user_id":434,"name":"Gurr","steam_id":76561198802006368,"connected_time":701000000000,"state":"active","ping":70},{"user_id":406,"name":"Taez","steam_id":76561198261820803,"connected_time":2670000000000,"state":"active","ping":75},{"user_id":443,"name":"Carry Krypl","steam_id":76561198136938121,"connected_time":478000000000,"state":"active","ping":58},{"user_id":444,"name":"tomatobrotomat","steam_id":76561197995186594,"connected_time":328000000000,"state":"active","ping":46},{"user_id":438,"name":"Spooks","steam_id":76561199171471823,"connected_time":621000000000,"state":"active","ping":66},{"user_id":404,"name":"Dinges360","steam_id":76561198042032834,"connected_time":3173000000000,"state":"active","ping":62},{"user_id":439,"name":"reho-iwnw","steam_id":76561198348062373,"connected_time":610000000000,"state":"active","ping":93},{"user_id":441,"name":"Falconetti","steam_id":76561198029930580,"connected_time":608000000000,"state":"active","ping":74}]},{"server_id":110,"name":"Uncletopia | Frankfurt | 2 | All Maps","name_short":"frk-2","host":"frk-1.de.uncletopia.com","port":27025,"enabled":true,"region":"eu","cc":"de","latitude":50.110924,"longitude":8.682127,"reserved":0,"last_update":"0001-01-01T00:00:00Z","name_a2s":"Uncletopia | Frankfurt | 2 | All Maps","protocol":17,"map":"pl_snowycoast","folder":"tf","game":"Team Fortress","app_id":440,"player_count":24,"max_players":24,"Bots":0,"server_type":"Dedicated","server_os":"Linux","password":true,"vac":true,"version":"7757534","steam_id":85568392924469990,"keywords":["nocrits","nodmgspread","payload","uncletopia"],"game_id":440,"stv_port":27026,"stv_name":"Uncletopia | Frankfurt | 2 | All Maps | STV","players":[{"user_id":100,"name":"Fran","steam_id":76561199070516960,"connected_time":2285000000000,"state":"active","ping":61},{"user_id":101,"name":"Mr. Fox","steam_id":76561198803610709,"connected_time":2258000000000,"state":"active","ping":117},{"user_id":107,"name":"Zoagim","steam_id":76561198030315543,"connected_time":1669000000000,"state":"active","ping":61},{"user_id":118,"name":"_zipfile","steam_id":76561198066133808,"connected_time":888000000000,"state":"active","ping":61},{"user_id":106,"name":"Despair","steam_id":76561198259487481,"connected_time":1881000000000,"state":"active","ping":71},{"user_id":121,"name":"fish in a diving-suit","steam_id":76561199388915628,"connected_time":193000000000,"state":"active","ping":70},{"user_id":119,"name":"Grim the lemon","steam_id":76561199083433988,"connected_time":534000000000,"state":"active","ping":57},{"user_id":113,"name":"X45Y","steam_id":76561198112534025,"connected_time":1102000000000,"state":"active","ping":45},{"user_id":105,"name":"Warrez the Emu","steam_id":76561198080840887,"connected_time":2122000000000,"state":"active","ping":70},{"user_id":108,"name":"Madree","steam_id":76561199443143457,"connected_time":1572000000000,"state":"active","ping":105},{"user_id":82,"name":"Generic Man","steam_id":76561198117310409,"connected_time":3025000000000,"state":"active","ping":59},{"user_id":114,"name":"Mr. Hunts","steam_id":76561197981910397,"connected_time":1098000000000,"state":"active","ping":75},{"user_id":104,"name":"Wüstenfuchs","steam_id":76561198453885708,"connected_time":2217000000000,"state":"active","ping":64},{"user_id":68,"name":"KarvaPerse","steam_id":76561198141907704,"connected_time":3461000000000,"state":"active","ping":100},{"user_id":60,"name":"Citg","steam_id":76561198005684439,"connected_time":3779000000000,"state":"active","ping":159},{"user_id":115,"name":"creep","steam_id":76561199116413509,"connected_time":1082000000000,"state":"active","ping":76},{"user_id":92,"name":"Jácint","steam_id":76561198118501005,"connected_time":2766000000000,"state":"active","ping":69},{"user_id":61,"name":"bloons tower defense 6","steam_id":76561198281682473,"connected_time":3761000000000,"state":"active","ping":137},{"user_id":116,"name":"paguro","steam_id":76561198119560871,"connected_time":1040000000000,"state":"active","ping":70},{"user_id":78,"name":"tree__dude","steam_id":76561198975762241,"connected_time":3194000000000,"state":"active","ping":139},{"user_id":120,"name":"CaYeRok22","steam_id":76561198134173706,"connected_time":299000000000,"state":"active","ping":72},{"user_id":109,"name":"Rarky","steam_id":76561198054398642,"connected_time":1535000000000,"state":"active","ping":47},{"user_id":122,"name":"XavierSweet","steam_id":76561198091781913,"connected_time":1000000000,"state":"spawning","ping":25},{"user_id":110,"name":"Catsanddogs123","steam_id":76561198030868386,"connected_time":1347000000000,"state":"active","ping":115}]},{"server_id":308,"name":"Uncletopia | Frankfurt | 3 | All Maps","name_short":"frk-3","host":"frk-1.de.uncletopia.com","port":27035,"enabled":true,"region":"eu","cc":"de","latitude":50.110924,"longitude":8.682127,"reserved":0,"last_update":"0001-01-01T00:00:00Z","name_a2s":"Uncletopia | Frankfurt | 3 | All Maps","protocol":17,"map":"cp_egypt_final","folder":"tf","game":"Team Fortress","app_id":440,"player_count":24,"max_players":24,"Bots":0,"server_type":"Dedicated","server_os":"Linux","password":true,"vac":true,"version":"7757534","steam_id":85568392924504274,"keywords":["cp","nocrits","nodmgspread","uncletopia"],"game_id":440,"stv_port":27036,"stv_name":"Uncletopia | Frankfurt | 3 | All Maps | STV","players":[{"user_id":110,"name":"Megasecret","steam_id":76561198055378025,"connected_time":5002000000000,"state":"active","ping":91},{"user_id":173,"name":"BAD BALD \u0026 BEYOND","steam_id":76561198029873185,"connected_time":153000000000,"state":"active","ping":60},{"user_id":147,"name":"hm11am","steam_id":76561199219126395,"connected_time":2123000000000,"state":"active","ping":110},{"user_id":166,"name":"i've committed war crimes","steam_id":76561198882711226,"connected_time":726000000000,"state":"active","ping":92},{"user_id":123,"name":"lyudmilakh","steam_id":76561198362779878,"connected_time":3974000000000,"state":"active","ping":91},{"user_id":150,"name":"Kira","steam_id":76561198204168909,"connected_time":2025000000000,"state":"active","ping":111},{"user_id":120,"name":"simon","steam_id":76561198880361394,"connected_time":4226000000000,"state":"active","ping":49},{"user_id":151,"name":"soopeli","steam_id":76561198003350251,"connected_time":2001000000000,"state":"active","ping":62},{"user_id":152,"name":"maika","steam_id":76561198027172275,"connected_time":1999000000000,"state":"active","ping":60},{"user_id":146,"name":"Mklavzovc","steam_id":76561198305794970,"connected_time":2185000000000,"state":"active","ping":73},{"user_id":168,"name":"manglering for cows","steam_id":76561198800573494,"connected_time":404000000000,"state":"active","ping":86},{"user_id":161,"name":"Stu","steam_id":76561198131449281,"connected_time":1454000000000,"state":"active","ping":57},{"user_id":127,"name":"Pain in a Box","steam_id":76561197990777173,"connected_time":3891000000000,"state":"active","ping":68},{"user_id":144,"name":"Izzie","steam_id":76561198090287325,"connected_time":2356000000000,"state":"active","ping":74},{"user_id":169,"name":"DocTwoEight","steam_id":76561198153488940,"connected_time":333000000000,"state":"active","ping":82},{"user_id":124,"name":"Ape","steam_id":76561198322703872,"connected_time":3961000000000,"state":"active","ping":58},{"user_id":121,"name":"Dzerky","steam_id":76561199022604955,"connected_time":4066000000000,"state":"active","ping":69},{"user_id":176,"name":"Axdecces","steam_id":76561198092506637,"connected_time":24000000000,"state":"spawning","ping":48},{"user_id":175,"name":"k4nk3r","steam_id":76561199388713923,"connected_time":81000000000,"state":"active","ping":75},{"user_id":163,"name":"᠌ ⁧⁧spywo","steam_id":76561198301771279,"connected_time":1344000000000,"state":"active","ping":60},{"user_id":165,"name":"miev","steam_id":76561198078278737,"connected_time":1111000000000,"state":"active","ping":64},{"user_id":171,"name":"turtle","steam_id":76561198049049329,"connected_time":231000000000,"state":"active","ping":70},{"user_id":177,"name":"Qosmo","steam_id":76561197980806182,"connected_time":9000000000,"state":"active","ping":132},{"user_id":148,"name":"Tlad2","steam_id":76561198854897667,"connected_time":2122000000000,"state":"active","ping":75}]},{"server_id":309,"name":"Uncletopia | Frankfurt | 4 | All Maps","name_short":"frk-4","host":"frk-1.de.uncletopia.com","port":27045,"enabled":true,"region":"eu","cc":"de","latitude":50.110924,"longitude":8.682127,"reserved":0,"last_update":"0001-01-01T00:00:00Z","name_a2s":"Uncletopia | Frankfurt | 4 | All Maps","protocol":17,"map":"pl_snowycoast","folder":"tf","game":"Team Fortress","app_id":440,"player_count":24,"max_players":24,"Bots":0,"server_type":"Dedicated","server_os":"Linux","password":true,"vac":true,"version":"7757534","steam_id":85568392924504275,"keywords":["nocrits","nodmgspread","payload","uncletopia"],"game_id":440,"stv_port":27046,"stv_name":"Uncletopia | Frankfurt | 4 | All Maps | STV","players":[{"user_id":506,"name":"Unexpected","steam_id":76561198944781914,"connected_time":189000000000,"state":"active","ping":83},{"user_id":471,"name":"grana padano dop","steam_id":76561198066071855,"connected_time":2393000000000,"state":"active","ping":55},{"user_id":489,"name":"Duke Fishlord","steam_id":76561198079928327,"connected_time":827000000000,"state":"active","ping":60},{"user_id":414,"name":"Mr. Mundy","steam_id":76561198132008918,"connected_time":6730000000000,"state":"active","ping":76},{"user_id":496,"name":"Sonder","steam_id":76561198115893794,"connected_time":664000000000,"state":"active","ping":78},{"user_id":484,"name":"mr gaming","steam_id":76561198110103308,"connected_time":1225000000000,"state":"active","ping":61},{"user_id":491,"name":"Flint","steam_id":76561198046885838,"connected_time":788000000000,"state":"active","ping":87},{"user_id":507,"name":"Xydran","steam_id":76561198042397402,"connected_time":135000000000,"state":"active","ping":76},{"user_id":458,"name":"clouds","steam_id":76561198111134021,"connected_time":3581000000000,"state":"active","ping":70},{"user_id":502,"name":"TJ1212","steam_id":76561199013575313,"connected_time":264000000000,"state":"active","ping":76},{"user_id":497,"name":"That heavy is a spy","steam_id":76561198049284919,"connected_time":504000000000,"state":"active","ping":74},{"user_id":505,"name":"Hexagon","steam_id":76561198151205758,"connected_time":209000000000,"state":"active","ping":54},{"user_id":485,"name":"Malsi","steam_id":76561199061284165,"connected_time":1131000000000,"state":"active","ping":90},{"user_id":420,"name":"alex47ka","steam_id":76561198117847251,"connected_time":6632000000000,"state":"active","ping":75},{"user_id":503,"name":"lore","steam_id":76561198120984188,"connected_time":263000000000,"state":"active","ping":68},{"user_id":508,"name":"Fluffy","steam_id":76561198084447725,"connected_time":128000000000,"state":"active","ping":53},{"user_id":509,"name":"Bro why the sus lyrics always t","steam_id":76561198095269895,"connected_time":113000000000,"state":"active","ping":102},{"user_id":510,"name":"Mr.Dies a lot","steam_id":76561199061602946,"connected_time":107000000000,"state":"active","ping":92},{"user_id":395,"name":"Nick","steam_id":76561198036109469,"connected_time":8300000000000,"state":"active","ping":90},{"user_id":402,"name":"Bruschetta","steam_id":76561198251927162,"connected_time":7993000000000,"state":"active","ping":60},{"user_id":499,"name":"ChickyCoop","steam_id":76561199072983488,"connected_time":392000000000,"state":"active","ping":79},{"user_id":467,"name":"Mr.Schnittlauch","steam_id":76561198295868113,"connected_time":2881000000000,"state":"active","ping":62},{"user_id":494,"name":"Vikep'S","steam_id":76561199002274689,"connected_time":747000000000,"state":"active","ping":79},{"user_id":472,"name":"Mr.Man","steam_id":76561199175688390,"connected_time":2393000000000,"state":"active","ping":75}]},{"server_id":310,"name":"Uncletopia | Frankfurt | 5 | All Maps","name_short":"frk-5","host":"frk-1.de.uncletopia.com","port":27055,"enabled":true,"region":"eu","cc":"de","latitude":50.110924,"longitude":8.682127,"reserved":0,"last_update":"0001-01-01T00:00:00Z","name_a2s":"Uncletopia | Frankfurt | 5 | All Maps","protocol":17,"map":"pl_pier","folder":"tf","game":"Team Fortress","app_id":440,"player_count":24,"max_players":24,"Bots":0,"server_type":"Dedicated","server_os":"Linux","password":true,"vac":true,"version":"7757534","steam_id":85568392924504277,"keywords":["nocrits","nodmgspread","payload","uncletopia"],"game_id":440,"stv_port":27056,"stv_name":"Uncletopia | Frankfurt | 5 | All Maps | STV","players":[{"user_id":247,"name":"Mayor Wank from Wanker Town","steam_id":76561197998253588,"connected_time":145000000000,"state":"active","ping":45},{"user_id":236,"name":"XeniasPimp","steam_id":76561198126398022,"connected_time":350000000000,"state":"active","ping":73},{"user_id":238,"name":"ambatukam","steam_id":76561198175433731,"connected_time":338000000000,"state":"active","ping":81},{"user_id":193,"name":"KyraMelody","steam_id":76561198030308767,"connected_time":4580000000000,"state":"active","ping":60},{"user_id":233,"name":"Uncle Owen","steam_id":76561198157999291,"connected_time":631000000000,"state":"active","ping":87},{"user_id":230,"name":"xenia","steam_id":76561198062107879,"connected_time":695000000000,"state":"active","ping":79},{"user_id":220,"name":"Element-118","steam_id":76561198303170872,"connected_time":1237000000000,"state":"active","ping":58},{"user_id":239,"name":"New","steam_id":76561198402195911,"connected_time":333000000000,"state":"active","ping":125},{"user_id":240,"name":"MooshMoore","steam_id":76561199120833084,"connected_time":321000000000,"state":"active","ping":73},{"user_id":232,"name":"ösym","steam_id":76561198009287963,"connected_time":646000000000,"state":"active","ping":120},{"user_id":211,"name":"remove xenia","steam_id":76561199433578516,"connected_time":1663000000000,"state":"active","ping":75},{"user_id":215,"name":"guiseppe","steam_id":76561198046129681,"connected_time":1398000000000,"state":"active","ping":89},{"user_id":249,"name":"Hydro","steam_id":76561199081791855,"connected_time":71000000000,"state":"active","ping":81},{"user_id":241,"name":"Dave The Sloth","steam_id":76561199135831355,"connected_time":283000000000,"state":"active","ping":68},{"user_id":217,"name":"Newax","steam_id":76561198020758511,"connected_time":1361000000000,"state":"active","ping":70},{"user_id":235,"name":"Kungson","steam_id":76561199016396011,"connected_time":554000000000,"state":"active","ping":66},{"user_id":237,"name":"Val23","steam_id":76561198099480715,"connected_time":347000000000,"state":"active","ping":49},{"user_id":242,"name":"KajaStorm","steam_id":76561199215842872,"connected_time":276000000000,"state":"active","ping":163},{"user_id":243,"name":"KillerPotato!","steam_id":76561198071283721,"connected_time":274000000000,"state":"active","ping":78},{"user_id":244,"name":"mosnter","steam_id":76561198053394831,"connected_time":250000000000,"state":"active","ping":70},{"user_id":245,"name":"Gradus8","steam_id":76561198046043841,"connected_time":226000000000,"state":"active","ping":53},{"user_id":204,"name":"ArikMor","steam_id":76561199124472513,"connected_time":2460000000000,"state":"active","ping":122},{"user_id":225,"name":"Bottom of the barrel terrorist","steam_id":76561198929386604,"connected_time":912000000000,"state":"active","ping":85},{"user_id":229,"name":"catboy trickster","steam_id":76561198075665211,"connected_time":789000000000,"state":"active","ping":41}]},{"server_id":311,"name":"Uncletopia | Frankfurt | 6 | All Maps","name_short":"frk-6","host":"frk-1.de.uncletopia.com","port":27065,"enabled":true,"region":"eu","cc":"de","latitude":50.110924,"longitude":8.682127,"reserved":0,"last_update":"0001-01-01T00:00:00Z","name_a2s":"Uncletopia | Frankfurt | 6 | All Maps","protocol":17,"map":"pl_frontier_final","folder":"tf","game":"Team Fortress","app_id":440,"player_count":24,"max_players":24,"Bots":0,"server_type":"Dedicated","server_os":"Linux","password":true,"vac":true,"version":"7757534","steam_id":85568392924504278,"keywords":["nocrits","nodmgspread","payload","uncletopia"],"game_id":440,"stv_port":27066,"stv_name":"Uncletopia | Frankfurt | 6 | All Maps | STV","players":[{"user_id":286,"name":"Gebagemid","steam_id":76561198003684717,"connected_time":2269000000000,"state":"active","ping":69},{"user_id":308,"name":"Night Fury","steam_id":76561197995207032,"connected_time":411000000000,"state":"active","ping":93},{"user_id":266,"name":"Miton","steam_id":76561197970323209,"connected_time":3237000000000,"state":"active","ping":84},{"user_id":287,"name":"Zulfiqar222","steam_id":76561199208454498,"connected_time":1911000000000,"state":"active","ping":108},{"user_id":229,"name":"tekt","steam_id":76561198044554387,"connected_time":5706000000000,"state":"active","ping":80},{"user_id":301,"name":"risco1bolota","steam_id":76561198323074603,"connected_time":610000000000,"state":"active","ping":239},{"user_id":302,"name":"Nanitus","steam_id":76561198241772340,"connected_time":585000000000,"state":"active","ping":117},{"user_id":303,"name":"Burgoo_King","steam_id":76561198133572225,"connected_time":577000000000,"state":"active","ping":74},{"user_id":284,"name":"DREADNAWGHT","steam_id":76561198000973506,"connected_time":2316000000000,"state":"active","ping":71},{"user_id":278,"name":"Chocofrolik","steam_id":76561198454779847,"connected_time":2673000000000,"state":"active","ping":84},{"user_id":304,"name":"Overhealing Gay","steam_id":76561198325518460,"connected_time":571000000000,"state":"active","ping":74},{"user_id":239,"name":"Kilowai","steam_id":76561198040922142,"connected_time":5293000000000,"state":"active","ping":85},{"user_id":258,"name":"Lempii","steam_id":76561198433507634,"connected_time":3822000000000,"state":"active","ping":96},{"user_id":298,"name":"funny spy","steam_id":76561198267612598,"connected_time":768000000000,"state":"active","ping":88},{"user_id":280,"name":"Salad's Warband","steam_id":76561198214089583,"connected_time":2587000000000,"state":"active","ping":65},{"user_id":305,"name":"LxZurk","steam_id":76561198114054978,"connected_time":568000000000,"state":"active","ping":53},{"user_id":240,"name":"atorman777","steam_id":76561198141651948,"connected_time":5289000000000,"state":"active","ping":86},{"user_id":254,"name":"Mor'du","steam_id":76561198274105878,"connected_time":3960000000000,"state":"active","ping":70},{"user_id":292,"name":"pizza time","steam_id":76561199015899793,"connected_time":1312000000000,"state":"active","ping":67},{"user_id":293,"name":"...jla","steam_id":76561198052435481,"connected_time":1187000000000,"state":"active","ping":57},{"user_id":307,"name":"Piccadilly Willy","steam_id":76561198000312126,"connected_time":524000000000,"state":"active","ping":161},{"user_id":294,"name":"L3men","steam_id":76561198315192969,"connected_time":1075000000000,"state":"active","ping":56},{"user_id":276,"name":"Arcader","steam_id":76561198109860110,"connected_time":2823000000000,"state":"active","ping":61},{"user_id":310,"name":"AlShMrY1616","steam_id":76561198028085026,"connected_time":71000000000,"state":"active","ping":71}]},{"server_id":23,"name":"Uncletopia | Frankfurt | 7 | Stopwatch Beta","name_short":"frk-7","host":"frk-1.de.uncletopia.com","port":27075,"enabled":true,"region":"eu","cc":"de","latitude":50.110924,"longitude":8.682127,"reserved":0,"last_update":"0001-01-01T00:00:00Z","name_a2s":"Uncletopia | Frankfurt | 7 | Stopwatch Beta","protocol":17,"map":"pl_borneo","folder":"tf","game":"Team Fortress","app_id":440,"player_count":0,"max_players":24,"Bots":0,"server_type":"Dedicated","server_os":"Linux","password":true,"vac":true,"version":"7757534","steam_id":85568392924742827,"keywords":["nocrits","nodmgspread","payload","uncletopia"],"game_id":440,"stv_port":27076,"stv_name":"Uncletopia | Frankfurt | 7 | Stopwatch Beta | STV","players":null},{"server_id":24,"name":"Uncletopia | Frankfurt | 8 | Community","name_short":"frk-8","host":"frk-1.de.uncletopia.com","port":27085,"enabled":true,"region":"eu","cc":"de","latitude":50.110924,"longitude":8.682127,"reserved":0,"last_update":"0001-01-01T00:00:00Z","name_a2s":"Uncletopia | Frankfurt | 8 | Community","protocol":17,"map":"workshop/cp_logjam_rc12.ugc454812035","folder":"tf","game":"Team Fortress","app_id":440,"player_count":5,"max_players":24,"Bots":0,"server_type":"Dedicated","server_os":"Linux","password":true,"vac":true,"version":"7757534","steam_id":85568392924742828,"keywords":["cp","nocrits","nodmgspread","uncletopia"],"game_id":440,"stv_port":27086,"stv_name":"Uncletopia | Frankfurt | 8 | Community | STV","players":[{"user_id":48,"name":"MEGOS","steam_id":76561198172740637,"connected_time":646000000000,"state":"active","ping":50},{"user_id":54,"name":"Stragnov☆","steam_id":76561198074702465,"connected_time":94000000000,"state":"active","ping":53},{"user_id":25,"name":"SoupER","steam_id":76561198063056668,"connected_time":2742000000000,"state":"active","ping":57},{"user_id":37,"name":"LowLevelIdot","steam_id":76561199302370113,"connected_time":2013000000000,"state":"active","ping":142},{"user_id":31,"name":"Karsapaali","steam_id":76561198322322739,"connected_time":2578000000000,"state":"active","ping":85}]},{"server_id":202,"name":"Uncletopia | Hong Kong | 1 | All Maps","name_short":"hgk-1","host":"hgk-1.hk.uncletopia.com","port":27015,"enabled":true,"region":"asia","cc":"hk","latitude":22.302711,"longitude":114.177216,"reserved":0,"last_update":"0001-01-01T00:00:00Z","name_a2s":"Uncletopia | Hong Kong | 1 | All Maps","protocol":17,"map":"koth_highpass","folder":"tf","game":"Team Fortress","app_id":440,"player_count":0,"max_players":24,"Bots":0,"server_type":"Dedicated","server_os":"Linux","password":true,"vac":true,"version":"7757534","steam_id":85568392924494504,"keywords":["cp","nocrits","nodmgspread","uncletopia"],"game_id":440,"stv_port":27016,"stv_name":"Uncletopia | Hong Kong | 1 | All Maps | STV","players":null},{"server_id":1,"name":"Uncletopia | Los Angeles | 1 | All Maps","name_short":"lax-1","host":"lax-1.us.uncletopia.com","port":27015,"enabled":true,"region":"us-west","cc":"us","latitude":33.94279,"longitude":-118.41004,"reserved":0,"last_update":"0001-01-01T00:00:00Z","name_a2s":"Uncletopia | Los Angeles | 1 | All Maps","protocol":17,"map":"plr_nightfall_final","folder":"tf","game":"Team Fortress","app_id":440,"player_count":0,"max_players":24,"Bots":0,"server_type":"Dedicated","server_os":"Linux","password":true,"vac":true,"version":"7757534","steam_id":85568392924469991,"keywords":["nocrits","nodmgspread","payload","uncletopia"],"game_id":440,"stv_port":27016,"stv_name":"Uncletopia | Los Angeles | 1 | All Maps | STV","players":null},{"server_id":112,"name":"Uncletopia | Los Angeles | 2 | All Maps","name_short":"lax-2","host":"lax-1.us.uncletopia.com","port":27025,"enabled":true,"region":"us-west","cc":"us","latitude":33.94279,"longitude":-118.41004,"reserved":0,"last_update":"0001-01-01T00:00:00Z","name_a2s":"Uncletopia | Los Angeles | 2 | All Maps","protocol":17,"map":"cp_mountainlab","folder":"tf","game":"Team Fortress","app_id":440,"player_count":0,"max_players":24,"Bots":0,"server_type":"Dedicated","server_os":"Linux","password":true,"vac":true,"version":"7757534","steam_id":85568392924469992,"keywords":["cp","nocrits","nodmgspread","uncletopia"],"game_id":440,"stv_port":27026,"stv_name":"Uncletopia | Los Angeles | 2 | All Maps | STV","players":null},{"server_id":324,"name":"Uncletopia | Los Angeles | 3 | All Maps","name_short":"lax-3","host":"lax-1.us.uncletopia.com","port":27035,"enabled":true,"region":"us-west","cc":"us","latitude":33.94279,"longitude":-118.41004,"reserved":0,"last_update":"0001-01-01T00:00:00Z","name_a2s":"Uncletopia | Los Angeles | 3 | All Maps","protocol":17,"map":"cp_snakewater_final1","folder":"tf","game":"Team Fortress","app_id":440,"player_count":0,"max_players":24,"Bots":0,"server_type":"Dedicated","server_os":"Linux","password":true,"vac":true,"version":"7757534","steam_id":85568392924510198,"keywords":["cp","nocrits","nodmgspread","uncletopia"],"game_id":440,"stv_port":27036,"stv_name":"Uncletopia | Los Angeles | 3 | All Maps | STV","players":null},{"server_id":25,"name":"Uncletopia | Los Angeles | 4 | Stopwatch Beta","name_short":"lax-4","host":"lax-1.us.uncletopia.com","port":27045,"enabled":true,"region":"us-west","cc":"us","latitude":33.94279,"longitude":-118.41004,"reserved":0,"last_update":"0001-01-01T00:00:00Z","name_a2s":"Uncletopia | Los Angeles | 4 | Stopwatch Beta","protocol":17,"map":"koth_viaduct","folder":"tf","game":"Team Fortress","app_id":440,"player_count":0,"max_players":24,"Bots":0,"server_type":"Dedicated","server_os":"Linux","password":true,"vac":true,"version":"7757534","steam_id":85568392924510199,"keywords":["cp","nocrits","nodmgspread","uncletopia"],"game_id":440,"stv_port":27046,"stv_name":"Uncletopia | Los Angeles | 4 | Stopwatch Beta | STV","players":null},{"server_id":11,"name":"Uncletopia | London | 1 | All Maps","name_short":"lon-1","host":"lon-1.uk.uncletopia.com","port":27015,"enabled":true,"region":"eu","cc":"gb","latitude":51.509865,"longitude":-0.118092,"reserved":0,"last_update":"0001-01-01T00:00:00Z","name_a2s":"Uncletopia | London | 1 | All Maps","protocol":17,"map":"pl_upward","folder":"tf","game":"Team Fortress","app_id":440,"player_count":24,"max_players":24,"Bots":0,"server_type":"Dedicated","server_os":"Linux","password":true,"vac":true,"version":"7757534","steam_id":85568392924367362,"keywords":["nocrits","nodmgspread","payload","uncletopia"],"game_id":440,"stv_port":27016,"stv_name":"Uncletopia | London | 1 | All Maps | STV","players":[{"user_id":618,"name":"Kahvi","steam_id":76561198723244199,"connected_time":6435000000000,"state":"active","ping":74},{"user_id":696,"name":"fear the old blood","steam_id":76561199026097466,"connected_time":960000000000,"state":"active","ping":75},{"user_id":701,"name":"Plop_","steam_id":76561198112567921,"connected_time":777000000000,"state":"active","ping":39},{"user_id":707,"name":"ddanis","steam_id":76561199059064358,"connected_time":202000000000,"state":"active","ping":74},{"user_id":685,"name":"weakest cum afficionado","steam_id":76561198071502515,"connected_time":1811000000000,"state":"active","ping":74},{"user_id":686,"name":"El Raiden","steam_id":76561198808819694,"connected_time":1807000000000,"state":"active","ping":57},{"user_id":645,"name":"let her cook","steam_id":76561198058012525,"connected_time":4548000000000,"state":"active","ping":82},{"user_id":692,"name":"The Funny Cat-Heaby","steam_id":76561198439978112,"connected_time":1136000000000,"state":"active","ping":79},{"user_id":682,"name":"Hugz","steam_id":76561198069572147,"connected_time":2140000000000,"state":"active","ping":58},{"user_id":673,"name":"average f2p","steam_id":76561199136308055,"connected_time":2735000000000,"state":"active","ping":55},{"user_id":632,"name":"VK2124 :D","steam_id":76561198111130688,"connected_time":5775000000000,"state":"active","ping":59},{"user_id":698,"name":"astra","steam_id":76561198042980579,"connected_time":926000000000,"state":"active","ping":71},{"user_id":697,"name":"pAftAq","steam_id":76561198359966356,"connected_time":960000000000,"state":"active","ping":97},{"user_id":683,"name":"Alexandre","steam_id":76561198121784446,"connected_time":2030000000000,"state":"active","ping":40},{"user_id":689,"name":"{[F.H]} Hydroida","steam_id":76561197999797274,"connected_time":1732000000000,"state":"active","ping":127},{"user_id":633,"name":"ciliorkun18","steam_id":76561198228942500,"connected_time":5773000000000,"state":"active","ping":93},{"user_id":691,"name":"MarioThePlumber","steam_id":76561198314229530,"connected_time":1155000000000,"state":"active","ping":84},{"user_id":700,"name":"The Masterplan","steam_id":76561198158631465,"connected_time":799000000000,"state":"active","ping":74},{"user_id":706,"name":"Mikeal James ?","steam_id":76561198241759034,"connected_time":222000000000,"state":"active","ping":99},{"user_id":681,"name":"G/3","steam_id":76561198234844188,"connected_time":2209000000000,"state":"active","ping":53},{"user_id":708,"name":"AwterSix","steam_id":76561198042561678,"connected_time":166000000000,"state":"active","ping":60},{"user_id":710,"name":"Boozia","steam_id":76561199001543294,"connected_time":72000000000,"state":"spawning","ping":83},{"user_id":595,"name":"❀snorlax","steam_id":76561198051629288,"connected_time":7438000000000,"state":"active","ping":55}]},{"server_id":114,"name":"Uncletopia | London | 2 | All Maps","name_short":"lon-2","host":"lon-1.uk.uncletopia.com","port":27025,"enabled":true,"region":"eu","cc":"gb","latitude":51.509865,"longitude":-0.118092,"reserved":0,"last_update":"0001-01-01T00:00:00Z","name_a2s":"Uncletopia | London | 2 | All Maps","protocol":17,"map":"pl_upward","folder":"tf","game":"Team Fortress","app_id":440,"player_count":24,"max_players":24,"Bots":0,"server_type":"Dedicated","server_os":"Linux","password":true,"vac":true,"version":"7757534","steam_id":85568392924470941,"keywords":["nocrits","nodmgspread","payload","uncletopia"],"game_id":440,"stv_port":27026,"stv_name":"Uncletopia | London | 2 | All Maps | STV","players":[{"user_id":651,"name":"p!ke","steam_id":76561198416081952,"connected_time":2589000000000,"state":"active","ping":63},{"user_id":540,"name":"tactical783","steam_id":76561199051688560,"connected_time":11983000000000,"state":"active","ping":62},{"user_id":641,"name":"willyball$ack","steam_id":76561198002519060,"connected_time":3122000000000,"state":"active","ping":89},{"user_id":687,"name":"- 84n4n3n8r07 -","steam_id":76561198047887705,"connected_time":863000000000,"state":"active","ping":58},{"user_id":666,"name":"manKe","steam_id":76561198008564860,"connected_time":1499000000000,"state":"active","ping":57},{"user_id":691,"name":"Ward","steam_id":76561198001500324,"connected_time":726000000000,"state":"active","ping":104},{"user_id":698,"name":"0xDEADBEEF","steam_id":76561199075416111,"connected_time":341000000000,"state":"active","ping":75},{"user_id":659,"name":"Xela_Zag","steam_id":76561199027915894,"connected_time":1600000000000,"state":"active","ping":56},{"user_id":686,"name":"ikc159","steam_id":76561198020559026,"connected_time":932000000000,"state":"active","ping":60},{"user_id":671,"name":"cropping","steam_id":76561198026586456,"connected_time":1380000000000,"state":"active","ping":54},{"user_id":672,"name":"Insectoid","steam_id":76561199382856956,"connected_time":1371000000000,"state":"active","ping":45},{"user_id":700,"name":"mo","steam_id":76561198029399151,"connected_time":287000000000,"state":"active","ping":60},{"user_id":690,"name":"Phantom","steam_id":76561198268168199,"connected_time":747000000000,"state":"active","ping":86},{"user_id":696,"name":"foreskin gaming","steam_id":76561198113407992,"connected_time":529000000000,"state":"active","ping":117},{"user_id":689,"name":"Gnarville","steam_id":76561198006373329,"connected_time":758000000000,"state":"active","ping":50},{"user_id":675,"name":"Célério","steam_id":76561198088253576,"connected_time":1338000000000,"state":"active","ping":45},{"user_id":593,"name":"Stepoface","steam_id":76561198091569863,"connected_time":7761000000000,"state":"active","ping":62},{"user_id":684,"name":"Ruth(-less bitch)","steam_id":76561198150006573,"connected_time":975000000000,"state":"active","ping":55},{"user_id":693,"name":"Space Rimmer","steam_id":76561198069243201,"connected_time":679000000000,"state":"active","ping":51},{"user_id":677,"name":"lark","steam_id":76561198091724522,"connected_time":1324000000000,"state":"active","ping":54},{"user_id":680,"name":"Milosz52","steam_id":76561199060940204,"connected_time":1073000000000,"state":"active","ping":89},{"user_id":692,"name":"tony childfucker","steam_id":76561198220179531,"connected_time":721000000000,"state":"active","ping":93},{"user_id":610,"name":"Homosapien","steam_id":76561197972035953,"connected_time":5726000000000,"state":"active","ping":60},{"user_id":679,"name":"Lössö","steam_id":76561197994254413,"connected_time":1091000000000,"state":"active","ping":81}]},{"server_id":320,"name":"Uncletopia | London | 3 | All Maps","name_short":"lon-3","host":"lon-1.uk.uncletopia.com","port":27035,"enabled":true,"region":"eu","cc":"gb","latitude":51.509865,"longitude":-0.118092,"reserved":0,"last_update":"0001-01-01T00:00:00Z","name_a2s":"Uncletopia | London | 3 | All Maps","protocol":17,"map":"pl_upward","folder":"tf","game":"Team Fortress","app_id":440,"player_count":0,"max_players":24,"Bots":0,"server_type":"Dedicated","server_os":"Linux","password":true,"vac":true,"version":"7757534","steam_id":85568392924510192,"keywords":["nocrits","nodmgspread","payload","uncletopia"],"game_id":440,"stv_port":27036,"stv_name":"Uncletopia | London | 3 | All Maps | STV","players":null},{"server_id":321,"name":"Uncletopia | London | 4 | All Maps","name_short":"lon-4","host":"lon-1.uk.uncletopia.com","port":27045,"enabled":true,"region":"eu","cc":"gb","latitude":51.509865,"longitude":-0.118092,"reserved":0,"last_update":"0001-01-01T00:00:00Z","name_a2s":"Uncletopia | London | 4 | All Maps","protocol":17,"map":"pl_barnblitz","folder":"tf","game":"Team Fortress","app_id":440,"player_count":25,"max_players":24,"Bots":0,"server_type":"Dedicated","server_os":"Linux","password":true,"vac":true,"version":"7757534","steam_id":85568392924510193,"keywords":["nocrits","nodmgspread","payload","uncletopia"],"game_id":440,"stv_port":27046,"stv_name":"Uncletopia | London | 4 | All Maps | STV","players":[{"user_id":166,"name":"Ory","steam_id":76561198183370571,"connected_time":1089000000000,"state":"active","ping":128},{"user_id":89,"name":"Mihai","steam_id":76561199181038346,"connected_time":3275000000000,"state":"active","ping":88},{"user_id":191,"name":"Karl","steam_id":76561198235000972,"connected_time":523000000000,"state":"active","ping":44},{"user_id":192,"name":"2Fort Samurai","steam_id":76561198064490192,"connected_time":514000000000,"state":"active","ping":54},{"user_id":80,"name":"JGV","steam_id":76561198094654971,"connected_time":3738000000000,"state":"active","ping":75},{"user_id":64,"name":"tj","steam_id":76561198160466307,"connected_time":4661000000000,"state":"active","ping":86},{"user_id":168,"name":"E","steam_id":76561198166340115,"connected_time":981000000000,"state":"active","ping":53},{"user_id":142,"name":"luma","steam_id":76561198081649669,"connected_time":1826000000000,"state":"active","ping":75},{"user_id":77,"name":"fingerbib enjoyer","steam_id":76561198879773477,"connected_time":4045000000000,"state":"active","ping":53},{"user_id":149,"name":"Fyann","steam_id":76561199139052789,"connected_time":1564000000000,"state":"active","ping":80},{"user_id":38,"name":"Atlantic Atlantis","steam_id":76561198292094828,"connected_time":5873000000000,"state":"active","ping":106},{"user_id":209,"name":"dirty rascal","steam_id":76561198000871038,"connected_time":19000000000,"state":"spawning","ping":45},{"user_id":111,"name":"gang weed studios","steam_id":76561199025084891,"connected_time":2993000000000,"state":"active","ping":57},{"user_id":169,"name":"jerf","steam_id":76561199213901239,"connected_time":937000000000,"state":"active","ping":44},{"user_id":150,"name":"Florida Man","steam_id":76561198845255013,"connected_time":1498000000000,"state":"active","ping":72},{"user_id":181,"name":"Dionysos","steam_id":76561198022589417,"connected_time":665000000000,"state":"active","ping":48},{"user_id":170,"name":"not a cat","steam_id":76561198834897089,"connected_time":927000000000,"state":"active","ping":76},{"user_id":171,"name":"NekoYagizChanUwU","steam_id":76561198389452661,"connected_time":927000000000,"state":"active","ping":154},{"user_id":84,"name":"Cobraz0r","steam_id":76561198017693962,"connected_time":3457000000000,"state":"active","ping":87},{"user_id":172,"name":"SodaKid_7","steam_id":76561198079419485,"connected_time":915000000000,"state":"active","ping":154},{"user_id":173,"name":"bjæf","steam_id":76561197972008326,"connected_time":903000000000,"state":"active","ping":76},{"user_id":174,"name":"Medieval Doktor","steam_id":76561198075373362,"connected_time":882000000000,"state":"active","ping":30},{"user_id":175,"name":"vuggie","steam_id":76561198042227249,"connected_time":822000000000,"state":"active","ping":46},{"user_id":187,"name":"SaltyCupcakes","steam_id":76561198256386417,"connected_time":590000000000,"state":"active","ping":44},{"user_id":195,"name":"Wacht","steam_id":76561199033018467,"connected_time":437000000000,"state":"active","ping":41}]},{"server_id":21,"name":"Uncletopia | London | 5 | All Maps","name_short":"lon-5","host":"lon-1.uk.uncletopia.com","port":27055,"enabled":true,"region":"eu","cc":"gb","latitude":51.509865,"longitude":-0.118092,"reserved":0,"last_update":"0001-01-01T00:00:00Z","name_a2s":"Uncletopia | London | 5 | All Maps","protocol":17,"map":"pl_borneo","folder":"tf","game":"Team Fortress","app_id":440,"player_count":23,"max_players":24,"Bots":0,"server_type":"Dedicated","server_os":"Linux","password":true,"vac":true,"version":"7757534","steam_id":85568392924742829,"keywords":["nocrits","nodmgspread","payload","uncletopia"],"game_id":440,"stv_port":27056,"stv_name":"Uncletopia | London | 5 | All Maps | STV","players":[{"user_id":420,"name":"Dodoshka","steam_id":76561198093464840,"connected_time":975000000000,"state":"active","ping":101},{"user_id":362,"name":"fucking awesome gangster minion","steam_id":76561198796600155,"connected_time":3429000000000,"state":"active","ping":90},{"user_id":427,"name":"Allereinan","steam_id":76561198342239906,"connected_time":528000000000,"state":"active","ping":99},{"user_id":412,"name":"Badass gangnam style minion","steam_id":76561198297602677,"connected_time":1314000000000,"state":"active","ping":85},{"user_id":419,"name":"jo bidn' | ETLARTORM","steam_id":76561198869576262,"connected_time":983000000000,"state":"active","ping":104},{"user_id":353,"name":"Bill Clinton Official","steam_id":76561198368378113,"connected_time":3609000000000,"state":"active","ping":38},{"user_id":446,"name":"Acucutl","steam_id":76561198133867096,"connected_time":143000000000,"state":"active","ping":74},{"user_id":429,"name":"F","steam_id":76561199149462792,"connected_time":414000000000,"state":"active","ping":59},{"user_id":430,"name":"Laura ❤","steam_id":76561198975652501,"connected_time":381000000000,"state":"active","ping":79},{"user_id":410,"name":"8-bit biochemist","steam_id":76561198414228531,"connected_time":1486000000000,"state":"active","ping":66},{"user_id":449,"name":"Major Hovádo","steam_id":76561199156054563,"connected_time":16000000000,"state":"active","ping":74},{"user_id":432,"name":"Dom.","steam_id":76561199065917088,"connected_time":350000000000,"state":"active","ping":64},{"user_id":448,"name":"Griff_IRL","steam_id":76561198178032977,"connected_time":57000000000,"state":"active","ping":51},{"user_id":444,"name":"Blax","steam_id":76561198377155387,"connected_time":161000000000,"state":"active","ping":54},{"user_id":435,"name":"axl","steam_id":76561198991661832,"connected_time":293000000000,"state":"active","ping":76},{"user_id":436,"name":"JJS","steam_id":76561198098511185,"connected_time":250000000000,"state":"active","ping":44},{"user_id":437,"name":"King_Cringe","steam_id":76561199018729971,"connected_time":245000000000,"state":"active","ping":48},{"user_id":438,"name":"bricked","steam_id":76561198123562445,"connected_time":230000000000,"state":"active","ping":44},{"user_id":439,"name":"Raatel","steam_id":76561198370703651,"connected_time":225000000000,"state":"active","ping":74},{"user_id":440,"name":"Enchiridion","steam_id":76561199156497840,"connected_time":220000000000,"state":"active","ping":68},{"user_id":442,"name":"Fancy Raccoon","steam_id":76561198176331663,"connected_time":183000000000,"state":"active","ping":68},{"user_id":443,"name":"cum 2","steam_id":76561198010075638,"connected_time":176000000000,"state":"active","ping":66},{"user_id":445,"name":"FiricelSolos123","steam_id":76561198901014065,"connected_time":156000000000,"state":"active","ping":94}]},{"server_id":22,"name":"Uncletopia | London | 6 | All Maps","name_short":"lon-6","host":"lon-1.uk.uncletopia.com","port":27065,"enabled":true,"region":"eu","cc":"gb","latitude":51.509865,"longitude":-0.118092,"reserved":0,"last_update":"0001-01-01T00:00:00Z","name_a2s":"Uncletopia | London | 6 | All Maps","protocol":17,"map":"koth_cascade","folder":"tf","game":"Team Fortress","app_id":440,"player_count":5,"max_players":24,"Bots":0,"server_type":"Dedicated","server_os":"Linux","password":true,"vac":true,"version":"7757534","steam_id":85568392924742830,"keywords":["cp","nocrits","nodmgspread","uncletopia"],"game_id":440,"stv_port":27066,"stv_name":"Uncletopia | London | 6 | All Maps | STV","players":[{"user_id":15,"name":"god","steam_id":76561199405414169,"connected_time":244000000000,"state":"active","ping":86},{"user_id":11,"name":"Malfuncti0n","steam_id":76561199097154585,"connected_time":2767000000000,"state":"active","ping":70},{"user_id":12,"name":"invertO","steam_id":76561198142244174,"connected_time":2567000000000,"state":"active","ping":45},{"user_id":16,"name":"TheArbiter77930","steam_id":76561199401649372,"connected_time":68000000000,"state":"active","ping":46},{"user_id":17,"name":"powertieke","steam_id":76561198027967951,"connected_time":40000000000,"state":"active","ping":66}]},{"server_id":40,"name":"Uncletopia | London | 7 | No Payload","name_short":"lon-7","host":"lon-1.uk.uncletopia.com","port":27075,"enabled":true,"region":"eu","cc":"gb","latitude":51.509865,"longitude":-0.118092,"reserved":0,"last_update":"0001-01-01T00:00:00Z","name_a2s":"Uncletopia | London | 7 | No Payload","protocol":17,"map":"cp_sunshine","folder":"tf","game":"Team Fortress","app_id":440,"player_count":24,"max_players":24,"Bots":0,"server_type":"Dedicated","server_os":"Linux","password":true,"vac":true,"version":"7757534","steam_id":85568392924964314,"keywords":["cp","nocrits","nodmgspread","uncletopia"],"game_id":440,"stv_port":27076,"stv_name":"Uncletopia | London | 7 | No Payload | STV","players":[{"user_id":87,"name":"_skavi","steam_id":76561198938994546,"connected_time":698000000000,"state":"active","ping":79},{"user_id":90,"name":"Mabingo","steam_id":76561198331574409,"connected_time":482000000000,"state":"active","ping":70},{"user_id":91,"name":"alex2632","steam_id":76561198090058584,"connected_time":474000000000,"state":"active","ping":75},{"user_id":56,"name":"giorno giovanna","steam_id":76561198993161087,"connected_time":2590000000000,"state":"active","ping":48},{"user_id":53,"name":"Feelin' Supersonic","steam_id":76561198005738407,"connected_time":2679000000000,"state":"active","ping":92},{"user_id":62,"name":"Papa John's Pepperoni Pizza","steam_id":76561198078844080,"connected_time":1973000000000,"state":"active","ping":78},{"user_id":79,"name":"Videogamer","steam_id":76561198106012909,"connected_time":1120000000000,"state":"active","ping":75},{"user_id":30,"name":"Bing Chilling","steam_id":76561198065376942,"connected_time":3934000000000,"state":"active","ping":76},{"user_id":28,"name":"LasagnaLarry22","steam_id":76561198089478290,"connected_time":4168000000000,"state":"active","ping":54},{"user_id":31,"name":"Fat Pigeon","steam_id":76561198817940142,"connected_time":3931000000000,"state":"active","ping":58},{"user_id":94,"name":"☞LaZe☜","steam_id":76561198202191400,"connected_time":392000000000,"state":"active","ping":51},{"user_id":89,"name":"FELHEEE","steam_id":76561197987151150,"connected_time":571000000000,"state":"active","ping":82},{"user_id":34,"name":"Sarah | BNKR","steam_id":76561198282866752,"connected_time":3906000000000,"state":"active","ping":117},{"user_id":59,"name":"DerangedHorse","steam_id":76561198447659922,"connected_time":2377000000000,"state":"active","ping":160},{"user_id":68,"name":"thefatcontroller","steam_id":76561199332965146,"connected_time":1573000000000,"state":"active","ping":91},{"user_id":72,"name":"WAAGGHH Enjoyer","steam_id":76561198974205333,"connected_time":1350000000000,"state":"active","ping":76},{"user_id":95,"name":"Thebluetotodile","steam_id":76561198377832877,"connected_time":340000000000,"state":"active","ping":72},{"user_id":64,"name":"Emxx52","steam_id":76561198059374194,"connected_time":1867000000000,"state":"active","ping":78},{"user_id":73,"name":"Sploink","steam_id":76561198115504907,"connected_time":1342000000000,"state":"active","ping":85},{"user_id":85,"name":"Na'vi Misato (by popular demand","steam_id":76561198130860698,"connected_time":805000000000,"state":"active","ping":57},{"user_id":93,"name":"Nani?","steam_id":76561198130982692,"connected_time":437000000000,"state":"active","ping":150},{"user_id":86,"name":"noobdog","steam_id":76561198036486671,"connected_time":719000000000,"state":"active","ping":66},{"user_id":78,"name":"Eck","steam_id":76561198170101474,"connected_time":1164000000000,"state":"active","ping":59},{"user_id":80,"name":"Neto","steam_id":76561198201204507,"connected_time":1109000000000,"state":"active","ping":75}]},{"server_id":41,"name":"Uncletopia | London | 8 | Community","name_short":"lon-8","host":"lon-1.uk.uncletopia.com","port":27085,"enabled":true,"region":"eu","cc":"gb","latitude":51.509865,"longitude":-0.118092,"reserved":0,"last_update":"0001-01-01T00:00:00Z","name_a2s":"Uncletopia | London | 8 | Community","protocol":17,"map":"workshop/koth_bagel_rc5.ugc2514036946","folder":"tf","game":"Team Fortress","app_id":440,"player_count":0,"max_players":24,"Bots":0,"server_type":"Dedicated","server_os":"Linux","password":true,"vac":true,"version":"7757534","steam_id":85568392924964315,"keywords":["cp","nocrits","nodmgspread","uncletopia"],"game_id":440,"stv_port":27086,"stv_name":"Uncletopia | London | 8 | Community | STV","players":null},{"server_id":300,"name":"Uncletopia | Montréal | 1 | All Maps","name_short":"mtl-1","host":"mtl-1.ca.uncletopia.com","port":27015,"enabled":true,"region":"us-east","cc":"ca","latitude":45.50889,"longitude":-73.56167,"reserved":0,"last_update":"0001-01-01T00:00:00Z","name_a2s":"Uncletopia | Montréal | 1 | All Maps","protocol":17,"map":"koth_cascade","folder":"tf","game":"Team Fortress","app_id":440,"player_count":0,"max_players":24,"Bots":0,"server_type":"Dedicated","server_os":"Linux","password":true,"vac":true,"version":"7757534","steam_id":85568392924500087,"keywords":["cp","nocrits","nodmgspread","uncletopia"],"game_id":440,"stv_port":27016,"stv_name":"Uncletopia | Montréal | 1 | All Maps | STV","players":null},{"server_id":301,"name":"Uncletopia | Montréal | 2 | All Maps","name_short":"mtl-2","host":"mtl-1.ca.uncletopia.com","port":27025,"enabled":true,"region":"us-east","cc":"ca","latitude":45.50889,"longitude":-73.56167,"reserved":0,"last_update":"0001-01-01T00:00:00Z","name_a2s":"Uncletopia | Montréal | 2 | All Maps","protocol":17,"map":"koth_viaduct","folder":"tf","game":"Team Fortress","app_id":440,"player_count":0,"max_players":24,"Bots":0,"server_type":"Dedicated","server_os":"Linux","password":true,"vac":true,"version":"7757534","steam_id":85568392924500088,"keywords":["cp","nocrits","nodmgspread","uncletopia"],"game_id":440,"stv_port":27026,"stv_name":"Uncletopia | Montréal | 2 | All Maps | STV","players":null},{"server_id":302,"name":"Uncletopia | Montréal | 3 | All Maps","name_short":"mtl-3","host":"mtl-1.ca.uncletopia.com","port":27035,"enabled":true,"region":"us-east","cc":"ca","latitude":45.50889,"longitude":-73.56167,"reserved":0,"last_update":"0001-01-01T00:00:00Z","name_a2s":"Uncletopia | Montréal | 3 | All Maps","protocol":17,"map":"cp_sunshine","folder":"tf","game":"Team Fortress","app_id":440,"player_count":0,"max_players":24,"Bots":0,"server_type":"Dedicated","server_os":"Linux","password":true,"vac":true,"version":"7757534","steam_id":85568392924500089,"keywords":["cp","nocrits","nodmgspread","uncletopia"],"game_id":440,"stv_port":27036,"stv_name":"Uncletopia | Montréal | 3 | All Maps | STV","players":null},{"server_id":303,"name":"Uncletopia | Montréal | 4 | No Payload","name_short":"mtl-4","host":"mtl-1.ca.uncletopia.com","port":27045,"enabled":true,"region":"us-east","cc":"ca","latitude":45.50889,"longitude":-73.56167,"reserved":0,"last_update":"0001-01-01T00:00:00Z","name_a2s":"Uncletopia | Montréal | 4 | No Payload","protocol":17,"map":"koth_lakeside_final","folder":"tf","game":"Team Fortress","app_id":440,"player_count":0,"max_players":24,"Bots":0,"server_type":"Dedicated","server_os":"Linux","password":true,"vac":true,"version":"7757534","steam_id":85568392924500090,"keywords":["cp","nocrits","nodmgspread","uncletopia"],"game_id":440,"stv_port":27046,"stv_name":"Uncletopia | Montréal | 4 | No Payload | STV","players":null},{"server_id":13,"name":"Uncletopia | New York City | 1 | All Maps","name_short":"nyc-1","host":"nyc-1.us.uncletopia.com","port":27015,"enabled":true,"region":"us-east","cc":"us","latitude":40.73061,"longitude":-73.93524,"reserved":0,"last_update":"0001-01-01T00:00:00Z","name_a2s":"Uncletopia | New York City | 1 | All Maps","protocol":17,"map":"koth_cascade","folder":"tf","game":"Team Fortress","app_id":440,"player_count":0,"max_players":24,"Bots":0,"server_type":"Dedicated","server_os":"Linux","password":true,"vac":true,"version":"7757534","steam_id":85568392924469993,"keywords":["cp","nocrits","nodmgspread","uncletopia"],"game_id":440,"stv_port":27016,"stv_name":"Uncletopia | New York City | 1 | All Maps | STV","players":null},{"server_id":14,"name":"Uncletopia | New York City | 2 | All Maps","name_short":"nyc-2","host":"nyc-1.us.uncletopia.com","port":27025,"enabled":true,"region":"us-east","cc":"us","latitude":40.73061,"longitude":-73.93524,"reserved":0,"last_update":"0001-01-01T00:00:00Z","name_a2s":"Uncletopia | New York City | 2 | All Maps","protocol":17,"map":"cp_altitude","folder":"tf","game":"Team Fortress","app_id":440,"player_count":1,"max_players":24,"Bots":0,"server_type":"Dedicated","server_os":"Linux","password":true,"vac":true,"version":"7757534","steam_id":85568392924469994,"keywords":["cp","nocrits","nodmgspread","uncletopia"],"game_id":440,"stv_port":27026,"stv_name":"Uncletopia | New York City | 2 | All Maps | STV","players":[{"user_id":17,"name":"Smooth - Santana ft. Rob Thomas","steam_id":76561198145283389,"connected_time":39000000000,"state":"connecting","ping":57}]},{"server_id":15,"name":"Uncletopia | New York City | 3 | Stopwatch Beta","name_short":"nyc-3","host":"nyc-1.us.uncletopia.com","port":27035,"enabled":true,"region":"us-east","cc":"us","latitude":40.73061,"longitude":-73.93524,"reserved":0,"last_update":"0001-01-01T00:00:00Z","name_a2s":"Uncletopia | New York City | 3 | Stopwatch Beta","protocol":17,"map":"workshop/pl_barnblitz_pro7.ugc582280235","folder":"tf","game":"Team Fortress","app_id":440,"player_count":0,"max_players":24,"Bots":0,"server_type":"Dedicated","server_os":"Linux","password":true,"vac":true,"version":"7757534","steam_id":85568392924742820,"keywords":["nocrits","nodmgspread","payload","uncletopia"],"game_id":440,"stv_port":27036,"stv_name":"Uncletopia | New York City | 3 | Stopwatch Beta | STV","players":null},{"server_id":16,"name":"Uncletopia | New York City | 4 | Community","name_short":"nyc-4","host":"nyc-1.us.uncletopia.com","port":27045,"enabled":true,"region":"us-east","cc":"us","latitude":40.73061,"longitude":-73.93524,"reserved":0,"last_update":"0001-01-01T00:00:00Z","name_a2s":"Uncletopia | New York City | 4 | Community","protocol":17,"map":"pl_borneo","folder":"tf","game":"Team Fortress","app_id":440,"player_count":0,"max_players":24,"Bots":0,"server_type":"Dedicated","server_os":"Linux","password":true,"vac":true,"version":"7757534","steam_id":85568392924742821,"keywords":["nocrits","nodmgspread","payload","uncletopia"],"game_id":440,"stv_port":27046,"stv_name":"Uncletopia | New York City | 4 | Community | STV","players":null},{"server_id":142,"name":"Uncletopia | São Paulo | 1 | All Maps","name_short":"sao-1","host":"sao-1.br.uncletopia.com","port":27015,"enabled":true,"region":"sa","cc":"br","latitude":-23.533773,"longitude":-46.62529,"reserved":0,"last_update":"0001-01-01T00:00:00Z","name_a2s":"Uncletopia | São Paulo | 1 | All Maps","protocol":17,"map":"pl_barnblitz","folder":"tf","game":"Team Fortress","app_id":440,"player_count":0,"max_players":24,"Bots":0,"server_type":"Dedicated","server_os":"Linux","password":true,"vac":true,"version":"7757534","steam_id":85568392924469996,"keywords":["nocrits","nodmgspread","payload","uncletopia"],"game_id":440,"stv_port":27016,"stv_name":"Uncletopia | São Paulo | 1 | All Maps | STV","players":null},{"server_id":143,"name":"Uncletopia | São Paulo | 2 | All Maps","name_short":"sao-2","host":"sao-2.br.uncletopia.com","port":27015,"enabled":true,"region":"sa","cc":"br","latitude":-23.533773,"longitude":-46.62529,"reserved":0,"last_update":"0001-01-01T00:00:00Z","name_a2s":"Uncletopia | São Paulo | 2 | All Maps","protocol":17,"map":"pl_frontier_final","folder":"tf","game":"Team Fortress","app_id":440,"player_count":11,"max_players":24,"Bots":0,"server_type":"Dedicated","server_os":"Linux","password":true,"vac":true,"version":"7757534","steam_id":85568392924485349,"keywords":["nocrits","nodmgspread","payload","uncletopia"],"game_id":440,"stv_port":27016,"stv_name":"Uncletopia | São Paulo | 2 | All Maps | STV","players":[{"user_id":191,"name":"C4u","steam_id":76561198876080606,"connected_time":319000000000,"state":"active","ping":42},{"user_id":177,"name":"venom e os aventureiros","steam_id":76561199207744207,"connected_time":1447000000000,"state":"active","ping":90},{"user_id":92,"name":"ElManuelsito","steam_id":76561198372161888,"connected_time":5876000000000,"state":"active","ping":125},{"user_id":194,"name":"Android_343","steam_id":76561199029727506,"connected_time":155000000000,"state":"active","ping":104},{"user_id":175,"name":"Horny Police","steam_id":76561198117937883,"connected_time":1507000000000,"state":"active","ping":121},{"user_id":180,"name":"søfia","steam_id":76561198352249974,"connected_time":1277000000000,"state":"active","ping":50},{"user_id":190,"name":"Waltuh is my daddy","steam_id":76561199187314973,"connected_time":744000000000,"state":"active","ping":34},{"user_id":183,"name":"Milla-chan supremacy","steam_id":76561198351902011,"connected_time":1152000000000,"state":"active","ping":50},{"user_id":184,"name":"losxi","steam_id":76561199008613807,"connected_time":1117000000000,"state":"active","ping":45},{"user_id":108,"name":"Akemi Homura #1 Fan","steam_id":76561199066360306,"connected_time":5130000000000,"state":"active","ping":79},{"user_id":130,"name":"Fimose Nuclear","steam_id":76561198874985577,"connected_time":3772000000000,"state":"active","ping":96}]},{"server_id":7,"name":"Uncletopia | Seattle | 1 | All Maps","name_short":"sea-1","host":"sea-1.us.uncletopia.com","port":27015,"enabled":true,"region":"us-west","cc":"us","latitude":47.608013,"longitude":-122.33517,"reserved":0,"last_update":"0001-01-01T00:00:00Z","name_a2s":"Uncletopia | Seattle | 1 | All Maps","protocol":17,"map":"pl_upward","folder":"tf","game":"Team Fortress","app_id":440,"player_count":24,"max_players":24,"Bots":0,"server_type":"Dedicated","server_os":"Linux","password":true,"vac":true,"version":"7757534","steam_id":85568392924469997,"keywords":["nocrits","nodmgspread","payload","uncletopia"],"game_id":440,"stv_port":27016,"stv_name":"Uncletopia | Seattle | 1 | All Maps | STV","players":[{"user_id":188,"name":"PrimGoose","steam_id":76561198041112269,"connected_time":3421000000000,"state":"active","ping":105},{"user_id":214,"name":"Kopenich","steam_id":76561198066205245,"connected_time":66000000000,"state":"active","ping":87},{"user_id":213,"name":"Florist","steam_id":76561198009121060,"connected_time":84000000000,"state":"active","ping":46},{"user_id":209,"name":"titular tube","steam_id":76561198057374871,"connected_time":736000000000,"state":"active","ping":110},{"user_id":120,"name":"Soap Man","steam_id":76561198000490235,"connected_time":8991000000000,"state":"active","ping":74},{"user_id":199,"name":"French Crouton","steam_id":76561198238317762,"connected_time":2289000000000,"state":"active","ping":75},{"user_id":163,"name":"PixelatedAfro","steam_id":76561198322595276,"connected_time":5380000000000,"state":"active","ping":91},{"user_id":215,"name":"Orson Welles Gaming","steam_id":76561198115821923,"connected_time":4000000000,"state":"spawning","ping":73},{"user_id":201,"name":"jammy nutrient boy genius","steam_id":76561198165086917,"connected_time":2162000000000,"state":"active","ping":76},{"user_id":204,"name":"Zizen","steam_id":76561199011832069,"connected_time":1621000000000,"state":"active","ping":87},{"user_id":212,"name":"Vem","steam_id":76561198117273112,"connected_time":310000000000,"state":"active","ping":123},{"user_id":195,"name":"McSpazatron","steam_id":76561198955942148,"connected_time":2519000000000,"state":"active","ping":64},{"user_id":176,"name":"Sloppy Joe (Extra Sauce)","steam_id":76561198359703432,"connected_time":5022000000000,"state":"active","ping":78},{"user_id":114,"name":"dust","steam_id":76561198045218909,"connected_time":9793000000000,"state":"active","ping":36},{"user_id":202,"name":"AnotherEnby","steam_id":76561198837804866,"connected_time":2145000000000,"state":"active","ping":100},{"user_id":208,"name":"jacix3 [gay wolfgirl]{she/it}","steam_id":76561198205004165,"connected_time":1118000000000,"state":"active","ping":67},{"user_id":206,"name":"Shy LaFloof","steam_id":76561198279831164,"connected_time":1408000000000,"state":"active","ping":79},{"user_id":185,"name":"huh","steam_id":76561198272057200,"connected_time":3978000000000,"state":"active","ping":74},{"user_id":211,"name":"BIGGUS DICKUS","steam_id":76561199057483763,"connected_time":663000000000,"state":"active","ping":68},{"user_id":191,"name":"Drivethecar54","steam_id":76561198120931311,"connected_time":3351000000000,"state":"active","ping":85},{"user_id":203,"name":"sentry turret","steam_id":76561198327057433,"connected_time":2141000000000,"state":"active","ping":135},{"user_id":153,"name":"Bryce Gobo","steam_id":76561199411560141,"connected_time":6479000000000,"state":"active","ping":49},{"user_id":187,"name":"shiadyne","steam_id":76561198271939793,"connected_time":3451000000000,"state":"active","ping":48},{"user_id":210,"name":"Ddonut gamer","steam_id":76561198858852245,"connected_time":734000000000,"state":"active","ping":81}]},{"server_id":119,"name":"Uncletopia | Seattle | 2 | All Maps","name_short":"sea-2","host":"sea-1.us.uncletopia.com","port":27025,"enabled":true,"region":"us-west","cc":"us","latitude":47.608013,"longitude":-122.33517,"reserved":0,"last_update":"0001-01-01T00:00:00Z","name_a2s":"Uncletopia | Seattle | 2 | All Maps","protocol":17,"map":"cp_process_final","folder":"tf","game":"Team Fortress","app_id":440,"player_count":0,"max_players":24,"Bots":0,"server_type":"Dedicated","server_os":"Linux","password":true,"vac":true,"version":"7757534","steam_id":85568392924469998,"keywords":["cp","nocrits","nodmgspread","uncletopia"],"game_id":440,"stv_port":27026,"stv_name":"Uncletopia | Seattle | 2 | All Maps | STV","players":null},{"server_id":406,"name":"Uncletopia | Seattle | 3 | Stopwatch Beta","name_short":"sea-3","host":"sea-1.us.uncletopia.com","port":27035,"enabled":true,"region":"us-west","cc":"us","latitude":47.608013,"longitude":-122.33517,"reserved":0,"last_update":"0001-01-01T00:00:00Z","name_a2s":"Uncletopia | Seattle | 3 | Stopwatch Beta","protocol":17,"map":"workshop/koth_ramjam_rc1.ugc459778887","folder":"tf","game":"Team Fortress","app_id":440,"player_count":0,"max_players":24,"Bots":0,"server_type":"Dedicated","server_os":"Linux","password":true,"vac":true,"version":"7757534","steam_id":85568392924515217,"keywords":["cp","nocrits","nodmgspread","uncletopia"],"game_id":440,"stv_port":27036,"stv_name":"Uncletopia | Seattle | 3 | Stopwatch Beta | STV","players":null},{"server_id":17,"name":"Uncletopia | San Francisco | 1 | All Maps","name_short":"sfo-1","host":"sfo-1.us.uncletopia.com","port":27015,"enabled":true,"region":"us-west","cc":"us","latitude":37.77397,"longitude":-122.4313,"reserved":0,"last_update":"0001-01-01T00:00:00Z","name_a2s":"Uncletopia | San Francisco | 1 | All Maps","protocol":17,"map":"pl_pier","folder":"tf","game":"Team Fortress","app_id":440,"player_count":0,"max_players":24,"Bots":0,"server_type":"Dedicated","server_os":"Linux","password":true,"vac":true,"version":"7757534","steam_id":85568392924469999,"keywords":["nocrits","nodmgspread","payload","uncletopia"],"game_id":440,"stv_port":27016,"stv_name":"Uncletopia | San Francisco | 1 | All Maps | STV","players":null},{"server_id":18,"name":"Uncletopia | San Francisco | 2 | All Maps","name_short":"sfo-2","host":"sfo-1.us.uncletopia.com","port":27025,"enabled":true,"region":"us-west","cc":"us","latitude":37.77397,"longitude":-122.4313,"reserved":0,"last_update":"0001-01-01T00:00:00Z","name_a2s":"Uncletopia | San Francisco | 2 | All Maps","protocol":17,"map":"cp_dustbowl","folder":"tf","game":"Team Fortress","app_id":440,"player_count":0,"max_players":24,"Bots":0,"server_type":"Dedicated","server_os":"Linux","password":true,"vac":true,"version":"7757534","steam_id":85568392924470000,"keywords":["cp","nocrits","nodmgspread","uncletopia"],"game_id":440,"stv_port":27026,"stv_name":"Uncletopia | San Francisco | 2 | All Maps | STV","players":null},{"server_id":19,"name":"Uncletopia | San Francisco | 3 | Stopwatch Beta","name_short":"sfo-3","host":"sfo-1.us.uncletopia.com","port":27035,"enabled":true,"region":"us-west","cc":"us","latitude":37.77397,"longitude":-122.4313,"reserved":0,"last_update":"0001-01-01T00:00:00Z","name_a2s":"Uncletopia | San Francisco | 3 | Stopwatch Beta","protocol":17,"map":"koth_viaduct","folder":"tf","game":"Team Fortress","app_id":440,"player_count":0,"max_players":24,"Bots":0,"server_type":"Dedicated","server_os":"Linux","password":true,"vac":true,"version":"7757534","steam_id":85568392924742824,"keywords":["cp","nocrits","nodmgspread","uncletopia"],"game_id":440,"stv_port":27036,"stv_name":"Uncletopia | San Francisco | 3 | Stopwatch Beta | STV","players":null},{"server_id":20,"name":"Uncletopia | San Francisco | 4 | Community","name_short":"sfo-4","host":"sfo-1.us.uncletopia.com","port":27045,"enabled":true,"region":"us-west","cc":"us","latitude":37.77397,"longitude":-122.4313,"reserved":0,"last_update":"0001-01-01T00:00:00Z","name_a2s":"Uncletopia | San Francisco | 4 | Community","protocol":17,"map":"workshop/koth_bagel_rc5.ugc2514036946","folder":"tf","game":"Team Fortress","app_id":440,"player_count":3,"max_players":24,"Bots":0,"server_type":"Dedicated","server_os":"Linux","password":true,"vac":true,"version":"7757534","steam_id":85568392924742826,"keywords":["cp","nocrits","nodmgspread","uncletopia"],"game_id":440,"stv_port":27046,"stv_name":"Uncletopia | San Francisco | 4 | Community | STV","players":[{"user_id":21,"name":"firefox8546","steam_id":76561199467999091,"connected_time":2590000000000,"state":"active","ping":97},{"user_id":24,"name":"Josh Diddily","steam_id":76561198286957487,"connected_time":156000000000,"state":"active","ping":125},{"user_id":20,"name":"viv","steam_id":76561198975527343,"connected_time":2740000000000,"state":"active","ping":84}]},{"server_id":141,"name":"Uncletopia | Sydney | 1 | All Maps","name_short":"syd-1","host":"syd-1.au.uncletopia.com","port":27015,"enabled":true,"region":"au","cc":"au","latitude":-33.865143,"longitude":151.2099,"reserved":0,"last_update":"0001-01-01T00:00:00Z","name_a2s":"Uncletopia | Sydney | 1 | All Maps","protocol":17,"map":"pl_snowycoast","folder":"tf","game":"Team Fortress","app_id":440,"player_count":0,"max_players":24,"Bots":0,"server_type":"Dedicated","server_os":"Linux","password":true,"vac":true,"version":"7757534","steam_id":85568392924470001,"keywords":["nocrits","nodmgspread","payload","uncletopia"],"game_id":440,"stv_port":27016,"stv_name":"Uncletopia | Sydney | 1 | All Maps | STV","players":null},{"server_id":123,"name":"Uncletopia | Sydney | 2 | All Maps","name_short":"syd-2","host":"syd-1.au.uncletopia.com","port":27025,"enabled":true,"region":"au","cc":"au","latitude":-33.865143,"longitude":151.2099,"reserved":0,"last_update":"0001-01-01T00:00:00Z","name_a2s":"Uncletopia | Sydney | 2 | All Maps","protocol":17,"map":"koth_cascade","folder":"tf","game":"Team Fortress","app_id":440,"player_count":0,"max_players":24,"Bots":0,"server_type":"Dedicated","server_os":"Linux","password":true,"vac":true,"version":"7757534","steam_id":85568392924470002,"keywords":["cp","nocrits","nodmgspread","uncletopia"],"game_id":440,"stv_port":27026,"stv_name":"Uncletopia | Sydney | 2 | All Maps | STV","players":null},{"server_id":395,"name":"Uncletopia | Sydney | 3 | All Maps","name_short":"syd-3","host":"syd-1.au.uncletopia.com","port":27035,"enabled":true,"region":"au","cc":"au","latitude":-33.865143,"longitude":151.2099,"reserved":0,"last_update":"0001-01-01T00:00:00Z","name_a2s":"Uncletopia | Sydney | 3 | All Maps","protocol":17,"map":"cp_sunshine","folder":"tf","game":"Team Fortress","app_id":440,"player_count":0,"max_players":24,"Bots":0,"server_type":"Dedicated","server_os":"Linux","password":true,"vac":true,"version":"7757534","steam_id":85568392925194467,"keywords":["cp","nocrits","nodmgspread","uncletopia"],"game_id":440,"stv_port":27036,"stv_name":"Uncletopia | Sydney | 3 | All Maps | STV","players":null},{"server_id":396,"name":"Uncletopia | Sydney | 4 | All Maps","name_short":"syd-4","host":"syd-1.au.uncletopia.com","port":27045,"enabled":true,"region":"au","cc":"au","latitude":-33.865143,"longitude":151.2099,"reserved":0,"last_update":"0001-01-01T00:00:00Z","name_a2s":"Uncletopia | Sydney | 4 | All Maps","protocol":17,"map":"koth_cascade","folder":"tf","game":"Team Fortress","app_id":440,"player_count":0,"max_players":24,"Bots":0,"server_type":"Dedicated","server_os":"Linux","password":true,"vac":true,"version":"7757534","steam_id":85568392925397958,"keywords":["cp","nocrits","nodmgspread","uncletopia"],"game_id":440,"stv_port":27046,"stv_name":"Uncletopia | Sydney | 4 | All Maps | STV","players":null},{"server_id":58,"name":"Uncletopia | Sydney | 5 | Stopwatch Beta","name_short":"syd-5","host":"syd-1.au.uncletopia.com","port":27055,"enabled":true,"region":"au","cc":"au","latitude":-33.865143,"longitude":151.2099,"reserved":0,"last_update":"0001-01-01T00:00:00Z","name_a2s":"Uncletopia | Sydney | 5 | Stopwatch Beta","protocol":17,"map":"pl_barnblitz","folder":"tf","game":"Team Fortress","app_id":440,"player_count":0,"max_players":24,"Bots":0,"server_type":"Dedicated","server_os":"Linux","password":true,"vac":true,"version":"7757534","steam_id":85568392925397959,"keywords":["nocrits","nodmgspread","payload","uncletopia"],"game_id":440,"stv_port":27056,"stv_name":"Uncletopia | Sydney | 5 | Stopwatch Beta | STV","players":null},{"server_id":59,"name":"Uncletopia | Sydney | 6 | Community","name_short":"syd-6","host":"syd-1.au.uncletopia.com","port":27065,"enabled":true,"region":"au","cc":"au","latitude":-33.865143,"longitude":151.2099,"reserved":0,"last_update":"0001-01-01T00:00:00Z","name_a2s":"Uncletopia | Sydney | 6 | Community","protocol":17,"map":"workshop/koth_synthetic_rc6a.ugc1549817316","folder":"tf","game":"Team Fortress","app_id":440,"player_count":0,"max_players":24,"Bots":0,"server_type":"Dedicated","server_os":"Linux","password":true,"vac":true,"version":"7757534","steam_id":85568392925397960,"keywords":["cp","nocrits","nodmgspread","uncletopia"],"game_id":440,"stv_port":27066,"stv_name":"Uncletopia | Sydney | 6 | Community | STV","players":null},{"server_id":49,"name":"Uncletopia | Warsaw | 1 | All Maps","name_short":"waw-1","host":"waw-1.pl.uncletopia.com","port":27015,"enabled":true,"region":"eu","cc":"pl","latitude":52.2297,"longitude":21.017532,"reserved":0,"last_update":"0001-01-01T00:00:00Z","name_a2s":"","protocol":0,"map":"","folder":"","game":"","app_id":0,"player_count":0,"max_players":0,"Bots":0,"server_type":"","server_os":"","password":false,"vac":false,"version":"","steam_id":0,"keywords":null,"game_id":0,"stv_port":0,"stv_name":"","players":null},{"server_id":50,"name":"Uncletopia | Warsaw | 2 | All Maps","name_short":"waw-2","host":"waw-1.pl.uncletopia.com","port":27025,"enabled":true,"region":"eu","cc":"pl","latitude":52.2297,"longitude":21.017532,"reserved":0,"last_update":"0001-01-01T00:00:00Z","name_a2s":"Uncletopia | Warsaw | 2 | All Maps","protocol":17,"map":"koth_lakeside_final","folder":"tf","game":"Team Fortress","app_id":440,"player_count":0,"max_players":24,"Bots":0,"server_type":"Dedicated","server_os":"Linux","password":true,"vac":true,"version":"7757534","steam_id":85568392925397851,"keywords":["cp","nocrits","nodmgspread","uncletopia"],"game_id":440,"stv_port":27026,"stv_name":"Uncletopia | Warsaw | 2 | All Maps | STV","players":null},{"server_id":51,"name":"Uncletopia | Warsaw | 3 | All Maps","name_short":"waw-3","host":"waw-1.pl.uncletopia.com","port":27035,"enabled":true,"region":"eu","cc":"pl","latitude":52.2297,"longitude":21.017532,"reserved":0,"last_update":"0001-01-01T00:00:00Z","name_a2s":"Uncletopia | Warsaw | 3 | All Maps","protocol":17,"map":"cp_standin_final","folder":"tf","game":"Team Fortress","app_id":440,"player_count":24,"max_players":24,"Bots":0,"server_type":"Dedicated","server_os":"Linux","password":true,"vac":true,"version":"7757534","steam_id":85568392925397852,"keywords":["cp","nocrits","nodmgspread","uncletopia"],"game_id":440,"stv_port":27036,"stv_name":"Uncletopia | Warsaw | 3 | All Maps | STV","players":[{"user_id":89,"name":"zek","steam_id":76561198862763731,"connected_time":3739000000000,"state":"active","ping":76},{"user_id":137,"name":"maykoosh","steam_id":76561198168376637,"connected_time":564000000000,"state":"active","ping":38},{"user_id":135,"name":"Connor McFilip","steam_id":76561198107965067,"connected_time":639000000000,"state":"active","ping":55},{"user_id":93,"name":"esteebangus","steam_id":76561198203962355,"connected_time":3497000000000,"state":"active","ping":66},{"user_id":136,"name":"pod hajkem gaming","steam_id":76561198166078959,"connected_time":606000000000,"state":"active","ping":59},{"user_id":109,"name":"[Tar] Peoh","steam_id":76561198065693037,"connected_time":1949000000000,"state":"active","ping":77},{"user_id":142,"name":"Drunk Stormtrooper","steam_id":76561198263075743,"connected_time":187000000000,"state":"active","ping":58},{"user_id":129,"name":"GoodCombine","steam_id":76561198014057015,"connected_time":949000000000,"state":"active","ping":54},{"user_id":141,"name":"Commander Boreale","steam_id":76561198118938257,"connected_time":485000000000,"state":"active","ping":68},{"user_id":130,"name":"Lolihunter","steam_id":76561198285406228,"connected_time":940000000000,"state":"active","ping":46},{"user_id":69,"name":"LOBZIK","steam_id":76561198114830120,"connected_time":5053000000000,"state":"active","ping":48},{"user_id":148,"name":"bubdy","steam_id":76561198090860892,"connected_time":2000000000,"state":"spawning","ping":88},{"user_id":119,"name":"Phiphler","steam_id":76561197994055715,"connected_time":1428000000000,"state":"active","ping":84},{"user_id":105,"name":"makin' piss","steam_id":76561198052136478,"connected_time":2203000000000,"state":"active","ping":89},{"user_id":139,"name":"keeper of the кухня","steam_id":76561198312221805,"connected_time":553000000000,"state":"active","ping":60},{"user_id":131,"name":"milka","steam_id":76561198125898848,"connected_time":906000000000,"state":"active","ping":119},{"user_id":134,"name":"Shawty","steam_id":76561198256704286,"connected_time":807000000000,"state":"active","ping":75},{"user_id":143,"name":"Donnie_Frisco","steam_id":76561198046018714,"connected_time":187000000000,"state":"active","ping":73},{"user_id":144,"name":"Katır","steam_id":76561199466420909,"connected_time":73000000000,"state":"spawning","ping":163},{"user_id":126,"name":"Noodle","steam_id":76561198306486695,"connected_time":1243000000000,"state":"active","ping":72},{"user_id":145,"name":"Diet Cocaine","steam_id":76561198237767154,"connected_time":33000000000,"state":"active","ping":90},{"user_id":102,"name":"Hood","steam_id":76561199229682408,"connected_time":2484000000000,"state":"active","ping":68},{"user_id":146,"name":"sadie","steam_id":76561198274722358,"connected_time":31000000000,"state":"active","ping":79},{"user_id":147,"name":"zx111","steam_id":76561198240333744,"connected_time":24000000000,"state":"active","ping":117}]},{"server_id":52,"name":"Uncletopia | Warsaw | 4 | All Maps","name_short":"waw-4","host":"waw-1.pl.uncletopia.com","port":27045,"enabled":true,"region":"eu","cc":"pl","latitude":52.2297,"longitude":21.017532,"reserved":0,"last_update":"0001-01-01T00:00:00Z","name_a2s":"Uncletopia | Warsaw | 4 | All Maps","protocol":17,"map":"cp_sunshine","folder":"tf","game":"Team Fortress","app_id":440,"player_count":0,"max_players":24,"Bots":0,"server_type":"Dedicated","server_os":"Linux","password":true,"vac":true,"version":"7757534","steam_id":85568392925397853,"keywords":["cp","nocrits","nodmgspread","uncletopia"],"game_id":440,"stv_port":27046,"stv_name":"Uncletopia | Warsaw | 4 | All Maps | STV","players":null},{"server_id":53,"name":"Uncletopia | Warsaw | 5 | Stopwatch Beta","name_short":"waw-5","host":"waw-1.pl.uncletopia.com","port":27055,"enabled":true,"region":"eu","cc":"pl","latitude":52.2297,"longitude":21.017532,"reserved":0,"last_update":"0001-01-01T00:00:00Z","name_a2s":"Uncletopia | Warsaw | 5 | Stopwatch Beta","protocol":17,"map":"pl_swiftwater_final1","folder":"tf","game":"Team Fortress","app_id":440,"player_count":0,"max_players":24,"Bots":0,"server_type":"Dedicated","server_os":"Linux","password":true,"vac":true,"version":"7757534","steam_id":85568392925397854,"keywords":["nocrits","nodmgspread","payload","uncletopia"],"game_id":440,"stv_port":27056,"stv_name":"Uncletopia | Warsaw | 5 | Stopwatch Beta | STV","players":null},{"server_id":54,"name":"Uncletopia | Warsaw | 6 | Community","name_short":"waw-6","host":"waw-1.pl.uncletopia.com","port":27065,"enabled":true,"region":"eu","cc":"pl","latitude":52.2297,"longitude":21.017532,"reserved":0,"last_update":"0001-01-01T00:00:00Z","name_a2s":"Uncletopia | Warsaw | 6 | Community","protocol":17,"map":"workshop/koth_ashville_final.ugc2130459942","folder":"tf","game":"Team Fortress","app_id":440,"player_count":0,"max_players":24,"Bots":0,"server_type":"Dedicated","server_os":"Linux","password":true,"vac":true,"version":"7757534","steam_id":85568392925397856,"keywords":["cp","nocrits","nodmgspread","uncletopia"],"game_id":440,"stv_port":27066,"stv_name":"Uncletopia | Warsaw | 6 | Community | STV","players":null}]}