{"status":true,"message":"","result":[{"server_id":9,"name":"Uncletopia | Atlanta | 1 | All Maps","name_short":"atl-1","host":"atl-1.us.uncletopia.com","port":27015,"enabled":true,"region":"us-east","cc":"us","latitude":33.753746,"longitude":-84.38633,"reserved":0,"last_update":"0001-01-01T00:00:00Z","name_a2s":"Uncletopia | Atlanta | 1 | All Maps","protocol":17,"map":"pl_swiftwater_final1","folder":"tf","game":"Team Fortress","app_id":440,"player_count":24,"max_players":24,"Bots":0,"server_type":"Dedicated","server_os":"Linux","password":true,"vac":true,"version":"7757534","steam_id":85568392924469982,"keywords":["nocrits","nodmgspread","payload","uncletopia"],"game_id":440,"stv_port":27016,"stv_name":"Uncletopia | Atlanta | 1 | All Maps | STV","players":[{"user_id":189,"name":"Yoru","steam_id":76561198119698950,"connected_time":2035000000000,"state":"active","ping":119},{"user_id":144,"name":"T17","steam_id":76561198064249841,"connected_time":6131000000000,"state":"active","ping":74},{"user_id":215,"name":"big gut","steam_id":76561198165299077,"connected_time":117000000000,"state":"active","ping":65},{"user_id":173,"name":"TDG | iTrez","steam_id":76561198045788316,"connected_time":3449000000000,"state":"active","ping":96},{"user_id":194,"name":"Spy_Is_Pye","steam_id":76561199439622967,"connected_time":1452000000000,"state":"active","ping":74},{"user_id":213,"name":"Havok","steam_id":76561198063455003,"connected_time":311000000000,"state":"active","ping":74},{"user_id":196,"name":"Bobafett88954","steam_id":76561198384658616,"connected_time":1353000000000,"state":"active","ping":78},{"user_id":201,"name":"mechiimi ‚òÖ","steam_id":76561198321627268,"connected_time":799000000000,"state":"active","ping":117},{"user_id":184,"name":"bendera","steam_id":76561197965486503,"connected_time":2445000000000,"state":"active","ping":80},{"user_id":202,"name":"man toucher","steam_id":76561198838822605,"connected_time":793000000000,"state":"active","ping":76},{"user_id":204,"name":"hedahman","steam_id":76561198052398134,"connected_time":779000000000,"state":"active","ping":104},{"user_id":216,"name":"Couriadore","steam_id":76561198055814008,"connected_time":105000000000,"state":"active","ping":82},{"user_id":190,"name":"Mel","steam_id":76561198327775249,"connected_time":2033000000000,"state":"active","ping":133},{"user_id":206,"name":"Oddball","steam_id":76561198040440984,"connected_time":730000000000,"state":"active","ping":82},{"user_id":167,"name":"vid_","steam_id":76561198065159053,"connected_time":3940000000000,"state":"active","ping":52},{"user_id":207,"name":"HollyBlocky","steam_id":76561198030156100,"connected_time":682000000000,"state":"active","ping":86},{"user_id":212,"name":"Toygar","steam_id":76561198023679830,"connected_time":388000000000,"state":"active","ping":70},{"user_id":208,"name":"Johnny Lawrence #JohnnyMaxxing","steam_id":76561199367141671,"connected_time":670000000000,"state":"active","ping":63},{"user_id":197,"name":"Sir Asparagus P. Smehl III","steam_id":76561197995196535,"connected_time":1269000000000,"state":"active","ping":77},{"user_id":209,"name":"slashr","steam_id":76561198206515428,"connected_time":650000000000,"state":"active","ping":119},{"user_id":210,"name":"ATLS1 | SparkStorm","steam_id":76561198095817025,"connected_time":635000000000,"state":"active","ping":40},{"user_id":214,"name":"Metal Man","steam_id":76561198024973008,"connected_time":191000000000,"state":"active","ping":77},{"user_id":195,"name":"Brandonazz","steam_id":76561197994366351,"connected_time":1381000000000,"state":"active","ping":84},{"user_id":161,"name":"DontaeRiceArt (DMR)","steam_id":76561198042659150,"connected_time":4855000000000,"state":"active","ping":83}]},{"server_id":400,"name":"Uncletopia | Atlanta | 3 | Community","name_short":"atl-3","host":"atl-1.us.uncletopia.com","port":27035,"enabled":true,"region":"us-east","cc":"us","latitude":33.753746,"longitude":-84.38633,"reserved":0,"last_update":"0001-01-01T00:00:00Z","name_a2s":"Uncletopia | Atlanta | 3 | Community","protocol":17,"map":"workshop/pl_vigil_rc9.ugc1266210012","folder":"tf","game":"Team Fortress","app_id":440,"player_count":0,"max_players":24,"Bots":0,"server_type":"Dedicated","server_os":"Linux","password":true,"vac":true,"version":"7757534","steam_id":85568392924515187,"keywords":["nocrits","nodmgspread","payload","uncletopia"],"game_id":440,"stv_port":27036,"stv_name":"Uncletopia | Atlanta | 3 | Community | STV","players":null},{"server_id":401,"name":"Uncletopia | Atlanta | 4 | No Payload","name_short":"atl-4","host":"atl-1.us.uncletopia.com","port":27045,"enabled":true,"region":"us-east","cc":"us","latitude":33.753746,"longitude":-84.38633,"reserved":0,"last_update":"0001-01-01T00:00:00Z","name_a2s":"","protocol":0,"map":"","folder":"","game":"","app_id":0,"player_count":0,"max_players":0,"Bots":0,"server_type":"","server_os":"","password":false,"vac":false,"version":"","steam_id":0,"keywords":null,"game_id":0,"stv_port":0,"stv_name":"","players":null},{"server_id":2,"name":"Uncletopia | Chicago | 1 | All Maps","name_short":"chi-1","host":"chi-1.us.uncletopia.com","port":27015,"enabled":true,"region":"us-central","cc":"us","latitude":41.881832,"longitude":-87.62318,"reserved":0,"last_update":"0001-01-01T00:00:00Z","name_a2s":"Uncletopia | Chicago | 1 | All Maps","protocol":17,"map":"pl_badwater","folder":"tf","game":"Team Fortress","app_id":440,"player_count":24,"max_players":24,"Bots":0,"server_type":"Dedicated","server_os":"Linux","password":true,"vac":true,"version":"7757534","steam_id":85568392924469984,"keywords":["nocrits","nodmgspread","payload","uncletopia"],"game_id":440,"stv_port":27016,"stv_name":"Uncletopia | Chicago | 1 | All Maps | STV","players":[{"user_id":518,"name":"din afore","steam_id":76561198079892116,"connected_time":61000000000,"state":"active","ping":48},{"user_id":505,"name":"Snoball","steam_id":76561198205838372,"connected_time":1713000000000,"state":"active","ping":84},{"user_id":425,"name":"no way","steam_id":76561198082496000,"connected_time":8267000000000,"state":"active","ping":85},{"user_id":479,"name":"Dog Food Lid","steam_id":76561198360097175,"connected_time":4310000000000,"state":"active","ping":56},{"user_id":507,"name":"Cambonieboo","steam_id":76561198139174433,"connected_time":1323000000000,"state":"active","ping":89},{"user_id":484,"name":"Ye ( I Love Caulk ) West","steam_id":76561198068830312,"connected_time":3499000000000,"state":"active","ping":35},{"user_id":515,"name":"No Telefrag Plz","steam_id":76561198113931312,"connected_time":141000000000,"state":"active","ping":72},{"user_id":514,"name":"ProfessorCagan","steam_id":76561198141372356,"connected_time":151000000000,"state":"active","ping":48},{"user_id":516,"name":"Manlymedic45","steam_id":76561199379376478,"connected_time":132000000000,"state":"active","ping":142},{"user_id":488,"name":"creal","steam_id":76561198127116199,"connected_time":3191000000000,"state":"active","ping":52},{"user_id":489,"name":"Eins","steam_id":76561199030343810,"connected_time":3175000000000,"state":"active","ping":61},{"user_id":496,"name":"beethan","steam_id":76561198148199120,"connected_time":3007000000000,"state":"active","ping":85},{"user_id":485,"name":"blob","steam_id":76561198122375328,"connected_time":3266000000000,"state":"active","ping":80},{"user_id":508,"name":"SuaveFrenchman","steam_id":76561198043762683,"connected_time":1321000000000,"state":"active","ping":99},{"user_id":517,"name":"the deadliest pyroshark","steam_id":76561198374227766,"connected_time":110000000000,"state":"active","ping":73},{"user_id":511,"name":"Appa","steam_id":76561198110449520,"connected_time":1154000000000,"state":"active","ping":90},{"user_id":480,"name":"The Drunk Clown","steam_id":76561197986850426,"connected_time":3993000000000,"state":"active","ping":76},{"user_id":519,"name":"Alpha Mike Foxtrot","steam_id":76561198026577617,"connected_time":59000000000,"state":"active","ping":178},{"user_id":456,"name":"debin","steam_id":76561198070711217,"connected_time":5670000000000,"state":"active","ping":56},{"user_id":512,"name":"magical_mage0","steam_id":76561198213271916,"connected_time":414000000000,"state":"active","ping":64},{"user_id":510,"name":"primordialheath","steam_id":76561199386942638,"connected_time":1277000000000,"state":"active","ping":69},{"user_id":513,"name":"sax","steam_id":76561198094788852,"connected_time":303000000000,"state":"active","ping":53},{"user_id":502,"name":"JimmyWings","steam_id":76561198999925713,"connected_time":2419000000000,"state":"active","ping":59},{"user_id":520,"name":"Kenshi „Ç±„É≥„Ç∑","steam_id":76561199054651443,"connected_time":49000000000,"state":"active","ping":156}]},{"server_id":106,"name":"Uncletopia | Chicago | 2 | All Maps","name_short":"chi-2","host":"chi-1.us.uncletopia.com","port":27025,"enabled":true,"region":"us-central","cc":"us","latitude":41.881832,"longitude":-87.62318,"reserved":0,"last_update":"0001-01-01T00:00:00Z","name_a2s":"Uncletopia | Chicago | 2 | All Maps","protocol":17,"map":"cp_snakewater_final1","folder":"tf","game":"Team Fortress","app_id":440,"player_count":22,"max_players":24,"Bots":0,"server_type":"Dedicated","server_os":"Linux","password":true,"vac":true,"version":"7757534","steam_id":85568392924469985,"keywords":["cp","nocrits","nodmgspread","uncletopia"],"game_id":440,"stv_port":27026,"stv_name":"Uncletopia | Chicago | 2 | All Maps | STV","players":[{"user_id":186,"name":"Toasty Gyro","steam_id":76561198001026643,"connected_time":1297000000000,"state":"active","ping":50},{"user_id":205,"name":"Beans","steam_id":76561198169324480,"connected_time":293000000000,"state":"active","ping":56},{"user_id":122,"name":"spooky","steam_id":76561198122964663,"connected_time":3485000000000,"state":"active","ping":70},{"user_id":206,"name":"FUSION","steam_id":76561197972659738,"connected_time":254000000000,"state":"active","ping":58},{"user_id":190,"name":"MrhobbitRequiem","steam_id":76561198976215013,"connected_time":1213000000000,"state":"active","ping":73},{"user_id":185,"name":"InvaderAlex","steam_id":76561198039232451,"connected_time":1333000000000,"state":"active","ping":87},{"user_id":207,"name":"Amazingamerhawk","steam_id":76561199064935924,"connected_time":178000000000,"state":"active","ping":56},{"user_id":209,"name":"Ubuntu Phone","steam_id":76561198008110407,"connected_time":154000000000,"state":"active","ping":76},{"user_id":193,"name":"Diesel of Alrest","steam_id":76561198143450491,"connected_time":1151000000000,"state":"active","ping":62},{"user_id":105,"name":"ContinuedBear4","steam_id":76561198265176919,"connected_time":3687000000000,"state":"active","ping":60},{"user_id":210,"name":"oinkpig234","steam_id":76561198883733811,"connected_time":147000000000,"state":"active","ping":76},{"user_id":106,"name":"SaucySandwichKid","steam_id":76561199372590934,"connected_time":3686000000000,"state":"active","ping":74},{"user_id":211,"name":"Turtlin'","steam_id":76561198885096042,"connected_time":137000000000,"state":"active","ping":63},{"user_id":203,"name":"Bluedot","steam_id":76561198019909639,"connected_time":361000000000,"state":"active","ping":59},{"user_id":195,"name":"Superpleo","steam_id":76561198083133146,"connected_time":1100000000000,"state":"active","ping":81},{"user_id":110,"name":"playing on a raspberry pi","steam_id":76561198035969198,"connected_time":3675000000000,"state":"active","ping":98},{"user_id":204,"name":"Toottoot","steam_id":76561197992404836,"connected_time":306000000000,"state":"active","ping":45},{"user_id":184,"name":"Random Dog Guy","steam_id":76561198033132263,"connected_time":1395000000000,"state":"active","ping":69},{"user_id":212,"name":"balasarthebrave","steam_id":76561198907174158,"connected_time":122000000000,"state":"active","ping":89},{"user_id":196,"name":"hrngh","steam_id":76561198310078569,"connected_time":1094000000000,"state":"active","ping":75},{"user_id":151,"name":"Gandalf Gaming","steam_id":76561198368151490,"connected_time":2605000000000,"state":"active","ping":72},{"user_id":181,"name":"the real babytron","steam_id":76561197989627918,"connected_time":1766000000000,"state":"active","ping":85}]},{"server_id":402,"name":"Uncletopia | Chicago | 3 | All Maps","name_short":"chi-3","host":"chi-1.us.uncletopia.com","port":27035,"enabled":true,"region":"us-central","cc":"us","latitude":41.881832,"longitude":-87.62318,"reserved":0,"last_update":"0001-01-01T00:00:00Z","name_a2s":"Uncletopia | Chicago | 3 | All Maps","protocol":17,"map":"pl_pier","folder":"tf","game":"Team Fortress","app_id":440,"player_count":24,"max_players":24,"Bots":0,"server_type":"Dedicated","server_os":"Linux","password":true,"vac":true,"version":"7757534","steam_id":85568392924515191,"keywords":["nocrits","nodmgspread","payload","uncletopia"],"game_id":440,"stv_port":27036,"stv_name":"Uncletopia | Chicago | 3 | All Maps | STV","players":[{"user_id":152,"name":"TheTruthOfTheCessationOfDukkha","steam_id":76561198214370515,"connected_time":398000000000,"state":"active","ping":65},{"user_id":150,"name":"King_L","steam_id":76561199166718863,"connected_time":519000000000,"state":"active","ping":67},{"user_id":115,"name":"ChristLovesMeTTV ‚Ä†","steam_id":76561198070635731,"connected_time":2105000000000,"state":"active","ping":79},{"user_id":108,"name":"Soup0fTheDay","steam_id":76561199039857744,"connected_time":2444000000000,"state":"active","ping":49},{"user_id":110,"name":"Dokkibai","steam_id":76561198355935693,"connected_time":2404000000000,"state":"active","ping":46},{"user_id":147,"name":"AKconner","steam_id":76561198312569787,"connected_time":655000000000,"state":"active","ping":69},{"user_id":153,"name":"üÖúüÖîüÖîüÖöüÖ¢üÖ£üÖî\ufffd\ufffd\ufffd","steam_id":76561197999748343,"connected_time":391000000000,"state":"active","ping":61},{"user_id":120,"name":"vanxi","steam_id":76561198089852954,"connected_time":2017000000000,"state":"active","ping":98},{"user_id":134,"name":"mr. beaver","steam_id":76561198081361768,"connected_time":1395000000000,"state":"active","ping":60},{"user_id":140,"name":"freak","steam_id":76561199023128474,"connected_time":1007000000000,"state":"active","ping":77},{"user_id":148,"name":"Sly Fox Lemmy","steam_id":76561198069225954,"connected_time":600000000000,"state":"active","ping":82},{"user_id":141,"name":"Dispenser (Twan)","steam_id":76561197991064908,"connected_time":979000000000,"state":"active","ping":61},{"user_id":151,"name":"steelborg","steam_id":76561198427292802,"connected_time":472000000000,"state":"active","ping":85},{"user_id":156,"name":"Wind Fucker","steam_id":76561198275362375,"connected_time":110000000000,"state":"active","ping":97},{"user_id":154,"name":"Smiling","steam_id":76561198293407075,"connected_time":385000000000,"state":"active","ping":85},{"user_id":126,"name":"smugdoug","steam_id":76561198021381678,"connected_time":1884000000000,"state":"active","ping":63},{"user_id":155,"name":"Wizops","steam_id":76561198907030448,"connected_time":371000000000,"state":"active","ping":76},{"user_id":131,"name":"Warsh Cloth","steam_id":76561198059761344,"connected_time":1670000000000,"state":"active","ping":58},{"user_id":128,"name":"BillButtLicker69","steam_id":76561198070119268,"connected_time":1861000000000,"state":"active","ping":111},{"user_id":135,"name":"$3.99 Shrimps","steam_id":76561198077272494,"connected_time":1383000000000,"state":"active","ping":53},{"user_id":129,"name":"Azula's #1 Fan","steam_id":76561198133111058,"connected_time":1854000000000,"state":"active","ping":76},{"user_id":104,"name":"The_Quiet_One","steam_id":76561198132476501,"connected_time":2804000000000,"state":"active","ping":43},{"user_id":130,"name":"demoknight tf2","steam_id":76561198070393998,"connected_time":1849000000000,"state":"active","ping":60},{"user_id":73,"name":"cotton candy thief","steam_id":76561198058998371,"connected_time":6081000000000,"state":"active","ping":68}]},{"server_id":403,"name":"Uncletopia | Chicago | 4 | All Maps","name_short":"chi-4","host":"chi-1.us.uncletopia.com","port":27045,"enabled":true,"region":"us-central","cc":"us","latitude":41.881832,"longitude":-87.62318,"reserved":0,"last_update":"0001-01-01T00:00:00Z","name_a2s":"Uncletopia | Chicago | 4 | All Maps","protocol":17,"map":"pl_barnblitz","folder":"tf","game":"Team Fortress","app_id":440,"player_count":24,"max_players":24,"Bots":0,"server_type":"Dedicated","server_os":"Linux","password":true,"vac":true,"version":"7757534","steam_id":85568392924515193,"keywords":["nocrits","nodmgspread","payload","uncletopia"],"game_id":440,"stv_port":27046,"stv_name":"Uncletopia | Chicago | 4 | All Maps | STV","players":[{"user_id":403,"name":"LargerThanAverageDragon","steam_id":76561198152036300,"connected_time":3607000000000,"state":"active","ping":64},{"user_id":433,"name":"jakob","steam_id":76561198094859796,"connected_time":791000000000,"state":"active","ping":58},{"user_id":434,"name":"skipper","steam_id":76561198395965181,"connected_time":768000000000,"state":"active","ping":60},{"user_id":435,"name":"An old sandwich on the floor!","steam_id":76561198108791583,"connected_time":740000000000,"state":"active","ping":65},{"user_id":390,"name":"KevCraft","steam_id":76561199000622939,"connected_time":4285000000000,"state":"active","ping":71},{"user_id":436,"name":"edin","steam_id":76561198117393097,"connected_time":736000000000,"state":"active","ping":68},{"user_id":404,"name":"FancyBattlePants","steam_id":76561198197130311,"connected_time":3583000000000,"state":"active","ping":96},{"user_id":432,"name":"Gordon Ramsay.","steam_id":76561199167165627,"connected_time":792000000000,"state":"active","ping":112},{"user_id":394,"name":"Arilotl (she/her)","steam_id":76561199057752358,"connected_time":4058000000000,"state":"active","ping":60},{"user_id":437,"name":"jorjor wells","steam_id":76561199073429082,"connected_time":733000000000,"state":"active","ping":63},{"user_id":438,"name":"Tylody","steam_id":76561198229690552,"connected_time":731000000000,"state":"active","ping":100},{"user_id":447,"name":"feenman","steam_id":76561199383834799,"connected_time":5000000000,"state":"spawning","ping":74},{"user_id":395,"name":"b4rry","steam_id":76561198365887154,"connected_time":4050000000000,"state":"active","ping":67},{"user_id":402,"name":"Dr. Dick","steam_id":76561198138011922,"connected_time":3649000000000,"state":"active","ping":71},{"user_id":426,"name":"flexer_2000","steam_id":76561198084422657,"connected_time":1498000000000,"state":"active","ping":90},{"user_id":440,"name":"Kritzburgh","steam_id":76561198149466938,"connected_time":690000000000,"state":"active","ping":60},{"user_id":431,"name":"animesuki2010","steam_id":76561198059574361,"connected_time":802000000000,"state":"active","ping":87},{"user_id":416,"name":"Johnny Esports","steam_id":76561198115812405,"connected_time":2441000000000,"state":"active","ping":75},{"user_id":400,"name":"chiswola","steam_id":76561198046920142,"connected_time":3716000000000,"state":"active","ping":72},{"user_id":407,"name":"Jeugh","steam_id":76561198073498865,"connected_time":3517000000000,"state":"active","ping":87},{"user_id":441,"name":"crabapples","steam_id":76561198075818655,"connected_time":681000000000,"state":"active","ping":60},{"user_id":446,"name":"Killerkarate","steam_id":76561198067533929,"connected_time":205000000000,"state":"active","ping":55},{"user_id":413,"name":"deech","steam_id":76561198066429444,"connected_time":2688000000000,"state":"active","ping":70},{"user_id":428,"name":"Outlaw","steam_id":76561198020273172,"connected_time":1160000000000,"state":"active","ping":70}]},{"server_id":36,"name":"Uncletopia | Chicago | 5 | All Maps","name_short":"chi-5","host":"chi-2.us.uncletopia.com","port":27015,"enabled":true,"region":"us-central","cc":"us","latitude":41.881832,"longitude":-87.62318,"reserved":0,"last_update":"0001-01-01T00:00:00Z","name_a2s":"Uncletopia | Chicago | 5 | All Maps","protocol":17,"map":"koth_cascade","folder":"tf","game":"Team Fortress","app_id":440,"player_count":0,"max_players":24,"Bots":0,"server_type":"Dedicated","server_os":"Linux","password":true,"vac":true,"version":"7757534","steam_id":85568392924866362,"keywords":["cp","nocrits","nodmgspread","uncletopia"],"game_id":440,"stv_port":27016,"stv_name":"Uncletopia | Chicago | 5 | All Maps | STV","players":null},{"server_id":37,"name":"Uncletopia | Chicago | 6 | All Maps","name_short":"chi-6","host":"chi-2.us.uncletopia.com","port":27025,"enabled":true,"region":"us-central","cc":"us","latitude":41.881832,"longitude":-87.62318,"reserved":0,"last_update":"0001-01-01T00:00:00Z","name_a2s":"Uncletopia | Chicago | 6 | All Maps","protocol":17,"map":"pl_upward","folder":"tf","game":"Team Fortress","app_id":440,"player_count":24,"max_players":24,"Bots":0,"server_type":"Dedicated","server_os":"Linux","password":true,"vac":true,"version":"7757534","steam_id":85568392924866363,"keywords":["nocrits","nodmgspread","payload","uncletopia"],"game_id":440,"stv_port":27026,"stv_name":"Uncletopia | Chicago | 6 | All Maps | STV","players":[{"user_id":361,"name":"Printified","steam_id":76561198063534010,"connected_time":2835000000000,"state":"active","ping":69},{"user_id":325,"name":"poiuytrewqwqwqwqwqwqwqwqwqwqwqw","steam_id":76561199105253001,"connected_time":5140000000000,"state":"active","ping":68},{"user_id":369,"name":"ProbiusSC","steam_id":76561198379167322,"connected_time":2629000000000,"state":"active","ping":88},{"user_id":394,"name":"e","steam_id":76561198131245396,"connected_time":311000000000,"state":"active","ping":52},{"user_id":387,"name":"Korra \u003c3","steam_id":76561198044991497,"connected_time":1110000000000,"state":"active","ping":93},{"user_id":385,"name":"ItJustGetsWorse","steam_id":76561198078385108,"connected_time":1464000000000,"state":"active","ping":84},{"user_id":380,"name":"IPlayGamez","steam_id":76561198041387508,"connected_time":1677000000000,"state":"active","ping":61},{"user_id":364,"name":"howtobepker","steam_id":76561198115053865,"connected_time":2717000000000,"state":"active","ping":83},{"user_id":391,"name":"Mr. Tickle","steam_id":76561198126684647,"connected_time":477000000000,"state":"active","ping":60},{"user_id":352,"name":"Billybob7712","steam_id":76561199000291076,"connected_time":3537000000000,"state":"active","ping":135},{"user_id":395,"name":"JimmyBreeze (3)","steam_id":76561198243918128,"connected_time":205000000000,"state":"active","ping":52},{"user_id":392,"name":"player 2 role","steam_id":76561198173860681,"connected_time":472000000000,"state":"active","ping":58},{"user_id":376,"name":"Mikey","steam_id":76561199027332418,"connected_time":2305000000000,"state":"active","ping":93},{"user_id":381,"name":"Pork Tenderloin","steam_id":76561198138663842,"connected_time":1668000000000,"state":"active","ping":70},{"user_id":356,"name":"ScoutMoment420","steam_id":76561199316368867,"connected_time":3275000000000,"state":"active","ping":76},{"user_id":365,"name":"Vegerot","steam_id":76561197997843710,"connected_time":2709000000000,"state":"active","ping":59},{"user_id":390,"name":"kametro4","steam_id":76561198835430429,"connected_time":523000000000,"state":"active","ping":75},{"user_id":382,"name":"twix","steam_id":76561198040912048,"connected_time":1656000000000,"state":"active","ping":45},{"user_id":366,"name":"theRainyMute","steam_id":76561198127625760,"connected_time":2705000000000,"state":"active","ping":70},{"user_id":329,"name":"innisfree","steam_id":76561198109065124,"connected_time":5084000000000,"state":"active","ping":75},{"user_id":388,"name":"maccthew","steam_id":76561199035058771,"connected_time":1016000000000,"state":"active","ping":78},{"user_id":383,"name":"Large Man","steam_id":76561198880396651,"connected_time":1639000000000,"state":"active","ping":92},{"user_id":321,"name":"Grify","steam_id":76561198012292317,"connected_time":5447000000000,"state":"active","ping":85},{"user_id":393,"name":"big macky #saveJ","steam_id":76561197985191654,"connected_time":470000000000,"state":"active","ping":58}]},{"server_id":38,"name":"Uncletopia | Chicago | 7 | Stopwatch Beta","name_short":"chi-7","host":"chi-2.us.uncletopia.com","port":27035,"enabled":true,"region":"us-central","cc":"us","latitude":41.881832,"longitude":-87.62318,"reserved":0,"last_update":"0001-01-01T00:00:00Z","name_a2s":"Uncletopia | Chicago | 7 | Stopwatch Beta","protocol":17,"map":"pl_upward","folder":"tf","game":"Team Fortress","app_id":440,"player_count":0,"max_players":24,"Bots":0,"server_type":"Dedicated","server_os":"Linux","password":true,"vac":true,"version":"7757534","steam_id":85568392924866364,"keywords":["nocrits","nodmgspread","payload","uncletopia"],"game_id":440,"stv_port":27036,"stv_name":"Uncletopia | Chicago | 7 | Stopwatch Beta | STV","players":null},{"server_id":39,"name":"Uncletopia | Chicago | 8 | Community","name_short":"chi-8","host":"chi-2.us.uncletopia.com","port":27045,"enabled":true,"region":"us-central","cc":"us","latitude":41.881832,"longitude":-87.62318,"reserved":0,"last_update":"0001-01-01T00:00:00Z","name_a2s":"Uncletopia | Chicago | 8 | Community","protocol":17,"map":"workshop/pl_barnblitz_pro7.ugc582280235","folder":"tf","game":"Team Fortress","app_id":440,"player_count":0,"max_players":24,"Bots":0,"server_type":"Dedicated","server_os":"Linux","password":true,"vac":true,"version":"7757534","steam_id":85568392924866365,"keywords":["nocrits","nodmgspread","payload","uncletopia"],"game_id":440,"stv_port":27046,"stv_name":"Uncletopia | Chicago | 8 | Community | STV","players":null},{"server_id":8,"name":"Uncletopia | Dallas | 1 | All Maps","name_short":"dal-1","host":"dal-1.us.uncletopia.com","port":27015,"enabled":true,"region":"us-central","cc":"us","latitude":32.779167,"longitude":-96.80889,"reserved":0,"last_update":"0001-01-01T00:00:00Z","name_a2s":"Uncletopia | Dallas | 1 | All Maps","protocol":17,"map":"koth_highpass","folder":"tf","game":"Team Fortress","app_id":440,"player_count":23,"max_players":24,"Bots":0,"server_type":"Dedicated","server_os":"Linux","password":true,"vac":true,"version":"7757534","steam_id":85568392924469986,"keywords":["cp","nocrits","nodmgspread","uncletopia"],"game_id":440,"stv_port":27016,"stv_name":"Uncletopia | Dallas | 1 | All Maps | STV","players":[{"user_id":244,"name":"fuckterry","steam_id":76561198271957738,"connected_time":994000000000,"state":"active","ping":70},{"user_id":245,"name":"Karl","steam_id":76561198269578048,"connected_time":984000000000,"state":"active","ping":85},{"user_id":239,"name":"Shock Trooper","steam_id":76561199086731683,"connected_time":1175000000000,"state":"active","ping":89},{"user_id":253,"name":"Mixer","steam_id":76561199020200249,"connected_time":287000000000,"state":"active","ping":44},{"user_id":249,"name":"The Squid Gamer‚Ñ¢","steam_id":76561198340621517,"connected_time":705000000000,"state":"active","ping":94},{"user_id":209,"name":"TechnoFlare","steam_id":76561198067720081,"connected_time":2351000000000,"state":"active","ping":88},{"user_id":236,"name":"1000 Ping","steam_id":76561198098330939,"connected_time":1243000000000,"state":"active","ping":93},{"user_id":211,"name":"Cake","steam_id":76561198318604761,"connected_time":2136000000000,"state":"active","ping":59},{"user_id":251,"name":"Super","steam_id":76561199179611350,"connected_time":416000000000,"state":"active","ping":101},{"user_id":213,"name":"shovel","steam_id":76561199122369814,"connected_time":1900000000000,"state":"active","ping":78},{"user_id":252,"name":"Keg","steam_id":76561198242688458,"connected_time":371000000000,"state":"active","ping":63},{"user_id":246,"name":"evan_is_sauce","steam_id":76561199086802383,"connected_time":938000000000,"state":"active","ping":58},{"user_id":247,"name":"Raccoon Lungs","steam_id":76561198824327422,"connected_time":914000000000,"state":"active","ping":86},{"user_id":220,"name":"spherewithahat","steam_id":76561199122192660,"connected_time":1647000000000,"state":"active","ping":100},{"user_id":222,"name":"Jesus Loves You57","steam_id":76561199058833769,"connected_time":1615000000000,"state":"active","ping":86},{"user_id":224,"name":"IVY","steam_id":76561198062892174,"connected_time":1569000000000,"state":"active","ping":86},{"user_id":225,"name":"Felix Argyle :3","steam_id":76561198999454961,"connected_time":1559000000000,"state":"active","ping":89},{"user_id":229,"name":"faze pantalla","steam_id":76561198250215734,"connected_time":1372000000000,"state":"active","ping":95},{"user_id":241,"name":"BigBubble42","steam_id":76561198136286123,"connected_time":1109000000000,"state":"active","ping":28},{"user_id":231,"name":"faze waadden","steam_id":76561198325569425,"connected_time":1364000000000,"state":"active","ping":85},{"user_id":254,"name":"pablo","steam_id":76561199190247198,"connected_time":266000000000,"state":"active","ping":120},{"user_id":198,"name":"JesusLovesYouYAY","steam_id":76561199146362676,"connected_time":3108000000000,"state":"active","ping":132},{"user_id":234,"name":"MechanicalMenace14","steam_id":76561199063956054,"connected_time":1336000000000,"state":"active","ping":109}]},{"server_id":108,"name":"Uncletopia | Dallas | 2 | All Maps","name_short":"dal-2","host":"dal-1.us.uncletopia.com","port":27025,"enabled":true,"region":"us-central","cc":"us","latitude":32.779167,"longitude":-96.80889,"reserved":0,"last_update":"0001-01-01T00:00:00Z","name_a2s":"Uncletopia | Dallas | 2 | All Maps","protocol":17,"map":"pl_swiftwater_final1","folder":"tf","game":"Team Fortress","app_id":440,"player_count":24,"max_players":24,"Bots":0,"server_type":"Dedicated","server_os":"Linux","password":true,"vac":true,"version":"7757534","steam_id":85568392924469988,"keywords":["nocrits","nodmgspread","payload","uncletopia"],"game_id":440,"stv_port":27026,"stv_name":"Uncletopia | Dallas | 2 | All Maps | STV","players":[{"user_id":96,"name":"LevelZ3R0","steam_id":76561199239710681,"connected_time":811000000000,"state":"active","ping":87},{"user_id":97,"name":"marickf","steam_id":76561198848891232,"connected_time":656000000000,"state":"active","ping":167},{"user_id":114,"name":"Protoshake","steam_id":76561198840276176,"connected_time":42000000000,"state":"spawning","ping":70},{"user_id":92,"name":"Is Mauii","steam_id":76561198153786501,"connected_time":936000000000,"state":"active","ping":87},{"user_id":94,"name":"gritty 2024","steam_id":76561198165567310,"connected_time":839000000000,"state":"active","ping":75},{"user_id":101,"name":"Skins McKenzie","steam_id":76561198043160642,"connected_time":549000000000,"state":"active","ping":84},{"user_id":91,"name":"Cinnifox","steam_id":76561198068773971,"connected_time":1015000000000,"state":"active","ping":76},{"user_id":93,"name":"Joe Swanson","steam_id":76561199089907740,"connected_time":884000000000,"state":"active","ping":75},{"user_id":95,"name":"SL164","steam_id":76561197970800276,"connected_time":822000000000,"state":"active","ping":70},{"user_id":22,"name":"LeFunnyMan","steam_id":76561199081645289,"connected_time":5374000000000,"state":"active","ping":61},{"user_id":80,"name":"ArmaViviente","steam_id":76561198084098079,"connected_time":2066000000000,"state":"active","ping":83},{"user_id":73,"name":"Gibby","steam_id":76561199336569123,"connected_time":2117000000000,"state":"active","ping":121},{"user_id":98,"name":"Birdhorse Of Course","steam_id":76561198038997485,"connected_time":644000000000,"state":"active","ping":89},{"user_id":99,"name":"Spy on cart","steam_id":76561198025466913,"connected_time":583000000000,"state":"active","ping":63},{"user_id":111,"name":"Derply","steam_id":76561198871211642,"connected_time":257000000000,"state":"active","ping":51},{"user_id":103,"name":"nhbiker","steam_id":76561198081277675,"connected_time":514000000000,"state":"active","ping":76},{"user_id":104,"name":"–ü–æ–ª–∫–æ–≤–Ω–∏–∫ M–æ–ª—å","steam_id":76561198120551680,"connected_time":512000000000,"state":"active","ping":63},{"user_id":105,"name":"brk","steam_id":76561198079634017,"connected_time":506000000000,"state":"active","ping":64},{"user_id":106,"name":"Snusfr√§sare(SWE)","steam_id":76561198060130033,"connected_time":474000000000,"state":"active","ping":180},{"user_id":107,"name":"yenseii","steam_id":76561198304265800,"connected_time":405000000000,"state":"active","ping":74},{"user_id":108,"name":"Doinnoid","steam_id":76561198262276139,"connected_time":400000000000,"state":"active","ping":57},{"user_id":113,"name":"RockinBug","steam_id":76561198216174869,"connected_time":218000000000,"state":"active","ping":87},{"user_id":110,"name":"Hermit_","steam_id":76561198013807290,"connected_time":345000000000,"state":"active","ping":61},{"user_id":115,"name":"Quakedad","steam_id":76561198055811307,"connected_time":42000000000,"state":"spawning","ping":126}]},{"server_id":5,"name":"Uncletopia | Frankfurt | 1 | All Maps","name_short":"frk-1","host":"frk-1.de.uncletopia.com","port":27015,"enabled":true,"region":"eu","cc":"de","latitude":50.110924,"longitude":8.682127,"reserved":0,"last_update":"0001-01-01T00:00:00Z","name_a2s":"Uncletopia | Frankfurt | 1 | All Maps","protocol":17,"map":"koth_viaduct","folder":"tf","game":"Team Fortress","app_id":440,"player_count":5,"max_players":24,"Bots":0,"server_type":"Dedicated","server_os":"Linux","password":true,"vac":true,"version":"7757534","steam_id":85568392924469989,"keywords":["cp","nocrits","nodmgspread","uncletopia"],"game_id":440,"stv_port":27016,"stv_name":"Uncletopia | Frankfurt | 1 | All Maps | STV","players":[{"user_id":463,"name":"Jeeworth","steam_id":76561198797972504,"connected_time":2273000000000,"state":"active","ping":70},{"user_id":464,"name":"Moss","steam_id":76561199084162765,"connected_time":2221000000000,"state":"active","ping":57},{"user_id":465,"name":"Ederbiener","steam_id":76561198201899018,"connected_time":2023000000000,"state":"active","ping":60},{"user_id":469,"name":"Barb√Ätrou","steam_id":76561199439141531,"connected_time":119000000000,"state":"active","ping":46},{"user_id":468,"name":"Speed","steam_id":76561198882051599,"connected_time":792000000000,"state":"active","ping":61}]},{"server_id":110,"name":"Uncletopia | Frankfurt | 2 | All Maps","name_short":"frk-2","host":"frk-1.de.uncletopia.com","port":27025,"enabled":true,"region":"eu","cc":"de","latitude":50.110924,"longitude":8.682127,"reserved":0,"last_update":"0001-01-01T00:00:00Z","name_a2s":"Uncletopia | Frankfurt | 2 | All Maps","protocol":17,"map":"pl_upward","folder":"tf","game":"Team Fortress","app_id":440,"player_count":24,"max_players":24,"Bots":0,"server_type":"Dedicated","server_os":"Linux","password":true,"vac":true,"version":"7757534","steam_id":85568392924469990,"keywords":["nocrits","nodmgspread","payload","uncletopia"],"game_id":440,"stv_port":27026,"stv_name":"Uncletopia | Frankfurt | 2 | All Maps | STV","players":[{"user_id":253,"name":"kacio126","steam_id":76561198311233564,"connected_time":583000000000,"state":"active","ping":68},{"user_id":225,"name":"Melon","steam_id":76561198150893860,"connected_time":2356000000000,"state":"active","ping":61},{"user_id":238,"name":"Fofenho","steam_id":76561198436817109,"connected_time":1493000000000,"state":"active","ping":68},{"user_id":251,"name":"cherryrendezvous","steam_id":76561198060185544,"connected_time":750000000000,"state":"active","ping":60},{"user_id":236,"name":"Treachery","steam_id":76561199042470246,"connected_time":1555000000000,"state":"active","ping":55},{"user_id":233,"name":"Daddy Donovan","steam_id":76561198140938904,"connected_time":1723000000000,"state":"active","ping":72},{"user_id":260,"name":":3","steam_id":76561198301481739,"connected_time":114000000000,"state":"active","ping":45},{"user_id":234,"name":"RTX Sentry (real)","steam_id":76561199466725756,"connected_time":1667000000000,"state":"active","ping":177},{"user_id":263,"name":"Artyom","steam_id":76561199028305651,"connected_time":39000000000,"state":"active","ping":91},{"user_id":261,"name":"‚ò© Knightz ‚ò©","steam_id":76561198040936414,"connected_time":94000000000,"state":"active","ping":128},{"user_id":250,"name":"soda","steam_id":76561198202990635,"connected_time":833000000000,"state":"active","ping":61},{"user_id":237,"name":"Scazzing","steam_id":76561198052954318,"connected_time":1512000000000,"state":"active","ping":54},{"user_id":239,"name":"Call Me Meme","steam_id":76561198342092670,"connected_time":1371000000000,"state":"active","ping":84},{"user_id":258,"name":"Priceybay","steam_id":76561198055389492,"connected_time":306000000000,"state":"active","ping":65},{"user_id":242,"name":"sheepy dab's hand","steam_id":76561198040284781,"connected_time":1266000000000,"state":"active","ping":75},{"user_id":216,"name":"John Daly","steam_id":76561197993849325,"connected_time":3173000000000,"state":"active","ping":80},{"user_id":219,"name":"Linux Mint","steam_id":76561199009412563,"connected_time":2903000000000,"state":"active","ping":104},{"user_id":224,"name":"King Harkinian","steam_id":76561197987699948,"connected_time":2389000000000,"state":"active","ping":81},{"user_id":255,"name":"Konater","steam_id":76561197996674255,"connected_time":455000000000,"state":"active","ping":77},{"user_id":256,"name":"cowboy","steam_id":76561198080361351,"connected_time":437000000000,"state":"active","ping":60},{"user_id":191,"name":"vani","steam_id":76561197991778291,"connected_time":5214000000000,"state":"active","ping":73},{"user_id":257,"name":"ZeeZer0","steam_id":76561198043828441,"connected_time":412000000000,"state":"active","ping":44},{"user_id":262,"name":"Superiumentarius","steam_id":76561198081642249,"connected_time":63000000000,"state":"active","ping":46},{"user_id":265,"name":"Zero (Orbital Gear Mastermind)","steam_id":76561198017416816,"connected_time":29000000000,"state":"active","ping":64}]},{"server_id":308,"name":"Uncletopia | Frankfurt | 3 | All Maps","name_short":"frk-3","host":"frk-1.de.uncletopia.com","port":27035,"enabled":true,"region":"eu","cc":"de","latitude":50.110924,"longitude":8.682127,"reserved":0,"last_update":"0001-01-01T00:00:00Z","name_a2s":"Uncletopia | Frankfurt | 3 | All Maps","protocol":17,"map":"koth_lakeside_final","folder":"tf","game":"Team Fortress","app_id":440,"player_count":23,"max_players":24,"Bots":0,"server_type":"Dedicated","server_os":"Linux","password":true,"vac":true,"version":"7757534","steam_id":85568392924504274,"keywords":["cp","nocrits","nodmgspread","uncletopia"],"game_id":440,"stv_port":27036,"stv_name":"Uncletopia | Frankfurt | 3 | All Maps | STV","players":[{"user_id":452,"name":"Judgement Kazzy","steam_id":76561198077313492,"connected_time":229000000000,"state":"active","ping":72},{"user_id":412,"name":"G6 sherlock","steam_id":76561198802967796,"connected_time":3475000000000,"state":"active","ping":119},{"user_id":445,"name":"super crossfaded i will miss","steam_id":76561198376688367,"connected_time":1019000000000,"state":"active","ping":45},{"user_id":440,"name":"[P-roc] Cmm Bert","steam_id":76561198016658674,"connected_time":1109000000000,"state":"active","ping":67},{"user_id":439,"name":"kilo","steam_id":76561198015641339,"connected_time":1229000000000,"state":"active","ping":61},{"user_id":424,"name":"New","steam_id":76561198402195911,"connected_time":2073000000000,"state":"active","ping":109},{"user_id":423,"name":"giclure :;","steam_id":76561197986362828,"connected_time":2233000000000,"state":"active","ping":57},{"user_id":433,"name":"GR1M","steam_id":76561198056812931,"connected_time":1606000000000,"state":"active","ping":75},{"user_id":416,"name":"Femboypawnguy","steam_id":76561198274894771,"connected_time":2629000000000,"state":"active","ping":56},{"user_id":396,"name":"LEGEND FUMO.","steam_id":76561198061033903,"connected_time":3984000000000,"state":"active","ping":46},{"user_id":448,"name":"Bubbahüêæ","steam_id":76561198061730609,"connected_time":764000000000,"state":"active","ping":81},{"user_id":427,"name":"Happy Little Accidents","steam_id":76561198153810367,"connected_time":1669000000000,"state":"active","ping":62},{"user_id":407,"name":"becky","steam_id":76561198038671894,"connected_time":3771000000000,"state":"active","ping":64},{"user_id":450,"name":"KNARRER","steam_id":76561199130777953,"connected_time":541000000000,"state":"active","ping":52},{"user_id":447,"name":"[P-roc] Lovely","steam_id":76561198074361075,"connected_time":874000000000,"state":"active","ping":57},{"user_id":340,"name":"grip","steam_id":76561198088201976,"connected_time":6308000000000,"state":"active","ping":45},{"user_id":418,"name":"crouds","steam_id":76561198094204545,"connected_time":2584000000000,"state":"active","ping":60},{"user_id":456,"name":"The one who knocks","steam_id":76561198089341471,"connected_time":55000000000,"state":"active","ping":77},{"user_id":413,"name":"Kaspar","steam_id":76561198081849206,"connected_time":3262000000000,"state":"active","ping":65},{"user_id":394,"name":"Ayaka","steam_id":76561198028078806,"connected_time":4084000000000,"state":"active","ping":45},{"user_id":436,"name":"Linku","steam_id":76561198063792691,"connected_time":1390000000000,"state":"active","ping":67},{"user_id":435,"name":"teona","steam_id":76561198008107656,"connected_time":1420000000000,"state":"active","ping":59},{"user_id":446,"name":"sora","steam_id":76561198096547662,"connected_time":1002000000000,"state":"active","ping":65}]},{"server_id":309,"name":"Uncletopia | Frankfurt | 4 | All Maps","name_short":"frk-4","host":"frk-1.de.uncletopia.com","port":27045,"enabled":true,"region":"eu","cc":"de","latitude":50.110924,"longitude":8.682127,"reserved":0,"last_update":"0001-01-01T00:00:00Z","name_a2s":"Uncletopia | Frankfurt | 4 | All Maps","protocol":17,"map":"cp_metalworks","folder":"tf","game":"Team Fortress","app_id":440,"player_count":22,"max_players":24,"Bots":0,"server_type":"Dedicated","server_os":"Linux","password":true,"vac":true,"version":"7757534","steam_id":85568392924504275,"keywords":["cp","nocrits","nodmgspread","uncletopia"],"game_id":440,"stv_port":27046,"stv_name":"Uncletopia | Frankfurt | 4 | All Maps | STV","players":[{"user_id":349,"name":"Homicidal Tendencies","steam_id":76561198828681043,"connected_time":865000000000,"state":"active","ping":59},{"user_id":271,"name":"Vershal Smershal","steam_id":76561198116223995,"connected_time":6449000000000,"state":"active","ping":56},{"user_id":331,"name":"Udinese Dion","steam_id":76561198067931573,"connected_time":2513000000000,"state":"active","ping":43},{"user_id":294,"name":"Yangus","steam_id":76561198147796010,"connected_time":5022000000000,"state":"active","ping":60},{"user_id":351,"name":"8 Ball","steam_id":76561197960988736,"connected_time":842000000000,"state":"active","ping":61},{"user_id":352,"name":"mtyxrst","steam_id":76561198057256978,"connected_time":828000000000,"state":"active","ping":46},{"user_id":328,"name":"niaerniopawrjnko","steam_id":76561198030408772,"connected_time":3501000000000,"state":"active","ping":57},{"user_id":261,"name":"Carrotcracker","steam_id":76561198034862396,"connected_time":6621000000000,"state":"active","ping":59},{"user_id":254,"name":"nedilya","steam_id":76561198039692077,"connected_time":7557000000000,"state":"active","ping":57},{"user_id":334,"name":"on1on (pickled)","steam_id":76561197995304137,"connected_time":2373000000000,"state":"active","ping":60},{"user_id":335,"name":"tekt","steam_id":76561198044554387,"connected_time":2366000000000,"state":"active","ping":93},{"user_id":329,"name":"Pilaarius","steam_id":76561198120273212,"connected_time":3371000000000,"state":"active","ping":88},{"user_id":320,"name":"sofa","steam_id":76561198058012525,"connected_time":4182000000000,"state":"active","ping":64},{"user_id":336,"name":"no weed","steam_id":76561199024279010,"connected_time":2363000000000,"state":"active","ping":71},{"user_id":361,"name":"Torttu","steam_id":76561198013980029,"connected_time":73000000000,"state":"active","ping":61},{"user_id":357,"name":"Steen","steam_id":76561198122992510,"connected_time":683000000000,"state":"active","ping":52},{"user_id":356,"name":"Qwerty","steam_id":76561198023525894,"connected_time":799000000000,"state":"active","ping":96},{"user_id":360,"name":"Dean Craig Pelton From Communit","steam_id":76561198155010055,"connected_time":112000000000,"state":"active","ping":123},{"user_id":321,"name":"(;Ôπè;)","steam_id":76561198076494034,"connected_time":4143000000000,"state":"active","ping":58},{"user_id":339,"name":"DeleteTrickster","steam_id":76561198397120242,"connected_time":2260000000000,"state":"active","ping":81},{"user_id":359,"name":"men snus","steam_id":76561198311864757,"connected_time":570000000000,"state":"active","ping":66},{"user_id":309,"name":"Mi Manchi","steam_id":76561198171573129,"connected_time":4452000000000,"state":"active","ping":50}]},{"server_id":310,"name":"Uncletopia | Frankfurt | 5 | All Maps","name_short":"frk-5","host":"frk-1.de.uncletopia.com","port":27055,"enabled":true,"region":"eu","cc":"de","latitude":50.110924,"longitude":8.682127,"reserved":0,"last_update":"0001-01-01T00:00:00Z","name_a2s":"Uncletopia | Frankfurt | 5 | All Maps","protocol":17,"map":"pl_frontier_final","folder":"tf","game":"Team Fortress","app_id":440,"player_count":23,"max_players":24,"Bots":0,"server_type":"Dedicated","server_os":"Linux","password":true,"vac":true,"version":"7757534","steam_id":85568392924504277,"keywords":["nocrits","nodmgspread","payload","uncletopia"],"game_id":440,"stv_port":27056,"stv_name":"Uncletopia | Frankfurt | 5 | All Maps | STV","players":[{"user_id":482,"name":"neta GAMING GAMING","steam_id":76561198262910410,"connected_time":2718000000000,"state":"active","ping":93},{"user_id":502,"name":"Leituga","steam_id":76561198051127598,"connected_time":1171000000000,"state":"active","ping":98},{"user_id":512,"name":"Subnet001","steam_id":76561198029163028,"connected_time":465000000000,"state":"active","ping":72},{"user_id":457,"name":"Hexabit","steam_id":76561198028625661,"connected_time":4576000000000,"state":"active","ping":67},{"user_id":468,"name":"CarbonaraConLaPanna","steam_id":76561198265722644,"connected_time":3536000000000,"state":"active","ping":91},{"user_id":505,"name":"aGreedGryphon","steam_id":76561198245175308,"connected_time":745000000000,"state":"active","ping":63},{"user_id":506,"name":"Kerauno","steam_id":76561198872235014,"connected_time":741000000000,"state":"active","ping":80},{"user_id":499,"name":"Robuchodonosor","steam_id":76561197968575924,"connected_time":1363000000000,"state":"active","ping":69},{"user_id":508,"name":"v0rt3x","steam_id":76561198034695233,"connected_time":706000000000,"state":"active","ping":56},{"user_id":507,"name":"peteteboy","steam_id":76561199160156935,"connected_time":735000000000,"state":"active","ping":145},{"user_id":490,"name":"milikazard","steam_id":76561198030516801,"connected_time":2087000000000,"state":"active","ping":137},{"user_id":475,"name":"Stoned Jesus","steam_id":76561198021493865,"connected_time":3179000000000,"state":"active","ping":102},{"user_id":509,"name":"stonebum","steam_id":76561198057004606,"connected_time":702000000000,"state":"active","ping":57},{"user_id":462,"name":"Fish","steam_id":76561198182278770,"connected_time":3896000000000,"state":"active","ping":75},{"user_id":501,"name":"beamer","steam_id":76561198206037191,"connected_time":1310000000000,"state":"active","ping":83},{"user_id":514,"name":"God's Goofiest Goober","steam_id":76561198103175187,"connected_time":95000000000,"state":"active","ping":64},{"user_id":476,"name":"Cosmetic brain","steam_id":76561198055936410,"connected_time":3147000000000,"state":"active","ping":89},{"user_id":480,"name":"Pasta sauce","steam_id":76561198232919072,"connected_time":3001000000000,"state":"active","ping":62},{"user_id":493,"name":"Sans Undertale","steam_id":76561198055747050,"connected_time":1844000000000,"state":"active","ping":71},{"user_id":477,"name":"Renard pos4","steam_id":76561197998908594,"connected_time":3131000000000,"state":"active","ping":71},{"user_id":492,"name":"Big Mac Gaming","steam_id":76561198158209651,"connected_time":1968000000000,"state":"active","ping":76},{"user_id":515,"name":"WARNING!","steam_id":76561198853501108,"connected_time":84000000000,"state":"active","ping":64},{"user_id":488,"name":"ZePequenio","steam_id":76561197968506094,"connected_time":2182000000000,"state":"active","ping":69}]},{"server_id":311,"name":"Uncletopia | Frankfurt | 6 | All Maps","name_short":"frk-6","host":"frk-1.de.uncletopia.com","port":27065,"enabled":true,"region":"eu","cc":"de","latitude":50.110924,"longitude":8.682127,"reserved":0,"last_update":"0001-01-01T00:00:00Z","name_a2s":"Uncletopia | Frankfurt | 6 | All Maps","protocol":17,"map":"pl_badwater","folder":"tf","game":"Team Fortress","app_id":440,"player_count":24,"max_players":24,"Bots":0,"server_type":"Dedicated","server_os":"Linux","password":true,"vac":true,"version":"7757534","steam_id":85568392924504278,"keywords":["nocrits","nodmgspread","payload","uncletopia"],"game_id":440,"stv_port":27066,"stv_name":"Uncletopia | Frankfurt | 6 | All Maps | STV","players":[{"user_id":438,"name":"mangoface","steam_id":76561199028760996,"connected_time":39000000000,"state":"active","ping":72},{"user_id":429,"name":"waddle dork","steam_id":76561198297349985,"connected_time":812000000000,"state":"active","ping":60},{"user_id":396,"name":"jhonny el sins","steam_id":76561198982787752,"connected_time":2247000000000,"state":"active","ping":57},{"user_id":394,"name":"Fizzing Fool","steam_id":76561198425415033,"connected_time":2579000000000,"state":"active","ping":86},{"user_id":346,"name":"i always miss","steam_id":76561199379233899,"connected_time":5239000000000,"state":"active","ping":87},{"user_id":420,"name":"MgrunL","steam_id":76561198389947352,"connected_time":1367000000000,"state":"active","ping":108},{"user_id":406,"name":"Ziy???","steam_id":76561197995765491,"connected_time":1800000000000,"state":"active","ping":68},{"user_id":430,"name":"Wattseyy","steam_id":76561198248567360,"connected_time":734000000000,"state":"active","ping":59},{"user_id":433,"name":"whatever","steam_id":76561198095943461,"connected_time":276000000000,"state":"active","ping":64},{"user_id":399,"name":"Misctek","steam_id":76561199037541925,"connected_time":1978000000000,"state":"active","ping":75},{"user_id":435,"name":"XavierSweet","steam_id":76561198091781913,"connected_time":240000000000,"state":"active","ping":70},{"user_id":345,"name":"minespweper ‚òÜ","steam_id":76561199096919345,"connected_time":5277000000000,"state":"active","ping":65},{"user_id":432,"name":"JimboMcJimmy","steam_id":76561198030656209,"connected_time":395000000000,"state":"active","ping":76},{"user_id":439,"name":"gas station cat","steam_id":76561198291778493,"connected_time":1000000000,"state":"spawning","ping":53},{"user_id":411,"name":"AmadStatistician","steam_id":76561198163654770,"connected_time":1649000000000,"state":"active","ping":69},{"user_id":434,"name":"K3YRING","steam_id":76561198408597576,"connected_time":276000000000,"state":"active","ping":106},{"user_id":407,"name":"awsomemcawsome","steam_id":76561198223232604,"connected_time":1752000000000,"state":"active","ping":86},{"user_id":436,"name":"Renolox","steam_id":76561198036590182,"connected_time":200000000000,"state":"active","ping":69},{"user_id":424,"name":"scantron","steam_id":76561199103959197,"connected_time":1231000000000,"state":"active","ping":89},{"user_id":431,"name":"Ffamran","steam_id":76561198143529110,"connected_time":716000000000,"state":"active","ping":78},{"user_id":417,"name":"Frylock","steam_id":76561198050292560,"connected_time":1494000000000,"state":"active","ping":47},{"user_id":437,"name":"Piteras","steam_id":76561198858532207,"connected_time":197000000000,"state":"active","ping":76},{"user_id":426,"name":"Mati [EST]","steam_id":76561197994743813,"connected_time":1182000000000,"state":"active","ping":108},{"user_id":423,"name":"Denton","steam_id":76561198367991717,"connected_time":1338000000000,"state":"active","ping":73}]},{"server_id":23,"name":"Uncletopia | Frankfurt | 7 | Stopwatch Beta","name_short":"frk-7","host":"frk-1.de.uncletopia.com","port":27075,"enabled":true,"region":"eu","cc":"de","latitude":50.110924,"longitude":8.682127,"reserved":0,"last_update":"0001-01-01T00:00:00Z","name_a2s":"Uncletopia | Frankfurt | 7 | Stopwatch Beta","protocol":17,"map":"koth_highpass","folder":"tf","game":"Team Fortress","app_id":440,"player_count":0,"max_players":24,"Bots":0,"server_type":"Dedicated","server_os":"Linux","password":true,"vac":true,"version":"7757534","steam_id":85568392924742827,"keywords":["cp","nocrits","nodmgspread","uncletopia"],"game_id":440,"stv_port":27076,"stv_name":"Uncletopia | Frankfurt | 7 | Stopwatch Beta | STV","players":null},{"server_id":24,"name":"Uncletopia | Frankfurt | 8 | Community","name_short":"frk-8","host":"frk-1.de.uncletopia.com","port":27085,"enabled":true,"region":"eu","cc":"de","latitude":50.110924,"longitude":8.682127,"reserved":0,"last_update":"0001-01-01T00:00:00Z","name_a2s":"Uncletopia | Frankfurt | 8 | Community","protocol":17,"map":"workshop/pl_cactuscanyon_redux_rc4b.ugc2579644293","folder":"tf","game":"Team Fortress","app_id":440,"player_count":0,"max_players":24,"Bots":0,"server_type":"Dedicated","server_os":"Linux","password":true,"vac":true,"version":"7757534","steam_id":85568392924742828,"keywords":["nocrits","nodmgspread","payload","uncletopia"],"game_id":440,"stv_port":27086,"stv_name":"Uncletopia | Frankfurt | 8 | Community | STV","players":null},{"server_id":202,"name":"Uncletopia | Hong Kong | 1 | All Maps","name_short":"hgk-1","host":"hgk-1.hk.uncletopia.com","port":27015,"enabled":true,"region":"asia","cc":"hk","latitude":22.302711,"longitude":114.177216,"reserved":0,"last_update":"0001-01-01T00:00:00Z","name_a2s":"Uncletopia | Hong Kong | 1 | All Maps","protocol":17,"map":"cp_dustbowl","folder":"tf","game":"Team Fortress","app_id":440,"player_count":0,"max_players":24,"Bots":0,"server_type":"Dedicated","server_os":"Linux","password":true,"vac":true,"version":"7757534","steam_id":85568392924494504,"keywords":["cp","nocrits","nodmgspread","uncletopia"],"game_id":440,"stv_port":27016,"stv_name":"Uncletopia | Hong Kong | 1 | All Maps | STV","players":null},{"server_id":1,"name":"Uncletopia | Los Angeles | 1 | All Maps","name_short":"lax-1","host":"lax-1.us.uncletopia.com","port":27015,"enabled":true,"region":"us-west","cc":"us","latitude":33.94279,"longitude":-118.41004,"reserved":0,"last_update":"0001-01-01T00:00:00Z","name_a2s":"Uncletopia | Los Angeles | 1 | All Maps","protocol":17,"map":"koth_lakeside_final","folder":"tf","game":"Team Fortress","app_id":440,"player_count":0,"max_players":24,"Bots":0,"server_type":"Dedicated","server_os":"Linux","password":true,"vac":true,"version":"7757534","steam_id":85568392924469991,"keywords":["cp","nocrits","nodmgspread","uncletopia"],"game_id":440,"stv_port":27016,"stv_name":"Uncletopia | Los Angeles | 1 | All Maps | STV","players":null},{"server_id":112,"name":"Uncletopia | Los Angeles | 2 | All Maps","name_short":"lax-2","host":"lax-1.us.uncletopia.com","port":27025,"enabled":true,"region":"us-west","cc":"us","latitude":33.94279,"longitude":-118.41004,"reserved":0,"last_update":"0001-01-01T00:00:00Z","name_a2s":"Uncletopia | Los Angeles | 2 | All Maps","protocol":17,"map":"cp_process_final","folder":"tf","game":"Team Fortress","app_id":440,"player_count":0,"max_players":24,"Bots":0,"server_type":"Dedicated","server_os":"Linux","password":true,"vac":true,"version":"7757534","steam_id":85568392924469992,"keywords":["cp","nocrits","nodmgspread","uncletopia"],"game_id":440,"stv_port":27026,"stv_name":"Uncletopia | Los Angeles | 2 | All Maps | STV","players":null},{"server_id":324,"name":"Uncletopia | Los Angeles | 3 | All Maps","name_short":"lax-3","host":"lax-1.us.uncletopia.com","port":27035,"enabled":true,"region":"us-west","cc":"us","latitude":33.94279,"longitude":-118.41004,"reserved":0,"last_update":"0001-01-01T00:00:00Z","name_a2s":"Uncletopia | Los Angeles | 3 | All Maps","protocol":17,"map":"cp_process_final","folder":"tf","game":"Team Fortress","app_id":440,"player_count":0,"max_players":24,"Bots":0,"server_type":"Dedicated","server_os":"Linux","password":true,"vac":true,"version":"7757534","steam_id":85568392924510198,"keywords":["cp","nocrits","nodmgspread","uncletopia"],"game_id":440,"stv_port":27036,"stv_name":"Uncletopia | Los Angeles | 3 | All Maps | STV","players":null},{"server_id":25,"name":"Uncletopia | Los Angeles | 4 | Stopwatch Beta","name_short":"lax-4","host":"lax-1.us.uncletopia.com","port":27045,"enabled":true,"region":"us-west","cc":"us","latitude":33.94279,"longitude":-118.41004,"reserved":0,"last_update":"0001-01-01T00:00:00Z","name_a2s":"Uncletopia | Los Angeles | 4 | Stopwatch Beta","protocol":17,"map":"pl_frontier_final","folder":"tf","game":"Team Fortress","app_id":440,"player_count":0,"max_players":24,"Bots":0,"server_type":"Dedicated","server_os":"Linux","password":true,"vac":true,"version":"7757534","steam_id":85568392924510199,"keywords":["nocrits","nodmgspread","payload","uncletopia"],"game_id":440,"stv_port":27046,"stv_name":"Uncletopia | Los Angeles | 4 | Stopwatch Beta | STV","players":null},{"server_id":11,"name":"Uncletopia | London | 1 | All Maps","name_short":"lon-1","host":"lon-1.uk.uncletopia.com","port":27015,"enabled":true,"region":"eu","cc":"gb","latitude":51.509865,"longitude":-0.118092,"reserved":0,"last_update":"0001-01-01T00:00:00Z","name_a2s":"Uncletopia | London | 1 | All Maps","protocol":17,"map":"cp_process_final","folder":"tf","game":"Team Fortress","app_id":440,"player_count":19,"max_players":24,"Bots":0,"server_type":"Dedicated","server_os":"Linux","password":true,"vac":true,"version":"7757534","steam_id":85568392924367362,"keywords":["cp","nocrits","nodmgspread","uncletopia"],"game_id":440,"stv_port":27016,"stv_name":"Uncletopia | London | 1 | All Maps | STV","players":[{"user_id":603,"name":"SuperBob103","steam_id":76561199175360012,"connected_time":607000000000,"state":"active","ping":47},{"user_id":590,"name":"The real Slim Shady","steam_id":76561198001377076,"connected_time":2664000000000,"state":"active","ping":89},{"user_id":605,"name":"Wedgeridoo","steam_id":76561198082813907,"connected_time":70000000000,"state":"connecting","ping":342},{"user_id":508,"name":"dec","steam_id":76561198009660168,"connected_time":8312000000000,"state":"active","ping":56},{"user_id":537,"name":"SOAPIIEE","steam_id":76561198443798981,"connected_time":6583000000000,"state":"active","ping":48},{"user_id":591,"name":"MaypulSoyrup","steam_id":76561199213966821,"connected_time":2593000000000,"state":"active","ping":76},{"user_id":543,"name":"Bad and Wuji","steam_id":76561199385280253,"connected_time":5955000000000,"state":"active","ping":126},{"user_id":599,"name":"BreadBubbles","steam_id":76561198174332826,"connected_time":783000000000,"state":"active","ping":53},{"user_id":606,"name":"Explosive Poptart","steam_id":76561198023918830,"connected_time":67000000000,"state":"active","ping":36},{"user_id":596,"name":"Garfield Gaming","steam_id":76561198254539791,"connected_time":1053000000000,"state":"active","ping":47},{"user_id":578,"name":"Real (Real)","steam_id":76561198323425034,"connected_time":3764000000000,"state":"active","ping":72},{"user_id":575,"name":"Mr_Pulse_","steam_id":76561198095001602,"connected_time":3905000000000,"state":"active","ping":114},{"user_id":584,"name":"Celtins","steam_id":76561198839837475,"connected_time":3463000000000,"state":"active","ping":59},{"user_id":558,"name":"Chloemew","steam_id":76561198042071762,"connected_time":5007000000000,"state":"active","ping":44},{"user_id":565,"name":"BX","steam_id":76561197962889211,"connected_time":4788000000000,"state":"active","ping":61},{"user_id":566,"name":"Dominus.","steam_id":76561199065917088,"connected_time":4786000000000,"state":"active","ping":60},{"user_id":604,"name":"deli69","steam_id":76561198124859583,"connected_time":607000000000,"state":"active","ping":60},{"user_id":593,"name":"Major","steam_id":76561198086483282,"connected_time":1850000000000,"state":"active","ping":61},{"user_id":598,"name":"The Ginger","steam_id":76561198306862332,"connected_time":1052000000000,"state":"active","ping":55}]},{"server_id":114,"name":"Uncletopia | London | 2 | All Maps","name_short":"lon-2","host":"lon-1.uk.uncletopia.com","port":27025,"enabled":true,"region":"eu","cc":"gb","latitude":51.509865,"longitude":-0.118092,"reserved":0,"last_update":"0001-01-01T00:00:00Z","name_a2s":"Uncletopia | London | 2 | All Maps","protocol":17,"map":"pl_upward","folder":"tf","game":"Team Fortress","app_id":440,"player_count":20,"max_players":24,"Bots":0,"server_type":"Dedicated","server_os":"Linux","password":true,"vac":true,"version":"7757534","steam_id":85568392924470941,"keywords":["nocrits","nodmgspread","payload","uncletopia"],"game_id":440,"stv_port":27026,"stv_name":"Uncletopia | London | 2 | All Maps | STV","players":[{"user_id":606,"name":"(1)jolleter","steam_id":76561198172260583,"connected_time":1625000000000,"state":"active","ping":43},{"user_id":617,"name":"Rad","steam_id":76561198001101843,"connected_time":811000000000,"state":"active","ping":69},{"user_id":638,"name":"Dwevy","steam_id":76561198090379437,"connected_time":9000000000,"state":"active","ping":71},{"user_id":634,"name":"crat","steam_id":76561198401398502,"connected_time":207000000000,"state":"active","ping":110},{"user_id":602,"name":"jolleter","steam_id":76561198891983664,"connected_time":1732000000000,"state":"active","ping":90},{"user_id":635,"name":"Bobo","steam_id":76561198052308399,"connected_time":162000000000,"state":"active","ping":76},{"user_id":636,"name":"The Orgazoid","steam_id":76561198188642265,"connected_time":108000000000,"state":"active","ping":55},{"user_id":319,"name":"Autumnsky","steam_id":76561198055161203,"connected_time":23085000000000,"state":"active","ping":66},{"user_id":622,"name":"Potential Fraud","steam_id":76561198423902979,"connected_time":631000000000,"state":"active","ping":54},{"user_id":637,"name":"Bagel","steam_id":76561198167747447,"connected_time":85000000000,"state":"active","ping":127},{"user_id":630,"name":"WiiSportKing","steam_id":76561198114139081,"connected_time":448000000000,"state":"active","ping":53},{"user_id":633,"name":"Tom","steam_id":76561198008519979,"connected_time":401000000000,"state":"active","ping":58},{"user_id":625,"name":"Tywhip","steam_id":76561199207545191,"connected_time":575000000000,"state":"active","ping":60},{"user_id":592,"name":"Estrogen Overdoser","steam_id":76561198288776967,"connected_time":2393000000000,"state":"active","ping":79},{"user_id":639,"name":"Headers","steam_id":76561198094216514,"connected_time":7000000000,"state":"active","ping":122},{"user_id":612,"name":"Limb","steam_id":76561198064852619,"connected_time":1072000000000,"state":"active","ping":60},{"user_id":577,"name":"JustAnIrishLad","steam_id":76561198130773016,"connected_time":3742000000000,"state":"active","ping":71},{"user_id":613,"name":"PieTer","steam_id":76561198001999422,"connected_time":1024000000000,"state":"active","ping":67},{"user_id":595,"name":"Kiwimpediment","steam_id":76561198322781400,"connected_time":2272000000000,"state":"active","ping":148},{"user_id":597,"name":"Na'vi Misato (by popular demand","steam_id":76561198130860698,"connected_time":2205000000000,"state":"active","ping":64}]},{"server_id":320,"name":"Uncletopia | London | 3 | All Maps","name_short":"lon-3","host":"lon-1.uk.uncletopia.com","port":27035,"enabled":true,"region":"eu","cc":"gb","latitude":51.509865,"longitude":-0.118092,"reserved":0,"last_update":"0001-01-01T00:00:00Z","name_a2s":"Uncletopia | London | 3 | All Maps","protocol":17,"map":"cp_snakewater_final1","folder":"tf","game":"Team Fortress","app_id":440,"player_count":0,"max_players":24,"Bots":0,"server_type":"Dedicated","server_os":"Linux","password":true,"vac":true,"version":"7757534","steam_id":85568392924510192,"keywords":["cp","nocrits","nodmgspread","uncletopia"],"game_id":440,"stv_port":27036,"stv_name":"Uncletopia | London | 3 | All Maps | STV","players":null},{"server_id":321,"name":"Uncletopia | London | 4 | All Maps","name_short":"lon-4","host":"lon-1.uk.uncletopia.com","port":27045,"enabled":true,"region":"eu","cc":"gb","latitude":51.509865,"longitude":-0.118092,"reserved":0,"last_update":"0001-01-01T00:00:00Z","name_a2s":"Uncletopia | London | 4 | All Maps","protocol":17,"map":"cp_process_final","folder":"tf","game":"Team Fortress","app_id":440,"player_count":21,"max_players":24,"Bots":0,"server_type":"Dedicated","server_os":"Linux","password":true,"vac":true,"version":"7757534","steam_id":85568392924510193,"keywords":["cp","nocrits","nodmgspread","uncletopia"],"game_id":440,"stv_port":27046,"stv_name":"Uncletopia | London | 4 | All Maps | STV","players":[{"user_id":92,"name":"OHMtheOHM","steam_id":76561198201846190,"connected_time":3756000000000,"state":"active","ping":69},{"user_id":91,"name":"defamoz","steam_id":76561198928258592,"connected_time":3765000000000,"state":"active","ping":85},{"user_id":114,"name":"Medic on a fucking motorcycle","steam_id":76561199128282369,"connected_time":2211000000000,"state":"active","ping":64},{"user_id":107,"name":"Glitchas","steam_id":76561198883610618,"connected_time":2698000000000,"state":"active","ping":115},{"user_id":110,"name":"Derp","steam_id":76561198197901062,"connected_time":2404000000000,"state":"active","ping":63},{"user_id":128,"name":"Unvid","steam_id":76561198031588080,"connected_time":327000000000,"state":"active","ping":60},{"user_id":118,"name":"lee.braith","steam_id":76561199121812416,"connected_time":1775000000000,"state":"active","ping":63},{"user_id":117,"name":"Posture Check","steam_id":76561198053897197,"connected_time":1908000000000,"state":"active","ping":37},{"user_id":109,"name":"OTP DynamoDM","steam_id":76561198150755391,"connected_time":2601000000000,"state":"active","ping":42},{"user_id":68,"name":"Owl","steam_id":76561198248266580,"connected_time":4925000000000,"state":"active","ping":78},{"user_id":129,"name":"e36 1.8","steam_id":76561198134203031,"connected_time":212000000000,"state":"active","ping":75},{"user_id":121,"name":"AWJ ÀÜ-ÀÜ","steam_id":76561198053628243,"connected_time":1173000000000,"state":"active","ping":40},{"user_id":126,"name":"kpn.","steam_id":76561198072916231,"connected_time":655000000000,"state":"active","ping":90},{"user_id":100,"name":"Peakey The Bard","steam_id":76561198196607831,"connected_time":3398000000000,"state":"active","ping":55},{"user_id":97,"name":"Artur ‚òª","steam_id":76561198264297604,"connected_time":3515000000000,"state":"active","ping":82},{"user_id":74,"name":"SlwoF√∏","steam_id":76561198049663931,"connected_time":4672000000000,"state":"active","ping":60},{"user_id":127,"name":"√âs muita maricas","steam_id":76561198043515389,"connected_time":450000000000,"state":"active","ping":72},{"user_id":122,"name":"Gaem Geck","steam_id":76561198057966907,"connected_time":1092000000000,"state":"active","ping":45},{"user_id":123,"name":"OTP ¬∞Roticher","steam_id":76561198194559879,"connected_time":1078000000000,"state":"active","ping":63},{"user_id":130,"name":"Hoopty","steam_id":76561198057012442,"connected_time":90000000000,"state":"active","ping":111},{"user_id":108,"name":"glyph","steam_id":76561197980736364,"connected_time":2655000000000,"state":"active","ping":92}]},{"server_id":21,"name":"Uncletopia | London | 5 | All Maps","name_short":"lon-5","host":"lon-1.uk.uncletopia.com","port":27055,"enabled":true,"region":"eu","cc":"gb","latitude":51.509865,"longitude":-0.118092,"reserved":0,"last_update":"0001-01-01T00:00:00Z","name_a2s":"Uncletopia | London | 5 | All Maps","protocol":17,"map":"pl_snowycoast","folder":"tf","game":"Team Fortress","app_id":440,"player_count":20,"max_players":24,"Bots":0,"server_type":"Dedicated","server_os":"Linux","password":true,"vac":true,"version":"7757534","steam_id":85568392924742829,"keywords":["nocrits","nodmgspread","payload","uncletopia"],"game_id":440,"stv_port":27056,"stv_name":"Uncletopia | London | 5 | All Maps | STV","players":[{"user_id":869,"name":"Jobs and Growth","steam_id":76561198039361208,"connected_time":1918000000000,"state":"active","ping":89},{"user_id":895,"name":"bloodinked","steam_id":76561198206769645,"connected_time":141000000000,"state":"active","ping":180},{"user_id":874,"name":"E","steam_id":76561198166340115,"connected_time":1593000000000,"state":"active","ping":55},{"user_id":892,"name":"bAdmon","steam_id":76561197961785793,"connected_time":214000000000,"state":"active","ping":59},{"user_id":890,"name":"subway vergil","steam_id":76561199110064166,"connected_time":244000000000,"state":"active","ping":60},{"user_id":875,"name":"BuzzBees ‚ù§","steam_id":76561198101502273,"connected_time":1590000000000,"state":"active","ping":57},{"user_id":873,"name":"KittyKate ‚ù§","steam_id":76561198116340817,"connected_time":1620000000000,"state":"active","ping":61},{"user_id":896,"name":"I'm the ÊúÄÂ§ßÁöÑÈ∏ü","steam_id":76561198121260981,"connected_time":74000000000,"state":"active","ping":45},{"user_id":772,"name":"darktheif54","steam_id":76561198043650119,"connected_time":7065000000000,"state":"active","ping":52},{"user_id":876,"name":"JonTurn","steam_id":76561198128323383,"connected_time":1574000000000,"state":"active","ping":44},{"user_id":897,"name":"Thefatfriar","steam_id":76561199013385965,"connected_time":48000000000,"state":"spawning","ping":271},{"user_id":893,"name":"Saken","steam_id":76561198049075295,"connected_time":199000000000,"state":"active","ping":60},{"user_id":894,"name":"molly","steam_id":76561198029399151,"connected_time":192000000000,"state":"active","ping":63},{"user_id":848,"name":"Mach |=|20BB|)","steam_id":76561198952487564,"connected_time":3054000000000,"state":"active","ping":91},{"user_id":868,"name":"frosty","steam_id":76561198094560834,"connected_time":1953000000000,"state":"active","ping":47},{"user_id":880,"name":"PlacebO.-","steam_id":76561197973577950,"connected_time":1549000000000,"state":"active","ping":72},{"user_id":881,"name":"Lennox","steam_id":76561198069063554,"connected_time":1468000000000,"state":"active","ping":60},{"user_id":845,"name":"MAX PALMER","steam_id":76561198019959517,"connected_time":3197000000000,"state":"active","ping":76},{"user_id":797,"name":"RandoART","steam_id":76561198818165503,"connected_time":5403000000000,"state":"active","ping":101},{"user_id":815,"name":"ejskelerx","steam_id":76561199203662885,"connected_time":4548000000000,"state":"active","ping":87}]},{"server_id":22,"name":"Uncletopia | London | 6 | All Maps","name_short":"lon-6","host":"lon-1.uk.uncletopia.com","port":27065,"enabled":true,"region":"eu","cc":"gb","latitude":51.509865,"longitude":-0.118092,"reserved":0,"last_update":"0001-01-01T00:00:00Z","name_a2s":"Uncletopia | London | 6 | All Maps","protocol":17,"map":"pl_frontier_final","folder":"tf","game":"Team Fortress","app_id":440,"player_count":19,"max_players":24,"Bots":0,"server_type":"Dedicated","server_os":"Linux","password":true,"vac":true,"version":"7757534","steam_id":85568392924742830,"keywords":["nocrits","nodmgspread","payload","uncletopia"],"game_id":440,"stv_port":27066,"stv_name":"Uncletopia | London | 6 | All Maps | STV","players":[{"user_id":220,"name":"Hotgamerdad","steam_id":76561198085940613,"connected_time":1543000000000,"state":"active","ping":61},{"user_id":153,"name":"Swayer","steam_id":76561198056192460,"connected_time":6198000000000,"state":"active","ping":65},{"user_id":206,"name":"Fran","steam_id":76561199070516960,"connected_time":2333000000000,"state":"active","ping":78},{"user_id":222,"name":"pardner","steam_id":76561198451471161,"connected_time":1228000000000,"state":"active","ping":56},{"user_id":237,"name":"‡∂ûbominasus 2137  #SaveTF2","steam_id":76561198030062981,"connected_time":365000000000,"state":"active","ping":84},{"user_id":239,"name":"Oki (Bon)","steam_id":76561199047748534,"connected_time":297000000000,"state":"active","ping":55},{"user_id":229,"name":"Phanom","steam_id":76561198995241508,"connected_time":617000000000,"state":"active","ping":64},{"user_id":188,"name":"Daga","steam_id":76561198055450219,"connected_time":3694000000000,"state":"active","ping":34},{"user_id":234,"name":"Prison Mike","steam_id":76561198014221596,"connected_time":505000000000,"state":"active","ping":60},{"user_id":233,"name":"Ham Man","steam_id":76561198888755969,"connected_time":515000000000,"state":"active","ping":89},{"user_id":177,"name":"Dewotter","steam_id":76561198007653168,"connected_time":4663000000000,"state":"active","ping":45},{"user_id":224,"name":"Ches is into Cro-Cro","steam_id":76561198067204908,"connected_time":1032000000000,"state":"active","ping":60},{"user_id":182,"name":"Hilldog","steam_id":76561198082209322,"connected_time":4399000000000,"state":"active","ping":66},{"user_id":241,"name":"Caliban","steam_id":76561198371989330,"connected_time":115000000000,"state":"active","ping":54},{"user_id":238,"name":"Silverdarlin","steam_id":76561198118540970,"connected_time":351000000000,"state":"active","ping":54},{"user_id":163,"name":"cookies yom","steam_id":76561198097507847,"connected_time":5994000000000,"state":"active","ping":87},{"user_id":228,"name":"Grogon","steam_id":76561198203300218,"connected_time":670000000000,"state":"active","ping":75},{"user_id":145,"name":"Tort","steam_id":76561198329646769,"connected_time":6792000000000,"state":"active","ping":55},{"user_id":213,"name":"ptsd","steam_id":76561199382587543,"connected_time":2130000000000,"state":"active","ping":70}]},{"server_id":40,"name":"Uncletopia | London | 7 | No Payload","name_short":"lon-7","host":"lon-1.uk.uncletopia.com","port":27075,"enabled":true,"region":"eu","cc":"gb","latitude":51.509865,"longitude":-0.118092,"reserved":0,"last_update":"0001-01-01T00:00:00Z","name_a2s":"Uncletopia | London | 7 | No Payload","protocol":17,"map":"cp_metalworks","folder":"tf","game":"Team Fortress","app_id":440,"player_count":0,"max_players":24,"Bots":0,"server_type":"Dedicated","server_os":"Linux","password":true,"vac":true,"version":"7757534","steam_id":85568392924964314,"keywords":["cp","nocrits","nodmgspread","uncletopia"],"game_id":440,"stv_port":27076,"stv_name":"Uncletopia | London | 7 | No Payload | STV","players":null},{"server_id":41,"name":"Uncletopia | London | 8 | Community","name_short":"lon-8","host":"lon-1.uk.uncletopia.com","port":27085,"enabled":true,"region":"eu","cc":"gb","latitude":51.509865,"longitude":-0.118092,"reserved":0,"last_update":"0001-01-01T00:00:00Z","name_a2s":"Uncletopia | London | 8 | Community","protocol":17,"map":"workshop/rd_asteroid_redux_b1.ugc2154902912","folder":"tf","game":"Team Fortress","app_id":440,"player_count":0,"max_players":24,"Bots":0,"server_type":"Dedicated","server_os":"Linux","password":true,"vac":true,"version":"7757534","steam_id":85568392924964315,"keywords":["beta","nocrits","nodmgspread","rd","uncletopia"],"game_id":440,"stv_port":27086,"stv_name":"Uncletopia | London | 8 | Community | STV","players":null},{"server_id":300,"name":"Uncletopia | Montr√©al | 1 | All Maps","name_short":"mtl-1","host":"mtl-1.ca.uncletopia.com","port":27015,"enabled":true,"region":"us-east","cc":"ca","latitude":45.50889,"longitude":-73.56167,"reserved":0,"last_update":"0001-01-01T00:00:00Z","name_a2s":"Uncletopia | Montr√©al | 1 | All Maps","protocol":17,"map":"pl_borneo","folder":"tf","game":"Team Fortress","app_id":440,"player_count":0,"max_players":24,"Bots":0,"server_type":"Dedicated","server_os":"Linux","password":true,"vac":true,"version":"7757534","steam_id":85568392924500087,"keywords":["nocrits","nodmgspread","payload","uncletopia"],"game_id":440,"stv_port":27016,"stv_name":"Uncletopia | Montr√©al | 1 | All Maps | STV","players":null},{"server_id":301,"name":"Uncletopia | Montr√©al | 2 | All Maps","name_short":"mtl-2","host":"mtl-1.ca.uncletopia.com","port":27025,"enabled":true,"region":"us-east","cc":"ca","latitude":45.50889,"longitude":-73.56167,"reserved":0,"last_update":"0001-01-01T00:00:00Z","name_a2s":"Uncletopia | Montr√©al | 2 | All Maps","protocol":17,"map":"pl_snowycoast","folder":"tf","game":"Team Fortress","app_id":440,"player_count":0,"max_players":24,"Bots":0,"server_type":"Dedicated","server_os":"Linux","password":true,"vac":true,"version":"7757534","steam_id":85568392924500088,"keywords":["nocrits","nodmgspread","payload","uncletopia"],"game_id":440,"stv_port":27026,"stv_name":"Uncletopia | Montr√©al | 2 | All Maps | STV","players":null},{"server_id":302,"name":"Uncletopia | Montr√©al | 3 | All Maps","name_short":"mtl-3","host":"mtl-1.ca.uncletopia.com","port":27035,"enabled":true,"region":"us-east","cc":"ca","latitude":45.50889,"longitude":-73.56167,"reserved":0,"last_update":"0001-01-01T00:00:00Z","name_a2s":"Uncletopia | Montr√©al | 3 | All Maps","protocol":17,"map":"cp_snakewater_final1","folder":"tf","game":"Team Fortress","app_id":440,"player_count":0,"max_players":24,"Bots":0,"server_type":"Dedicated","server_os":"Linux","password":true,"vac":true,"version":"7757534","steam_id":85568392924500089,"keywords":["cp","nocrits","nodmgspread","uncletopia"],"game_id":440,"stv_port":27036,"stv_name":"Uncletopia | Montr√©al | 3 | All Maps | STV","players":null},{"server_id":303,"name":"Uncletopia | Montr√©al | 4 | No Payload","name_short":"mtl-4","host":"mtl-1.ca.uncletopia.com","port":27045,"enabled":true,"region":"us-east","cc":"ca","latitude":45.50889,"longitude":-73.56167,"reserved":0,"last_update":"0001-01-01T00:00:00Z","name_a2s":"Uncletopia | Montr√©al | 4 | No Payload","protocol":17,"map":"pl_borneo","folder":"tf","game":"Team Fortress","app_id":440,"player_count":0,"max_players":24,"Bots":0,"server_type":"Dedicated","server_os":"Linux","password":true,"vac":true,"version":"7757534","steam_id":85568392924500090,"keywords":["nocrits","nodmgspread","payload","uncletopia"],"game_id":440,"stv_port":27046,"stv_name":"Uncletopia | Montr√©al | 4 | No Payload | STV","players":null},{"server_id":13,"name":"Uncletopia | New York City | 1 | All Maps","name_short":"nyc-1","host":"nyc-1.us.uncletopia.com","port":27015,"enabled":true,"region":"us-east","cc":"us","latitude":40.73061,"longitude":-73.93524,"reserved":0,"last_update":"0001-01-01T00:00:00Z","name_a2s":"Uncletopia | New York City | 1 | All Maps","protocol":17,"map":"koth_harvest_final","folder":"tf","game":"Team Fortress","app_id":440,"player_count":23,"max_players":24,"Bots":0,"server_type":"Dedicated","server_os":"Linux","password":true,"vac":true,"version":"7757534","steam_id":85568392924469993,"keywords":["cp","nocrits","nodmgspread","uncletopia"],"game_id":440,"stv_port":27016,"stv_name":"Uncletopia | New York City | 1 | All Maps | STV","players":[{"user_id":59,"name":"Cam(era)","steam_id":76561198285054047,"connected_time":88000000000,"state":"active","ping":84},{"user_id":17,"name":"DBlackjack21","steam_id":76561198073241855,"connected_time":4286000000000,"state":"active","ping":150},{"user_id":52,"name":"faxxy","steam_id":76561198079621240,"connected_time":973000000000,"state":"active","ping":75},{"user_id":19,"name":"Yams","steam_id":76561198068084541,"connected_time":4179000000000,"state":"active","ping":91},{"user_id":61,"name":"Ginger Jesus","steam_id":76561198052386458,"connected_time":6000000000,"state":"spawning","ping":336},{"user_id":21,"name":"CheddarCake","steam_id":76561198061993725,"connected_time":4061000000000,"state":"active","ping":47},{"user_id":58,"name":"Marcusatomz","steam_id":76561198079169629,"connected_time":118000000000,"state":"active","ping":62},{"user_id":55,"name":"SpinetinglingToast","steam_id":76561198099470670,"connected_time":620000000000,"state":"active","ping":55},{"user_id":24,"name":"SonicSteve","steam_id":76561198044714546,"connected_time":3956000000000,"state":"active","ping":86},{"user_id":60,"name":"Monkey","steam_id":76561198031015186,"connected_time":69000000000,"state":"active","ping":60},{"user_id":29,"name":"High Quality Ice","steam_id":76561198969178047,"connected_time":3389000000000,"state":"active","ping":62},{"user_id":31,"name":"Maple-Syrup","steam_id":76561198013047242,"connected_time":3261000000000,"state":"active","ping":74},{"user_id":51,"name":"Viokik","steam_id":76561198408846602,"connected_time":1059000000000,"state":"active","ping":57},{"user_id":53,"name":"Joy #savetf2","steam_id":76561198073690173,"connected_time":712000000000,"state":"active","ping":55},{"user_id":45,"name":"mud drater","steam_id":76561198018680492,"connected_time":2280000000000,"state":"active","ping":58},{"user_id":33,"name":"Hunto","steam_id":76561198328052562,"connected_time":3235000000000,"state":"active","ping":88},{"user_id":57,"name":"Some Dumb","steam_id":76561199021382426,"connected_time":124000000000,"state":"active","ping":75},{"user_id":35,"name":"Deeg","steam_id":76561198175970806,"connected_time":3096000000000,"state":"active","ping":55},{"user_id":56,"name":"Futo","steam_id":76561198023185653,"connected_time":607000000000,"state":"active","ping":79},{"user_id":49,"name":"Karma","steam_id":76561198030565234,"connected_time":1207000000000,"state":"active","ping":52},{"user_id":47,"name":"ShinyOrion (She/Her)","steam_id":76561198408378321,"connected_time":1525000000000,"state":"active","ping":60},{"user_id":54,"name":"Marisuh","steam_id":76561198843890616,"connected_time":694000000000,"state":"active","ping":91},{"user_id":50,"name":"NyanHorses","steam_id":76561198161584966,"connected_time":1182000000000,"state":"active","ping":79}]},{"server_id":14,"name":"Uncletopia | New York City | 2 | All Maps","name_short":"nyc-2","host":"nyc-1.us.uncletopia.com","port":27025,"enabled":true,"region":"us-east","cc":"us","latitude":40.73061,"longitude":-73.93524,"reserved":0,"last_update":"0001-01-01T00:00:00Z","name_a2s":"Uncletopia | New York City | 2 | All Maps","protocol":17,"map":"cp_sunshine","folder":"tf","game":"Team Fortress","app_id":440,"player_count":22,"max_players":24,"Bots":0,"server_type":"Dedicated","server_os":"Linux","password":true,"vac":true,"version":"7757534","steam_id":85568392924469994,"keywords":["cp","nocrits","nodmgspread","uncletopia"],"game_id":440,"stv_port":27026,"stv_name":"Uncletopia | New York City | 2 | All Maps | STV","players":[{"user_id":154,"name":"cosmik","steam_id":76561198071193180,"connected_time":946000000000,"state":"active","ping":62},{"user_id":134,"name":"Sone","steam_id":76561198069601032,"connected_time":2401000000000,"state":"active","ping":59},{"user_id":168,"name":"Owen","steam_id":76561198025446908,"connected_time":125000000000,"state":"active","ping":45},{"user_id":138,"name":"Local Talent","steam_id":76561199053290637,"connected_time":2044000000000,"state":"active","ping":77},{"user_id":170,"name":"Claydaddy","steam_id":76561198211153109,"connected_time":28000000000,"state":"active","ping":63},{"user_id":150,"name":"Nuts","steam_id":76561198066494938,"connected_time":1415000000000,"state":"active","ping":51},{"user_id":102,"name":"Rein","steam_id":76561198300340427,"connected_time":4518000000000,"state":"active","ping":77},{"user_id":139,"name":"Weerk","steam_id":76561199209543551,"connected_time":2013000000000,"state":"active","ping":73},{"user_id":167,"name":"Glide","steam_id":76561198046011621,"connected_time":187000000000,"state":"active","ping":45},{"user_id":156,"name":"cringe","steam_id":76561198880891025,"connected_time":682000000000,"state":"active","ping":60},{"user_id":140,"name":"Quansen","steam_id":76561198151594550,"connected_time":2002000000000,"state":"active","ping":61},{"user_id":163,"name":"senya","steam_id":76561198077902438,"connected_time":278000000000,"state":"active","ping":84},{"user_id":40,"name":"Obelix","steam_id":76561198274715109,"connected_time":10358000000000,"state":"active","ping":45},{"user_id":153,"name":"ivylain","steam_id":76561198287330136,"connected_time":1050000000000,"state":"active","ping":45},{"user_id":100,"name":"ThePacBruno","steam_id":76561198046084545,"connected_time":4530000000000,"state":"active","ping":180},{"user_id":166,"name":"Wintery Solstices","steam_id":76561198251108612,"connected_time":212000000000,"state":"active","ping":67},{"user_id":157,"name":"Acid-talon","steam_id":76561198039545578,"connected_time":570000000000,"state":"active","ping":60},{"user_id":171,"name":"hoboways","steam_id":76561198168035195,"connected_time":9000000000,"state":"spawning","ping":92},{"user_id":165,"name":"Duvet","steam_id":76561199151206130,"connected_time":259000000000,"state":"active","ping":45},{"user_id":144,"name":"Nic0","steam_id":76561198305690218,"connected_time":1913000000000,"state":"active","ping":57},{"user_id":146,"name":"Pourpel","steam_id":76561198059125470,"connected_time":1861000000000,"state":"active","ping":76},{"user_id":129,"name":"moodi catgirl","steam_id":76561198124028045,"connected_time":2869000000000,"state":"active","ping":57}]},{"server_id":15,"name":"Uncletopia | New York City | 3 | Stopwatch Beta","name_short":"nyc-3","host":"nyc-1.us.uncletopia.com","port":27035,"enabled":true,"region":"us-east","cc":"us","latitude":40.73061,"longitude":-73.93524,"reserved":0,"last_update":"0001-01-01T00:00:00Z","name_a2s":"Uncletopia | New York City | 3 | Stopwatch Beta","protocol":17,"map":"workshop/pl_vigil_rc9.ugc1266210012","folder":"tf","game":"Team Fortress","app_id":440,"player_count":0,"max_players":24,"Bots":0,"server_type":"Dedicated","server_os":"Linux","password":true,"vac":true,"version":"7757534","steam_id":85568392924742820,"keywords":["nocrits","nodmgspread","payload","uncletopia"],"game_id":440,"stv_port":27036,"stv_name":"Uncletopia | New York City | 3 | Stopwatch Beta | STV","players":null},{"server_id":16,"name":"Uncletopia | New York City | 4 | Community","name_short":"nyc-4","host":"nyc-1.us.uncletopia.com","port":27045,"enabled":true,"region":"us-east","cc":"us","latitude":40.73061,"longitude":-73.93524,"reserved":0,"last_update":"0001-01-01T00:00:00Z","name_a2s":"Uncletopia | New York City | 4 | Community","protocol":17,"map":"workshop/pl_vigil_rc9.ugc1266210012","folder":"tf","game":"Team Fortress","app_id":440,"player_count":13,"max_players":24,"Bots":0,"server_type":"Dedicated","server_os":"Linux","password":true,"vac":true,"version":"7757534","steam_id":85568392924742821,"keywords":["nocrits","nodmgspread","payload","uncletopia"],"game_id":440,"stv_port":27046,"stv_name":"Uncletopia | New York City | 4 | Community | STV","players":[{"user_id":11,"name":"Super D Duper","steam_id":76561198078203677,"connected_time":3304000000000,"state":"active","ping":51},{"user_id":12,"name":"Hook, Line, and Sphincter","steam_id":76561198078207743,"connected_time":3281000000000,"state":"active","ping":40},{"user_id":13,"name":"MysteryMan","steam_id":76561198451939441,"connected_time":3134000000000,"state":"active","ping":54},{"user_id":33,"name":"PrinceGrotle","steam_id":76561198206131603,"connected_time":422000000000,"state":"active","ping":56},{"user_id":16,"name":"merge without looking","steam_id":76561198056702628,"connected_time":2085000000000,"state":"active","ping":74},{"user_id":19,"name":"Inevitable","steam_id":76561198210050169,"connected_time":1708000000000,"state":"active","ping":45},{"user_id":20,"name":"BugsAreMyWorstEnemy","steam_id":76561199440395505,"connected_time":1616000000000,"state":"active","ping":152},{"user_id":38,"name":"Akahada Oni","steam_id":76561198130356335,"connected_time":170000000000,"state":"active","ping":71},{"user_id":23,"name":"Johnthan West","steam_id":76561198818688570,"connected_time":1245000000000,"state":"active","ping":50},{"user_id":37,"name":"germba","steam_id":76561198421591995,"connected_time":223000000000,"state":"active","ping":90},{"user_id":26,"name":"Wait.","steam_id":76561198085109587,"connected_time":837000000000,"state":"active","ping":84},{"user_id":27,"name":"Nightfall","steam_id":76561198169718867,"connected_time":778000000000,"state":"active","ping":118},{"user_id":28,"name":"Angel Wolfie","steam_id":76561198026562237,"connected_time":759000000000,"state":"active","ping":72}]},{"server_id":142,"name":"Uncletopia | S√£o Paulo | 1 | All Maps","name_short":"sao-1","host":"sao-1.br.uncletopia.com","port":27015,"enabled":true,"region":"sa","cc":"br","latitude":-23.533773,"longitude":-46.62529,"reserved":0,"last_update":"0001-01-01T00:00:00Z","name_a2s":"Uncletopia | S√£o Paulo | 1 | All Maps","protocol":17,"map":"koth_cascade","folder":"tf","game":"Team Fortress","app_id":440,"player_count":0,"max_players":24,"Bots":0,"server_type":"Dedicated","server_os":"Linux","password":true,"vac":true,"version":"7757534","steam_id":85568392924469996,"keywords":["cp","nocrits","nodmgspread","uncletopia"],"game_id":440,"stv_port":27016,"stv_name":"Uncletopia | S√£o Paulo | 1 | All Maps | STV","players":null},{"server_id":143,"name":"Uncletopia | S√£o Paulo | 2 | All Maps","name_short":"sao-2","host":"sao-2.br.uncletopia.com","port":27015,"enabled":true,"region":"sa","cc":"br","latitude":-23.533773,"longitude":-46.62529,"reserved":0,"last_update":"0001-01-01T00:00:00Z","name_a2s":"Uncletopia | S√£o Paulo | 2 | All Maps","protocol":17,"map":"cp_snakewater_final1","folder":"tf","game":"Team Fortress","app_id":440,"player_count":0,"max_players":24,"Bots":0,"server_type":"Dedicated","server_os":"Linux","password":true,"vac":true,"version":"7757534","steam_id":85568392924485349,"keywords":["cp","nocrits","nodmgspread","uncletopia"],"game_id":440,"stv_port":27016,"stv_name":"Uncletopia | S√£o Paulo | 2 | All Maps | STV","players":null},{"server_id":7,"name":"Uncletopia | Seattle | 1 | All Maps","name_short":"sea-1","host":"sea-1.us.uncletopia.com","port":27015,"enabled":true,"region":"us-west","cc":"us","latitude":47.608013,"longitude":-122.33517,"reserved":0,"last_update":"0001-01-01T00:00:00Z","name_a2s":"Uncletopia | Seattle | 1 | All Maps","protocol":17,"map":"pl_pier","folder":"tf","game":"Team Fortress","app_id":440,"player_count":24,"max_players":24,"Bots":0,"server_type":"Dedicated","server_os":"Linux","password":true,"vac":true,"version":"7757534","steam_id":85568392924469997,"keywords":["nocrits","nodmgspread","payload","uncletopia"],"game_id":440,"stv_port":27016,"stv_name":"Uncletopia | Seattle | 1 | All Maps | STV","players":[{"user_id":10,"name":"m1","steam_id":76561198004133638,"connected_time":13538000000000,"state":"active","ping":85},{"user_id":137,"name":"tender mike","steam_id":76561198058821622,"connected_time":3583000000000,"state":"active","ping":104},{"user_id":177,"name":"Willy Wonker","steam_id":76561198082944789,"connected_time":1355000000000,"state":"active","ping":71},{"user_id":185,"name":"Sniff","steam_id":76561198010270922,"connected_time":959000000000,"state":"active","ping":41},{"user_id":130,"name":"J U K I E","steam_id":76561197962841151,"connected_time":4686000000000,"state":"active","ping":47},{"user_id":168,"name":"„Ä£dust„Ä£ -she/her-","steam_id":76561198045218909,"connected_time":2471000000000,"state":"active","ping":36},{"user_id":187,"name":"Thexx ‚ù§","steam_id":76561198113823050,"connected_time":239000000000,"state":"active","ping":49},{"user_id":181,"name":"Goat","steam_id":76561198130683707,"connected_time":1241000000000,"state":"active","ping":79},{"user_id":173,"name":"Path To Victory","steam_id":76561198026958898,"connected_time":2129000000000,"state":"active","ping":61},{"user_id":124,"name":"Mignyanne :3","steam_id":76561198048754056,"connected_time":5787000000000,"state":"active","ping":60},{"user_id":128,"name":"Smiles","steam_id":76561198107197973,"connected_time":4705000000000,"state":"active","ping":72},{"user_id":85,"name":"Outer","steam_id":76561199121781498,"connected_time":8376000000000,"state":"active","ping":95},{"user_id":125,"name":"NANO","steam_id":76561199009634635,"connected_time":5763000000000,"state":"active","ping":71},{"user_id":183,"name":"an actual dog","steam_id":76561198826454298,"connected_time":1098000000000,"state":"active","ping":129},{"user_id":189,"name":"The Population of Sweden","steam_id":76561198202201644,"connected_time":207000000000,"state":"active","ping":40},{"user_id":184,"name":"Void","steam_id":76561198308290211,"connected_time":1001000000000,"state":"active","ping":94},{"user_id":105,"name":"Tom Skirrett","steam_id":76561198014600788,"connected_time":7042000000000,"state":"active","ping":68},{"user_id":176,"name":"Dunkle","steam_id":76561198041903573,"connected_time":1571000000000,"state":"active","ping":47},{"user_id":188,"name":"HaphazardHazel","steam_id":76561198316812693,"connected_time":234000000000,"state":"active","ping":136},{"user_id":178,"name":"LogicalFurret","steam_id":76561198350604657,"connected_time":1269000000000,"state":"active","ping":90},{"user_id":190,"name":"MonteJT","steam_id":76561198055409360,"connected_time":156000000000,"state":"active","ping":36},{"user_id":104,"name":"TROY","steam_id":76561197983852176,"connected_time":7126000000000,"state":"active","ping":77},{"user_id":157,"name":"shane","steam_id":76561198060491451,"connected_time":2792000000000,"state":"active","ping":91},{"user_id":136,"name":"Nobuunga","steam_id":76561198100614981,"connected_time":3838000000000,"state":"active","ping":56}]},{"server_id":119,"name":"Uncletopia | Seattle | 2 | All Maps","name_short":"sea-2","host":"sea-1.us.uncletopia.com","port":27025,"enabled":true,"region":"us-west","cc":"us","latitude":47.608013,"longitude":-122.33517,"reserved":0,"last_update":"0001-01-01T00:00:00Z","name_a2s":"Uncletopia | Seattle | 2 | All Maps","protocol":17,"map":"pl_upward","folder":"tf","game":"Team Fortress","app_id":440,"player_count":22,"max_players":24,"Bots":0,"server_type":"Dedicated","server_os":"Linux","password":true,"vac":true,"version":"7757534","steam_id":85568392924469998,"keywords":["nocrits","nodmgspread","payload","uncletopia"],"game_id":440,"stv_port":27026,"stv_name":"Uncletopia | Seattle | 2 | All Maps | STV","players":[{"user_id":147,"name":"Scoob","steam_id":76561198133592995,"connected_time":339000000000,"state":"active","ping":136},{"user_id":95,"name":"403Blunkly","steam_id":76561199005023878,"connected_time":3791000000000,"state":"active","ping":85},{"user_id":139,"name":"OH JIMMY I'M HOME #SaveTf2","steam_id":76561198396658806,"connected_time":1439000000000,"state":"active","ping":80},{"user_id":148,"name":"Biznickel","steam_id":76561199422511230,"connected_time":336000000000,"state":"active","ping":47},{"user_id":151,"name":"SatansGiraffe","steam_id":76561198006623006,"connected_time":228000000000,"state":"active","ping":151},{"user_id":152,"name":"Nolan (Femboy)","steam_id":76561198082534795,"connected_time":220000000000,"state":"active","ping":112},{"user_id":153,"name":"Mom","steam_id":76561198207936000,"connected_time":207000000000,"state":"active","ping":59},{"user_id":154,"name":"Will Buddha","steam_id":76561198397037834,"connected_time":158000000000,"state":"active","ping":91},{"user_id":155,"name":"Tot4L Gridlock","steam_id":76561197999816631,"connected_time":124000000000,"state":"active","ping":56},{"user_id":156,"name":"Nihilist-J","steam_id":76561198041353943,"connected_time":107000000000,"state":"active","ping":120},{"user_id":64,"name":"Aeris","steam_id":76561198287271028,"connected_time":5723000000000,"state":"active","ping":100},{"user_id":131,"name":"EEBIGAA","steam_id":76561198056535988,"connected_time":1873000000000,"state":"active","ping":71},{"user_id":157,"name":"Euphoria","steam_id":76561198187168787,"connected_time":81000000000,"state":"active","ping":73},{"user_id":158,"name":"TheLuckyJinks","steam_id":76561198154340722,"connected_time":41000000000,"state":"spawning","ping":104},{"user_id":159,"name":"Cloud","steam_id":76561198272454184,"connected_time":36000000000,"state":"active","ping":174},{"user_id":133,"name":"Dali","steam_id":76561198077593486,"connected_time":1839000000000,"state":"active","ping":89},{"user_id":118,"name":"Mac is Bac","steam_id":76561198307352761,"connected_time":2438000000000,"state":"active","ping":159},{"user_id":119,"name":"snowflake","steam_id":76561198082315370,"connected_time":2436000000000,"state":"active","ping":377},{"user_id":146,"name":"dougrocks421","steam_id":76561198165063918,"connected_time":816000000000,"state":"active","ping":39},{"user_id":128,"name":"\u003c3Elise\u003c3","steam_id":76561198146435005,"connected_time":2170000000000,"state":"active","ping":72},{"user_id":141,"name":"chimplicity","steam_id":76561198012097062,"connected_time":1362000000000,"state":"active","ping":94},{"user_id":136,"name":"Apex60","steam_id":76561198041898090,"connected_time":1721000000000,"state":"active","ping":130}]},{"server_id":406,"name":"Uncletopia | Seattle | 3 | Stopwatch Beta","name_short":"sea-3","host":"sea-1.us.uncletopia.com","port":27035,"enabled":true,"region":"us-west","cc":"us","latitude":47.608013,"longitude":-122.33517,"reserved":0,"last_update":"0001-01-01T00:00:00Z","name_a2s":"Uncletopia | Seattle | 3 | Stopwatch Beta","protocol":17,"map":"workshop/koth_ramjam_rc1.ugc459778887","folder":"tf","game":"Team Fortress","app_id":440,"player_count":0,"max_players":24,"Bots":0,"server_type":"Dedicated","server_os":"Linux","password":true,"vac":true,"version":"7757534","steam_id":85568392924515217,"keywords":["cp","nocrits","nodmgspread","uncletopia"],"game_id":440,"stv_port":27036,"stv_name":"Uncletopia | Seattle | 3 | Stopwatch Beta | STV","players":null},{"server_id":17,"name":"Uncletopia | San Francisco | 1 | All Maps","name_short":"sfo-1","host":"sfo-1.us.uncletopia.com","port":27015,"enabled":true,"region":"us-west","cc":"us","latitude":37.77397,"longitude":-122.4313,"reserved":0,"last_update":"0001-01-01T00:00:00Z","name_a2s":"Uncletopia | San Francisco | 1 | All Maps","protocol":17,"map":"pl_swiftwater_final1","folder":"tf","game":"Team Fortress","app_id":440,"player_count":22,"max_players":24,"Bots":0,"server_type":"Dedicated","server_os":"Linux","password":true,"vac":true,"version":"7757534","steam_id":85568392924469999,"keywords":["nocrits","nodmgspread","payload","uncletopia"],"game_id":440,"stv_port":27016,"stv_name":"Uncletopia | San Francisco | 1 | All Maps | STV","players":[{"user_id":418,"name":"Grapefruit","steam_id":76561198269253587,"connected_time":1663000000000,"state":"active","ping":46},{"user_id":456,"name":"PinguEnjoyer6","steam_id":76561199186723516,"connected_time":6000000000,"state":"spawning","ping":50},{"user_id":400,"name":"gasparmx","steam_id":76561197998611994,"connected_time":2716000000000,"state":"active","ping":62},{"user_id":425,"name":"Boat","steam_id":76561198319185335,"connected_time":1594000000000,"state":"active","ping":84},{"user_id":373,"name":"roger roger","steam_id":76561198130032444,"connected_time":4372000000000,"state":"active","ping":70},{"user_id":436,"name":"Iskcal75","steam_id":76561199446407203,"connected_time":1226000000000,"state":"active","ping":99},{"user_id":439,"name":"ayaya?","steam_id":76561199000188109,"connected_time":1045000000000,"state":"active","ping":59},{"user_id":452,"name":"demomanfan2008","steam_id":76561198077030486,"connected_time":318000000000,"state":"active","ping":48},{"user_id":443,"name":"Adawnby","steam_id":76561198103057295,"connected_time":870000000000,"state":"active","ping":84},{"user_id":421,"name":"Spoofle","steam_id":76561199003655066,"connected_time":1609000000000,"state":"active","ping":46},{"user_id":455,"name":"DaBeatGoOff?","steam_id":76561198106507400,"connected_time":42000000000,"state":"active","ping":59},{"user_id":437,"name":"kernvillachars","steam_id":76561198998265452,"connected_time":1183000000000,"state":"active","ping":86},{"user_id":428,"name":"rustyorion","steam_id":76561198439186347,"connected_time":1516000000000,"state":"active","ping":83},{"user_id":395,"name":"lukas","steam_id":76561198172454407,"connected_time":2856000000000,"state":"active","ping":70},{"user_id":453,"name":"doo doo","steam_id":76561198049784197,"connected_time":214000000000,"state":"active","ping":45},{"user_id":431,"name":"BBL Sponsor","steam_id":76561199093733603,"connected_time":1389000000000,"state":"active","ping":58},{"user_id":447,"name":"non menthol newport","steam_id":76561198041907345,"connected_time":607000000000,"state":"active","ping":61},{"user_id":449,"name":"rose","steam_id":76561197995200743,"connected_time":515000000000,"state":"active","ping":47},{"user_id":368,"name":"Altruisticailuridae","steam_id":76561198335295596,"connected_time":4579000000000,"state":"active","ping":62},{"user_id":441,"name":"zinnk","steam_id":76561198092081825,"connected_time":1011000000000,"state":"active","ping":30},{"user_id":429,"name":"Superman123389","steam_id":76561198267472539,"connected_time":1463000000000,"state":"active","ping":79},{"user_id":446,"name":"Jailbreak","steam_id":76561198802085218,"connected_time":800000000000,"state":"active","ping":90}]},{"server_id":18,"name":"Uncletopia | San Francisco | 2 | All Maps","name_short":"sfo-2","host":"sfo-1.us.uncletopia.com","port":27025,"enabled":true,"region":"us-west","cc":"us","latitude":37.77397,"longitude":-122.4313,"reserved":0,"last_update":"0001-01-01T00:00:00Z","name_a2s":"Uncletopia | San Francisco | 2 | All Maps","protocol":17,"map":"koth_viaduct","folder":"tf","game":"Team Fortress","app_id":440,"player_count":0,"max_players":24,"Bots":0,"server_type":"Dedicated","server_os":"Linux","password":true,"vac":true,"version":"7757534","steam_id":85568392924470000,"keywords":["cp","nocrits","nodmgspread","uncletopia"],"game_id":440,"stv_port":27026,"stv_name":"Uncletopia | San Francisco | 2 | All Maps | STV","players":null},{"server_id":19,"name":"Uncletopia | San Francisco | 3 | Stopwatch Beta","name_short":"sfo-3","host":"sfo-1.us.uncletopia.com","port":27035,"enabled":true,"region":"us-west","cc":"us","latitude":37.77397,"longitude":-122.4313,"reserved":0,"last_update":"0001-01-01T00:00:00Z","name_a2s":"Uncletopia | San Francisco | 3 | Stopwatch Beta","protocol":17,"map":"pl_borneo","folder":"tf","game":"Team Fortress","app_id":440,"player_count":0,"max_players":24,"Bots":0,"server_type":"Dedicated","server_os":"Linux","password":true,"vac":true,"version":"7757534","steam_id":85568392924742824,"keywords":["nocrits","nodmgspread","payload","uncletopia"],"game_id":440,"stv_port":27036,"stv_name":"Uncletopia | San Francisco | 3 | Stopwatch Beta | STV","players":null},{"server_id":20,"name":"Uncletopia | San Francisco | 4 | Community","name_short":"sfo-4","host":"sfo-1.us.uncletopia.com","port":27045,"enabled":true,"region":"us-west","cc":"us","latitude":37.77397,"longitude":-122.4313,"reserved":0,"last_update":"0001-01-01T00:00:00Z","name_a2s":"Uncletopia | San Francisco | 4 | Community","protocol":17,"map":"koth_highpass","folder":"tf","game":"Team Fortress","app_id":440,"player_count":0,"max_players":24,"Bots":0,"server_type":"Dedicated","server_os":"Linux","password":true,"vac":true,"version":"7757534","steam_id":85568392924742826,"keywords":["cp","nocrits","nodmgspread","uncletopia"],"game_id":440,"stv_port":27046,"stv_name":"Uncletopia | San Francisco | 4 | Community | STV","players":null},{"server_id":141,"name":"Uncletopia | Sydney | 1 | All Maps","name_short":"syd-1","host":"syd-1.au.uncletopia.com","port":27015,"enabled":true,"region":"au","cc":"au","latitude":-33.865143,"longitude":151.2099,"reserved":0,"last_update":"0001-01-01T00:00:00Z","name_a2s":"Uncletopia | Sydney | 1 | All Maps","protocol":17,"map":"cp_sunshine","folder":"tf","game":"Team Fortress","app_id":440,"player_count":0,"max_players":24,"Bots":0,"server_type":"Dedicated","server_os":"Linux","password":true,"vac":true,"version":"7757534","steam_id":85568392924470001,"keywords":["cp","nocrits","nodmgspread","uncletopia"],"game_id":440,"stv_port":27016,"stv_name":"Uncletopia | Sydney | 1 | All Maps | STV","players":null},{"server_id":123,"name":"Uncletopia | Sydney | 2 | All Maps","name_short":"syd-2","host":"syd-1.au.uncletopia.com","port":27025,"enabled":true,"region":"au","cc":"au","latitude":-33.865143,"longitude":151.2099,"reserved":0,"last_update":"0001-01-01T00:00:00Z","name_a2s":"Uncletopia | Sydney | 2 | All Maps","protocol":17,"map":"koth_viaduct","folder":"tf","game":"Team Fortress","app_id":440,"player_count":0,"max_players":24,"Bots":0,"server_type":"Dedicated","server_os":"Linux","password":true,"vac":true,"version":"7757534","steam_id":85568392924470002,"keywords":["cp","nocrits","nodmgspread","uncletopia"],"game_id":440,"stv_port":27026,"stv_name":"Uncletopia | Sydney | 2 | All Maps | STV","players":null},{"server_id":395,"name":"Uncletopia | Sydney | 3 | All Maps","name_short":"syd-3","host":"syd-1.au.uncletopia.com","port":27035,"enabled":true,"region":"au","cc":"au","latitude":-33.865143,"longitude":151.2099,"reserved":0,"last_update":"0001-01-01T00:00:00Z","name_a2s":"Uncletopia | Sydney | 3 | All Maps","protocol":17,"map":"pl_upward","folder":"tf","game":"Team Fortress","app_id":440,"player_count":0,"max_players":24,"Bots":0,"server_type":"Dedicated","server_os":"Linux","password":true,"vac":true,"version":"7757534","steam_id":85568392925194467,"keywords":["nocrits","nodmgspread","payload","uncletopia"],"game_id":440,"stv_port":27036,"stv_name":"Uncletopia | Sydney | 3 | All Maps | STV","players":null},{"server_id":396,"name":"Uncletopia | Sydney | 4 | All Maps","name_short":"syd-4","host":"syd-1.au.uncletopia.com","port":27045,"enabled":true,"region":"au","cc":"au","latitude":-33.865143,"longitude":151.2099,"reserved":0,"last_update":"0001-01-01T00:00:00Z","name_a2s":"Uncletopia | Sydney | 4 | All Maps","protocol":17,"map":"koth_lakeside_final","folder":"tf","game":"Team Fortress","app_id":440,"player_count":0,"max_players":24,"Bots":0,"server_type":"Dedicated","server_os":"Linux","password":true,"vac":true,"version":"7757534","steam_id":85568392925397958,"keywords":["cp","nocrits","nodmgspread","uncletopia"],"game_id":440,"stv_port":27046,"stv_name":"Uncletopia | Sydney | 4 | All Maps | STV","players":null},{"server_id":58,"name":"Uncletopia | Sydney | 5 | Stopwatch Beta","name_short":"syd-5","host":"syd-1.au.uncletopia.com","port":27055,"enabled":true,"region":"au","cc":"au","latitude":-33.865143,"longitude":151.2099,"reserved":0,"last_update":"0001-01-01T00:00:00Z","name_a2s":"Uncletopia | Sydney | 5 | Stopwatch Beta","protocol":17,"map":"workshop/koth_bagel_rc5.ugc2514036946","folder":"tf","game":"Team Fortress","app_id":440,"player_count":4,"max_players":24,"Bots":0,"server_type":"Dedicated","server_os":"Linux","password":true,"vac":true,"version":"7757534","steam_id":85568392925397959,"keywords":["cp","nocrits","nodmgspread","uncletopia"],"game_id":440,"stv_port":27056,"stv_name":"Uncletopia | Sydney | 5 | Stopwatch Beta | STV","players":[{"user_id":3,"name":"Peteydog","steam_id":76561198376474981,"connected_time":444000000000,"state":"active","ping":40},{"user_id":4,"name":"Bilbo Swaggins","steam_id":76561198984446872,"connected_time":400000000000,"state":"active","ping":53},{"user_id":5,"name":"¬Ø\\_(„ÉÑ)_/¬Ø","steam_id":76561199206182584,"connected_time":384000000000,"state":"active","ping":53},{"user_id":7,"name":"me? nobody!","steam_id":76561199057568663,"connected_time":56000000000,"state":"active","ping":55}]},{"server_id":59,"name":"Uncletopia | Sydney | 6 | Community","name_short":"syd-6","host":"syd-1.au.uncletopia.com","port":27065,"enabled":true,"region":"au","cc":"au","latitude":-33.865143,"longitude":151.2099,"reserved":0,"last_update":"0001-01-01T00:00:00Z","name_a2s":"Uncletopia | Sydney | 6 | Community","protocol":17,"map":"cp_sunshine","folder":"tf","game":"Team Fortress","app_id":440,"player_count":0,"max_players":24,"Bots":0,"server_type":"Dedicated","server_os":"Linux","password":true,"vac":true,"version":"7757534","steam_id":85568392925397960,"keywords":["cp","nocrits","nodmgspread","uncletopia"],"game_id":440,"stv_port":27066,"stv_name":"Uncletopia | Sydney | 6 | Community | STV","players":null},{"server_id":49,"name":"Uncletopia | Warsaw | 1 | All Maps","name_short":"waw-1","host":"waw-1.pl.uncletopia.com","port":27015,"enabled":true,"region":"eu","cc":"pl","latitude":52.2297,"longitude":21.017532,"reserved":0,"last_update":"0001-01-01T00:00:00Z","name_a2s":"","protocol":0,"map":"","folder":"","game":"","app_id":0,"player_count":0,"max_players":0,"Bots":0,"server_type":"","server_os":"","password":false,"vac":false,"version":"","steam_id":0,"keywords":null,"game_id":0,"stv_port":0,"stv_name":"","players":null},{"server_id":50,"name":"Uncletopia | Warsaw | 2 | All Maps","name_short":"waw-2","host":"waw-1.pl.uncletopia.com","port":27025,"enabled":true,"region":"eu","cc":"pl","latitude":52.2297,"longitude":21.017532,"reserved":0,"last_update":"0001-01-01T00:00:00Z","name_a2s":"Uncletopia | Warsaw | 2 | All Maps","protocol":17,"map":"koth_viaduct","folder":"tf","game":"Team Fortress","app_id":440,"player_count":0,"max_players":24,"Bots":0,"server_type":"Dedicated","server_os":"Linux","password":true,"vac":true,"version":"7757534","steam_id":85568392925397851,"keywords":["cp","nocrits","nodmgspread","uncletopia"],"game_id":440,"stv_port":27026,"stv_name":"Uncletopia | Warsaw | 2 | All Maps | STV","players":null},{"server_id":51,"name":"Uncletopia | Warsaw | 3 | All Maps","name_short":"waw-3","host":"waw-1.pl.uncletopia.com","port":27035,"enabled":true,"region":"eu","cc":"pl","latitude":52.2297,"longitude":21.017532,"reserved":0,"last_update":"0001-01-01T00:00:00Z","name_a2s":"Uncletopia | Warsaw | 3 | All Maps","protocol":17,"map":"koth_cascade","folder":"tf","game":"Team Fortress","app_id":440,"player_count":0,"max_players":24,"Bots":0,"server_type":"Dedicated","server_os":"Linux","password":true,"vac":true,"version":"7757534","steam_id":85568392925397852,"keywords":["cp","nocrits","nodmgspread","uncletopia"],"game_id":440,"stv_port":27036,"stv_name":"Uncletopia | Warsaw | 3 | All Maps | STV","players":null},{"server_id":52,"name":"Uncletopia | Warsaw | 4 | All Maps","name_short":"waw-4","host":"waw-1.pl.uncletopia.com","port":27045,"enabled":true,"region":"eu","cc":"pl","latitude":52.2297,"longitude":21.017532,"reserved":0,"last_update":"0001-01-01T00:00:00Z","name_a2s":"Uncletopia | Warsaw | 4 | All Maps","protocol":17,"map":"koth_viaduct","folder":"tf","game":"Team Fortress","app_id":440,"player_count":0,"max_players":24,"Bots":0,"server_type":"Dedicated","server_os":"Linux","password":true,"vac":true,"version":"7757534","steam_id":85568392925397853,"keywords":["cp","nocrits","nodmgspread","uncletopia"],"game_id":440,"stv_port":27046,"stv_name":"Uncletopia | Warsaw | 4 | All Maps | STV","players":null},{"server_id":53,"name":"Uncletopia | Warsaw | 5 | Stopwatch Beta","name_short":"waw-5","host":"waw-1.pl.uncletopia.com","port":27055,"enabled":true,"region":"eu","cc":"pl","latitude":52.2297,"longitude":21.017532,"reserved":0,"last_update":"0001-01-01T00:00:00Z","name_a2s":"Uncletopia | Warsaw | 5 | Stopwatch Beta","protocol":17,"map":"pl_barnblitz","folder":"tf","game":"Team Fortress","app_id":440,"player_count":0,"max_players":24,"Bots":0,"server_type":"Dedicated","server_os":"Linux","password":true,"vac":true,"version":"7757534","steam_id":85568392925397854,"keywords":["nocrits","nodmgspread","payload","uncletopia"],"game_id":440,"stv_port":27056,"stv_name":"Uncletopia | Warsaw | 5 | Stopwatch Beta | STV","players":null},{"server_id":54,"name":"Uncletopia | Warsaw | 6 | Community","name_short":"waw-6","host":"waw-1.pl.uncletopia.com","port":27065,"enabled":true,"region":"eu","cc":"pl","latitude":52.2297,"longitude":21.017532,"reserved":0,"last_update":"0001-01-01T00:00:00Z","name_a2s":"Uncletopia | Warsaw | 6 | Community","protocol":17,"map":"workshop/koth_trenchfoot_b1a.ugc731436616","folder":"tf","game":"Team Fortress","app_id":440,"player_count":0,"max_players":24,"Bots":0,"server_type":"Dedicated","server_os":"Linux","password":true,"vac":true,"version":"7757534","steam_id":85568392925397856,"keywords":["cp","nocrits","nodmgspread","uncletopia"],"game_id":440,"stv_port":27066,"stv_name":"Uncletopia | Warsaw | 6 | Community | STV","players":null}]}