{"status":true,"message":"","result":[{"server_id":9,"name":"Uncletopia | Atlanta | 1 | All Maps","name_short":"atl-1","host":"atl-1.us.uncletopia.com","port":27015,"enabled":true,"region":"us-east","cc":"us","latitude":33.753746,"longitude":-84.38633,"reserved":0,"last_update":"0001-01-01T00:00:00Z","name_a2s":"Uncletopia | Atlanta | 1 | All Maps","protocol":17,"map":"pl_badwater","folder":"tf","game":"Team Fortress","app_id":440,"player_count":23,"max_players":24,"Bots":0,"server_type":"Dedicated","server_os":"Linux","password":true,"vac":true,"version":"7723704","steam_id":85568392924469982,"keywords":["nocrits","nodmgspread","payload","uncletopia"],"game_id":440,"stv_port":27016,"stv_name":"Uncletopia | Atlanta | 1 | All Maps | STV","players":[{"user_id":404,"name":"Airwick[QC]","steam_id":76561198815916411,"connected_time":2830000000000,"state":"active","ping":75},{"user_id":410,"name":"Warlock","steam_id":76561198801747883,"connected_time":1708000000000,"state":"active","ping":89},{"user_id":373,"name":"ItsRoy","steam_id":76561198119525485,"connected_time":4997000000000,"state":"active","ping":58},{"user_id":382,"name":"Quansen","steam_id":76561198151594550,"connected_time":4692000000000,"state":"active","ping":75},{"user_id":406,"name":"SonicClubCool","steam_id":76561198079187808,"connected_time":2584000000000,"state":"active","ping":45},{"user_id":434,"name":"Hubba","steam_id":76561199447136263,"connected_time":182000000000,"state":"active","ping":159},{"user_id":383,"name":"BLOOD !","steam_id":76561198004400850,"connected_time":4382000000000,"state":"active","ping":74},{"user_id":390,"name":"TTV AhoyK","steam_id":76561198274742715,"connected_time":4018000000000,"state":"active","ping":53},{"user_id":423,"name":"ethan","steam_id":76561198132637556,"connected_time":634000000000,"state":"active","ping":67},{"user_id":417,"name":"poopass","steam_id":76561197988226228,"connected_time":1203000000000,"state":"active","ping":69},{"user_id":403,"name":"Young-OG","steam_id":76561198058800479,"connected_time":2911000000000,"state":"active","ping":69},{"user_id":436,"name":"Mr. Ruckus","steam_id":76561198339566190,"connected_time":154000000000,"state":"active","ping":77},{"user_id":433,"name":"Goth Hatsune Miku","steam_id":76561198880610797,"connected_time":183000000000,"state":"active","ping":107},{"user_id":425,"name":"Afterlaff","steam_id":76561198045681469,"connected_time":590000000000,"state":"active","ping":64},{"user_id":435,"name":"Mantra","steam_id":76561198058505094,"connected_time":174000000000,"state":"active","ping":171},{"user_id":411,"name":"Apetometrist","steam_id":76561198045391635,"connected_time":1686000000000,"state":"active","ping":80},{"user_id":421,"name":"nalezinik","steam_id":76561198030026119,"connected_time":782000000000,"state":"active","ping":86},{"user_id":413,"name":"Nyle","steam_id":76561198045652639,"connected_time":1672000000000,"state":"active","ping":120},{"user_id":350,"name":"vid_","steam_id":76561198065159053,"connected_time":6736000000000,"state":"active","ping":40},{"user_id":426,"name":"Tommy Pickles (Very Cool)","steam_id":76561198391261463,"connected_time":284000000000,"state":"active","ping":86},{"user_id":414,"name":"Goldblock","steam_id":76561198405515937,"connected_time":1561000000000,"state":"active","ping":72},{"user_id":437,"name":"name him golfball","steam_id":76561198068958789,"connected_time":95000000000,"state":"active","ping":43},{"user_id":429,"name":"Xx_CumGuzzler_xX","steam_id":76561198397991402,"connected_time":223000000000,"state":"active","ping":134}]},{"server_id":400,"name":"Uncletopia | Atlanta | 3 | Stopwatch Beta","name_short":"atl-3","host":"atl-1.us.uncletopia.com","port":27035,"enabled":true,"region":"us-east","cc":"us","latitude":33.753746,"longitude":-84.38633,"reserved":0,"last_update":"0001-01-01T00:00:00Z","name_a2s":"Uncletopia | Atlanta | 3 | Stopwatch Beta","protocol":17,"map":"koth_cascade","folder":"tf","game":"Team Fortress","app_id":440,"player_count":0,"max_players":24,"Bots":0,"server_type":"Dedicated","server_os":"Linux","password":true,"vac":true,"version":"7723704","steam_id":85568392924515187,"keywords":["cp","nocrits","nodmgspread","uncletopia"],"game_id":440,"stv_port":27036,"stv_name":"Uncletopia | Atlanta | 3 | Stopwatch Beta | STV","players":null},{"server_id":401,"name":"Uncletopia | Atlanta | 4 | No Payload","name_short":"atl-4","host":"atl-1.us.uncletopia.com","port":27045,"enabled":true,"region":"us-east","cc":"us","latitude":33.753746,"longitude":-84.38633,"reserved":0,"last_update":"0001-01-01T00:00:00Z","name_a2s":"Uncletopia | Atlanta | 4 | No Payload","protocol":17,"map":"pl_pier","folder":"tf","game":"Team Fortress","app_id":440,"player_count":0,"max_players":24,"Bots":0,"server_type":"Dedicated","server_os":"Linux","password":true,"vac":true,"version":"7723704","steam_id":85568392924515188,"keywords":["nocrits","nodmgspread","payload","uncletopia"],"game_id":440,"stv_port":27046,"stv_name":"Uncletopia | Atlanta | 4 | No Payload | STV","players":null},{"server_id":2,"name":"Uncletopia | Chicago | 1 | All Maps","name_short":"chi-1","host":"chi-1.us.uncletopia.com","port":27015,"enabled":true,"region":"us-central","cc":"us","latitude":41.881832,"longitude":-87.62318,"reserved":0,"last_update":"0001-01-01T00:00:00Z","name_a2s":"Uncletopia | Chicago | 1 | All Maps","protocol":17,"map":"koth_badlands","folder":"tf","game":"Team Fortress","app_id":440,"player_count":24,"max_players":24,"Bots":0,"server_type":"Dedicated","server_os":"Linux","password":true,"vac":true,"version":"7723704","steam_id":85568392924469984,"keywords":["cp","nocrits","nodmgspread","uncletopia"],"game_id":440,"stv_port":27016,"stv_name":"Uncletopia | Chicago | 1 | All Maps | STV","players":[{"user_id":147,"name":"carrion goat","steam_id":76561198262064871,"connected_time":1767000000000,"state":"active","ping":65},{"user_id":99,"name":"donti","steam_id":76561197977223197,"connected_time":3208000000000,"state":"active","ping":45},{"user_id":171,"name":"[50] domo","steam_id":76561198048026825,"connected_time":167000000000,"state":"active","ping":101},{"user_id":172,"name":"sky_guy","steam_id":76561198058668342,"connected_time":39000000000,"state":"active","ping":69},{"user_id":162,"name":"Someone1251","steam_id":76561198798977695,"connected_time":739000000000,"state":"active","ping":63},{"user_id":98,"name":"Admiral Angry","steam_id":76561198058199206,"connected_time":3397000000000,"state":"active","ping":57},{"user_id":89,"name":"Burning Monk","steam_id":76561198040700875,"connected_time":3993000000000,"state":"active","ping":62},{"user_id":110,"name":"‚ùÜ Spearmint ‚ùÜ","steam_id":76561198040974097,"connected_time":2766000000000,"state":"active","ping":85},{"user_id":173,"name":"buzz","steam_id":76561198107899101,"connected_time":28000000000,"state":"active","ping":75},{"user_id":163,"name":"des","steam_id":76561198079226634,"connected_time":727000000000,"state":"active","ping":81},{"user_id":150,"name":"TheToastingToaster","steam_id":76561198439391966,"connected_time":1274000000000,"state":"active","ping":59},{"user_id":96,"name":"Goofball","steam_id":76561198074189084,"connected_time":3792000000000,"state":"active","ping":60},{"user_id":164,"name":"Dilbert","steam_id":76561198195613682,"connected_time":702000000000,"state":"active","ping":77},{"user_id":167,"name":"neet","steam_id":76561197968115168,"connected_time":503000000000,"state":"active","ping":51},{"user_id":143,"name":"duneblaster0","steam_id":76561198040364680,"connected_time":1910000000000,"state":"active","ping":46},{"user_id":160,"name":"jmillz","steam_id":76561199041969543,"connected_time":852000000000,"state":"active","ping":75},{"user_id":174,"name":"Furious George","steam_id":76561198405111646,"connected_time":5000000000,"state":"spawning","ping":123},{"user_id":168,"name":"marlow","steam_id":76561198094408360,"connected_time":483000000000,"state":"active","ping":83},{"user_id":159,"name":"Froyo DING DONG","steam_id":76561198379421700,"connected_time":887000000000,"state":"active","ping":71},{"user_id":165,"name":"Due-South","steam_id":76561198067403311,"connected_time":665000000000,"state":"active","ping":65},{"user_id":117,"name":"Chaotic Rushu","steam_id":76561198170054407,"connected_time":2538000000000,"state":"active","ping":77},{"user_id":166,"name":"OrangeShoes","steam_id":76561197971249940,"connected_time":643000000000,"state":"active","ping":52},{"user_id":154,"name":"konrad","steam_id":76561198065356081,"connected_time":1022000000000,"state":"active","ping":107},{"user_id":155,"name":"Pills","steam_id":76561198799440163,"connected_time":1021000000000,"state":"active","ping":103}]},{"server_id":106,"name":"Uncletopia | Chicago | 2 | All Maps","name_short":"chi-2","host":"chi-1.us.uncletopia.com","port":27025,"enabled":true,"region":"us-central","cc":"us","latitude":41.881832,"longitude":-87.62318,"reserved":0,"last_update":"0001-01-01T00:00:00Z","name_a2s":"Uncletopia | Chicago | 2 | All Maps","protocol":17,"map":"koth_highpass","folder":"tf","game":"Team Fortress","app_id":440,"player_count":0,"max_players":24,"Bots":0,"server_type":"Dedicated","server_os":"Linux","password":true,"vac":true,"version":"7723704","steam_id":85568392924469985,"keywords":["cp","nocrits","nodmgspread","uncletopia"],"game_id":440,"stv_port":27026,"stv_name":"Uncletopia | Chicago | 2 | All Maps | STV","players":null},{"server_id":402,"name":"Uncletopia | Chicago | 3 | All Maps","name_short":"chi-3","host":"chi-1.us.uncletopia.com","port":27035,"enabled":true,"region":"us-central","cc":"us","latitude":41.881832,"longitude":-87.62318,"reserved":0,"last_update":"0001-01-01T00:00:00Z","name_a2s":"Uncletopia | Chicago | 3 | All Maps","protocol":17,"map":"pl_borneo","folder":"tf","game":"Team Fortress","app_id":440,"player_count":0,"max_players":24,"Bots":0,"server_type":"Dedicated","server_os":"Linux","password":true,"vac":true,"version":"7723704","steam_id":85568392924515191,"keywords":["nocrits","nodmgspread","payload","uncletopia"],"game_id":440,"stv_port":27036,"stv_name":"Uncletopia | Chicago | 3 | All Maps | STV","players":null},{"server_id":403,"name":"Uncletopia | Chicago | 4 | All Maps","name_short":"chi-4","host":"chi-1.us.uncletopia.com","port":27045,"enabled":true,"region":"us-central","cc":"us","latitude":41.881832,"longitude":-87.62318,"reserved":0,"last_update":"0001-01-01T00:00:00Z","name_a2s":"Uncletopia | Chicago | 4 | All Maps","protocol":17,"map":"pl_borneo","folder":"tf","game":"Team Fortress","app_id":440,"player_count":0,"max_players":24,"Bots":0,"server_type":"Dedicated","server_os":"Linux","password":true,"vac":true,"version":"7723704","steam_id":85568392924515193,"keywords":["nocrits","nodmgspread","payload","uncletopia"],"game_id":440,"stv_port":27046,"stv_name":"Uncletopia | Chicago | 4 | All Maps | STV","players":null},{"server_id":36,"name":"Uncletopia | Chicago | 5 | All Maps","name_short":"chi-5","host":"chi-2.us.uncletopia.com","port":27015,"enabled":true,"region":"us-central","cc":"us","latitude":41.881832,"longitude":-87.62318,"reserved":0,"last_update":"0001-01-01T00:00:00Z","name_a2s":"Uncletopia | Chicago | 5 | All Maps","protocol":17,"map":"koth_cascade","folder":"tf","game":"Team Fortress","app_id":440,"player_count":0,"max_players":24,"Bots":0,"server_type":"Dedicated","server_os":"Linux","password":true,"vac":true,"version":"7723704","steam_id":85568392924866362,"keywords":["cp","nocrits","nodmgspread","uncletopia"],"game_id":440,"stv_port":27016,"stv_name":"Uncletopia | Chicago | 5 | All Maps | STV","players":null},{"server_id":37,"name":"Uncletopia | Chicago | 6 | All Maps","name_short":"chi-6","host":"chi-2.us.uncletopia.com","port":27025,"enabled":true,"region":"us-central","cc":"us","latitude":41.881832,"longitude":-87.62318,"reserved":0,"last_update":"0001-01-01T00:00:00Z","name_a2s":"Uncletopia | Chicago | 6 | All Maps","protocol":17,"map":"pl_swiftwater_final1","folder":"tf","game":"Team Fortress","app_id":440,"player_count":0,"max_players":24,"Bots":0,"server_type":"Dedicated","server_os":"Linux","password":true,"vac":true,"version":"7723704","steam_id":85568392924866363,"keywords":["nocrits","nodmgspread","payload","uncletopia"],"game_id":440,"stv_port":27026,"stv_name":"Uncletopia | Chicago | 6 | All Maps | STV","players":null},{"server_id":38,"name":"Uncletopia | Chicago | 7 | Stopwatch Beta","name_short":"chi-7","host":"chi-2.us.uncletopia.com","port":27035,"enabled":true,"region":"us-central","cc":"us","latitude":41.881832,"longitude":-87.62318,"reserved":0,"last_update":"0001-01-01T00:00:00Z","name_a2s":"Uncletopia | Chicago | 7 | Stopwatch Beta","protocol":17,"map":"workshop/pl_barnblitz_pro7.ugc582280235","folder":"tf","game":"Team Fortress","app_id":440,"player_count":20,"max_players":24,"Bots":0,"server_type":"Dedicated","server_os":"Linux","password":true,"vac":true,"version":"7723704","steam_id":85568392924866364,"keywords":["nocrits","nodmgspread","payload","uncletopia"],"game_id":440,"stv_port":27036,"stv_name":"Uncletopia | Chicago | 7 | Stopwatch Beta | STV","players":[{"user_id":115,"name":"yama","steam_id":76561198055544216,"connected_time":365000000000,"state":"active","ping":80},{"user_id":133,"name":"commander cringe","steam_id":76561199080212397,"connected_time":51000000000,"state":"active","ping":57},{"user_id":88,"name":"kob","steam_id":76561198065109021,"connected_time":2173000000000,"state":"active","ping":74},{"user_id":89,"name":"Jookson","steam_id":76561198413604994,"connected_time":2156000000000,"state":"active","ping":53},{"user_id":127,"name":"Very Small Giant","steam_id":76561199187337967,"connected_time":186000000000,"state":"active","ping":60},{"user_id":121,"name":"Soph The Dark Elf","steam_id":76561198294426385,"connected_time":287000000000,"state":"active","ping":52},{"user_id":96,"name":"frog","steam_id":76561198371800149,"connected_time":1093000000000,"state":"active","ping":109},{"user_id":130,"name":"tucker","steam_id":76561198348308711,"connected_time":102000000000,"state":"active","ping":72},{"user_id":99,"name":"Fragmatic","steam_id":76561198128389059,"connected_time":1034000000000,"state":"active","ping":60},{"user_id":109,"name":"Sputnix","steam_id":76561198236857310,"connected_time":729000000000,"state":"active","ping":55},{"user_id":95,"name":"mm","steam_id":76561198841559088,"connected_time":1154000000000,"state":"active","ping":66},{"user_id":59,"name":"Evolution","steam_id":76561198144767370,"connected_time":4315000000000,"state":"active","ping":47},{"user_id":116,"name":"[BBC] Justario","steam_id":76561198016095410,"connected_time":350000000000,"state":"active","ping":60},{"user_id":101,"name":"ChaoticAngel","steam_id":76561198293528217,"connected_time":1009000000000,"state":"active","ping":58},{"user_id":131,"name":"bikerkid207","steam_id":76561198390782783,"connected_time":80000000000,"state":"active","ping":56},{"user_id":132,"name":"Amagur","steam_id":76561198966847435,"connected_time":72000000000,"state":"active","ping":106},{"user_id":117,"name":"Samus","steam_id":76561198121933439,"connected_time":341000000000,"state":"active","ping":81},{"user_id":120,"name":"Reversed","steam_id":76561198136433466,"connected_time":295000000000,"state":"active","ping":53},{"user_id":105,"name":"Nuen","steam_id":76561198936096111,"connected_time":909000000000,"state":"active","ping":53},{"user_id":87,"name":"¬°ayudame!","steam_id":76561198071421094,"connected_time":2278000000000,"state":"active","ping":97}]},{"server_id":39,"name":"Uncletopia | Chicago | 8 | Community","name_short":"chi-8","host":"chi-2.us.uncletopia.com","port":27045,"enabled":true,"region":"us-central","cc":"us","latitude":41.881832,"longitude":-87.62318,"reserved":0,"last_update":"0001-01-01T00:00:00Z","name_a2s":"Uncletopia | Chicago | 8 | Community","protocol":17,"map":"pl_frontier_final","folder":"tf","game":"Team Fortress","app_id":440,"player_count":0,"max_players":24,"Bots":0,"server_type":"Dedicated","server_os":"Linux","password":true,"vac":true,"version":"7723704","steam_id":85568392924866365,"keywords":["nocrits","nodmgspread","payload","uncletopia"],"game_id":440,"stv_port":27046,"stv_name":"Uncletopia | Chicago | 8 | Community | STV","players":null},{"server_id":8,"name":"Uncletopia | Dallas | 1 | All Maps","name_short":"dal-1","host":"dal-1.us.uncletopia.com","port":27015,"enabled":true,"region":"us-central","cc":"us","latitude":32.779167,"longitude":-96.80889,"reserved":0,"last_update":"0001-01-01T00:00:00Z","name_a2s":"Uncletopia | Dallas | 1 | All Maps","protocol":17,"map":"pl_wutville_event","folder":"tf","game":"Team Fortress","app_id":440,"player_count":25,"max_players":24,"Bots":0,"server_type":"Dedicated","server_os":"Linux","password":true,"vac":true,"version":"7723704","steam_id":85568392924469986,"keywords":["nocrits","nodmgspread","payload","uncletopia"],"game_id":440,"stv_port":27016,"stv_name":"Uncletopia | Dallas | 1 | All Maps | STV","players":[{"user_id":26,"name":"RottingCarcassYT","steam_id":76561199247029103,"connected_time":3249000000000,"state":"active","ping":51},{"user_id":68,"name":"Ultra\u003c3","steam_id":76561198352021493,"connected_time":1503000000000,"state":"active","ping":81},{"user_id":28,"name":"LegendaryMister151","steam_id":76561198064890524,"connected_time":2955000000000,"state":"active","ping":86},{"user_id":29,"name":"gps","steam_id":76561198067492304,"connected_time":2946000000000,"state":"active","ping":57},{"user_id":69,"name":"Haunting","steam_id":76561198088529360,"connected_time":1479000000000,"state":"active","ping":47},{"user_id":33,"name":"Viennetta","steam_id":76561198044088335,"connected_time":2884000000000,"state":"active","ping":100},{"user_id":34,"name":"Jade Greenleaf","steam_id":76561198304845413,"connected_time":2764000000000,"state":"active","ping":100},{"user_id":37,"name":"pinglefingle","steam_id":76561198216580197,"connected_time":2618000000000,"state":"active","ping":54},{"user_id":75,"name":"moh","steam_id":76561199379052828,"connected_time":1126000000000,"state":"active","ping":191},{"user_id":38,"name":"Freddyco","steam_id":76561198982900732,"connected_time":2609000000000,"state":"active","ping":103},{"user_id":86,"name":"yo pierre wanna cum out here","steam_id":76561198800324957,"connected_time":721000000000,"state":"active","ping":48},{"user_id":87,"name":"Eightyy  Fourr","steam_id":76561197960374225,"connected_time":688000000000,"state":"active","ping":50},{"user_id":41,"name":"brimstone","steam_id":76561198066619792,"connected_time":2576000000000,"state":"active","ping":65},{"user_id":93,"name":"Kylar","steam_id":76561198196979431,"connected_time":99000000000,"state":"active","ping":214},{"user_id":43,"name":"Knightking309","steam_id":76561199076546834,"connected_time":2426000000000,"state":"active","ping":83},{"user_id":55,"name":"Nugakku","steam_id":76561198082346219,"connected_time":2110000000000,"state":"active","ping":86},{"user_id":94,"name":"iQ-Nekomata","steam_id":76561198191536489,"connected_time":45000000000,"state":"active","ping":81},{"user_id":71,"name":"Miramar","steam_id":76561198022057653,"connected_time":1456000000000,"state":"active","ping":87},{"user_id":89,"name":"darkpower345","steam_id":76561198130116713,"connected_time":352000000000,"state":"active","ping":123},{"user_id":90,"name":"Meatyy","steam_id":76561198371782893,"connected_time":245000000000,"state":"connecting","ping":0},{"user_id":50,"name":"OCDkitty","steam_id":76561198266296221,"connected_time":2218000000000,"state":"active","ping":50},{"user_id":77,"name":"BaCkSeAtGaMeR123123","steam_id":76561198103798860,"connected_time":1111000000000,"state":"active","ping":64},{"user_id":79,"name":"Your Local Queer Librarian","steam_id":76561198013077080,"connected_time":1021000000000,"state":"active","ping":73},{"user_id":91,"name":"pt","steam_id":76561198143023330,"connected_time":211000000000,"state":"active","ping":76},{"user_id":82,"name":"Squid121","steam_id":76561198038832034,"connected_time":981000000000,"state":"active","ping":104}]},{"server_id":108,"name":"Uncletopia | Dallas | 2 | All Maps","name_short":"dal-2","host":"dal-1.us.uncletopia.com","port":27025,"enabled":true,"region":"us-central","cc":"us","latitude":32.779167,"longitude":-96.80889,"reserved":0,"last_update":"0001-01-01T00:00:00Z","name_a2s":"Uncletopia | Dallas | 2 | All Maps","protocol":17,"map":"pl_pier","folder":"tf","game":"Team Fortress","app_id":440,"player_count":0,"max_players":24,"Bots":0,"server_type":"Dedicated","server_os":"Linux","password":true,"vac":true,"version":"7723704","steam_id":85568392924469988,"keywords":["nocrits","nodmgspread","payload","uncletopia"],"game_id":440,"stv_port":27026,"stv_name":"Uncletopia | Dallas | 2 | All Maps | STV","players":null},{"server_id":5,"name":"Uncletopia | Frankfurt | 1 | All Maps","name_short":"frk-1","host":"frk-1.de.uncletopia.com","port":27015,"enabled":true,"region":"eu","cc":"de","latitude":50.110924,"longitude":8.682127,"reserved":0,"last_update":"0001-01-01T00:00:00Z","name_a2s":"Uncletopia | Frankfurt | 1 | All Maps","protocol":17,"map":"pl_frontier_final","folder":"tf","game":"Team Fortress","app_id":440,"player_count":25,"max_players":24,"Bots":0,"server_type":"Dedicated","server_os":"Linux","password":true,"vac":true,"version":"7723704","steam_id":85568392924469989,"keywords":["nocrits","nodmgspread","payload","uncletopia"],"game_id":440,"stv_port":27016,"stv_name":"Uncletopia | Frankfurt | 1 | All Maps | STV","players":[{"user_id":110,"name":"The Wolf Leader","steam_id":76561198038007462,"connected_time":7883000000000,"state":"active","ping":61},{"user_id":209,"name":"pepper","steam_id":76561198059782462,"connected_time":1178000000000,"state":"active","ping":53},{"user_id":164,"name":"Fan","steam_id":76561198210792815,"connected_time":5050000000000,"state":"active","ping":67},{"user_id":206,"name":"Piox","steam_id":76561198125689157,"connected_time":1698000000000,"state":"active","ping":81},{"user_id":214,"name":"MAKENTAKEN","steam_id":76561199127359587,"connected_time":802000000000,"state":"active","ping":89},{"user_id":220,"name":"TouchedHam","steam_id":76561198109196257,"connected_time":241000000000,"state":"active","ping":261},{"user_id":222,"name":"Silent Person","steam_id":76561198107763537,"connected_time":142000000000,"state":"active","ping":66},{"user_id":223,"name":"My name is Spencer, Di Spencer","steam_id":76561198152697674,"connected_time":99000000000,"state":"active","ping":52},{"user_id":216,"name":"frosty","steam_id":76561198094560834,"connected_time":606000000000,"state":"active","ping":61},{"user_id":155,"name":"dairy","steam_id":76561198117033273,"connected_time":5626000000000,"state":"active","ping":68},{"user_id":166,"name":"[‚òÅ]ReseF","steam_id":76561198049390479,"connected_time":4862000000000,"state":"active","ping":96},{"user_id":213,"name":"Toaster1337","steam_id":76561198103706881,"connected_time":850000000000,"state":"active","ping":51},{"user_id":104,"name":"citronous","steam_id":76561198093290934,"connected_time":8608000000000,"state":"active","ping":56},{"user_id":225,"name":"Poeka","steam_id":76561198031180960,"connected_time":66000000000,"state":"active","ping":66},{"user_id":226,"name":"Mikeal not so Garden","steam_id":76561198241759034,"connected_time":59000000000,"state":"active","ping":104},{"user_id":217,"name":"Latte","steam_id":76561197999947657,"connected_time":559000000000,"state":"active","ping":95},{"user_id":219,"name":"Dolcelatte","steam_id":76561198038501770,"connected_time":349000000000,"state":"active","ping":51},{"user_id":122,"name":"dustee","steam_id":76561198023486582,"connected_time":7630000000000,"state":"active","ping":83},{"user_id":227,"name":"WhenSheSuccinUrNuts AndUaGangst","steam_id":76561199063168110,"connected_time":40000000000,"state":"active","ping":99},{"user_id":228,"name":"cheezy27","steam_id":76561198071067236,"connected_time":30000000000,"state":"active","ping":87},{"user_id":215,"name":"Deacon Dracul","steam_id":76561198046880663,"connected_time":647000000000,"state":"active","ping":106},{"user_id":204,"name":"Neon","steam_id":76561198353724882,"connected_time":1769000000000,"state":"active","ping":60},{"user_id":229,"name":"Eyencia","steam_id":76561198834995822,"connected_time":27000000000,"state":"active","ping":75},{"user_id":165,"name":"Carl","steam_id":76561198045638738,"connected_time":5039000000000,"state":"active","ping":68},{"user_id":230,"name":"s‚Äôil vous pla√Æt","steam_id":76561197960467762,"connected_time":10000000000,"state":"spawning","ping":59}]},{"server_id":110,"name":"Uncletopia | Frankfurt | 2 | All Maps","name_short":"frk-2","host":"frk-1.de.uncletopia.com","port":27025,"enabled":true,"region":"eu","cc":"de","latitude":50.110924,"longitude":8.682127,"reserved":0,"last_update":"0001-01-01T00:00:00Z","name_a2s":"Uncletopia | Frankfurt | 2 | All Maps","protocol":17,"map":"cp_snakewater_final1","folder":"tf","game":"Team Fortress","app_id":440,"player_count":24,"max_players":24,"Bots":0,"server_type":"Dedicated","server_os":"Linux","password":true,"vac":true,"version":"7723704","steam_id":85568392924469990,"keywords":["cp","nocrits","nodmgspread","uncletopia"],"game_id":440,"stv_port":27026,"stv_name":"Uncletopia | Frankfurt | 2 | All Maps | STV","players":[{"user_id":208,"name":"JKD9 Z0C9","steam_id":76561198964857782,"connected_time":1460000000000,"state":"active","ping":65},{"user_id":191,"name":"the_Qcumber","steam_id":76561199152515819,"connected_time":2719000000000,"state":"active","ping":66},{"user_id":215,"name":"Garlic","steam_id":76561198169843213,"connected_time":224000000000,"state":"active","ping":65},{"user_id":129,"name":"SisuUkko","steam_id":76561198321850428,"connected_time":6500000000000,"state":"active","ping":87},{"user_id":182,"name":"bubblojoe","steam_id":76561198044534119,"connected_time":3236000000000,"state":"active","ping":66},{"user_id":176,"name":"V1 is in my ass","steam_id":76561198107362485,"connected_time":3434000000000,"state":"active","ping":78},{"user_id":216,"name":"Sylbar","steam_id":76561198065379590,"connected_time":118000000000,"state":"active","ping":67},{"user_id":197,"name":"Stepoface","steam_id":76561198091569863,"connected_time":2372000000000,"state":"active","ping":60},{"user_id":205,"name":"She/They Nasty","steam_id":76561198164590576,"connected_time":1791000000000,"state":"active","ping":56},{"user_id":168,"name":"Rappin' Sebastian","steam_id":76561198453928256,"connected_time":3986000000000,"state":"active","ping":85},{"user_id":183,"name":"Sanctified","steam_id":76561198057092208,"connected_time":3235000000000,"state":"active","ping":59},{"user_id":211,"name":"cherry","steam_id":76561199006915718,"connected_time":1097000000000,"state":"active","ping":70},{"user_id":133,"name":"VioBeeyo","steam_id":76561198066258544,"connected_time":6415000000000,"state":"active","ping":54},{"user_id":184,"name":"Artemis","steam_id":76561198199091801,"connected_time":3220000000000,"state":"active","ping":53},{"user_id":199,"name":"Coac","steam_id":76561198085265740,"connected_time":2244000000000,"state":"active","ping":78},{"user_id":137,"name":"VBNM","steam_id":76561198316509516,"connected_time":6277000000000,"state":"active","ping":67},{"user_id":202,"name":"NoodlesOnchair","steam_id":76561198986667242,"connected_time":1844000000000,"state":"active","ping":55},{"user_id":192,"name":"Sloppy polish handyman","steam_id":76561198126398022,"connected_time":2658000000000,"state":"active","ping":75},{"user_id":213,"name":"chubby little looser","steam_id":76561198062107879,"connected_time":787000000000,"state":"active","ping":76},{"user_id":175,"name":"ShoobyDooby","steam_id":76561198118473910,"connected_time":3576000000000,"state":"active","ping":74},{"user_id":209,"name":"Haggabah,WhoPliesTheUmbralPath","steam_id":76561198846984399,"connected_time":1451000000000,"state":"active","ping":79},{"user_id":194,"name":"why rum gone","steam_id":76561198158484784,"connected_time":2622000000000,"state":"active","ping":67},{"user_id":210,"name":"pakin157","steam_id":76561198035125667,"connected_time":1197000000000,"state":"active","ping":85},{"user_id":214,"name":"1 rayteon fan","steam_id":76561198393698349,"connected_time":614000000000,"state":"active","ping":63}]},{"server_id":308,"name":"Uncletopia | Frankfurt | 3 | All Maps","name_short":"frk-3","host":"frk-1.de.uncletopia.com","port":27035,"enabled":true,"region":"eu","cc":"de","latitude":50.110924,"longitude":8.682127,"reserved":0,"last_update":"0001-01-01T00:00:00Z","name_a2s":"Uncletopia | Frankfurt | 3 | All Maps","protocol":17,"map":"cp_altitude","folder":"tf","game":"Team Fortress","app_id":440,"player_count":24,"max_players":24,"Bots":0,"server_type":"Dedicated","server_os":"Linux","password":true,"vac":true,"version":"7723704","steam_id":85568392924504274,"keywords":["cp","nocrits","nodmgspread","uncletopia"],"game_id":440,"stv_port":27036,"stv_name":"Uncletopia | Frankfurt | 3 | All Maps | STV","players":[{"user_id":412,"name":"Big Trader","steam_id":76561197992364667,"connected_time":1433000000000,"state":"active","ping":64},{"user_id":438,"name":"wasto-/-‚Ñ¢","steam_id":76561198102888038,"connected_time":254000000000,"state":"active","ping":51},{"user_id":386,"name":"night.s","steam_id":76561198326287823,"connected_time":2863000000000,"state":"active","ping":79},{"user_id":409,"name":"Caliban","steam_id":76561197999696839,"connected_time":1642000000000,"state":"active","ping":97},{"user_id":424,"name":"Majka","steam_id":76561198375270603,"connected_time":1176000000000,"state":"active","ping":61},{"user_id":439,"name":"Pronton","steam_id":76561198082502910,"connected_time":216000000000,"state":"active","ping":53},{"user_id":435,"name":"radu","steam_id":76561199232442508,"connected_time":383000000000,"state":"active","ping":73},{"user_id":416,"name":"WomenBeardLike","steam_id":76561198390184314,"connected_time":1295000000000,"state":"active","ping":54},{"user_id":360,"name":"*cough*","steam_id":76561198179908677,"connected_time":4441000000000,"state":"active","ping":178},{"user_id":440,"name":"Krof enjoyer","steam_id":76561199101777637,"connected_time":178000000000,"state":"active","ping":64},{"user_id":344,"name":"GMsU | Rebikas","steam_id":76561198077053764,"connected_time":4950000000000,"state":"active","ping":45},{"user_id":441,"name":"Nassu","steam_id":76561198147367577,"connected_time":176000000000,"state":"active","ping":162},{"user_id":448,"name":"ion","steam_id":76561198390406243,"connected_time":12000000000,"state":"spawning","ping":85},{"user_id":430,"name":"PrimeTarget","steam_id":76561198046409289,"connected_time":833000000000,"state":"active","ping":80},{"user_id":428,"name":"red‚ãÜmits","steam_id":76561198015590113,"connected_time":1027000000000,"state":"active","ping":59},{"user_id":346,"name":"GMsU | AuxiliusM","steam_id":76561198071903356,"connected_time":4883000000000,"state":"active","ping":74},{"user_id":444,"name":"Sechiccino","steam_id":76561198081384765,"connected_time":102000000000,"state":"active","ping":57},{"user_id":401,"name":"Acheron","steam_id":76561198306593373,"connected_time":2290000000000,"state":"active","ping":75},{"user_id":432,"name":"Octoblue64","steam_id":76561198388997283,"connected_time":681000000000,"state":"active","ping":58},{"user_id":425,"name":"Fales","steam_id":76561198126124929,"connected_time":1134000000000,"state":"active","ping":66},{"user_id":445,"name":"WolfmanCZ","steam_id":76561199157141414,"connected_time":85000000000,"state":"spawning","ping":72},{"user_id":431,"name":"Weed Obama","steam_id":76561198082407601,"connected_time":760000000000,"state":"active","ping":72},{"user_id":446,"name":"‚ô• cute femboy ‚ô•","steam_id":76561198989830356,"connected_time":79000000000,"state":"active","ping":67},{"user_id":413,"name":"Tarixxiv","steam_id":76561198084365415,"connected_time":1401000000000,"state":"active","ping":84}]},{"server_id":309,"name":"Uncletopia | Frankfurt | 4 | All Maps","name_short":"frk-4","host":"frk-1.de.uncletopia.com","port":27045,"enabled":true,"region":"eu","cc":"de","latitude":50.110924,"longitude":8.682127,"reserved":0,"last_update":"0001-01-01T00:00:00Z","name_a2s":"Uncletopia | Frankfurt | 4 | All Maps","protocol":17,"map":"cp_steel","folder":"tf","game":"Team Fortress","app_id":440,"player_count":24,"max_players":24,"Bots":0,"server_type":"Dedicated","server_os":"Linux","password":true,"vac":true,"version":"7723704","steam_id":85568392924504275,"keywords":["cp","nocrits","nodmgspread","uncletopia"],"game_id":440,"stv_port":27046,"stv_name":"Uncletopia | Frankfurt | 4 | All Maps | STV","players":[{"user_id":161,"name":"Brick Samson","steam_id":76561198019076104,"connected_time":968000000000,"state":"active","ping":94},{"user_id":166,"name":"Qwaden","steam_id":76561198881784698,"connected_time":356000000000,"state":"active","ping":72},{"user_id":140,"name":"HYA HYA FOOWAAH!","steam_id":76561198193357946,"connected_time":2136000000000,"state":"active","ping":118},{"user_id":152,"name":"DeCypher","steam_id":76561198171992619,"connected_time":1227000000000,"state":"active","ping":61},{"user_id":158,"name":"–ù–µ—á—É–π-–õ–µ–≤–∏—Ü—å–∫–∏–π","steam_id":76561198870926865,"connected_time":1068000000000,"state":"active","ping":58},{"user_id":123,"name":"Saucy Jack","steam_id":76561198894525288,"connected_time":3393000000000,"state":"active","ping":50},{"user_id":157,"name":"fiyahstorm","steam_id":76561197992574261,"connected_time":1105000000000,"state":"active","ping":50},{"user_id":145,"name":"Miton","steam_id":76561197970323209,"connected_time":1865000000000,"state":"active","ping":75},{"user_id":167,"name":"Kart is Useless","steam_id":76561198950842095,"connected_time":321000000000,"state":"active","ping":45},{"user_id":146,"name":"SaltyCupcakes","steam_id":76561198256386417,"connected_time":1829000000000,"state":"active","ping":42},{"user_id":153,"name":"Neytan","steam_id":76561198027024747,"connected_time":1213000000000,"state":"active","ping":104},{"user_id":150,"name":"Oak","steam_id":76561198412507725,"connected_time":1311000000000,"state":"active","ping":103},{"user_id":165,"name":"Vitamin Weee","steam_id":76561199183937747,"connected_time":475000000000,"state":"active","ping":75},{"user_id":154,"name":"r06u3","steam_id":76561198254099253,"connected_time":1210000000000,"state":"active","ping":165},{"user_id":133,"name":"Wojo #savetf2","steam_id":76561199167781869,"connected_time":2425000000000,"state":"active","ping":60},{"user_id":124,"name":"Slooshie","steam_id":76561198008749909,"connected_time":3389000000000,"state":"active","ping":62},{"user_id":155,"name":"obscure","steam_id":76561198119532381,"connected_time":1194000000000,"state":"active","ping":59},{"user_id":162,"name":"IzgaraSucuk","steam_id":76561199222323295,"connected_time":962000000000,"state":"active","ping":98},{"user_id":63,"name":"snoowbrigade","steam_id":76561197989507394,"connected_time":6954000000000,"state":"active","ping":57},{"user_id":148,"name":"Osmo","steam_id":76561199286764992,"connected_time":1570000000000,"state":"active","ping":79},{"user_id":156,"name":"Raldow","steam_id":76561198021389301,"connected_time":1181000000000,"state":"active","ping":72},{"user_id":129,"name":"Groose","steam_id":76561198261094295,"connected_time":3003000000000,"state":"active","ping":61},{"user_id":125,"name":"Henk_de_Patatman","steam_id":76561198070103191,"connected_time":3317000000000,"state":"active","ping":51},{"user_id":115,"name":"Lewylow","steam_id":76561198005425686,"connected_time":4043000000000,"state":"active","ping":66}]},{"server_id":310,"name":"Uncletopia | Frankfurt | 5 | All Maps","name_short":"frk-5","host":"frk-1.de.uncletopia.com","port":27055,"enabled":true,"region":"eu","cc":"de","latitude":50.110924,"longitude":8.682127,"reserved":0,"last_update":"0001-01-01T00:00:00Z","name_a2s":"Uncletopia | Frankfurt | 5 | All Maps","protocol":17,"map":"pl_badwater","folder":"tf","game":"Team Fortress","app_id":440,"player_count":24,"max_players":24,"Bots":0,"server_type":"Dedicated","server_os":"Linux","password":true,"vac":true,"version":"7723704","steam_id":85568392924504277,"keywords":["nocrits","nodmgspread","payload","uncletopia"],"game_id":440,"stv_port":27056,"stv_name":"Uncletopia | Frankfurt | 5 | All Maps | STV","players":[{"user_id":218,"name":"Mclovin567","steam_id":76561198799105302,"connected_time":1752000000000,"state":"active","ping":57},{"user_id":230,"name":"Jonas Destark","steam_id":76561198030327441,"connected_time":1230000000000,"state":"active","ping":64},{"user_id":240,"name":"Wardruna96","steam_id":76561199057083828,"connected_time":605000000000,"state":"active","ping":71},{"user_id":214,"name":"sgt Bytheway","steam_id":76561198094169965,"connected_time":2028000000000,"state":"active","ping":65},{"user_id":232,"name":"W√ºstenfuchs","steam_id":76561198453885708,"connected_time":1146000000000,"state":"active","ping":66},{"user_id":245,"name":"AsuX","steam_id":76561197990333289,"connected_time":327000000000,"state":"active","ping":74},{"user_id":197,"name":"boreNYAlis","steam_id":76561198129492905,"connected_time":3140000000000,"state":"active","ping":59},{"user_id":241,"name":"Aphex triplet","steam_id":76561198047725816,"connected_time":494000000000,"state":"active","ping":76},{"user_id":246,"name":"Sauerkraut","steam_id":76561197996241017,"connected_time":298000000000,"state":"active","ping":61},{"user_id":188,"name":"Bluecakke","steam_id":76561199177261351,"connected_time":4738000000000,"state":"active","ping":87},{"user_id":234,"name":"Naho","steam_id":76561198077169715,"connected_time":987000000000,"state":"active","ping":87},{"user_id":239,"name":"Roon","steam_id":76561198191983045,"connected_time":743000000000,"state":"active","ping":46},{"user_id":215,"name":"dolo","steam_id":76561198206672297,"connected_time":2024000000000,"state":"active","ping":54},{"user_id":236,"name":"Blyatwork","steam_id":76561198825379598,"connected_time":970000000000,"state":"active","ping":44},{"user_id":213,"name":"Warped","steam_id":76561197989916494,"connected_time":2048000000000,"state":"active","ping":59},{"user_id":220,"name":"norespectforthedevil","steam_id":76561197998922218,"connected_time":1731000000000,"state":"active","ping":100},{"user_id":247,"name":"Hey, I¬¥m Andy!","steam_id":76561198060337777,"connected_time":277000000000,"state":"active","ping":72},{"user_id":162,"name":"Yatsuzume","steam_id":76561198059762108,"connected_time":6970000000000,"state":"active","ping":54},{"user_id":221,"name":"jesus is my mother","steam_id":76561199040006648,"connected_time":1729000000000,"state":"active","ping":74},{"user_id":205,"name":"Handy","steam_id":76561198125055365,"connected_time":2646000000000,"state":"active","ping":79},{"user_id":227,"name":"DrExplosive","steam_id":76561198063678579,"connected_time":1587000000000,"state":"active","ping":52},{"user_id":179,"name":"Pastoss","steam_id":76561198379098260,"connected_time":5125000000000,"state":"active","ping":60},{"user_id":243,"name":"System","steam_id":76561199442503973,"connected_time":453000000000,"state":"active","ping":53},{"user_id":244,"name":"pjena","steam_id":76561198207643025,"connected_time":444000000000,"state":"active","ping":57}]},{"server_id":311,"name":"Uncletopia | Frankfurt | 6 | All Maps","name_short":"frk-6","host":"frk-1.de.uncletopia.com","port":27065,"enabled":true,"region":"eu","cc":"de","latitude":50.110924,"longitude":8.682127,"reserved":0,"last_update":"0001-01-01T00:00:00Z","name_a2s":"Uncletopia | Frankfurt | 6 | All Maps","protocol":17,"map":"cp_powerhouse","folder":"tf","game":"Team Fortress","app_id":440,"player_count":24,"max_players":24,"Bots":0,"server_type":"Dedicated","server_os":"Linux","password":true,"vac":true,"version":"7723704","steam_id":85568392924504278,"keywords":["cp","nocrits","nodmgspread","uncletopia"],"game_id":440,"stv_port":27066,"stv_name":"Uncletopia | Frankfurt | 6 | All Maps | STV","players":[{"user_id":443,"name":"shoplifter","steam_id":76561198311044984,"connected_time":1162000000000,"state":"active","ping":63},{"user_id":468,"name":"Jonathan","steam_id":76561198087988880,"connected_time":440000000000,"state":"active","ping":57},{"user_id":456,"name":"Random Cap","steam_id":76561198129271321,"connected_time":740000000000,"state":"active","ping":52},{"user_id":436,"name":"Max","steam_id":76561198001690759,"connected_time":1766000000000,"state":"active","ping":162},{"user_id":478,"name":"zasvicuful","steam_id":76561198186803294,"connected_time":198000000000,"state":"active","ping":82},{"user_id":484,"name":"arkron","steam_id":76561198168156767,"connected_time":95000000000,"state":"active","ping":112},{"user_id":477,"name":"busy busy bee :D","steam_id":76561198128222331,"connected_time":203000000000,"state":"active","ping":143},{"user_id":470,"name":"Ramefy","steam_id":76561198809895419,"connected_time":382000000000,"state":"active","ping":89},{"user_id":480,"name":"nobody","steam_id":76561198180637374,"connected_time":131000000000,"state":"active","ping":88},{"user_id":475,"name":"ZOGG FearLand","steam_id":76561198352683491,"connected_time":232000000000,"state":"active","ping":53},{"user_id":458,"name":"lofimonkeyjazz","steam_id":76561198117059662,"connected_time":678000000000,"state":"active","ping":77},{"user_id":426,"name":"Rimx","steam_id":76561198053034840,"connected_time":2212000000000,"state":"active","ping":90},{"user_id":427,"name":"Toasty5050","steam_id":76561198073540881,"connected_time":2202000000000,"state":"active","ping":46},{"user_id":472,"name":"Speibsackerl","steam_id":76561198058135257,"connected_time":286000000000,"state":"active","ping":69},{"user_id":473,"name":"Mr.O #deletesniper","steam_id":76561198039567498,"connected_time":274000000000,"state":"active","ping":61},{"user_id":428,"name":"girth gremlin","steam_id":76561198436424012,"connected_time":2192000000000,"state":"active","ping":58},{"user_id":479,"name":"Hee ho-ho-ho","steam_id":76561198038665095,"connected_time":181000000000,"state":"active","ping":72},{"user_id":432,"name":":(","steam_id":76561198044465070,"connected_time":1986000000000,"state":"active","ping":89},{"user_id":485,"name":"FackaYou","steam_id":76561198193036090,"connected_time":60000000000,"state":"active","ping":69},{"user_id":462,"name":"Scazzing","steam_id":76561198052954318,"connected_time":581000000000,"state":"active","ping":51},{"user_id":463,"name":"Mika Kaakinen","steam_id":76561198370473138,"connected_time":575000000000,"state":"active","ping":73},{"user_id":464,"name":"Ducky[WADZ]üê§","steam_id":76561198060341245,"connected_time":568000000000,"state":"active","ping":49},{"user_id":482,"name":"Nix (they/them)","steam_id":76561198150006573,"connected_time":112000000000,"state":"active","ping":62},{"user_id":483,"name":"EmeraldMoth","steam_id":76561198153816586,"connected_time":109000000000,"state":"active","ping":171}]},{"server_id":23,"name":"Uncletopia | Frankfurt | 7 | Stopwatch Beta","name_short":"frk-7","host":"frk-1.de.uncletopia.com","port":27075,"enabled":true,"region":"eu","cc":"de","latitude":50.110924,"longitude":8.682127,"reserved":0,"last_update":"0001-01-01T00:00:00Z","name_a2s":"Uncletopia | Frankfurt | 7 | Stopwatch Beta","protocol":17,"map":"workshop/pl_barnblitz_pro7.ugc582280235","folder":"tf","game":"Team Fortress","app_id":440,"player_count":0,"max_players":24,"Bots":0,"server_type":"Dedicated","server_os":"Linux","password":true,"vac":true,"version":"7723704","steam_id":85568392924742827,"keywords":["nocrits","nodmgspread","payload","uncletopia"],"game_id":440,"stv_port":27076,"stv_name":"Uncletopia | Frankfurt | 7 | Stopwatch Beta | STV","players":null},{"server_id":24,"name":"Uncletopia | Frankfurt | 8 | Community","name_short":"frk-8","host":"frk-1.de.uncletopia.com","port":27085,"enabled":true,"region":"eu","cc":"de","latitude":50.110924,"longitude":8.682127,"reserved":0,"last_update":"0001-01-01T00:00:00Z","name_a2s":"Uncletopia | Frankfurt | 8 | Community","protocol":17,"map":"workshop/koth_ashville_final.ugc2130459942","folder":"tf","game":"Team Fortress","app_id":440,"player_count":5,"max_players":24,"Bots":0,"server_type":"Dedicated","server_os":"Linux","password":true,"vac":true,"version":"7723704","steam_id":85568392924742828,"keywords":["cp","nocrits","nodmgspread","uncletopia"],"game_id":440,"stv_port":27086,"stv_name":"Uncletopia | Frankfurt | 8 | Community | STV","players":[{"user_id":44,"name":"Shadow llama","steam_id":76561199200240652,"connected_time":16000000000,"state":"spawning","ping":126},{"user_id":31,"name":"Scout Gaming","steam_id":76561198218253092,"connected_time":1949000000000,"state":"active","ping":85},{"user_id":32,"name":"Sand Guy","steam_id":76561199235622016,"connected_time":1886000000000,"state":"active","ping":71},{"user_id":12,"name":"misteryman31","steam_id":76561198389068345,"connected_time":3460000000000,"state":"active","ping":130},{"user_id":13,"name":"Monkey Gaming","steam_id":76561199220816171,"connected_time":3407000000000,"state":"active","ping":306}]},{"server_id":202,"name":"Uncletopia | Hong Kong | 1 | All Maps","name_short":"hgk-1","host":"hgk-1.hk.uncletopia.com","port":27015,"enabled":true,"region":"asia","cc":"hk","latitude":22.302711,"longitude":114.177216,"reserved":0,"last_update":"0001-01-01T00:00:00Z","name_a2s":"Uncletopia | Hong Kong | 1 | All Maps","protocol":17,"map":"ctf_2fort","folder":"tf","game":"Team Fortress","app_id":440,"player_count":0,"max_players":24,"Bots":0,"server_type":"Dedicated","server_os":"Linux","password":true,"vac":true,"version":"7723704","steam_id":85568392924494504,"keywords":["ctf","nocrits","nodmgspread","uncletopia"],"game_id":440,"stv_port":27016,"stv_name":"Uncletopia | Hong Kong | 1 | All Maps | STV","players":null},{"server_id":1,"name":"Uncletopia | Los Angeles | 1 | All Maps","name_short":"lax-1","host":"lax-1.us.uncletopia.com","port":27015,"enabled":true,"region":"us-west","cc":"us","latitude":33.94279,"longitude":-118.41004,"reserved":0,"last_update":"0001-01-01T00:00:00Z","name_a2s":"Uncletopia | Los Angeles | 1 | All Maps","protocol":17,"map":"pl_pier","folder":"tf","game":"Team Fortress","app_id":440,"player_count":0,"max_players":24,"Bots":0,"server_type":"Dedicated","server_os":"Linux","password":true,"vac":true,"version":"7723704","steam_id":85568392924469991,"keywords":["nocrits","nodmgspread","payload","uncletopia"],"game_id":440,"stv_port":27016,"stv_name":"Uncletopia | Los Angeles | 1 | All Maps | STV","players":null},{"server_id":112,"name":"Uncletopia | Los Angeles | 2 | All Maps","name_short":"lax-2","host":"lax-1.us.uncletopia.com","port":27025,"enabled":true,"region":"us-west","cc":"us","latitude":33.94279,"longitude":-118.41004,"reserved":0,"last_update":"0001-01-01T00:00:00Z","name_a2s":"Uncletopia | Los Angeles | 2 | All Maps","protocol":17,"map":"koth_viaduct","folder":"tf","game":"Team Fortress","app_id":440,"player_count":0,"max_players":24,"Bots":0,"server_type":"Dedicated","server_os":"Linux","password":true,"vac":true,"version":"7723704","steam_id":85568392924469992,"keywords":["cp","nocrits","nodmgspread","uncletopia"],"game_id":440,"stv_port":27026,"stv_name":"Uncletopia | Los Angeles | 2 | All Maps | STV","players":null},{"server_id":324,"name":"Uncletopia | Los Angeles | 3 | All Maps","name_short":"lax-3","host":"lax-1.us.uncletopia.com","port":27035,"enabled":true,"region":"us-west","cc":"us","latitude":33.94279,"longitude":-118.41004,"reserved":0,"last_update":"0001-01-01T00:00:00Z","name_a2s":"Uncletopia | Los Angeles | 3 | All Maps","protocol":17,"map":"koth_viaduct","folder":"tf","game":"Team Fortress","app_id":440,"player_count":0,"max_players":24,"Bots":0,"server_type":"Dedicated","server_os":"Linux","password":true,"vac":true,"version":"7723704","steam_id":85568392924510198,"keywords":["cp","nocrits","nodmgspread","uncletopia"],"game_id":440,"stv_port":27036,"stv_name":"Uncletopia | Los Angeles | 3 | All Maps | STV","players":null},{"server_id":25,"name":"Uncletopia | Los Angeles | 4 | Stopwatch Beta","name_short":"lax-4","host":"lax-1.us.uncletopia.com","port":27045,"enabled":true,"region":"us-west","cc":"us","latitude":33.94279,"longitude":-118.41004,"reserved":0,"last_update":"0001-01-01T00:00:00Z","name_a2s":"Uncletopia | Los Angeles | 4 | Stopwatch Beta","protocol":17,"map":"cp_sunshine","folder":"tf","game":"Team Fortress","app_id":440,"player_count":0,"max_players":24,"Bots":0,"server_type":"Dedicated","server_os":"Linux","password":true,"vac":true,"version":"7723704","steam_id":85568392924510199,"keywords":["cp","nocrits","nodmgspread","uncletopia"],"game_id":440,"stv_port":27046,"stv_name":"Uncletopia | Los Angeles | 4 | Stopwatch Beta | STV","players":null},{"server_id":11,"name":"Uncletopia | London | 1 | All Maps","name_short":"lon-1","host":"lon-1.uk.uncletopia.com","port":27015,"enabled":true,"region":"eu","cc":"gb","latitude":51.509865,"longitude":-0.118092,"reserved":0,"last_update":"0001-01-01T00:00:00Z","name_a2s":"Uncletopia | London | 1 | All Maps","protocol":17,"map":"pl_pier","folder":"tf","game":"Team Fortress","app_id":440,"player_count":24,"max_players":24,"Bots":0,"server_type":"Dedicated","server_os":"Linux","password":true,"vac":true,"version":"7723704","steam_id":85568392924367362,"keywords":["nocrits","nodmgspread","payload","uncletopia"],"game_id":440,"stv_port":27016,"stv_name":"Uncletopia | London | 1 | All Maps | STV","players":[{"user_id":542,"name":"alf","steam_id":76561198060249715,"connected_time":83000000000,"state":"active","ping":47},{"user_id":436,"name":"Equinox","steam_id":76561199055592635,"connected_time":7645000000000,"state":"active","ping":65},{"user_id":500,"name":"festive jones","steam_id":76561198073975078,"connected_time":3307000000000,"state":"active","ping":44},{"user_id":534,"name":"Lukas","steam_id":76561198009118452,"connected_time":820000000000,"state":"active","ping":63},{"user_id":543,"name":"Thors","steam_id":76561197968739075,"connected_time":42000000000,"state":"active","ping":45},{"user_id":518,"name":"Economic crisis","steam_id":76561198063562843,"connected_time":1613000000000,"state":"active","ping":61},{"user_id":490,"name":"Lyra","steam_id":76561198043601838,"connected_time":3959000000000,"state":"active","ping":62},{"user_id":530,"name":"Jughead","steam_id":76561198000355410,"connected_time":1114000000000,"state":"active","ping":51},{"user_id":535,"name":"jaMie","steam_id":76561198170148783,"connected_time":807000000000,"state":"active","ping":55},{"user_id":511,"name":"JOHN GAMING (based)","steam_id":76561199085822219,"connected_time":1951000000000,"state":"active","ping":83},{"user_id":532,"name":"G6 sherlock","steam_id":76561198802967796,"connected_time":1053000000000,"state":"active","ping":118},{"user_id":533,"name":"androgenius","steam_id":76561198104896547,"connected_time":1004000000000,"state":"active","ping":87},{"user_id":523,"name":"DrJeezo","steam_id":76561198123592400,"connected_time":1456000000000,"state":"active","ping":90},{"user_id":519,"name":"Morgulan","steam_id":76561198046564543,"connected_time":1604000000000,"state":"active","ping":68},{"user_id":507,"name":"ciliorkun18","steam_id":76561198228942500,"connected_time":2871000000000,"state":"active","ping":101},{"user_id":515,"name":"Kahvi","steam_id":76561198723244199,"connected_time":1797000000000,"state":"active","ping":78},{"user_id":525,"name":"Hkitchen","steam_id":76561198194779526,"connected_time":1394000000000,"state":"active","ping":35},{"user_id":544,"name":"Nedge","steam_id":76561197963549701,"connected_time":42000000000,"state":"active","ping":41},{"user_id":538,"name":"Citrus","steam_id":76561198090650837,"connected_time":487000000000,"state":"active","ping":50},{"user_id":504,"name":"‚ú™ J","steam_id":76561198094911581,"connected_time":3251000000000,"state":"active","ping":48},{"user_id":545,"name":"quentu-","steam_id":76561198087457220,"connected_time":7000000000,"state":"active","ping":214},{"user_id":508,"name":"drew","steam_id":76561198012304706,"connected_time":2719000000000,"state":"active","ping":96},{"user_id":516,"name":"Gnarville","steam_id":76561198006373329,"connected_time":1787000000000,"state":"active","ping":50},{"user_id":520,"name":"Jayco","steam_id":76561198122497262,"connected_time":1591000000000,"state":"active","ping":47}]},{"server_id":114,"name":"Uncletopia | London | 2 | All Maps","name_short":"lon-2","host":"lon-1.uk.uncletopia.com","port":27025,"enabled":true,"region":"eu","cc":"gb","latitude":51.509865,"longitude":-0.118092,"reserved":0,"last_update":"0001-01-01T00:00:00Z","name_a2s":"Uncletopia | London | 2 | All Maps","protocol":17,"map":"cp_process_final","folder":"tf","game":"Team Fortress","app_id":440,"player_count":18,"max_players":24,"Bots":0,"server_type":"Dedicated","server_os":"Linux","password":true,"vac":true,"version":"7723704","steam_id":85568392924470941,"keywords":["cp","nocrits","nodmgspread","uncletopia"],"game_id":440,"stv_port":27026,"stv_name":"Uncletopia | London | 2 | All Maps | STV","players":[{"user_id":459,"name":"ÀπFate's¬∑MarionetteÀº","steam_id":76561198034197381,"connected_time":21000000000,"state":"spawning","ping":318},{"user_id":428,"name":"kul","steam_id":76561198065179630,"connected_time":1296000000000,"state":"spawning","ping":110},{"user_id":444,"name":"Scary Gary","steam_id":76561198128659449,"connected_time":872000000000,"state":"spawning","ping":154},{"user_id":443,"name":"Sweetcheesus","steam_id":76561198022299033,"connected_time":964000000000,"state":"spawning","ping":77},{"user_id":396,"name":"NeonNewt","steam_id":76561198066699212,"connected_time":3642000000000,"state":"spawning","ping":76},{"user_id":447,"name":"Smuggs","steam_id":76561197999456003,"connected_time":723000000000,"state":"spawning","ping":103},{"user_id":454,"name":"Chucky.","steam_id":76561197969361063,"connected_time":392000000000,"state":"spawning","ping":123},{"user_id":432,"name":"Gardvord","steam_id":76561198120715753,"connected_time":1266000000000,"state":"spawning","ping":94},{"user_id":427,"name":"festive w00sh","steam_id":76561198179463343,"connected_time":1307000000000,"state":"connecting","ping":70},{"user_id":455,"name":"MelvinIsANiceBoy","steam_id":76561198178415634,"connected_time":267000000000,"state":"spawning","ping":85},{"user_id":456,"name":"Mimic","steam_id":76561199204932956,"connected_time":151000000000,"state":"spawning","ping":77},{"user_id":435,"name":"Zwphyr | TourBot.TF","steam_id":76561198160772793,"connected_time":1225000000000,"state":"spawning","ping":69},{"user_id":367,"name":"OutOfDucks","steam_id":76561198166376227,"connected_time":6172000000000,"state":"spawning","ping":88},{"user_id":446,"name":"Mr.Cupcake","steam_id":76561198152711174,"connected_time":811000000000,"state":"spawning","ping":110},{"user_id":416,"name":"FUCKING DIE","steam_id":76561199042470246,"connected_time":2381000000000,"state":"connecting","ping":79},{"user_id":457,"name":"Loberless","steam_id":76561198277844777,"connected_time":101000000000,"state":"spawning","ping":86},{"user_id":442,"name":"Blobbaz","steam_id":76561198031076278,"connected_time":1030000000000,"state":"spawning","ping":79},{"user_id":450,"name":"Festive Cinek | Merry Christmas","steam_id":76561198133810911,"connected_time":629000000000,"state":"spawning","ping":100}]},{"server_id":320,"name":"Uncletopia | London | 3 | All Maps","name_short":"lon-3","host":"lon-1.uk.uncletopia.com","port":27035,"enabled":true,"region":"eu","cc":"gb","latitude":51.509865,"longitude":-0.118092,"reserved":0,"last_update":"0001-01-01T00:00:00Z","name_a2s":"Uncletopia | London | 3 | All Maps","protocol":17,"map":"pl_borneo","folder":"tf","game":"Team Fortress","app_id":440,"player_count":24,"max_players":24,"Bots":0,"server_type":"Dedicated","server_os":"Linux","password":true,"vac":true,"version":"7723704","steam_id":85568392924510192,"keywords":["nocrits","nodmgspread","payload","uncletopia"],"game_id":440,"stv_port":27036,"stv_name":"Uncletopia | London | 3 | All Maps | STV","players":[{"user_id":294,"name":"Sipsu","steam_id":76561198059424107,"connected_time":4204000000000,"state":"active","ping":82},{"user_id":320,"name":"hushhx","steam_id":76561198216200092,"connected_time":871000000000,"state":"active","ping":52},{"user_id":304,"name":"Nexosert","steam_id":76561198941142018,"connected_time":2799000000000,"state":"active","ping":189},{"user_id":208,"name":"goofy goober","steam_id":76561198013237629,"connected_time":10148000000000,"state":"active","ping":92},{"user_id":316,"name":"Grolemaster","steam_id":76561199226454635,"connected_time":2063000000000,"state":"active","ping":66},{"user_id":281,"name":"OVERLORDMALARKEY","steam_id":76561198098267117,"connected_time":4932000000000,"state":"active","ping":62},{"user_id":253,"name":"Estamie","steam_id":76561198058527691,"connected_time":5983000000000,"state":"active","ping":77},{"user_id":310,"name":"Hussain_144","steam_id":76561198346029208,"connected_time":2103000000000,"state":"active","ping":170},{"user_id":301,"name":"FeminineAtom","steam_id":76561198311208470,"connected_time":2940000000000,"state":"active","ping":59},{"user_id":319,"name":"Festive Lilli","steam_id":76561198090146457,"connected_time":963000000000,"state":"active","ping":46},{"user_id":329,"name":"volodimir2005v","steam_id":76561198844259042,"connected_time":690000000000,"state":"active","ping":74},{"user_id":317,"name":"Merry Oakmas","steam_id":76561198248567360,"connected_time":2063000000000,"state":"active","ping":39},{"user_id":330,"name":"lulu","steam_id":76561199147764133,"connected_time":623000000000,"state":"active","ping":70},{"user_id":314,"name":"The Real Lobster Socks","steam_id":76561198870015437,"connected_time":2070000000000,"state":"active","ping":50},{"user_id":333,"name":"„Äå‚óÜRaku‚Ä¢ „Äç","steam_id":76561198059283183,"connected_time":456000000000,"state":"active","ping":93},{"user_id":246,"name":"Topme","steam_id":76561198091734693,"connected_time":6589000000000,"state":"active","ping":72},{"user_id":321,"name":"Kodutah","steam_id":76561198203405574,"connected_time":870000000000,"state":"active","ping":64},{"user_id":306,"name":"Skittne Greker","steam_id":76561198079416400,"connected_time":2695000000000,"state":"active","ping":90},{"user_id":311,"name":"Jaxonfogcap","steam_id":76561198327688357,"connected_time":2101000000000,"state":"active","ping":48},{"user_id":334,"name":"dunga","steam_id":76561198318772187,"connected_time":329000000000,"state":"active","ping":58},{"user_id":315,"name":"Orso_Kurin","steam_id":76561198304718637,"connected_time":2069000000000,"state":"active","ping":88},{"user_id":335,"name":"catface :3","steam_id":76561198963378933,"connected_time":8000000000,"state":"active","ping":50},{"user_id":291,"name":":)","steam_id":76561198039964082,"connected_time":4259000000000,"state":"active","ping":71},{"user_id":312,"name":"0xDEADBEEF","steam_id":76561199075416111,"connected_time":2101000000000,"state":"active","ping":76}]},{"server_id":321,"name":"Uncletopia | London | 4 | All Maps","name_short":"lon-4","host":"lon-1.uk.uncletopia.com","port":27045,"enabled":true,"region":"eu","cc":"gb","latitude":51.509865,"longitude":-0.118092,"reserved":0,"last_update":"0001-01-01T00:00:00Z","name_a2s":"Uncletopia | London | 4 | All Maps","protocol":17,"map":"pl_swiftwater_final1","folder":"tf","game":"Team Fortress","app_id":440,"player_count":1,"max_players":24,"Bots":0,"server_type":"Dedicated","server_os":"Linux","password":true,"vac":true,"version":"7723704","steam_id":85568392924510193,"keywords":["nocrits","nodmgspread","payload","uncletopia"],"game_id":440,"stv_port":27046,"stv_name":"Uncletopia | London | 4 | All Maps | STV","players":[{"user_id":24,"name":"Snafu","steam_id":76561198194539026,"connected_time":750000000000,"state":"active","ping":56}]},{"server_id":21,"name":"Uncletopia | London | 5 | All Maps","name_short":"lon-5","host":"lon-1.uk.uncletopia.com","port":27055,"enabled":true,"region":"eu","cc":"gb","latitude":51.509865,"longitude":-0.118092,"reserved":0,"last_update":"0001-01-01T00:00:00Z","name_a2s":"Uncletopia | London | 5 | All Maps","protocol":17,"map":"pl_snowycoast","folder":"tf","game":"Team Fortress","app_id":440,"player_count":0,"max_players":24,"Bots":0,"server_type":"Dedicated","server_os":"Linux","password":true,"vac":true,"version":"7723704","steam_id":85568392924742829,"keywords":["nocrits","nodmgspread","payload","uncletopia"],"game_id":440,"stv_port":27056,"stv_name":"Uncletopia | London | 5 | All Maps | STV","players":null},{"server_id":22,"name":"Uncletopia | London | 6 | All Maps","name_short":"lon-6","host":"lon-1.uk.uncletopia.com","port":27065,"enabled":true,"region":"eu","cc":"gb","latitude":51.509865,"longitude":-0.118092,"reserved":0,"last_update":"0001-01-01T00:00:00Z","name_a2s":"Uncletopia | London | 6 | All Maps","protocol":17,"map":"koth_lakeside_final","folder":"tf","game":"Team Fortress","app_id":440,"player_count":0,"max_players":24,"Bots":0,"server_type":"Dedicated","server_os":"Linux","password":true,"vac":true,"version":"7723704","steam_id":85568392924742830,"keywords":["cp","nocrits","nodmgspread","uncletopia"],"game_id":440,"stv_port":27066,"stv_name":"Uncletopia | London | 6 | All Maps | STV","players":null},{"server_id":40,"name":"Uncletopia | London | 7 | No Payload","name_short":"lon-7","host":"lon-1.uk.uncletopia.com","port":27075,"enabled":true,"region":"eu","cc":"gb","latitude":51.509865,"longitude":-0.118092,"reserved":0,"last_update":"0001-01-01T00:00:00Z","name_a2s":"Uncletopia | London | 7 | No Payload","protocol":17,"map":"koth_viaduct","folder":"tf","game":"Team Fortress","app_id":440,"player_count":0,"max_players":24,"Bots":0,"server_type":"Dedicated","server_os":"Linux","password":true,"vac":true,"version":"7723704","steam_id":85568392924964314,"keywords":["cp","nocrits","nodmgspread","uncletopia"],"game_id":440,"stv_port":27076,"stv_name":"Uncletopia | London | 7 | No Payload | STV","players":null},{"server_id":41,"name":"Uncletopia | London | 8 | Community","name_short":"lon-8","host":"lon-1.uk.uncletopia.com","port":27085,"enabled":true,"region":"eu","cc":"gb","latitude":51.509865,"longitude":-0.118092,"reserved":0,"last_update":"0001-01-01T00:00:00Z","name_a2s":"Uncletopia | London | 8 | Community","protocol":17,"map":"workshop/pl_cactuscanyon_redux_rc4b.ugc2579644293","folder":"tf","game":"Team Fortress","app_id":440,"player_count":0,"max_players":24,"Bots":0,"server_type":"Dedicated","server_os":"Linux","password":true,"vac":true,"version":"7723704","steam_id":85568392924964315,"keywords":["nocrits","nodmgspread","payload","uncletopia"],"game_id":440,"stv_port":27086,"stv_name":"Uncletopia | London | 8 | Community | STV","players":null},{"server_id":300,"name":"Uncletopia | Montr√©al | 1 | All Maps","name_short":"mtl-1","host":"mtl-1.ca.uncletopia.com","port":27015,"enabled":true,"region":"us-east","cc":"ca","latitude":45.50889,"longitude":-73.56167,"reserved":0,"last_update":"0001-01-01T00:00:00Z","name_a2s":"Uncletopia | Montr√©al | 1 | All Maps","protocol":17,"map":"pl_snowycoast","folder":"tf","game":"Team Fortress","app_id":440,"player_count":0,"max_players":24,"Bots":0,"server_type":"Dedicated","server_os":"Linux","password":true,"vac":true,"version":"7723704","steam_id":85568392924500087,"keywords":["nocrits","nodmgspread","payload","uncletopia"],"game_id":440,"stv_port":27016,"stv_name":"Uncletopia | Montr√©al | 1 | All Maps | STV","players":null},{"server_id":301,"name":"Uncletopia | Montr√©al | 2 | All Maps","name_short":"mtl-2","host":"mtl-1.ca.uncletopia.com","port":27025,"enabled":true,"region":"us-east","cc":"ca","latitude":45.50889,"longitude":-73.56167,"reserved":0,"last_update":"0001-01-01T00:00:00Z","name_a2s":"Uncletopia | Montr√©al | 2 | All Maps","protocol":17,"map":"cp_process_final","folder":"tf","game":"Team Fortress","app_id":440,"player_count":0,"max_players":24,"Bots":0,"server_type":"Dedicated","server_os":"Linux","password":true,"vac":true,"version":"7723704","steam_id":85568392924500088,"keywords":["cp","nocrits","nodmgspread","uncletopia"],"game_id":440,"stv_port":27026,"stv_name":"Uncletopia | Montr√©al | 2 | All Maps | STV","players":null},{"server_id":302,"name":"Uncletopia | Montr√©al | 3 | All Maps","name_short":"mtl-3","host":"mtl-1.ca.uncletopia.com","port":27035,"enabled":true,"region":"us-east","cc":"ca","latitude":45.50889,"longitude":-73.56167,"reserved":0,"last_update":"0001-01-01T00:00:00Z","name_a2s":"Uncletopia | Montr√©al | 3 | All Maps","protocol":17,"map":"pl_barnblitz","folder":"tf","game":"Team Fortress","app_id":440,"player_count":0,"max_players":24,"Bots":0,"server_type":"Dedicated","server_os":"Linux","password":true,"vac":true,"version":"7723704","steam_id":85568392924500089,"keywords":["nocrits","nodmgspread","payload","uncletopia"],"game_id":440,"stv_port":27036,"stv_name":"Uncletopia | Montr√©al | 3 | All Maps | STV","players":null},{"server_id":303,"name":"Uncletopia | Montr√©al | 4 | No Payload","name_short":"mtl-4","host":"mtl-1.ca.uncletopia.com","port":27045,"enabled":true,"region":"us-east","cc":"ca","latitude":45.50889,"longitude":-73.56167,"reserved":0,"last_update":"0001-01-01T00:00:00Z","name_a2s":"Uncletopia | Montr√©al | 4 | No Payload","protocol":17,"map":"koth_cascade","folder":"tf","game":"Team Fortress","app_id":440,"player_count":0,"max_players":24,"Bots":0,"server_type":"Dedicated","server_os":"Linux","password":true,"vac":true,"version":"7723704","steam_id":85568392924500090,"keywords":["cp","nocrits","nodmgspread","uncletopia"],"game_id":440,"stv_port":27046,"stv_name":"Uncletopia | Montr√©al | 4 | No Payload | STV","players":null},{"server_id":13,"name":"Uncletopia | New York City | 1 | All Maps","name_short":"nyc-1","host":"nyc-1.us.uncletopia.com","port":27015,"enabled":true,"region":"us-east","cc":"us","latitude":40.73061,"longitude":-73.93524,"reserved":0,"last_update":"0001-01-01T00:00:00Z","name_a2s":"Uncletopia | New York City | 1 | All Maps","protocol":17,"map":"cp_mountainlab","folder":"tf","game":"Team Fortress","app_id":440,"player_count":0,"max_players":24,"Bots":0,"server_type":"Dedicated","server_os":"Linux","password":true,"vac":true,"version":"7723704","steam_id":85568392924469993,"keywords":["cp","nocrits","nodmgspread","uncletopia"],"game_id":440,"stv_port":27016,"stv_name":"Uncletopia | New York City | 1 | All Maps | STV","players":null},{"server_id":14,"name":"Uncletopia | New York City | 2 | All Maps","name_short":"nyc-2","host":"nyc-1.us.uncletopia.com","port":27025,"enabled":true,"region":"us-east","cc":"us","latitude":40.73061,"longitude":-73.93524,"reserved":0,"last_update":"0001-01-01T00:00:00Z","name_a2s":"Uncletopia | New York City | 2 | All Maps","protocol":17,"map":"pl_pier","folder":"tf","game":"Team Fortress","app_id":440,"player_count":0,"max_players":24,"Bots":0,"server_type":"Dedicated","server_os":"Linux","password":true,"vac":true,"version":"7723704","steam_id":85568392924469994,"keywords":["nocrits","nodmgspread","payload","uncletopia"],"game_id":440,"stv_port":27026,"stv_name":"Uncletopia | New York City | 2 | All Maps | STV","players":null},{"server_id":15,"name":"Uncletopia | New York City | 3 | Stopwatch Beta","name_short":"nyc-3","host":"nyc-1.us.uncletopia.com","port":27035,"enabled":true,"region":"us-east","cc":"us","latitude":40.73061,"longitude":-73.93524,"reserved":0,"last_update":"0001-01-01T00:00:00Z","name_a2s":"Uncletopia | New York City | 3 | Stopwatch Beta","protocol":17,"map":"cp_sunshine","folder":"tf","game":"Team Fortress","app_id":440,"player_count":0,"max_players":24,"Bots":0,"server_type":"Dedicated","server_os":"Linux","password":true,"vac":true,"version":"7723704","steam_id":85568392924742820,"keywords":["cp","nocrits","nodmgspread","uncletopia"],"game_id":440,"stv_port":27036,"stv_name":"Uncletopia | New York City | 3 | Stopwatch Beta | STV","players":null},{"server_id":16,"name":"Uncletopia | New York City | 4 | Community","name_short":"nyc-4","host":"nyc-1.us.uncletopia.com","port":27045,"enabled":true,"region":"us-east","cc":"us","latitude":40.73061,"longitude":-73.93524,"reserved":0,"last_update":"0001-01-01T00:00:00Z","name_a2s":"Uncletopia | New York City | 4 | Community","protocol":17,"map":"pl_frontier_final","folder":"tf","game":"Team Fortress","app_id":440,"player_count":0,"max_players":24,"Bots":0,"server_type":"Dedicated","server_os":"Linux","password":true,"vac":true,"version":"7723704","steam_id":85568392924742821,"keywords":["nocrits","nodmgspread","payload","uncletopia"],"game_id":440,"stv_port":27046,"stv_name":"Uncletopia | New York City | 4 | Community | STV","players":null},{"server_id":142,"name":"Uncletopia | S√£o Paulo | 1 | All Maps","name_short":"sao-1","host":"sao-1.br.uncletopia.com","port":27015,"enabled":true,"region":"sa","cc":"br","latitude":-23.533773,"longitude":-46.62529,"reserved":0,"last_update":"0001-01-01T00:00:00Z","name_a2s":"Uncletopia | S√£o Paulo | 1 | All Maps","protocol":17,"map":"koth_cascade","folder":"tf","game":"Team Fortress","app_id":440,"player_count":0,"max_players":24,"Bots":0,"server_type":"Dedicated","server_os":"Linux","password":true,"vac":true,"version":"7723704","steam_id":85568392924469996,"keywords":["cp","nocrits","nodmgspread","uncletopia"],"game_id":440,"stv_port":27016,"stv_name":"Uncletopia | S√£o Paulo | 1 | All Maps | STV","players":null},{"server_id":143,"name":"Uncletopia | S√£o Paulo | 2 | All Maps","name_short":"sao-2","host":"sao-2.br.uncletopia.com","port":27015,"enabled":true,"region":"sa","cc":"br","latitude":-23.533773,"longitude":-46.62529,"reserved":0,"last_update":"0001-01-01T00:00:00Z","name_a2s":"Uncletopia | S√£o Paulo | 2 | All Maps","protocol":17,"map":"koth_viaduct","folder":"tf","game":"Team Fortress","app_id":440,"player_count":0,"max_players":24,"Bots":0,"server_type":"Dedicated","server_os":"Linux","password":true,"vac":true,"version":"7723704","steam_id":85568392924485349,"keywords":["cp","nocrits","nodmgspread","uncletopia"],"game_id":440,"stv_port":27016,"stv_name":"Uncletopia | S√£o Paulo | 2 | All Maps | STV","players":null},{"server_id":7,"name":"Uncletopia | Seattle | 1 | All Maps","name_short":"sea-1","host":"sea-1.us.uncletopia.com","port":27015,"enabled":true,"region":"us-west","cc":"us","latitude":47.608013,"longitude":-122.33517,"reserved":0,"last_update":"0001-01-01T00:00:00Z","name_a2s":"Uncletopia | Seattle | 1 | All Maps","protocol":17,"map":"ctf_2fort","folder":"tf","game":"Team Fortress","app_id":440,"player_count":24,"max_players":24,"Bots":0,"server_type":"Dedicated","server_os":"Linux","password":true,"vac":true,"version":"7723704","steam_id":85568392924469997,"keywords":["ctf","nocrits","nodmgspread","uncletopia"],"game_id":440,"stv_port":27016,"stv_name":"Uncletopia | Seattle | 1 | All Maps | STV","players":[{"user_id":175,"name":"Elias","steam_id":76561198031295139,"connected_time":2299000000000,"state":"active","ping":51},{"user_id":207,"name":"SesataPomang","steam_id":76561198145133059,"connected_time":124000000000,"state":"active","ping":98},{"user_id":179,"name":"The Gremlin","steam_id":76561198419066993,"connected_time":2105000000000,"state":"active","ping":70},{"user_id":209,"name":"Colton","steam_id":76561199026409205,"connected_time":53000000000,"state":"active","ping":110},{"user_id":205,"name":"Platinum","steam_id":76561198052463484,"connected_time":339000000000,"state":"active","ping":75},{"user_id":197,"name":"pizzachit","steam_id":76561198803053113,"connected_time":682000000000,"state":"active","ping":77},{"user_id":160,"name":"BIG HOG","steam_id":76561198079923652,"connected_time":3719000000000,"state":"active","ping":104},{"user_id":196,"name":"TheBold","steam_id":76561199194787298,"connected_time":797000000000,"state":"active","ping":60},{"user_id":201,"name":"spacetoven","steam_id":76561198115821131,"connected_time":610000000000,"state":"active","ping":125},{"user_id":174,"name":"Sylain","steam_id":76561198043958855,"connected_time":2523000000000,"state":"active","ping":64},{"user_id":186,"name":"juasjuasie","steam_id":76561198135909642,"connected_time":1286000000000,"state":"active","ping":125},{"user_id":195,"name":"The Alien","steam_id":76561198185817713,"connected_time":926000000000,"state":"active","ping":94},{"user_id":203,"name":"Lordus","steam_id":76561198160381729,"connected_time":509000000000,"state":"active","ping":50},{"user_id":132,"name":"squash","steam_id":76561198150281353,"connected_time":4993000000000,"state":"active","ping":55},{"user_id":189,"name":"Just Another Stoned Eevee","steam_id":76561198262852705,"connected_time":1154000000000,"state":"active","ping":85},{"user_id":208,"name":"Hephaestus","steam_id":76561198236179078,"connected_time":123000000000,"state":"active","ping":91},{"user_id":178,"name":"Chicanery","steam_id":76561198977589038,"connected_time":2176000000000,"state":"active","ping":118},{"user_id":165,"name":"Khallaria","steam_id":76561198000706490,"connected_time":3324000000000,"state":"active","ping":63},{"user_id":141,"name":"ermit the claus","steam_id":76561199230929836,"connected_time":4644000000000,"state":"active","ping":118},{"user_id":163,"name":"trackpad gaming | f2p","steam_id":76561198840414371,"connected_time":3343000000000,"state":"active","ping":56},{"user_id":200,"name":"Agent 11","steam_id":76561198007627899,"connected_time":657000000000,"state":"active","ping":80},{"user_id":202,"name":"Ricelover","steam_id":76561198064631164,"connected_time":572000000000,"state":"active","ping":79},{"user_id":116,"name":"resting neutral face","steam_id":76561197999259502,"connected_time":6731000000000,"state":"active","ping":59},{"user_id":180,"name":"I Bodyshot","steam_id":76561198031757460,"connected_time":2056000000000,"state":"active","ping":112}]},{"server_id":119,"name":"Uncletopia | Seattle | 2 | All Maps","name_short":"sea-2","host":"sea-1.us.uncletopia.com","port":27025,"enabled":true,"region":"us-west","cc":"us","latitude":47.608013,"longitude":-122.33517,"reserved":0,"last_update":"0001-01-01T00:00:00Z","name_a2s":"Uncletopia | Seattle | 2 | All Maps","protocol":17,"map":"cp_mountainlab","folder":"tf","game":"Team Fortress","app_id":440,"player_count":0,"max_players":24,"Bots":0,"server_type":"Dedicated","server_os":"Linux","password":true,"vac":true,"version":"7723704","steam_id":85568392924469998,"keywords":["cp","nocrits","nodmgspread","uncletopia"],"game_id":440,"stv_port":27026,"stv_name":"Uncletopia | Seattle | 2 | All Maps | STV","players":null},{"server_id":406,"name":"Uncletopia | Seattle | 3 | Stopwatch Beta","name_short":"sea-3","host":"sea-1.us.uncletopia.com","port":27035,"enabled":true,"region":"us-west","cc":"us","latitude":47.608013,"longitude":-122.33517,"reserved":0,"last_update":"0001-01-01T00:00:00Z","name_a2s":"Uncletopia | Seattle | 3 | Stopwatch Beta","protocol":17,"map":"cp_altitude","folder":"tf","game":"Team Fortress","app_id":440,"player_count":0,"max_players":24,"Bots":0,"server_type":"Dedicated","server_os":"Linux","password":true,"vac":false,"version":"7723704","steam_id":0,"keywords":["cp","nocrits","nodmgspread","uncletopia"],"game_id":440,"stv_port":27036,"stv_name":"Uncletopia | Seattle | 3 | Stopwatch Beta | STV","players":null},{"server_id":17,"name":"Uncletopia | San Francisco | 1 | All Maps","name_short":"sfo-1","host":"sfo-1.us.uncletopia.com","port":27015,"enabled":true,"region":"us-west","cc":"us","latitude":37.77397,"longitude":-122.4313,"reserved":0,"last_update":"0001-01-01T00:00:00Z","name_a2s":"Uncletopia | San Francisco | 1 | All Maps","protocol":17,"map":"pl_swiftwater_final1","folder":"tf","game":"Team Fortress","app_id":440,"player_count":0,"max_players":24,"Bots":0,"server_type":"Dedicated","server_os":"Linux","password":true,"vac":true,"version":"7723704","steam_id":85568392924469999,"keywords":["nocrits","nodmgspread","payload","uncletopia"],"game_id":440,"stv_port":27016,"stv_name":"Uncletopia | San Francisco | 1 | All Maps | STV","players":null},{"server_id":18,"name":"Uncletopia | San Francisco | 2 | All Maps","name_short":"sfo-2","host":"sfo-1.us.uncletopia.com","port":27025,"enabled":true,"region":"us-west","cc":"us","latitude":37.77397,"longitude":-122.4313,"reserved":0,"last_update":"0001-01-01T00:00:00Z","name_a2s":"Uncletopia | San Francisco | 2 | All Maps","protocol":17,"map":"koth_viaduct","folder":"tf","game":"Team Fortress","app_id":440,"player_count":0,"max_players":24,"Bots":0,"server_type":"Dedicated","server_os":"Linux","password":true,"vac":true,"version":"7723704","steam_id":85568392924470000,"keywords":["cp","nocrits","nodmgspread","uncletopia"],"game_id":440,"stv_port":27026,"stv_name":"Uncletopia | San Francisco | 2 | All Maps | STV","players":null},{"server_id":19,"name":"Uncletopia | San Francisco | 3 | Stopwatch Beta","name_short":"sfo-3","host":"sfo-1.us.uncletopia.com","port":27035,"enabled":true,"region":"us-west","cc":"us","latitude":37.77397,"longitude":-122.4313,"reserved":0,"last_update":"0001-01-01T00:00:00Z","name_a2s":"Uncletopia | San Francisco | 3 | Stopwatch Beta","protocol":17,"map":"pl_pier","folder":"tf","game":"Team Fortress","app_id":440,"player_count":0,"max_players":24,"Bots":0,"server_type":"Dedicated","server_os":"Linux","password":true,"vac":true,"version":"7723704","steam_id":85568392924742824,"keywords":["nocrits","nodmgspread","payload","uncletopia"],"game_id":440,"stv_port":27036,"stv_name":"Uncletopia | San Francisco | 3 | Stopwatch Beta | STV","players":null},{"server_id":20,"name":"Uncletopia | San Francisco | 4 | Community","name_short":"sfo-4","host":"sfo-1.us.uncletopia.com","port":27045,"enabled":true,"region":"us-west","cc":"us","latitude":37.77397,"longitude":-122.4313,"reserved":0,"last_update":"0001-01-01T00:00:00Z","name_a2s":"Uncletopia | San Francisco | 4 | Community","protocol":17,"map":"koth_cascade","folder":"tf","game":"Team Fortress","app_id":440,"player_count":0,"max_players":24,"Bots":0,"server_type":"Dedicated","server_os":"Linux","password":true,"vac":true,"version":"7723704","steam_id":85568392924742826,"keywords":["cp","nocrits","nodmgspread","uncletopia"],"game_id":440,"stv_port":27046,"stv_name":"Uncletopia | San Francisco | 4 | Community | STV","players":null},{"server_id":141,"name":"Uncletopia | Sydney | 1 | All Maps","name_short":"syd-1","host":"syd-1.au.uncletopia.com","port":27015,"enabled":true,"region":"au","cc":"au","latitude":-33.865143,"longitude":151.2099,"reserved":0,"last_update":"0001-01-01T00:00:00Z","name_a2s":"Uncletopia | Sydney | 1 | All Maps","protocol":17,"map":"cp_altitude","folder":"tf","game":"Team Fortress","app_id":440,"player_count":0,"max_players":24,"Bots":0,"server_type":"Dedicated","server_os":"Linux","password":true,"vac":true,"version":"7723704","steam_id":85568392924470001,"keywords":["cp","nocrits","nodmgspread","uncletopia"],"game_id":440,"stv_port":27016,"stv_name":"Uncletopia | Sydney | 1 | All Maps | STV","players":null},{"server_id":123,"name":"Uncletopia | Sydney | 2 | All Maps","name_short":"syd-2","host":"syd-1.au.uncletopia.com","port":27025,"enabled":true,"region":"au","cc":"au","latitude":-33.865143,"longitude":151.2099,"reserved":0,"last_update":"0001-01-01T00:00:00Z","name_a2s":"Uncletopia | Sydney | 2 | All Maps","protocol":17,"map":"koth_king","folder":"tf","game":"Team Fortress","app_id":440,"player_count":0,"max_players":24,"Bots":0,"server_type":"Dedicated","server_os":"Linux","password":true,"vac":true,"version":"7723704","steam_id":85568392924470002,"keywords":["cp","nocrits","nodmgspread","uncletopia"],"game_id":440,"stv_port":27026,"stv_name":"Uncletopia | Sydney | 2 | All Maps | STV","players":null},{"server_id":395,"name":"Uncletopia | Sydney | 3 | All Maps","name_short":"syd-3","host":"syd-1.au.uncletopia.com","port":27035,"enabled":true,"region":"au","cc":"au","latitude":-33.865143,"longitude":151.2099,"reserved":0,"last_update":"0001-01-01T00:00:00Z","name_a2s":"Uncletopia | Sydney | 3 | All Maps","protocol":17,"map":"pl_borneo","folder":"tf","game":"Team Fortress","app_id":440,"player_count":0,"max_players":24,"Bots":0,"server_type":"Dedicated","server_os":"Linux","password":true,"vac":true,"version":"7723704","steam_id":85568392925194467,"keywords":["nocrits","nodmgspread","payload","uncletopia"],"game_id":440,"stv_port":27036,"stv_name":"Uncletopia | Sydney | 3 | All Maps | STV","players":null},{"server_id":396,"name":"Uncletopia | Sydney | 4 | All Maps","name_short":"syd-4","host":"syd-1.au.uncletopia.com","port":27045,"enabled":true,"region":"au","cc":"au","latitude":-33.865143,"longitude":151.2099,"reserved":0,"last_update":"0001-01-01T00:00:00Z","name_a2s":"Uncletopia | Sydney | 4 | All Maps","protocol":17,"map":"koth_viaduct","folder":"tf","game":"Team Fortress","app_id":440,"player_count":0,"max_players":24,"Bots":0,"server_type":"Dedicated","server_os":"Linux","password":true,"vac":true,"version":"7723704","steam_id":85568392925397958,"keywords":["cp","nocrits","nodmgspread","uncletopia"],"game_id":440,"stv_port":27046,"stv_name":"Uncletopia | Sydney | 4 | All Maps | STV","players":null},{"server_id":58,"name":"Uncletopia | Sydney | 5 | Stopwatch Beta","name_short":"syd-5","host":"syd-1.au.uncletopia.com","port":27055,"enabled":true,"region":"au","cc":"au","latitude":-33.865143,"longitude":151.2099,"reserved":0,"last_update":"0001-01-01T00:00:00Z","name_a2s":"Uncletopia | Sydney | 5 | Stopwatch Beta","protocol":17,"map":"cp_altitude","folder":"tf","game":"Team Fortress","app_id":440,"player_count":0,"max_players":24,"Bots":0,"server_type":"Dedicated","server_os":"Linux","password":true,"vac":true,"version":"7723704","steam_id":85568392925397959,"keywords":["cp","nocrits","nodmgspread","uncletopia"],"game_id":440,"stv_port":27056,"stv_name":"Uncletopia | Sydney | 5 | Stopwatch Beta | STV","players":null},{"server_id":59,"name":"Uncletopia | Sydney | 6 | Community","name_short":"syd-6","host":"syd-1.au.uncletopia.com","port":27065,"enabled":true,"region":"au","cc":"au","latitude":-33.865143,"longitude":151.2099,"reserved":0,"last_update":"0001-01-01T00:00:00Z","name_a2s":"Uncletopia | Sydney | 6 | Community","protocol":17,"map":"workshop/koth_ramjam_v2_b2.ugc2865676487","folder":"tf","game":"Team Fortress","app_id":440,"player_count":0,"max_players":24,"Bots":0,"server_type":"Dedicated","server_os":"Linux","password":true,"vac":true,"version":"7723704","steam_id":85568392925397960,"keywords":["cp","nocrits","nodmgspread","uncletopia"],"game_id":440,"stv_port":27066,"stv_name":"Uncletopia | Sydney | 6 | Community | STV","players":null},{"server_id":49,"name":"Uncletopia | Warsaw | 1 | All Maps","name_short":"waw-1","host":"waw-1.pl.uncletopia.com","port":27015,"enabled":true,"region":"eu","cc":"pl","latitude":52.2297,"longitude":21.017532,"reserved":0,"last_update":"0001-01-01T00:00:00Z","name_a2s":"Uncletopia | Warsaw | 1 | All Maps","protocol":17,"map":"koth_cascade","folder":"tf","game":"Team Fortress","app_id":440,"player_count":0,"max_players":24,"Bots":0,"server_type":"Dedicated","server_os":"Linux","password":true,"vac":true,"version":"7723704","steam_id":85568392925397850,"keywords":["cp","nocrits","nodmgspread","uncletopia"],"game_id":440,"stv_port":27016,"stv_name":"Uncletopia | Warsaw | 1 | All Maps | STV","players":null},{"server_id":50,"name":"Uncletopia | Warsaw | 2 | All Maps","name_short":"waw-2","host":"waw-1.pl.uncletopia.com","port":27025,"enabled":true,"region":"eu","cc":"pl","latitude":52.2297,"longitude":21.017532,"reserved":0,"last_update":"0001-01-01T00:00:00Z","name_a2s":"Uncletopia | Warsaw | 2 | All Maps","protocol":17,"map":"cp_mountainlab","folder":"tf","game":"Team Fortress","app_id":440,"player_count":0,"max_players":24,"Bots":0,"server_type":"Dedicated","server_os":"Linux","password":true,"vac":true,"version":"7723704","steam_id":85568392925397851,"keywords":["cp","nocrits","nodmgspread","uncletopia"],"game_id":440,"stv_port":27026,"stv_name":"Uncletopia | Warsaw | 2 | All Maps | STV","players":null},{"server_id":51,"name":"Uncletopia | Warsaw | 3 | All Maps","name_short":"waw-3","host":"waw-1.pl.uncletopia.com","port":27035,"enabled":true,"region":"eu","cc":"pl","latitude":52.2297,"longitude":21.017532,"reserved":0,"last_update":"0001-01-01T00:00:00Z","name_a2s":"Uncletopia | Warsaw | 3 | All Maps","protocol":17,"map":"cp_sunshine","folder":"tf","game":"Team Fortress","app_id":440,"player_count":0,"max_players":24,"Bots":0,"server_type":"Dedicated","server_os":"Linux","password":true,"vac":true,"version":"7723704","steam_id":85568392925397852,"keywords":["cp","nocrits","nodmgspread","uncletopia"],"game_id":440,"stv_port":27036,"stv_name":"Uncletopia | Warsaw | 3 | All Maps | STV","players":null},{"server_id":52,"name":"Uncletopia | Warsaw | 4 | All Maps","name_short":"waw-4","host":"waw-1.pl.uncletopia.com","port":27045,"enabled":true,"region":"eu","cc":"pl","latitude":52.2297,"longitude":21.017532,"reserved":0,"last_update":"0001-01-01T00:00:00Z","name_a2s":"Uncletopia | Warsaw | 4 | All Maps","protocol":17,"map":"pl_pier","folder":"tf","game":"Team Fortress","app_id":440,"player_count":0,"max_players":24,"Bots":0,"server_type":"Dedicated","server_os":"Linux","password":true,"vac":true,"version":"7723704","steam_id":85568392925397853,"keywords":["nocrits","nodmgspread","payload","uncletopia"],"game_id":440,"stv_port":27046,"stv_name":"Uncletopia | Warsaw | 4 | All Maps | STV","players":null},{"server_id":53,"name":"Uncletopia | Warsaw | 5 | Stopwatch Beta","name_short":"waw-5","host":"waw-1.pl.uncletopia.com","port":27055,"enabled":true,"region":"eu","cc":"pl","latitude":52.2297,"longitude":21.017532,"reserved":0,"last_update":"0001-01-01T00:00:00Z","name_a2s":"Uncletopia | Warsaw | 5 | Stopwatch Beta","protocol":17,"map":"cp_sunshine","folder":"tf","game":"Team Fortress","app_id":440,"player_count":0,"max_players":24,"Bots":0,"server_type":"Dedicated","server_os":"Linux","password":true,"vac":true,"version":"7723704","steam_id":85568392925397854,"keywords":["cp","nocrits","nodmgspread","uncletopia"],"game_id":440,"stv_port":27056,"stv_name":"Uncletopia | Warsaw | 5 | Stopwatch Beta | STV","players":null},{"server_id":54,"name":"Uncletopia | Warsaw | 6 | Community","name_short":"waw-6","host":"waw-1.pl.uncletopia.com","port":27065,"enabled":true,"region":"eu","cc":"pl","latitude":52.2297,"longitude":21.017532,"reserved":0,"last_update":"0001-01-01T00:00:00Z","name_a2s":"Uncletopia | Warsaw | 6 | Community","protocol":17,"map":"workshop/koth_slaughter_rc1.ugc1712845210","folder":"tf","game":"Team Fortress","app_id":440,"player_count":0,"max_players":24,"Bots":0,"server_type":"Dedicated","server_os":"Linux","password":true,"vac":true,"version":"7723704","steam_id":85568392925397856,"keywords":["cp","nocrits","nodmgspread","uncletopia"],"game_id":440,"stv_port":27066,"stv_name":"Uncletopia | Warsaw | 6 | Community | STV","players":null}]}